MCU_timestamp,Navigation_System,Manual_Control,Guidance_Heading,Manual_Ctrl_Rudder,Rudder_Desired_Angle,Rudder_Feedback,Manual_Ctrl_Sail,Sail_Desired_Pos,Sail_Feedback,Rate,Heading,Pitch,Roll,Latitude,Longitude,COG,SOG,Wind_Speed,Wind_Angle,Point_Start_Lat,Point_Start_Lon,Point_End_Lat,Point_End_Lon
1386888077,1,0,485.9,0,35,4,0,0,0,-0.0292,271.3569,6.8213,0.4212,54.883610,9.783915,108.3,5.845,1.85,335.95,54.883610,9.783946,0.000000,0.000000
1386888077,1,0,485.9,0,35,8,0,45,25,-0.0292,262.0236,6.8213,0.4212,54.883606,9.783884,108.3,5.845,1.85,335.95,54.883610,9.783946,0.000000,0.000000
1386888077,1,0,485.9,0,35,12,0,154,50,-0.0292,252.6902,6.8213,0.4212,54.883602,9.783854,108.3,5.845,1.85,335.95,54.883610,9.783946,0.000000,0.000000
1386888077,1,0,485.9,0,35,16,0,292,75,-0.0292,243.3569,6.8213,0.4212,54.883595,9.783826,108.3,5.845,1.85,335.95,54.883610,9.783946,0.000000,0.000000
1386888078,1,0,485.9,0,35,20,0,440,100,-0.0292,234.0236,6.8213,0.4212,54.883583,9.783801,108.3,5.845,1.85,335.95,54.883610,9.783946,0.000000,0.000000
1386888078,1,0,485.9,0,35,24,0,588,125,-0.0292,224.6902,6.8213,0.4212,54.883572,9.783778,108.3,5.845,1.85,335.95,54.883610,9.783946,0.000000,0.000000
1386888078,1,0,485.9,0,35,28,0,732,150,-0.0292,215.3569,6.8213,0.4212,54.883556,9.783760,108.3,5.845,1.85,335.95,54.883610,9.783946,0.000000,0.000000
1386888078,1,0,485.9,0,35,32,0,867,175,-0.0292,206.0236,6.8213,0.4212,54.883541,9.783746,108.3,5.845,1.85,335.95,54.883610,9.783946,0.000000,0.000000
1386888079,1,0,485.9,0,35,36,0,870,200,-0.0292,196.6903,6.8213,0.4212,54.883522,9.783737,108.3,5.845,1.85,335.95,54.883610,9.783946,0.000000,0.000000
1386888079,1,0,485.9,0,35,32,0,713,225,-0.0292,187.3569,6.8213,0.4212,54.883503,9.783733,108.3,5.845,1.85,335.95,54.883610,9.783946,0.000000,0.000000
1386888079,1,0,485.9,0,35,36,0,713,250,-0.0292,178.0236,6.8213,0.4212,54.883488,9.783734,108.3,5.845,1.85,335.95,54.883610,9.783946,0.000000,0.000000
1386888079,1,0,485.9,0,35,32,0,713,275,-0.0292,168.6903,6.8213,0.4212,54.883469,9.783740,108.3,5.845,1.85,335.95,54.883610,9.783946,0.000000,0.000000
1386888080,1,0,485.9,0,35,36,0,713,300,-0.0292,159.3569,6.8213,0.4212,54.883450,9.783751,108.3,5.845,1.85,335.95,54.883610,9.783946,0.000000,0.000000
1386888080,1,0,485.9,0,33,32,0,0,275,-0.0292,150.5569,6.8213,0.4212,54.883434,9.783767,108.3,5.845,1.85,335.95,54.883610,9.783946,0.000000,0.000000
1386888080,1,0,485.9,0,25,28,0,0,250,-0.0292,143.8903,6.8213,0.4212,54.883423,9.783785,108.3,5.845,1.85,335.95,54.883610,9.783946,0.000000,0.000000
1386888080,1,0,485.9,0,18,24,0,713,275,-0.0292,139.0903,6.8213,0.4212,54.883408,9.783806,108.3,5.845,1.85,335.95,54.883610,9.783946,0.000000,0.000000
1386888081,1,0,485.9,0,13,20,0,713,300,-0.0292,135.6236,6.8213,0.4212,54.883396,9.783828,108.3,5.845,1.85,335.95,54.883610,9.783946,0.000000,0.000000
1386888081,1,0,485.9,0,10,16,0,713,325,-0.0292,132.9569,6.8213,0.4212,54.883385,9.783851,108.3,5.845,1.85,335.95,54.883610,9.783946,0.000000,0.000000
1386888081,1,0,485.9,0,7,12,0,713,350,-0.0292,131.0903,6.8213,0.4212,54.883373,9.783874,108.3,5.845,1.85,335.95,54.883610,9.783946,0.000000,0.000000
1386888081,1,0,485.9,0,5,8,0,713,375,-0.0292,129.7569,6.8213,0.4212,54.883362,9.783897,108.3,5.845,1.85,335.95,54.883610,9.783946,0.000000,0.000000
1386888082,1,0,485.9,0,4,4,0,0,350,-0.0292,128.6903,6.8213,0.4212,54.883354,9.783921,108.3,5.845,1.85,335.95,54.883610,9.783946,0.000000,0.000000
1386888082,1,0,485.9,0,3,0,0,0,325,-0.0292,127.8903,6.8213,0.4212,54.883343,9.783946,108.3,5.845,1.85,335.95,54.883610,9.783946,0.000000,0.000000
1386888082,1,0,485.9,0,2,4,0,0,300,-0.0292,127.3569,6.8213,0.4212,54.883331,9.783971,108.3,5.845,1.85,335.95,54.883610,9.783946,0.000000,0.000000
1386888082,1,0,485.9,0,1,0,0,0,275,-0.0292,127.0903,6.8213,0.4212,54.883320,9.783997,108.3,5.845,1.85,335.95,54.883610,9.783946,0.000000,0.000000
1386888083,1,0,485.9,0,1,4,0,0,250,-0.0292,126.8236,6.8213,0.4212,54.883308,9.784021,108.3,5.845,1.85,335.95,54.883610,9.783946,0.000000,0.000000
1386888083,1,0,485.9,0,1,0,0,0,225,-0.0292,126.5569,6.8213,0.4212,54.883301,9.784046,108.3,5.845,1.85,335.95,54.883610,9.783946,0.000000,0.000000
1386888083,1,0,485.9,0,1,4,0,0,200,-0.0292,126.2903,6.8213,0.4212,54.883289,9.784072,108.3,5.845,1.85,335.95,54.883610,9.783946,0.000000,0.000000
1386888083,1,0,485.9,0,0,0,0,0,175,-0.0292,126.2903,6.8213,0.4212,54.883278,9.784097,108.3,5.845,1.85,335.95,54.883610,9.783946,0.000000,0.000000
1386888084,1,0,485.9,0,0,4,0,0,150,-0.0292,126.2903,6.8213,0.4212,54.883266,9.784122,108.3,5.845,1.85,335.95,54.883610,9.783946,0.000000,0.000000
1386888084,1,0,485.9,0,0,0,0,0,125,-0.0292,126.2903,6.8213,0.4212,54.883255,9.784147,108.3,5.845,1.85,335.95,54.883610,9.783946,0.000000,0.000000
1386888084,1,0,485.9,0,0,4,0,0,100,-0.0292,126.2903,6.8213,0.4212,54.883244,9.784172,108.3,5.845,1.85,335.95,54.883610,9.783946,0.000000,0.000000
1386888084,1,0,485.9,0,0,0,0,0,75,-0.0292,126.2903,6.8213,0.4212,54.883232,9.784198,108.3,5.845,1.85,335.95,54.883610,9.783946,0.000000,0.000000
