MCU_timestamp,Navigation_System,Manual_Control,Guidance_Heading,Manual_Ctrl_Rudder,Rudder_Desired_Angle,Rudder_Feedback,Manual_Ctrl_Sail,Sail_Desired_Pos,Sail_Feedback,Rate,Heading,Pitch,Roll,Latitude,Longitude,COG,SOG,Wind_Speed,Wind_Angle,Point_Start_Lat,Point_Start_Lon,Point_End_Lat,Point_End_Lon
1386871423,0,0,0.0,0,0,-4,0,0,0,-0.0292,640.4252,6.8213,0.4212,54.888996,9.803735,108.3,5.845,1.85,335.95,0.000000,0.000000,0.000000,0.000000
1386871424,0,0,0.0,0,0,-4,0,0,0,-0.0292,640.4252,6.8213,0.4212,54.888996,9.803735,108.3,5.845,1.85,335.95,0.000000,0.000000,0.000000,0.000000
1386871424,0,0,0.0,0,0,-4,0,0,0,-0.0292,640.4252,6.8213,0.4212,54.888996,9.803735,108.3,5.845,1.85,335.95,0.000000,0.000000,0.000000,0.000000
1386871424,0,0,0.0,0,0,-4,0,0,0,-0.0292,640.4252,6.8213,0.4212,54.888996,9.803735,108.3,5.845,1.85,335.95,0.000000,0.000000,0.000000,0.000000
1386871424,0,0,0.0,0,0,-4,0,0,0,-0.0292,640.4252,6.8213,0.4212,54.888996,9.803735,108.3,5.845,1.85,335.95,0.000000,0.000000,0.000000,0.000000
1386871425,0,0,0.0,0,0,-4,0,0,0,-0.0292,640.4252,6.8213,0.4212,54.888996,9.803735,108.3,5.845,1.85,335.95,0.000000,0.000000,0.000000,0.000000
1386871425,0,0,0.0,0,0,-4,0,0,0,-0.0292,640.4252,6.8213,0.4212,54.888996,9.803735,108.3,5.845,1.85,335.95,0.000000,0.000000,0.000000,0.000000
1386871425,0,0,0.0,0,0,-4,0,0,0,-0.0292,640.4252,6.8213,0.4212,54.888996,9.803735,108.3,5.845,1.85,335.95,0.000000,0.000000,0.000000,0.000000
1386871425,0,0,0.0,0,0,-4,0,0,0,-0.0292,640.4252,6.8213,0.4212,54.888996,9.803735,108.3,5.845,1.85,335.95,0.000000,0.000000,0.000000,0.000000
1386871426,0,0,0.0,0,0,-4,0,0,0,-0.0292,640.4252,6.8213,0.4212,54.888996,9.803735,108.3,5.845,1.85,335.95,0.000000,0.000000,0.000000,0.000000
1386871426,0,0,0.0,0,0,-4,0,0,0,-0.0292,640.4252,6.8213,0.4212,54.888996,9.803735,108.3,5.845,1.85,335.95,0.000000,0.000000,0.000000,0.000000
1386871426,0,0,0.0,0,0,-4,0,0,0,-0.0292,640.4252,6.8213,0.4212,54.888996,9.803735,108.3,5.845,1.85,335.95,0.000000,0.000000,0.000000,0.000000
1386871426,0,0,0.0,0,0,-4,0,0,0,-0.0292,640.4252,6.8213,0.4212,54.888996,9.803735,108.3,5.845,1.85,335.95,0.000000,0.000000,0.000000,0.000000
1386871427,0,0,0.0,0,0,-4,0,0,0,-0.0292,640.4252,6.8213,0.4212,54.888996,9.803735,108.3,5.845,1.85,335.95,0.000000,0.000000,0.000000,0.000000
1386871427,0,0,0.0,0,0,-4,0,0,0,-0.0292,640.4252,6.8213,0.4212,54.888996,9.803735,108.3,5.845,1.85,335.95,0.000000,0.000000,0.000000,0.000000
1386871427,0,0,0.0,0,0,-4,0,0,0,-0.0292,640.4252,6.8213,0.4212,54.888996,9.803735,108.3,5.845,1.85,335.95,0.000000,0.000000,0.000000,0.000000
1386871427,0,0,0.0,0,0,-4,0,0,0,-0.0292,640.4252,6.8213,0.4212,54.888996,9.803735,108.3,5.845,1.85,335.95,0.000000,0.000000,0.000000,0.000000
1386871428,0,0,0.0,0,0,-4,0,0,0,-0.0292,640.4252,6.8213,0.4212,54.888996,9.803735,108.3,5.845,1.85,335.95,0.000000,0.000000,0.000000,0.000000
1386871428,0,0,0.0,0,0,-4,0,0,0,-0.0292,640.4252,6.8213,0.4212,54.888996,9.803735,108.3,5.845,1.85,335.95,0.000000,0.000000,0.000000,0.000000
1386871428,0,0,0.0,0,0,-4,0,0,0,-0.0292,640.4252,6.8213,0.4212,54.888996,9.803735,108.3,5.845,1.85,335.95,0.000000,0.000000,0.000000,0.000000
1386871428,0,0,0.0,0,0,-4,0,0,0,-0.0292,640.4252,6.8213,0.4212,54.888996,9.803735,108.3,5.845,1.85,335.95,0.000000,0.000000,0.000000,0.000000
1386871429,0,0,0.0,0,0,-4,0,0,0,-0.0292,640.4252,6.8213,0.4212,54.888996,9.803735,108.3,5.845,1.85,335.95,0.000000,0.000000,0.000000,0.000000
1386871429,0,0,0.0,0,0,-4,0,0,0,-0.0292,640.4252,6.8213,0.4212,54.888996,9.803735,108.3,5.845,1.85,335.95,0.000000,0.000000,0.000000,0.000000
1386871429,0,0,0.0,0,0,-4,0,0,0,-0.0292,640.4252,6.8213,0.4212,54.888996,9.803735,108.3,5.845,1.85,335.95,0.000000,0.000000,0.000000,0.000000
1386871429,0,0,0.0,0,0,-4,0,0,0,-0.0292,640.4252,6.8213,0.4212,54.888996,9.803735,108.3,5.845,1.85,335.95,0.000000,0.000000,0.000000,0.000000
1386871430,0,0,0.0,0,0,-4,0,0,0,-0.0292,640.4252,6.8213,0.4212,54.888996,9.803735,108.3,5.845,1.85,335.95,0.000000,0.000000,0.000000,0.000000
1386871430,0,0,0.0,0,0,-4,0,0,0,-0.0292,640.4252,6.8213,0.4212,54.888996,9.803735,108.3,5.845,1.85,335.95,0.000000,0.000000,0.000000,0.000000
1386871430,0,0,0.0,0,0,-4,0,0,0,-0.0292,640.4252,6.8213,0.4212,54.888996,9.803735,108.3,5.845,1.85,335.95,0.000000,0.000000,0.000000,0.000000
1386871430,0,0,0.0,0,0,-4,0,0,0,-0.0292,640.4252,6.8213,0.4212,54.888996,9.803735,108.3,5.845,1.85,335.95,0.000000,0.000000,0.000000,0.000000
1386871431,0,0,0.0,0,0,-4,0,0,0,-0.0292,640.4252,6.8213,0.4212,54.888996,9.803735,108.3,5.845,1.85,335.95,0.000000,0.000000,0.000000,0.000000
1386871431,0,0,0.0,0,0,-4,0,0,0,-0.0292,640.4252,6.8213,0.4212,54.888996,9.803735,108.3,5.845,1.85,335.95,0.000000,0.000000,0.000000,0.000000
1386871431,0,0,0.0,0,0,-4,0,0,0,-0.0292,640.4252,6.8213,0.4212,54.888996,9.803735,108.3,5.845,1.85,335.95,0.000000,0.000000,0.000000,0.000000
1386871431,0,0,0.0,0,0,-4,0,0,0,-0.0292,640.4252,6.8213,0.4212,54.888996,9.803735,108.3,5.845,1.85,335.95,0.000000,0.000000,0.000000,0.000000
1386871432,0,0,0.0,0,0,-4,0,0,0,-0.0292,640.4252,6.8213,0.4212,54.888996,9.803735,108.3,5.845,1.85,335.95,0.000000,0.000000,0.000000,0.000000
1386871432,0,0,0.0,0,0,-4,0,0,0,-0.0292,640.4252,6.8213,0.4212,54.888996,9.803735,108.3,5.845,1.85,335.95,0.000000,0.000000,0.000000,0.000000
1386871432,0,0,0.0,0,0,-4,0,0,0,-0.0292,640.4252,6.8213,0.4212,54.888996,9.803735,108.3,5.845,1.85,335.95,0.000000,0.000000,0.000000,0.000000
1386871432,0,0,0.0,0,0,-4,0,0,0,-0.0292,640.4252,6.8213,0.4212,54.888996,9.803735,108.3,5.845,1.85,335.95,0.000000,0.000000,0.000000,0.000000
1386871433,4,0,0.0,0,0,-4,0,0,0,-0.0292,640.4252,6.8213,0.4212,54.888996,9.803735,108.3,5.845,1.85,335.95,0.000000,0.000000,0.000000,0.000000
1386871433,1,0,485.9,0,35,0,0,0,50,-0.0292,631.0919,6.8213,0.4212,54.888996,9.803703,108.3,5.845,1.85,335.95,54.888996,9.803735,54.895069,9.793790
1386871433,1,0,485.9,0,35,4,0,27,25,-0.0292,621.7585,6.8213,0.4212,54.888992,9.803672,108.3,5.845,1.85,335.95,54.888996,9.803735,54.895069,9.793790
1386871433,1,0,485.9,0,35,8,0,90,50,-0.0292,612.4252,6.8213,0.4212,54.888988,9.803642,108.3,5.845,1.85,335.95,54.888996,9.803735,54.895069,9.793790
1386871434,1,0,485.9,0,35,12,0,170,75,-0.0292,603.0919,6.8213,0.4212,54.888981,9.803615,108.3,5.845,1.85,335.95,54.888996,9.803735,54.895069,9.793790
1386871434,1,0,485.9,0,35,16,0,255,100,-0.0292,593.7586,6.8213,0.4212,54.888969,9.803589,108.3,5.845,1.85,335.95,54.888996,9.803735,54.895069,9.793790
1386871434,1,0,485.9,0,35,20,0,340,125,-0.0292,584.4253,6.8213,0.4212,54.888958,9.803567,108.3,5.845,1.85,335.95,54.888996,9.803735,54.895069,9.793790
1386871434,1,0,485.9,0,35,24,0,423,150,-0.0292,575.0920,6.8213,0.4212,54.888943,9.803549,108.3,5.845,1.85,335.95,54.888996,9.803735,54.895069,9.793790
1386871435,1,0,485.9,0,35,28,0,500,175,-0.0292,565.7587,6.8213,0.4212,54.888927,9.803535,108.3,5.845,1.85,335.95,54.888996,9.803735,54.895069,9.793790
1386871435,1,0,485.9,0,35,32,0,571,200,-0.0292,556.4254,6.8213,0.4212,54.888908,9.803527,108.3,5.845,1.85,335.95,54.888996,9.803735,54.895069,9.793790
1386871435,1,0,485.9,0,35,36,0,409,225,-0.0292,547.0920,6.8213,0.4212,54.888889,9.803523,108.3,5.845,1.85,335.95,54.888996,9.803735,54.895069,9.793790
1386871435,1,0,485.9,0,35,32,0,409,250,-0.0292,537.7587,6.8213,0.4212,54.888874,9.803524,108.3,5.845,1.85,335.95,54.888996,9.803735,54.895069,9.793790
1386871436,1,0,485.9,0,35,36,0,409,275,-0.0292,528.4254,6.8213,0.4212,54.888855,9.803530,108.3,5.845,1.85,335.95,54.888996,9.803735,54.895069,9.793790
1386871436,1,0,485.9,0,35,32,0,409,300,-0.0292,519.0921,6.8213,0.4212,54.888836,9.803540,108.3,5.845,1.85,335.95,54.888996,9.803735,54.895069,9.793790
1386871436,1,0,485.9,0,33,36,0,0,275,-0.0292,510.2921,6.8213,0.4212,54.888821,9.803555,108.3,5.845,1.85,335.95,54.888996,9.803735,54.895069,9.793790
1386871437,1,0,485.9,0,24,32,0,0,250,-0.0292,503.8921,6.8213,0.4212,54.888809,9.803575,108.3,5.845,1.85,335.95,54.888996,9.803735,54.895069,9.793790
1386871437,1,0,485.9,0,18,28,0,409,275,-0.0292,499.0921,6.8213,0.4212,54.888794,9.803595,108.3,5.845,1.85,335.95,54.888996,9.803735,54.895069,9.793790
1386871437,1,0,485.9,0,13,24,0,409,300,-0.0292,495.6255,6.8213,0.4212,54.888783,9.803617,108.3,5.845,1.85,335.95,54.888996,9.803735,54.895069,9.793790
1386871437,1,0,485.9,0,10,20,0,409,325,-0.0292,492.9588,6.8213,0.4212,54.888771,9.803639,108.3,5.845,1.85,335.95,54.888996,9.803735,54.895069,9.793790
1386871438,1,0,485.9,0,7,16,0,409,350,-0.0292,491.0921,6.8213,0.4212,54.888760,9.803663,108.3,5.845,1.85,335.95,54.888996,9.803735,54.895069,9.793790
1386871438,1,0,485.9,0,5,12,0,409,375,-0.0292,489.7588,6.8213,0.4212,54.888748,9.803687,108.3,5.845,1.85,335.95,54.888996,9.803735,54.895069,9.793790
1386871438,1,0,485.9,0,4,8,0,0,350,-0.0292,488.6921,6.8213,0.4212,54.888733,9.803712,108.3,5.845,1.85,335.95,54.888996,9.803735,54.895069,9.793790
1386871438,1,0,485.9,0,3,4,0,0,325,-0.0292,487.8921,6.8213,0.4212,54.888721,9.803737,108.3,5.845,1.85,335.95,54.888996,9.803735,54.895069,9.793790
1386871439,1,0,485.9,0,2,0,0,0,300,-0.0292,487.3588,6.8213,0.4212,54.888714,9.803761,108.3,5.845,1.85,335.95,54.888996,9.803735,54.895069,9.793790
1386871439,1,0,485.9,0,1,4,0,0,275,-0.0292,487.0921,6.8213,0.4212,54.888702,9.803786,108.3,5.845,1.85,335.95,54.888996,9.803735,54.895069,9.793790
1386871439,1,0,485.9,0,1,0,0,0,250,-0.0292,486.8255,6.8213,0.4212,54.888691,9.803811,108.3,5.845,1.85,335.95,54.888996,9.803735,54.895069,9.793790
1386871439,1,0,485.9,0,1,4,0,0,225,-0.0292,486.5588,6.8213,0.4212,54.888680,9.803837,108.3,5.845,1.85,335.95,54.888996,9.803735,54.895069,9.793790
1386871440,1,0,485.9,0,1,0,0,0,200,-0.0292,486.2921,6.8213,0.4212,54.888668,9.803862,108.3,5.845,1.85,335.95,54.888996,9.803735,54.895069,9.793790
1386871440,1,0,485.9,0,0,4,0,0,175,-0.0292,486.2921,6.8213,0.4212,54.888657,9.803887,108.3,5.845,1.85,335.95,54.888996,9.803735,54.895069,9.793790
1386871440,1,0,485.9,0,0,0,0,0,150,-0.0292,486.2921,6.8213,0.4212,54.888645,9.803912,108.3,5.845,1.85,335.95,54.888996,9.803735,54.895069,9.793790
1386871440,1,0,485.9,0,0,4,0,0,125,-0.0292,486.2921,6.8213,0.4212,54.888638,9.803937,108.3,5.845,1.85,335.95,54.888996,9.803735,54.895069,9.793790
1386871441,1,0,485.9,0,0,0,0,0,100,-0.0292,486.2921,6.8213,0.4212,54.888626,9.803963,108.3,5.845,1.85,335.95,54.888996,9.803735,54.895069,9.793790
1386871441,1,0,485.9,0,0,4,0,0,75,-0.0292,486.2921,6.8213,0.4212,54.888615,9.803988,108.3,5.845,1.85,335.95,54.888996,9.803735,54.895069,9.793790
1386871441,1,0,485.9,0,0,0,0,0,50,-0.0292,486.2921,6.8213,0.4212,54.888603,9.804013,108.3,5.845,1.85,335.95,54.888996,9.803735,54.895069,9.793790
1386871441,1,0,485.9,0,0,4,0,0,25,-0.0292,486.2921,6.8213,0.4212,54.888592,9.804038,108.3,5.845,1.85,335.95,54.888996,9.803735,54.895069,9.793790
1386871442,1,0,485.9,0,0,0,0,0,0,-0.0292,486.2921,6.8213,0.4212,54.888580,9.804063,108.3,5.845,1.85,335.95,54.888996,9.803735,54.895069,9.793790
1386871442,1,0,485.9,0,0,4,0,0,25,-0.0292,486.2921,6.8213,0.4212,54.888569,9.804089,108.3,5.845,1.85,335.95,54.888996,9.803735,54.895069,9.793790
1386871442,1,0,545.9,0,-35,0,0,0,0,-0.0292,495.6255,6.8213,0.4212,54.888557,9.804111,108.3,5.845,1.85,335.95,54.888996,9.803735,54.895069,9.793790
1386871442,1,0,545.9,0,-35,-4,0,0,25,-0.0292,504.9588,6.8213,0.4212,54.888542,9.804129,108.3,5.845,1.85,335.95,54.888996,9.803735,54.895069,9.793790
1386871443,1,0,545.9,0,-35,-8,0,0,0,-0.0292,514.2922,6.8213,0.4212,54.888527,9.804142,108.3,5.845,1.85,335.95,54.888996,9.803735,54.895069,9.793790
1386871443,1,0,545.9,0,-32,-12,0,0,25,-0.0292,522.8255,6.8213,0.4212,54.888508,9.804152,108.3,5.845,1.85,335.95,54.888996,9.803735,54.895069,9.793790
1386871443,1,0,545.9,0,-23,-16,0,0,0,-0.0292,528.9589,6.8213,0.4212,54.888489,9.804158,108.3,5.845,1.85,335.95,54.888996,9.803735,54.895069,9.793790
1386871443,1,0,545.9,0,-17,-20,0,0,25,-0.0292,533.4922,6.8213,0.4212,54.888470,9.804162,108.3,5.845,1.85,335.95,54.888996,9.803735,54.895069,9.793790
1386871444,1,0,545.9,0,-12,-16,0,0,0,-0.0292,536.6922,6.8213,0.4212,54.888451,9.804164,108.3,5.845,1.85,335.95,54.888996,9.803735,54.895069,9.793790
1386871444,1,0,545.9,0,-9,-12,0,0,25,-0.0292,539.0922,6.8213,0.4212,54.888435,9.804164,108.3,5.845,1.85,335.95,54.888996,9.803735,54.895069,9.793790
1386871444,1,0,545.9,0,-7,-8,0,409,50,-0.0292,540.9589,6.8213,0.4212,54.888416,9.804163,108.3,5.845,1.85,335.95,54.888996,9.803735,54.895069,9.793790
1386871444,1,0,545.9,0,-5,-4,0,409,75,-0.0292,542.2922,6.8213,0.4212,54.888397,9.804161,108.3,5.845,1.85,335.95,54.888996,9.803735,54.895069,9.793790
1386871445,1,0,545.9,0,-4,0,0,409,100,-0.0292,543.3588,6.8213,0.4212,54.888382,9.804160,108.3,5.845,1.85,335.95,54.888996,9.803735,54.895069,9.793790
1386871445,1,0,545.9,0,-3,-4,0,409,125,-0.0292,544.1588,6.8213,0.4212,54.888363,9.804158,108.3,5.845,1.85,335.95,54.888996,9.803735,54.895069,9.793790
1386871445,1,0,545.9,0,-2,0,0,409,150,-0.0292,544.6921,6.8213,0.4212,54.888344,9.804156,108.3,5.845,1.85,335.95,54.888996,9.803735,54.895069,9.793790
1386871445,1,0,545.9,0,-1,-4,0,409,175,-0.0292,544.9588,6.8213,0.4212,54.888325,9.804154,108.3,5.845,1.85,335.95,54.888996,9.803735,54.895069,9.793790
1386871446,1,0,545.9,0,-1,0,0,409,200,-0.0292,545.2255,6.8213,0.4212,54.888309,9.804152,108.3,5.845,1.85,335.95,54.888996,9.803735,54.895069,9.793790
1386871446,1,0,545.9,0,-1,-4,0,409,225,-0.0292,545.4921,6.8213,0.4212,54.888290,9.804149,108.3,5.845,1.85,335.95,54.888996,9.803735,54.895069,9.793790
1386871446,1,0,545.9,0,0,0,0,409,250,-0.0292,545.4921,6.8213,0.4212,54.888271,9.804146,108.3,5.845,1.85,335.95,54.888996,9.803735,54.895069,9.793790
1386871446,1,0,545.9,0,0,4,0,409,275,-0.0292,545.4921,6.8213,0.4212,54.888252,9.804143,108.3,5.845,1.85,335.95,54.888996,9.803735,54.895069,9.793790
1386871447,1,0,545.9,0,0,0,0,409,300,-0.0292,545.4921,6.8213,0.4212,54.888237,9.804140,108.3,5.845,1.85,335.95,54.888996,9.803735,54.895069,9.793790
1386871447,1,0,545.9,0,0,4,0,409,325,-0.0292,545.4921,6.8213,0.4212,54.888218,9.804137,108.3,5.845,1.85,335.95,54.888996,9.803735,54.895069,9.793790
1386871447,1,0,280.9,0,-35,0,0,409,350,-0.0292,554.8254,6.8213,0.4212,54.888199,9.804130,108.3,5.845,1.85,335.95,54.888996,9.803735,54.895069,9.793790
1386871447,1,0,280.9,0,-35,-4,0,409,375,-0.0292,564.1588,6.8213,0.4212,54.888184,9.804116,108.3,5.845,1.85,335.95,54.888996,9.803735,54.895069,9.793790
1386871448,1,0,280.9,0,-35,-8,0,578,400,-0.0292,573.4921,6.8213,0.4212,54.888168,9.804099,108.3,5.845,1.85,335.95,54.888996,9.803735,54.895069,9.793790
1386871448,1,0,280.9,0,-35,-12,0,513,425,-0.0292,582.8254,6.8213,0.4212,54.888153,9.804078,108.3,5.845,1.85,335.95,54.888996,9.803735,54.895069,9.793790
1386871448,1,0,280.9,0,-35,-16,0,436,450,-0.0292,592.1587,6.8213,0.4212,54.888142,9.804053,108.3,5.845,1.85,335.95,54.888996,9.803735,54.895069,9.793790
1386871448,1,0,545.9,0,35,-12,0,355,425,-0.0292,582.8254,6.8213,0.4212,54.888126,9.804032,108.3,5.845,1.85,335.95,54.888996,9.803735,54.895069,9.793790
1386871449,1,0,545.9,0,35,-8,0,436,450,-0.0292,573.4921,6.8213,0.4212,54.888111,9.804015,108.3,5.845,1.85,335.95,54.888996,9.803735,54.895069,9.793790
1386871449,1,0,545.9,0,28,-4,0,513,475,-0.0292,566.0254,6.8213,0.4212,54.888092,9.804002,108.3,5.845,1.85,335.95,54.888996,9.803735,54.895069,9.793790
1386871449,1,0,545.9,0,20,0,0,569,500,-0.0292,560.6921,6.8213,0.4212,54.888073,9.803990,108.3,5.845,1.85,335.95,54.888996,9.803735,54.895069,9.793790
1386871449,1,0,545.9,0,15,4,0,409,475,-0.0292,556.6921,6.8213,0.4212,54.888058,9.803982,108.3,5.845,1.85,335.95,54.888996,9.803735,54.895069,9.793790
1386871450,1,0,545.9,0,11,8,0,409,450,-0.0292,553.7587,6.8213,0.4212,54.888042,9.803975,108.3,5.845,1.85,335.95,54.888996,9.803735,54.895069,9.793790
1386871450,1,0,545.9,0,8,12,0,409,425,-0.0292,551.6254,6.8213,0.4212,54.888023,9.803969,108.3,5.845,1.85,335.95,54.888996,9.803735,54.895069,9.793790
1386871450,1,0,545.9,0,6,8,0,0,400,-0.0292,550.0254,6.8213,0.4212,54.888004,9.803964,108.3,5.845,1.85,335.95,54.888996,9.803735,54.895069,9.793790
1386871450,1,0,545.9,0,4,4,0,0,375,-0.0292,548.9587,6.8213,0.4212,54.887989,9.803959,108.3,5.845,1.85,335.95,54.888996,9.803735,54.895069,9.793790
1386871451,1,0,545.9,0,3,0,0,0,350,-0.0292,548.1588,6.8213,0.4212,54.887970,9.803954,108.3,5.845,1.85,335.95,54.888996,9.803735,54.895069,9.793790
1386871451,1,0,545.9,0,2,4,0,0,325,-0.0292,547.6254,6.8213,0.4212,54.887951,9.803949,108.3,5.845,1.85,335.95,54.888996,9.803735,54.895069,9.793790
1386871451,1,0,545.9,0,2,0,0,0,300,-0.0292,547.0921,6.8213,0.4212,54.887932,9.803945,108.3,5.845,1.85,335.95,54.888996,9.803735,54.895069,9.793790
1386871451,1,0,545.9,0,1,4,0,0,275,-0.0292,546.8254,6.8213,0.4212,54.887917,9.803942,108.3,5.845,1.85,335.95,54.888996,9.803735,54.895069,9.793790
1386871452,1,0,545.9,0,1,0,0,0,250,-0.0292,546.5588,6.8213,0.4212,54.887897,9.803939,108.3,5.845,1.85,335.95,54.888996,9.803735,54.895069,9.793790
1386871452,1,0,545.9,0,1,4,0,0,225,-0.0292,546.2921,6.8213,0.4212,54.887878,9.803936,108.3,5.845,1.85,335.95,54.888996,9.803735,54.895069,9.793790
1386871452,1,0,545.9,0,0,0,0,0,200,-0.0292,546.2921,6.8213,0.4212,54.887859,9.803933,108.3,5.845,1.85,335.95,54.888996,9.803735,54.895069,9.793790
1386871452,1,0,545.9,0,0,4,0,0,175,-0.0292,546.2921,6.8213,0.4212,54.887844,9.803930,108.3,5.845,1.85,335.95,54.888996,9.803735,54.895069,9.793790
1386871453,1,0,545.9,0,0,0,0,0,150,-0.0292,546.2921,6.8213,0.4212,54.887825,9.803927,108.3,5.845,1.85,335.95,54.888996,9.803735,54.895069,9.793790
1386871453,1,0,545.9,0,0,4,0,0,125,-0.0292,546.2921,6.8213,0.4212,54.887806,9.803924,108.3,5.845,1.85,335.95,54.888996,9.803735,54.895069,9.793790
1386871453,1,0,545.9,0,0,0,0,0,100,-0.0292,546.2921,6.8213,0.4212,54.887791,9.803920,108.3,5.845,1.85,335.95,54.888996,9.803735,54.895069,9.793790
1386871453,1,0,545.9,0,0,4,0,0,75,-0.0292,546.2921,6.8213,0.4212,54.887772,9.803916,108.3,5.845,1.85,335.95,54.888996,9.803735,54.895069,9.793790
1386871454,1,0,545.9,0,0,0,0,0,50,-0.0292,546.2921,6.8213,0.4212,54.887753,9.803912,108.3,5.845,1.85,335.95,54.888996,9.803735,54.895069,9.793790
1386871454,1,0,545.9,0,0,4,0,0,25,-0.0292,546.2921,6.8213,0.4212,54.887733,9.803908,108.3,5.845,1.85,335.95,54.888996,9.803735,54.895069,9.793790
1386871454,1,0,545.9,0,0,0,0,0,0,-0.0292,546.2921,6.8213,0.4212,54.887718,9.803905,108.3,5.845,1.85,335.95,54.888996,9.803735,54.895069,9.793790
1386871454,1,0,545.9,0,0,4,0,0,25,-0.0292,546.2921,6.8213,0.4212,54.887699,9.803902,108.3,5.845,1.85,335.95,54.888996,9.803735,54.895069,9.793790
1386871455,1,0,485.9,0,35,8,0,0,0,-0.0292,536.9588,6.8213,0.4212,54.887680,9.803904,108.3,5.845,1.85,335.95,54.888996,9.803735,54.895069,9.793790
1386871455,1,0,485.9,0,35,12,0,0,25,-0.0292,527.6255,6.8213,0.4212,54.887661,9.803910,108.3,5.845,1.85,335.95,54.888996,9.803735,54.895069,9.793790
1386871455,1,0,485.9,0,35,16,0,0,0,-0.0292,518.2922,6.8213,0.4212,54.887646,9.803922,108.3,5.845,1.85,335.95,54.888996,9.803735,54.895069,9.793790
1386871455,1,0,485.9,0,32,20,0,0,25,-0.0292,509.7589,6.8213,0.4212,54.887630,9.803937,108.3,5.845,1.85,335.95,54.888996,9.803735,54.895069,9.793790
1386871456,1,0,485.9,0,24,24,0,0,0,-0.0292,503.3589,6.8213,0.4212,54.887615,9.803956,108.3,5.845,1.85,335.95,54.888996,9.803735,54.895069,9.793790
1386871456,1,0,485.9,0,17,20,0,0,25,-0.0292,498.8255,6.8213,0.4212,54.887604,9.803976,108.3,5.845,1.85,335.95,54.888996,9.803735,54.895069,9.793790
1386871456,1,0,485.9,0,13,16,0,0,0,-0.0292,495.3589,6.8213,0.4212,54.887592,9.803998,108.3,5.845,1.85,335.95,54.888996,9.803735,54.895069,9.793790
1386871456,1,0,485.9,0,9,12,0,0,25,-0.0292,492.9589,6.8213,0.4212,54.887577,9.804021,108.3,5.845,1.85,335.95,54.888996,9.803735,54.895069,9.793790
1386871457,1,0,485.9,0,7,8,0,409,50,-0.0292,491.0922,6.8213,0.4212,54.887566,9.804045,108.3,5.845,1.85,335.95,54.888996,9.803735,54.895069,9.793790
1386871457,1,0,485.9,0,5,4,0,409,75,-0.0292,489.7589,6.8213,0.4212,54.887554,9.804069,108.3,5.845,1.85,335.95,54.888996,9.803735,54.895069,9.793790
1386871457,1,0,485.9,0,4,8,0,409,100,-0.0292,488.6922,6.8213,0.4212,54.887543,9.804093,108.3,5.845,1.85,335.95,54.888996,9.803735,54.895069,9.793790
1386871457,1,0,485.9,0,3,4,0,409,125,-0.0292,487.8922,6.8213,0.4212,54.887535,9.804118,108.3,5.845,1.85,335.95,54.888996,9.803735,54.895069,9.793790
1386871458,1,0,485.9,0,2,0,0,409,150,-0.0292,487.3589,6.8213,0.4212,54.887524,9.804143,108.3,5.845,1.85,335.95,54.888996,9.803735,54.895069,9.793790
1386871458,1,0,485.9,0,1,4,0,409,175,-0.0292,487.0922,6.8213,0.4212,54.887512,9.804168,108.3,5.845,1.85,335.95,54.888996,9.803735,54.895069,9.793790
1386871458,1,0,485.9,0,1,0,0,409,200,-0.0292,486.8255,6.8213,0.4212,54.887501,9.804193,108.3,5.845,1.85,335.95,54.888996,9.803735,54.895069,9.793790
1386871458,1,0,485.9,0,1,4,0,409,225,-0.0292,486.5589,6.8213,0.4212,54.887489,9.804217,108.3,5.845,1.85,335.95,54.888996,9.803735,54.895069,9.793790
1386871459,1,0,485.9,0,1,0,0,409,250,-0.0292,486.2922,6.8213,0.4212,54.887482,9.804242,108.3,5.845,1.85,335.95,54.888996,9.803735,54.895069,9.793790
1386871459,1,0,485.9,0,0,4,0,409,275,-0.0292,486.2922,6.8213,0.4212,54.887470,9.804268,108.3,5.845,1.85,335.95,54.888996,9.803735,54.895069,9.793790
1386871459,1,0,485.9,0,0,0,0,409,300,-0.0292,486.2922,6.8213,0.4212,54.887459,9.804293,108.3,5.845,1.85,335.95,54.888996,9.803735,54.895069,9.793790
1386871459,1,0,485.9,0,0,4,0,409,325,-0.0292,486.2922,6.8213,0.4212,54.887447,9.804317,108.3,5.845,1.85,335.95,54.888996,9.803735,54.895069,9.793790
1386871460,1,0,390.9,0,35,8,0,409,350,-0.0292,476.9589,6.8213,0.4212,54.887436,9.804345,108.3,5.845,1.85,335.95,54.888996,9.803735,54.895069,9.793790
1386871460,1,0,390.9,0,35,12,0,409,375,-0.0292,467.6255,6.8213,0.4212,54.887432,9.804375,108.3,5.845,1.85,335.95,54.888996,9.803735,54.895069,9.793790
1386871460,1,0,390.9,0,35,16,0,578,400,-0.0292,458.2922,6.8213,0.4212,54.887428,9.804406,108.3,5.845,1.85,335.95,54.888996,9.803735,54.895069,9.793790
1386871460,1,0,390.9,0,35,20,0,512,425,-0.0292,448.9588,6.8213,0.4212,54.887428,9.804438,108.3,5.845,1.85,335.95,54.888996,9.803735,54.895069,9.793790
1386871461,1,0,390.9,0,35,24,0,435,450,-0.0292,439.6255,6.8213,0.4212,54.887432,9.804468,108.3,5.845,1.85,335.95,54.888996,9.803735,54.895069,9.793790
1386871461,1,0,390.9,0,35,28,0,354,425,-0.0292,430.2921,6.8213,0.4212,54.887440,9.804497,108.3,5.845,1.85,335.95,54.888996,9.803735,54.895069,9.793790
1386871461,1,0,390.9,0,35,32,0,269,400,-0.0292,420.9588,6.8213,0.4212,54.887451,9.804524,108.3,5.845,1.85,335.95,54.888996,9.803735,54.895069,9.793790
1386871461,1,0,390.9,0,30,28,0,183,375,-0.0292,412.9588,6.8213,0.4212,54.887463,9.804549,108.3,5.845,1.85,335.95,54.888996,9.803735,54.895069,9.793790
1386871462,1,0,390.9,0,22,24,0,113,350,-0.0292,407.0921,6.8213,0.4212,54.887474,9.804571,108.3,5.845,1.85,335.95,54.888996,9.803735,54.895069,9.793790
1386871462,1,0,390.9,0,16,20,0,67,325,-0.0292,402.8255,6.8213,0.4212,54.887486,9.804592,108.3,5.845,1.85,335.95,54.888996,9.803735,54.895069,9.793790
1386871462,1,0,390.9,0,12,16,0,39,300,-0.0292,399.6255,6.8213,0.4212,54.887501,9.804611,108.3,5.845,1.85,335.95,54.888996,9.803735,54.895069,9.793790
1386871462,1,0,390.9,0,9,12,0,21,275,-0.0292,397.2255,6.8213,0.4212,54.887516,9.804630,108.3,5.845,1.85,335.95,54.888996,9.803735,54.895069,9.793790
1386871463,1,0,390.9,0,6,8,0,11,250,-0.0292,395.6255,6.8213,0.4212,54.887531,9.804648,108.3,5.845,1.85,335.95,54.888996,9.803735,54.895069,9.793790
1386871463,1,0,390.9,0,5,4,0,6,225,-0.0292,394.2921,6.8213,0.4212,54.887547,9.804666,108.3,5.845,1.85,335.95,54.888996,9.803735,54.895069,9.793790
1386871463,1,0,390.9,0,3,0,0,3,200,-0.0292,393.4921,6.8213,0.4212,54.887562,9.804683,108.3,5.845,1.85,335.95,54.888996,9.803735,54.895069,9.793790
1386871463,1,0,390.9,0,3,4,0,1,175,-0.0292,392.6921,6.8213,0.4212,54.887577,9.804699,108.3,5.845,1.85,335.95,54.888996,9.803735,54.895069,9.793790
1386871464,1,0,390.9,0,2,0,0,0,150,-0.0292,392.1588,6.8213,0.4212,54.887592,9.804715,108.3,5.845,1.85,335.95,54.888996,9.803735,54.895069,9.793790
1386871464,1,0,390.9,0,1,4,0,0,125,-0.0292,391.8922,6.8213,0.4212,54.887604,9.804732,108.3,5.845,1.85,335.95,54.888996,9.803735,54.895069,9.793790
1386871464,1,0,390.9,0,1,0,0,0,100,-0.0292,391.6255,6.8213,0.4212,54.887619,9.804749,108.3,5.845,1.85,335.95,54.888996,9.803735,54.895069,9.793790
1386871465,1,0,390.9,0,1,4,0,0,75,-0.0292,391.3588,6.8213,0.4212,54.887634,9.804765,108.3,5.845,1.85,335.95,54.888996,9.803735,54.895069,9.793790
1386871465,1,0,390.9,0,0,0,0,0,50,-0.0292,391.3588,6.8213,0.4212,54.887650,9.804781,108.3,5.845,1.85,335.95,54.888996,9.803735,54.895069,9.793790
1386871465,1,0,390.9,0,0,4,0,0,25,-0.0292,391.3588,6.8213,0.4212,54.887665,9.804797,108.3,5.845,1.85,335.95,54.888996,9.803735,54.895069,9.793790
1386871465,1,0,390.9,0,0,0,0,0,0,-0.0292,391.3588,6.8213,0.4212,54.887684,9.804813,108.3,5.845,1.85,335.95,54.888996,9.803735,54.895069,9.793790
1386871466,1,0,390.9,0,0,4,0,0,25,-0.0292,391.3588,6.8213,0.4212,54.887699,9.804830,108.3,5.845,1.85,335.95,54.888996,9.803735,54.895069,9.793790
1386871466,1,0,390.9,0,0,0,0,0,0,-0.0292,391.3588,6.8213,0.4212,54.887714,9.804846,108.3,5.845,1.85,335.95,54.888996,9.803735,54.895069,9.793790
1386871466,1,0,390.9,0,0,4,0,0,25,-0.0292,391.3588,6.8213,0.4212,54.887733,9.804862,108.3,5.845,1.85,335.95,54.888996,9.803735,54.895069,9.793790
1386871466,1,0,390.9,0,0,0,0,0,0,-0.0292,391.3588,6.8213,0.4212,54.887749,9.804878,108.3,5.845,1.85,335.95,54.888996,9.803735,54.895069,9.793790
1386871467,1,0,390.9,0,0,4,0,0,25,-0.0292,391.3588,6.8213,0.4212,54.887764,9.804894,108.3,5.845,1.85,335.95,54.888996,9.803735,54.895069,9.793790
1386871467,1,0,390.9,0,0,0,0,0,0,-0.0292,391.3588,6.8213,0.4212,54.887783,9.804911,108.3,5.845,1.85,335.95,54.888996,9.803735,54.895069,9.793790
1386871467,1,0,390.9,0,0,4,0,0,25,-0.0292,391.3588,6.8213,0.4212,54.887798,9.804927,108.3,5.845,1.85,335.95,54.888996,9.803735,54.895069,9.793790
1386871467,1,0,390.9,0,0,0,0,0,0,-0.0292,391.3588,6.8213,0.4212,54.887814,9.804943,108.3,5.845,1.85,335.95,54.888996,9.803735,54.895069,9.793790
1386871468,1,0,390.9,0,0,4,0,0,25,-0.0292,391.3588,6.8213,0.4212,54.887833,9.804959,108.3,5.845,1.85,335.95,54.888996,9.803735,54.895069,9.793790
1386871468,1,0,390.9,0,0,0,0,0,0,-0.0292,391.3588,6.8213,0.4212,54.887848,9.804976,108.3,5.845,1.85,335.95,54.888996,9.803735,54.895069,9.793790
1386871468,1,0,390.9,0,0,4,0,0,25,-0.0292,391.3588,6.8213,0.4212,54.887863,9.804993,108.3,5.845,1.85,335.95,54.888996,9.803735,54.895069,9.793790
1386871468,1,0,390.9,0,0,0,0,0,0,-0.0292,391.3588,6.8213,0.4212,54.887875,9.805009,108.3,5.845,1.85,335.95,54.888996,9.803735,54.895069,9.793790
1386871469,1,0,390.9,0,0,4,0,0,25,-0.0292,391.3588,6.8213,0.4212,54.887890,9.805025,108.3,5.845,1.85,335.95,54.888996,9.803735,54.895069,9.793790
1386871469,1,0,390.9,0,0,0,0,0,0,-0.0292,391.3588,6.8213,0.4212,54.887905,9.805041,108.3,5.845,1.85,335.95,54.888996,9.803735,54.895069,9.793790
1386871469,1,0,390.9,0,0,4,0,0,25,-0.0292,391.3588,6.8213,0.4212,54.887920,9.805058,108.3,5.845,1.85,335.95,54.888996,9.803735,54.895069,9.793790
1386871469,1,0,390.9,0,0,0,0,0,0,-0.0292,391.3588,6.8213,0.4212,54.887936,9.805074,108.3,5.845,1.85,335.95,54.888996,9.803735,54.895069,9.793790
1386871470,1,0,390.9,0,0,4,0,0,25,-0.0292,391.3588,6.8213,0.4212,54.887955,9.805090,108.3,5.845,1.85,335.95,54.888996,9.803735,54.895069,9.793790
1386871470,1,0,390.9,0,0,0,0,0,0,-0.0292,391.3588,6.8213,0.4212,54.887970,9.805106,108.3,5.845,1.85,335.95,54.888996,9.803735,54.895069,9.793790
1386871470,1,0,390.9,0,0,4,0,0,25,-0.0292,391.3588,6.8213,0.4212,54.887985,9.805122,108.3,5.845,1.85,335.95,54.888996,9.803735,54.895069,9.793790
1386871470,1,0,390.9,0,0,0,0,0,0,-0.0292,391.3588,6.8213,0.4212,54.888004,9.805139,108.3,5.845,1.85,335.95,54.888996,9.803735,54.895069,9.793790
1386871471,1,0,390.9,0,0,4,0,0,25,-0.0292,391.3588,6.8213,0.4212,54.888020,9.805155,108.3,5.845,1.85,335.95,54.888996,9.803735,54.895069,9.793790
1386871471,1,0,390.9,0,0,0,0,0,0,-0.0292,391.3588,6.8213,0.4212,54.888035,9.805171,108.3,5.845,1.85,335.95,54.888996,9.803735,54.895069,9.793790
1386871471,1,0,390.9,0,0,4,0,0,25,-0.0292,391.3588,6.8213,0.4212,54.888054,9.805187,108.3,5.845,1.85,335.95,54.888996,9.803735,54.895069,9.793790
1386871471,1,0,390.9,0,0,0,0,0,0,-0.0292,391.3588,6.8213,0.4212,54.888069,9.805203,108.3,5.845,1.85,335.95,54.888996,9.803735,54.895069,9.793790
1386871472,1,0,390.9,0,0,4,0,0,25,-0.0292,391.3588,6.8213,0.4212,54.888084,9.805220,108.3,5.845,1.85,335.95,54.888996,9.803735,54.895069,9.793790
1386871472,1,0,390.9,0,0,0,0,0,0,-0.0292,391.3588,6.8213,0.4212,54.888096,9.805236,108.3,5.845,1.85,335.95,54.888996,9.803735,54.895069,9.793790
1386871472,1,0,390.9,0,0,4,0,0,25,-0.0292,391.3588,6.8213,0.4212,54.888111,9.805252,108.3,5.845,1.85,335.95,54.888996,9.803735,54.895069,9.793790
1386871472,1,0,390.9,0,0,0,0,0,0,-0.0292,391.3588,6.8213,0.4212,54.888126,9.805268,108.3,5.845,1.85,335.95,54.888996,9.803735,54.895069,9.793790
1386871473,1,0,390.9,0,0,4,0,0,25,-0.0292,391.3588,6.8213,0.4212,54.888142,9.805285,108.3,5.845,1.85,335.95,54.888996,9.803735,54.895069,9.793790
1386871473,1,0,390.9,0,0,0,0,0,0,-0.0292,391.3588,6.8213,0.4212,54.888157,9.805301,108.3,5.845,1.85,335.95,54.888996,9.803735,54.895069,9.793790
1386871473,1,0,390.9,0,0,4,0,0,25,-0.0292,391.3588,6.8213,0.4212,54.888176,9.805317,108.3,5.845,1.85,335.95,54.888996,9.803735,54.895069,9.793790
1386871473,1,0,390.9,0,0,0,0,0,0,-0.0292,391.3588,6.8213,0.4212,54.888191,9.805333,108.3,5.845,1.85,335.95,54.888996,9.803735,54.895069,9.793790
1386871474,1,0,390.9,0,0,4,0,0,25,-0.0292,391.3588,6.8213,0.4212,54.888206,9.805349,108.3,5.845,1.85,335.95,54.888996,9.803735,54.895069,9.793790
1386871474,1,0,390.9,0,0,0,0,0,0,-0.0292,391.3588,6.8213,0.4212,54.888226,9.805366,108.3,5.845,1.85,335.95,54.888996,9.803735,54.895069,9.793790
1386871474,1,0,390.9,0,0,4,0,0,25,-0.0292,391.3588,6.8213,0.4212,54.888241,9.805382,108.3,5.845,1.85,335.95,54.888996,9.803735,54.895069,9.793790
1386871474,1,0,390.9,0,0,0,0,0,0,-0.0292,391.3588,6.8213,0.4212,54.888256,9.805398,108.3,5.845,1.85,335.95,54.888996,9.803735,54.895069,9.793790
1386871475,1,0,390.9,0,0,4,0,0,25,-0.0292,391.3588,6.8213,0.4212,54.888275,9.805414,108.3,5.845,1.85,335.95,54.888996,9.803735,54.895069,9.793790
1386871475,1,0,390.9,0,0,0,0,0,0,-0.0292,391.3588,6.8213,0.4212,54.888290,9.805430,108.3,5.845,1.85,335.95,54.888996,9.803735,54.895069,9.793790
1386871475,1,0,390.9,0,0,4,0,0,25,-0.0292,391.3588,6.8213,0.4212,54.888306,9.805447,108.3,5.845,1.85,335.95,54.888996,9.803735,54.895069,9.793790
1386871475,1,0,390.9,0,0,0,0,0,0,-0.0292,391.3588,6.8213,0.4212,54.888317,9.805464,108.3,5.845,1.85,335.95,54.888996,9.803735,54.895069,9.793790
1386871476,1,0,390.9,0,0,4,0,0,25,-0.0292,391.3588,6.8213,0.4212,54.888332,9.805480,108.3,5.845,1.85,335.95,54.888996,9.803735,54.895069,9.793790
1386871476,1,0,390.9,0,0,0,0,0,0,-0.0292,391.3588,6.8213,0.4212,54.888348,9.805496,108.3,5.845,1.85,335.95,54.888996,9.803735,54.895069,9.793790
1386871476,1,0,390.9,0,0,4,0,0,25,-0.0292,391.3588,6.8213,0.4212,54.888363,9.805512,108.3,5.845,1.85,335.95,54.888996,9.803735,54.895069,9.793790
1386871476,1,0,390.9,0,0,0,0,0,0,-0.0292,391.3588,6.8213,0.4212,54.888378,9.805529,108.3,5.845,1.85,335.95,54.888996,9.803735,54.895069,9.793790
1386871477,1,0,390.9,0,0,4,0,0,25,-0.0292,391.3588,6.8213,0.4212,54.888397,9.805545,108.3,5.845,1.85,335.95,54.888996,9.803735,54.895069,9.793790
1386871477,1,0,390.9,0,0,0,0,0,0,-0.0292,391.3588,6.8213,0.4212,54.888412,9.805561,108.3,5.845,1.85,335.95,54.888996,9.803735,54.895069,9.793790
1386871477,1,0,390.9,0,0,4,0,0,25,-0.0292,391.3588,6.8213,0.4212,54.888428,9.805577,108.3,5.845,1.85,335.95,54.888996,9.803735,54.895069,9.793790
1386871477,1,0,390.9,0,0,0,0,0,0,-0.0292,391.3588,6.8213,0.4212,54.888447,9.805593,108.3,5.845,1.85,335.95,54.888996,9.803735,54.895069,9.793790
1386871478,1,0,390.9,0,0,4,0,0,25,-0.0292,391.3588,6.8213,0.4212,54.888462,9.805610,108.3,5.845,1.85,335.95,54.888996,9.803735,54.895069,9.793790
1386871478,1,0,390.9,0,0,0,0,0,0,-0.0292,391.3588,6.8213,0.4212,54.888477,9.805626,108.3,5.845,1.85,335.95,54.888996,9.803735,54.895069,9.793790
1386871478,1,0,390.9,0,0,4,0,0,25,-0.0292,391.3588,6.8213,0.4212,54.888496,9.805642,108.3,5.845,1.85,335.95,54.888996,9.803735,54.895069,9.793790
1386871478,1,0,390.9,0,0,0,0,0,0,-0.0292,391.3588,6.8213,0.4212,54.888512,9.805658,108.3,5.845,1.85,335.95,54.888996,9.803735,54.895069,9.793790
1386871479,1,0,485.9,0,-35,-4,0,0,25,-0.0292,400.6922,6.8213,0.4212,54.888523,9.805679,108.3,5.845,1.85,335.95,54.888996,9.803735,54.895069,9.793790
1386871479,1,0,485.9,0,-35,-8,0,27,50,-0.0292,410.0255,6.8213,0.4212,54.888535,9.805703,108.3,5.845,1.85,335.95,54.888996,9.803735,54.895069,9.793790
1386871479,1,0,485.9,0,-35,-12,0,90,75,-0.0292,419.3589,6.8213,0.4212,54.888542,9.805731,108.3,5.845,1.85,335.95,54.888996,9.803735,54.895069,9.793790
1386871479,1,0,485.9,0,-35,-16,0,169,100,-0.0292,428.6922,6.8213,0.4212,54.888550,9.805760,108.3,5.845,1.85,335.95,54.888996,9.803735,54.895069,9.793790
1386871480,1,0,485.9,0,-35,-20,0,254,125,-0.0292,438.0255,6.8213,0.4212,54.888554,9.805791,108.3,5.845,1.85,335.95,54.888996,9.803735,54.895069,9.793790
1386871480,1,0,485.9,0,-35,-24,0,339,150,-0.0292,447.3589,6.8213,0.4212,54.888554,9.805822,108.3,5.845,1.85,335.95,54.888996,9.803735,54.895069,9.793790
1386871480,1,0,485.9,0,-35,-28,0,422,175,-0.0292,456.6922,6.8213,0.4212,54.888550,9.805854,108.3,5.845,1.85,335.95,54.888996,9.803735,54.895069,9.793790
1386871480,1,0,485.9,0,-29,-32,0,499,200,-0.0292,464.4256,6.8213,0.4212,54.888546,9.805884,108.3,5.845,1.85,335.95,54.888996,9.803735,54.895069,9.793790
1386871481,1,0,485.9,0,-22,-28,0,559,225,-0.0292,470.2922,6.8213,0.4212,54.888542,9.805913,108.3,5.845,1.85,335.95,54.888996,9.803735,54.895069,9.793790
1386871481,1,0,485.9,0,-16,-24,0,578,250,-0.0292,474.5589,6.8213,0.4212,54.888535,9.805942,108.3,5.845,1.85,335.95,54.888996,9.803735,54.895069,9.793790
1386871481,1,0,485.9,0,-11,-20,0,409,275,-0.0292,477.4922,6.8213,0.4212,54.888527,9.805969,108.3,5.845,1.85,335.95,54.888996,9.803735,54.895069,9.793790
1386871481,1,0,485.9,0,-8,-16,0,409,300,-0.0292,479.6255,6.8213,0.4212,54.888515,9.805996,108.3,5.845,1.85,335.95,54.888996,9.803735,54.895069,9.793790
1386871482,1,0,485.9,0,-6,-12,0,0,275,-0.0292,481.2256,6.8213,0.4212,54.888508,9.806023,108.3,5.845,1.85,335.95,54.888996,9.803735,54.895069,9.793790
1386871482,1,0,485.9,0,-5,-8,0,0,250,-0.0292,482.5589,6.8213,0.4212,54.888496,9.806048,108.3,5.845,1.85,335.95,54.888996,9.803735,54.895069,9.793790
1386871482,1,0,485.9,0,-3,-4,0,0,225,-0.0292,483.3589,6.8213,0.4212,54.888489,9.806075,108.3,5.845,1.85,335.95,54.888996,9.803735,54.895069,9.793790
1386871482,1,0,485.9,0,-3,0,0,0,200,-0.0292,484.1589,6.8213,0.4212,54.888477,9.806101,108.3,5.845,1.85,335.95,54.888996,9.803735,54.895069,9.793790
1386871483,1,0,485.9,0,-2,-4,0,0,175,-0.0292,484.6922,6.8213,0.4212,54.888470,9.806127,108.3,5.845,1.85,335.95,54.888996,9.803735,54.895069,9.793790
1386871483,1,0,485.9,0,-1,0,0,0,150,-0.0292,484.9589,6.8213,0.4212,54.888458,9.806152,108.3,5.845,1.85,335.95,54.888996,9.803735,54.895069,9.793790
1386871483,1,0,485.9,0,-1,-4,0,0,125,-0.0292,485.2255,6.8213,0.4212,54.888447,9.806178,108.3,5.845,1.85,335.95,54.888996,9.803735,54.895069,9.793790
1386871483,1,0,485.9,0,-1,0,0,0,100,-0.0292,485.4922,6.8213,0.4212,54.888439,9.806203,108.3,5.845,1.85,335.95,54.888996,9.803735,54.895069,9.793790
1386871484,1,0,485.9,0,0,4,0,0,75,-0.0292,485.4922,6.8213,0.4212,54.888428,9.806229,108.3,5.845,1.85,335.95,54.888996,9.803735,54.895069,9.793790
1386871484,1,0,485.9,0,0,0,0,0,50,-0.0292,485.4922,6.8213,0.4212,54.888420,9.806253,108.3,5.845,1.85,335.95,54.888996,9.803735,54.895069,9.793790
1386871484,1,0,485.9,0,0,4,0,0,25,-0.0292,485.4922,6.8213,0.4212,54.888409,9.806279,108.3,5.845,1.85,335.95,54.888996,9.803735,54.895069,9.793790
1386871484,1,0,485.9,0,0,0,0,0,0,-0.0292,485.4922,6.8213,0.4212,54.888397,9.806305,108.3,5.845,1.85,335.95,54.888996,9.803735,54.895069,9.793790
1386871485,1,0,485.9,0,0,4,0,0,25,-0.0292,485.4922,6.8213,0.4212,54.888390,9.806331,108.3,5.845,1.85,335.95,54.888996,9.803735,54.895069,9.793790
1386871485,1,0,545.9,0,-35,0,0,0,0,-0.0292,494.8255,6.8213,0.4212,54.888378,9.806353,108.3,5.845,1.85,335.95,54.888996,9.803735,54.895069,9.793790
1386871485,1,0,545.9,0,-35,-4,0,0,25,-0.0292,504.1589,6.8213,0.4212,54.888367,9.806371,108.3,5.845,1.85,335.95,54.888996,9.803735,54.895069,9.793790
1386871485,1,0,545.9,0,-35,-8,0,0,0,-0.0292,513.4922,6.8213,0.4212,54.888351,9.806385,108.3,5.845,1.85,335.95,54.888996,9.803735,54.895069,9.793790
1386871486,1,0,545.9,0,-32,-12,0,0,25,-0.0292,522.0255,6.8213,0.4212,54.888336,9.806395,108.3,5.845,1.85,335.95,54.888996,9.803735,54.895069,9.793790
1386871486,1,0,545.9,0,-24,-16,0,0,0,-0.0292,528.4255,6.8213,0.4212,54.888317,9.806400,108.3,5.845,1.85,335.95,54.888996,9.803735,54.895069,9.793790
1386871486,1,0,545.9,0,-18,-20,0,0,25,-0.0292,533.2255,6.8213,0.4212,54.888298,9.806404,108.3,5.845,1.85,335.95,54.888996,9.803735,54.895069,9.793790
1386871486,1,0,545.9,0,-13,-16,0,0,0,-0.0292,536.6922,6.8213,0.4212,54.888283,9.806406,108.3,5.845,1.85,335.95,54.888996,9.803735,54.895069,9.793790
1386871487,1,0,545.9,0,-9,-12,0,0,25,-0.0292,539.0922,6.8213,0.4212,54.888264,9.806406,108.3,5.845,1.85,335.95,54.888996,9.803735,54.895069,9.793790
1386871487,1,0,545.9,0,-7,-8,0,409,50,-0.0292,540.9589,6.8213,0.4212,54.888245,9.806405,108.3,5.845,1.85,335.95,54.888996,9.803735,54.895069,9.793790
1386871487,1,0,545.9,0,-5,-4,0,409,75,-0.0292,542.2922,6.8213,0.4212,54.888226,9.806404,108.3,5.845,1.85,335.95,54.888996,9.803735,54.895069,9.793790
1386871487,1,0,545.9,0,-4,0,0,409,100,-0.0292,543.3588,6.8213,0.4212,54.888210,9.806402,108.3,5.845,1.85,335.95,54.888996,9.803735,54.895069,9.793790
1386871488,1,0,545.9,0,-3,-4,0,409,125,-0.0292,544.1588,6.8213,0.4212,54.888191,9.806399,108.3,5.845,1.85,335.95,54.888996,9.803735,54.895069,9.793790
1386871488,1,0,545.9,0,-2,0,0,409,150,-0.0292,544.6921,6.8213,0.4212,54.888172,9.806396,108.3,5.845,1.85,335.95,54.888996,9.803735,54.895069,9.793790
1386871488,1,0,545.9,0,-1,-4,0,409,175,-0.0292,544.9588,6.8213,0.4212,54.888153,9.806394,108.3,5.845,1.85,335.95,54.888996,9.803735,54.895069,9.793790
1386871488,1,0,545.9,0,-1,0,0,409,200,-0.0292,545.2255,6.8213,0.4212,54.888138,9.806391,108.3,5.845,1.85,335.95,54.888996,9.803735,54.895069,9.793790
1386871489,1,0,545.9,0,-1,-4,0,409,225,-0.0292,545.4921,6.8213,0.4212,54.888119,9.806388,108.3,5.845,1.85,335.95,54.888996,9.803735,54.895069,9.793790
1386871489,1,0,545.9,0,0,0,0,409,250,-0.0292,545.4921,6.8213,0.4212,54.888100,9.806385,108.3,5.845,1.85,335.95,54.888996,9.803735,54.895069,9.793790
1386871489,1,0,545.9,0,0,4,0,409,275,-0.0292,545.4921,6.8213,0.4212,54.888081,9.806382,108.3,5.845,1.85,335.95,54.888996,9.803735,54.895069,9.793790
1386871489,1,0,545.9,0,0,0,0,409,300,-0.0292,545.4921,6.8213,0.4212,54.888065,9.806379,108.3,5.845,1.85,335.95,54.888996,9.803735,54.895069,9.793790
1386871490,1,0,545.9,0,0,4,0,409,325,-0.0292,545.4921,6.8213,0.4212,54.888046,9.806376,108.3,5.845,1.85,335.95,54.888996,9.803735,54.895069,9.793790
1386871490,1,0,280.9,0,-35,0,0,409,350,-0.0292,554.8254,6.8213,0.4212,54.888027,9.806369,108.3,5.845,1.85,335.95,54.888996,9.803735,54.895069,9.793790
1386871490,1,0,280.9,0,-35,-4,0,409,375,-0.0292,564.1588,6.8213,0.4212,54.888012,9.806356,108.3,5.845,1.85,335.95,54.888996,9.803735,54.895069,9.793790
1386871490,1,0,280.9,0,-35,-8,0,578,400,-0.0292,573.4921,6.8213,0.4212,54.887997,9.806339,108.3,5.845,1.85,335.95,54.888996,9.803735,54.895069,9.793790
1386871491,1,0,280.9,0,-35,-12,0,513,425,-0.0292,582.8254,6.8213,0.4212,54.887981,9.806318,108.3,5.845,1.85,335.95,54.888996,9.803735,54.895069,9.793790
1386871491,1,0,280.9,0,-35,-16,0,436,450,-0.0292,592.1587,6.8213,0.4212,54.887970,9.806293,108.3,5.845,1.85,335.95,54.888996,9.803735,54.895069,9.793790
1386871491,1,0,280.9,0,-35,-20,0,355,425,-0.0292,601.4920,6.8213,0.4212,54.887962,9.806266,108.3,5.845,1.85,335.95,54.888996,9.803735,54.895069,9.793790
1386871492,1,0,280.9,0,-35,-24,0,270,400,-0.0292,610.8253,6.8213,0.4212,54.887955,9.806236,108.3,5.845,1.85,335.95,54.888996,9.803735,54.895069,9.793790
1386871492,1,0,280.9,0,-30,-28,0,184,375,-0.0292,618.8253,6.8213,0.4212,54.887951,9.806206,108.3,5.845,1.85,335.95,54.888996,9.803735,54.895069,9.793790
1386871492,1,0,280.9,0,-22,-24,0,114,350,-0.0292,624.6920,6.8213,0.4212,54.887951,9.806175,108.3,5.845,1.85,335.95,54.888996,9.803735,54.895069,9.793790
1386871492,1,0,280.9,0,-16,-20,0,68,325,-0.0292,628.9586,6.8213,0.4212,54.887951,9.806145,108.3,5.845,1.85,335.95,54.888996,9.803735,54.895069,9.793790
1386871493,1,0,280.9,0,-12,-16,0,39,300,-0.0292,632.1586,6.8213,0.4212,54.887951,9.806113,108.3,5.845,1.85,335.95,54.888996,9.803735,54.895069,9.793790
1386871493,1,0,280.9,0,-9,-12,0,22,275,-0.0292,634.5587,6.8213,0.4212,54.887951,9.806082,108.3,5.845,1.85,335.95,54.888996,9.803735,54.895069,9.793790
1386871493,1,0,280.9,0,-6,-8,0,12,250,-0.0292,636.1586,6.8213,0.4212,54.887955,9.806051,108.3,5.845,1.85,335.95,54.888996,9.803735,54.895069,9.793790
1386871493,1,0,280.9,0,-5,-4,0,6,225,-0.0292,637.4919,6.8213,0.4212,54.887959,9.806020,108.3,5.845,1.85,335.95,54.888996,9.803735,54.895069,9.793790
1386871494,1,0,280.9,0,-3,0,0,3,200,-0.0292,638.2919,6.8213,0.4212,54.887962,9.805988,108.3,5.845,1.85,335.95,54.888996,9.803735,54.895069,9.793790
1386871494,1,0,280.9,0,-3,-4,0,2,175,-0.0292,639.0919,6.8213,0.4212,54.887962,9.805958,108.3,5.845,1.85,335.95,54.888996,9.803735,54.895069,9.793790
1386871494,1,0,280.9,0,-2,0,0,1,150,-0.0292,639.6252,6.8213,0.4212,54.887962,9.805927,108.3,5.845,1.85,335.95,54.888996,9.803735,54.895069,9.793790
1386871494,1,0,280.9,0,-1,-4,0,0,125,-0.0292,639.8919,6.8213,0.4212,54.887962,9.805896,108.3,5.845,1.85,335.95,54.888996,9.803735,54.895069,9.793790
1386871495,1,0,280.9,0,-1,0,0,0,100,-0.0292,640.1586,6.8213,0.4212,54.887962,9.805865,108.3,5.845,1.85,335.95,54.888996,9.803735,54.895069,9.793790
1386871495,1,0,280.9,0,-1,-4,0,0,75,-0.0292,640.4252,6.8213,0.4212,54.887962,9.805835,108.3,5.845,1.85,335.95,54.888996,9.803735,54.895069,9.793790
1386871495,1,0,280.9,0,-1,0,0,0,50,-0.0292,640.6919,6.8213,0.4212,54.887962,9.805803,108.3,5.845,1.85,335.95,54.888996,9.803735,54.895069,9.793790
1386871495,1,0,280.9,0,0,4,0,0,25,-0.0292,640.6919,6.8213,0.4212,54.887962,9.805773,108.3,5.845,1.85,335.95,54.888996,9.803735,54.895069,9.793790
1386871496,1,0,280.9,0,0,0,0,0,0,-0.0292,640.6919,6.8213,0.4212,54.887962,9.805742,108.3,5.845,1.85,335.95,54.888996,9.803735,54.895069,9.793790
1386871496,1,0,280.9,0,0,4,0,0,25,-0.0292,640.6919,6.8213,0.4212,54.887962,9.805712,108.3,5.845,1.85,335.95,54.888996,9.803735,54.895069,9.793790
1386871496,1,0,280.9,0,0,0,0,0,0,-0.0292,640.6919,6.8213,0.4212,54.887962,9.805680,108.3,5.845,1.85,335.95,54.888996,9.803735,54.895069,9.793790
1386871496,1,0,280.9,0,0,4,0,0,25,-0.0292,640.6919,6.8213,0.4212,54.887962,9.805650,108.3,5.845,1.85,335.95,54.888996,9.803735,54.895069,9.793790
1386871497,1,0,280.9,0,0,0,0,0,0,-0.0292,640.6919,6.8213,0.4212,54.887962,9.805619,108.3,5.845,1.85,335.95,54.888996,9.803735,54.895069,9.793790
1386871497,1,0,280.9,0,0,4,0,0,25,-0.0292,640.6919,6.8213,0.4212,54.887962,9.805589,108.3,5.845,1.85,335.95,54.888996,9.803735,54.895069,9.793790
1386871497,1,0,280.9,0,0,0,0,0,0,-0.0292,640.6919,6.8213,0.4212,54.887962,9.805558,108.3,5.845,1.85,335.95,54.888996,9.803735,54.895069,9.793790
1386871497,1,0,280.9,0,0,4,0,0,25,-0.0292,640.6919,6.8213,0.4212,54.887962,9.805528,108.3,5.845,1.85,335.95,54.888996,9.803735,54.895069,9.793790
1386871498,1,0,280.9,0,0,0,0,0,0,-0.0292,640.6919,6.8213,0.4212,54.887962,9.805497,108.3,5.845,1.85,335.95,54.888996,9.803735,54.895069,9.793790
1386871498,1,0,280.9,0,0,4,0,0,25,-0.0292,640.6919,6.8213,0.4212,54.887962,9.805466,108.3,5.845,1.85,335.95,54.888996,9.803735,54.895069,9.793790
1386871498,1,0,280.9,0,0,0,0,0,0,-0.0292,640.6919,6.8213,0.4212,54.887962,9.805435,108.3,5.845,1.85,335.95,54.888996,9.803735,54.895069,9.793790
1386871498,1,0,280.9,0,0,4,0,0,25,-0.0292,640.6919,6.8213,0.4212,54.887962,9.805405,108.3,5.845,1.85,335.95,54.888996,9.803735,54.895069,9.793790
1386871499,1,0,280.9,0,0,0,0,0,0,-0.0292,640.6919,6.8213,0.4212,54.887962,9.805374,108.3,5.845,1.85,335.95,54.888996,9.803735,54.895069,9.793790
1386871499,1,0,280.9,0,0,4,0,0,25,-0.0292,640.6919,6.8213,0.4212,54.887962,9.805344,108.3,5.845,1.85,335.95,54.888996,9.803735,54.895069,9.793790
1386871499,1,0,280.9,0,0,0,0,0,0,-0.0292,640.6919,6.8213,0.4212,54.887962,9.805313,108.3,5.845,1.85,335.95,54.888996,9.803735,54.895069,9.793790
1386871499,1,0,280.9,0,0,4,0,0,25,-0.0292,640.6919,6.8213,0.4212,54.887962,9.805283,108.3,5.845,1.85,335.95,54.888996,9.803735,54.895069,9.793790
1386871500,1,0,280.9,0,0,0,0,0,0,-0.0292,640.6919,6.8213,0.4212,54.887962,9.805251,108.3,5.845,1.85,335.95,54.888996,9.803735,54.895069,9.793790
1386871500,1,0,280.9,0,0,4,0,0,25,-0.0292,640.6919,6.8213,0.4212,54.887962,9.805221,108.3,5.845,1.85,335.95,54.888996,9.803735,54.895069,9.793790
1386871500,1,0,280.9,0,0,0,0,0,0,-0.0292,640.6919,6.8213,0.4212,54.887962,9.805190,108.3,5.845,1.85,335.95,54.888996,9.803735,54.895069,9.793790
1386871500,1,0,280.9,0,0,4,0,0,25,-0.0292,640.6919,6.8213,0.4212,54.887962,9.805160,108.3,5.845,1.85,335.95,54.888996,9.803735,54.895069,9.793790
1386871501,1,0,280.9,0,0,0,0,0,0,-0.0292,640.6919,6.8213,0.4212,54.887962,9.805129,108.3,5.845,1.85,335.95,54.888996,9.803735,54.895069,9.793790
1386871501,1,0,280.9,0,0,4,0,0,25,-0.0292,640.6919,6.8213,0.4212,54.887962,9.805099,108.3,5.845,1.85,335.95,54.888996,9.803735,54.895069,9.793790
1386871501,1,0,280.9,0,0,0,0,0,0,-0.0292,640.6919,6.8213,0.4212,54.887962,9.805068,108.3,5.845,1.85,335.95,54.888996,9.803735,54.895069,9.793790
1386871501,1,0,280.9,0,0,4,0,0,25,-0.0292,640.6919,6.8213,0.4212,54.887962,9.805037,108.3,5.845,1.85,335.95,54.888996,9.803735,54.895069,9.793790
1386871502,1,0,280.9,0,0,0,0,0,0,-0.0292,640.6919,6.8213,0.4212,54.887962,9.805006,108.3,5.845,1.85,335.95,54.888996,9.803735,54.895069,9.793790
1386871502,1,0,280.9,0,0,4,0,0,25,-0.0292,640.6919,6.8213,0.4212,54.887962,9.804976,108.3,5.845,1.85,335.95,54.888996,9.803735,54.895069,9.793790
1386871502,1,0,280.9,0,0,0,0,0,0,-0.0292,640.6919,6.8213,0.4212,54.887962,9.804945,108.3,5.845,1.85,335.95,54.888996,9.803735,54.895069,9.793790
1386871502,1,0,280.9,0,0,4,0,0,25,-0.0292,640.6919,6.8213,0.4212,54.887962,9.804914,108.3,5.845,1.85,335.95,54.888996,9.803735,54.895069,9.793790
1386871503,1,0,280.9,0,0,0,0,0,0,-0.0292,640.6919,6.8213,0.4212,54.887962,9.804884,108.3,5.845,1.85,335.95,54.888996,9.803735,54.895069,9.793790
1386871503,1,0,280.9,0,0,4,0,0,25,-0.0292,640.6919,6.8213,0.4212,54.887962,9.804853,108.3,5.845,1.85,335.95,54.888996,9.803735,54.895069,9.793790
1386871503,1,0,280.9,0,0,0,0,0,0,-0.0292,640.6919,6.8213,0.4212,54.887962,9.804822,108.3,5.845,1.85,335.95,54.888996,9.803735,54.895069,9.793790
1386871503,1,0,280.9,0,0,4,0,0,25,-0.0292,640.6919,6.8213,0.4212,54.887962,9.804791,108.3,5.845,1.85,335.95,54.888996,9.803735,54.895069,9.793790
1386871504,1,0,280.9,0,0,0,0,0,0,-0.0292,640.6919,6.8213,0.4212,54.887962,9.804761,108.3,5.845,1.85,335.95,54.888996,9.803735,54.895069,9.793790
1386871504,1,0,280.9,0,0,4,0,0,25,-0.0292,640.6919,6.8213,0.4212,54.887962,9.804730,108.3,5.845,1.85,335.95,54.888996,9.803735,54.895069,9.793790
1386871504,1,0,280.9,0,0,0,0,0,0,-0.0292,640.6919,6.8213,0.4212,54.887962,9.804700,108.3,5.845,1.85,335.95,54.888996,9.803735,54.895069,9.793790
1386871504,1,0,280.9,0,0,4,0,0,25,-0.0292,640.6919,6.8213,0.4212,54.887962,9.804669,108.3,5.845,1.85,335.95,54.888996,9.803735,54.895069,9.793790
1386871505,1,0,280.9,0,0,0,0,0,0,-0.0292,640.6919,6.8213,0.4212,54.887962,9.804639,108.3,5.845,1.85,335.95,54.888996,9.803735,54.895069,9.793790
1386871505,1,0,280.9,0,0,4,0,0,25,-0.0292,640.6919,6.8213,0.4212,54.887962,9.804607,108.3,5.845,1.85,335.95,54.888996,9.803735,54.895069,9.793790
1386871505,1,0,280.9,0,0,0,0,0,0,-0.0292,640.6919,6.8213,0.4212,54.887962,9.804577,108.3,5.845,1.85,335.95,54.888996,9.803735,54.895069,9.793790
1386871505,1,0,280.9,0,0,4,0,0,25,-0.0292,640.6919,6.8213,0.4212,54.887962,9.804546,108.3,5.845,1.85,335.95,54.888996,9.803735,54.895069,9.793790
1386871506,1,0,280.9,0,0,0,0,0,0,-0.0292,640.6919,6.8213,0.4212,54.887962,9.804516,108.3,5.845,1.85,335.95,54.888996,9.803735,54.895069,9.793790
1386871506,1,0,280.9,0,0,4,0,0,25,-0.0292,640.6919,6.8213,0.4212,54.887962,9.804485,108.3,5.845,1.85,335.95,54.888996,9.803735,54.895069,9.793790
1386871506,1,0,280.9,0,0,0,0,0,0,-0.0292,640.6919,6.8213,0.4212,54.887962,9.804455,108.3,5.845,1.85,335.95,54.888996,9.803735,54.895069,9.793790
1386871506,1,0,280.9,0,0,4,0,0,25,-0.0292,640.6919,6.8213,0.4212,54.887962,9.804424,108.3,5.845,1.85,335.95,54.888996,9.803735,54.895069,9.793790
1386871507,1,0,280.9,0,0,0,0,0,0,-0.0292,640.6919,6.8213,0.4212,54.887962,9.804393,108.3,5.845,1.85,335.95,54.888996,9.803735,54.895069,9.793790
1386871507,1,0,280.9,0,0,4,0,0,25,-0.0292,640.6919,6.8213,0.4212,54.887962,9.804362,108.3,5.845,1.85,335.95,54.888996,9.803735,54.895069,9.793790
1386871507,1,0,545.9,0,35,8,0,0,0,-0.0292,631.3586,6.8213,0.4212,54.887962,9.804331,108.3,5.845,1.85,335.95,54.888996,9.803735,54.895069,9.793790
1386871507,1,0,545.9,0,35,12,0,26,25,-0.0292,622.0253,6.8213,0.4212,54.887959,9.804300,108.3,5.845,1.85,335.95,54.888996,9.803735,54.895069,9.793790
1386871508,1,0,545.9,0,35,16,0,88,50,-0.0292,612.6920,6.8213,0.4212,54.887955,9.804270,108.3,5.845,1.85,335.95,54.888996,9.803735,54.895069,9.793790
1386871508,1,0,545.9,0,35,20,0,168,75,-0.0292,603.3586,6.8213,0.4212,54.887947,9.804242,108.3,5.845,1.85,335.95,54.888996,9.803735,54.895069,9.793790
1386871508,1,0,545.9,0,35,24,0,253,100,-0.0292,594.0253,6.8213,0.4212,54.887936,9.804217,108.3,5.845,1.85,335.95,54.888996,9.803735,54.895069,9.793790
1386871508,1,0,545.9,0,35,28,0,338,125,-0.0292,584.6920,6.8213,0.4212,54.887924,9.804195,108.3,5.845,1.85,335.95,54.888996,9.803735,54.895069,9.793790
1386871509,1,0,545.9,0,35,32,0,420,150,-0.0292,575.3587,6.8213,0.4212,54.887909,9.804177,108.3,5.845,1.85,335.95,54.888996,9.803735,54.895069,9.793790
1386871509,1,0,545.9,0,29,28,0,498,175,-0.0292,567.6254,6.8213,0.4212,54.887894,9.804163,108.3,5.845,1.85,335.95,54.888996,9.803735,54.895069,9.793790
1386871509,1,0,545.9,0,22,24,0,558,200,-0.0292,561.7587,6.8213,0.4212,54.887875,9.804151,108.3,5.845,1.85,335.95,54.888996,9.803735,54.895069,9.793790
1386871509,1,0,545.9,0,16,20,0,578,225,-0.0292,557.4921,6.8213,0.4212,54.887856,9.804141,108.3,5.845,1.85,335.95,54.888996,9.803735,54.895069,9.793790
1386871510,1,0,545.9,0,12,16,0,409,250,-0.0292,554.2921,6.8213,0.4212,54.887840,9.804133,108.3,5.845,1.85,335.95,54.888996,9.803735,54.895069,9.793790
1386871510,1,0,545.9,0,8,12,0,409,275,-0.0292,552.1587,6.8213,0.4212,54.887821,9.804127,108.3,5.845,1.85,335.95,54.888996,9.803735,54.895069,9.793790
1386871510,1,0,545.9,0,6,8,0,0,250,-0.0292,550.5587,6.8213,0.4212,54.887802,9.804121,108.3,5.845,1.85,335.95,54.888996,9.803735,54.895069,9.793790
1386871510,1,0,545.9,0,5,4,0,0,225,-0.0292,549.2254,6.8213,0.4212,54.887783,9.804115,108.3,5.845,1.85,335.95,54.888996,9.803735,54.895069,9.793790
1386871511,1,0,545.9,0,3,0,0,0,200,-0.0292,548.4254,6.8213,0.4212,54.887768,9.804111,108.3,5.845,1.85,335.95,54.888996,9.803735,54.895069,9.793790
1386871511,1,0,545.9,0,2,4,0,0,175,-0.0292,547.8921,6.8213,0.4212,54.887749,9.804108,108.3,5.845,1.85,335.95,54.888996,9.803735,54.895069,9.793790
1386871511,1,0,545.9,0,2,0,0,0,150,-0.0292,547.3588,6.8213,0.4212,54.887730,9.804104,108.3,5.845,1.85,335.95,54.888996,9.803735,54.895069,9.793790
1386871511,1,0,545.9,0,1,4,0,0,125,-0.0292,547.0921,6.8213,0.4212,54.887711,9.804100,108.3,5.845,1.85,335.95,54.888996,9.803735,54.895069,9.793790
1386871512,1,0,545.9,0,1,0,0,0,100,-0.0292,546.8254,6.8213,0.4212,54.887695,9.804096,108.3,5.845,1.85,335.95,54.888996,9.803735,54.895069,9.793790
1386871512,1,0,545.9,0,1,4,0,0,75,-0.0292,546.5588,6.8213,0.4212,54.887676,9.804092,108.3,5.845,1.85,335.95,54.888996,9.803735,54.895069,9.793790
1386871512,1,0,545.9,0,1,0,0,0,50,-0.0292,546.2921,6.8213,0.4212,54.887657,9.804089,108.3,5.845,1.85,335.95,54.888996,9.803735,54.895069,9.793790
1386871512,1,0,545.9,0,0,4,0,0,25,-0.0292,546.2921,6.8213,0.4212,54.887638,9.804085,108.3,5.845,1.85,335.95,54.888996,9.803735,54.895069,9.793790
1386871513,1,0,545.9,0,0,0,0,0,0,-0.0292,546.2921,6.8213,0.4212,54.887623,9.804081,108.3,5.845,1.85,335.95,54.888996,9.803735,54.895069,9.793790
1386871513,1,0,545.9,0,0,4,0,0,25,-0.0292,546.2921,6.8213,0.4212,54.887604,9.804077,108.3,5.845,1.85,335.95,54.888996,9.803735,54.895069,9.793790
1386871513,1,0,485.9,0,35,8,0,0,0,-0.0292,536.9588,6.8213,0.4212,54.887585,9.804078,108.3,5.845,1.85,335.95,54.888996,9.803735,54.895069,9.793790
1386871513,1,0,485.9,0,35,12,0,0,25,-0.0292,527.6255,6.8213,0.4212,54.887569,9.804085,108.3,5.845,1.85,335.95,54.888996,9.803735,54.895069,9.793790
1386871514,1,0,485.9,0,35,16,0,0,0,-0.0292,518.2922,6.8213,0.4212,54.887550,9.804096,108.3,5.845,1.85,335.95,54.888996,9.803735,54.895069,9.793790
1386871514,1,0,485.9,0,32,20,0,0,25,-0.0292,509.7589,6.8213,0.4212,54.887535,9.804111,108.3,5.845,1.85,335.95,54.888996,9.803735,54.895069,9.793790
1386871514,1,0,485.9,0,24,24,0,0,0,-0.0292,503.3589,6.8213,0.4212,54.887520,9.804131,108.3,5.845,1.85,335.95,54.888996,9.803735,54.895069,9.793790
1386871514,1,0,485.9,0,17,20,0,0,25,-0.0292,498.8255,6.8213,0.4212,54.887505,9.804151,108.3,5.845,1.85,335.95,54.888996,9.803735,54.895069,9.793790
1386871515,1,0,485.9,0,13,16,0,0,0,-0.0292,495.3589,6.8213,0.4212,54.887493,9.804173,108.3,5.845,1.85,335.95,54.888996,9.803735,54.895069,9.793790
1386871515,1,0,485.9,0,9,12,0,0,25,-0.0292,492.9589,6.8213,0.4212,54.887482,9.804195,108.3,5.845,1.85,335.95,54.888996,9.803735,54.895069,9.793790
1386871515,1,0,485.9,0,7,8,0,409,50,-0.0292,491.0922,6.8213,0.4212,54.887470,9.804219,108.3,5.845,1.85,335.95,54.888996,9.803735,54.895069,9.793790
1386871515,1,0,485.9,0,5,4,0,409,75,-0.0292,489.7589,6.8213,0.4212,54.887455,9.804243,108.3,5.845,1.85,335.95,54.888996,9.803735,54.895069,9.793790
1386871516,1,0,485.9,0,4,8,0,409,100,-0.0292,488.6922,6.8213,0.4212,54.887444,9.804268,108.3,5.845,1.85,335.95,54.888996,9.803735,54.895069,9.793790
1386871516,1,0,485.9,0,3,4,0,409,125,-0.0292,487.8922,6.8213,0.4212,54.890526,9.805601,108.3,5.845,1.85,335.95,54.888996,9.803735,54.895069,9.793790
1386871516,1,0,485.9,0,2,0,0,409,150,-0.0292,487.3589,6.8213,0.4212,54.890514,9.805626,108.3,5.845,1.85,335.95,54.888996,9.803735,54.895069,9.793790
1386871516,1,0,485.9,0,1,4,0,409,175,-0.0292,487.0922,6.8213,0.4212,54.890507,9.805651,108.3,5.845,1.85,335.95,54.888996,9.803735,54.895069,9.793790
1386871517,1,0,485.9,0,1,0,0,409,200,-0.0292,486.8255,6.8213,0.4212,54.890495,9.805676,108.3,5.845,1.85,335.95,54.888996,9.803735,54.895069,9.793790
1386871517,1,1,485.9,0,1,0,0,0,200,-0.0292,486.8255,6.8213,0.4212,54.890495,9.805676,108.3,5.845,1.85,335.95,54.888996,9.803735,54.895069,9.793790
1386871517,1,1,485.9,0,1,0,0,0,200,-0.0292,486.8255,6.8213,0.4212,54.890495,9.805676,108.3,5.845,1.85,335.95,54.888996,9.803735,54.895069,9.793790
1386871517,1,1,485.9,0,1,0,0,0,200,-0.0292,486.8255,6.8213,0.4212,54.890495,9.805676,108.3,5.845,1.85,335.95,54.888996,9.803735,54.895069,9.793790
1386871518,1,1,485.9,0,1,0,0,0,200,-0.0292,486.8255,6.8213,0.4212,54.890495,9.805676,108.3,5.845,1.85,335.95,54.888996,9.803735,54.895069,9.793790
1386871518,1,1,485.9,0,1,0,0,0,200,-0.0292,486.8255,6.8213,0.4212,54.890495,9.805676,108.3,5.845,1.85,335.95,54.888996,9.803735,54.895069,9.793790
1386871518,1,1,485.9,0,1,0,0,0,200,-0.0292,486.8255,6.8213,0.4212,54.890495,9.805676,108.3,5.845,1.85,335.95,54.888996,9.803735,54.895069,9.793790
1386871518,1,1,485.9,0,1,0,0,0,200,-0.0292,486.8255,6.8213,0.4212,54.890495,9.805676,108.3,5.845,1.85,335.95,54.888996,9.803735,54.895069,9.793790
1386871519,1,1,485.9,0,1,0,0,0,200,-0.0292,486.8255,6.8213,0.4212,54.890495,9.805676,108.3,5.845,1.85,335.95,54.888996,9.803735,54.895069,9.793790
1386871519,1,1,485.9,0,1,0,0,0,200,-0.0292,486.8255,6.8213,0.4212,54.890495,9.805676,108.3,5.845,1.85,335.95,54.888996,9.803735,54.895069,9.793790
1386871519,1,1,485.9,0,1,0,0,0,200,-0.0292,486.8255,6.8213,0.4212,54.890495,9.805676,108.3,5.845,1.85,335.95,54.888996,9.803735,54.895069,9.793790
1386871519,1,1,485.9,0,1,0,0,0,200,-0.0292,486.8255,6.8213,0.4212,54.890495,9.805676,108.3,5.845,1.85,335.95,54.888996,9.803735,54.895069,9.793790
1386871520,1,1,485.9,0,1,0,0,0,200,-0.0292,486.8255,6.8213,0.4212,54.890495,9.805676,108.3,5.845,1.85,335.95,54.888996,9.803735,54.895069,9.793790
1386871520,1,1,485.9,0,1,0,0,0,200,-0.0292,486.8255,6.8213,0.4212,54.890495,9.805676,108.3,5.845,1.85,335.95,54.888996,9.803735,54.895069,9.793790
1386871520,1,1,485.9,0,1,0,0,0,200,-0.0292,486.8255,6.8213,0.4212,54.890495,9.805676,108.3,5.845,1.85,335.95,54.888996,9.803735,54.895069,9.793790
1386871521,1,1,485.9,0,1,0,0,0,200,-0.0292,486.8255,6.8213,0.4212,54.890495,9.805676,108.3,5.845,1.85,335.95,54.888996,9.803735,54.895069,9.793790
1386871521,1,1,485.9,0,1,0,0,0,200,-0.0292,486.8255,6.8213,0.4212,54.890495,9.805676,108.3,5.845,1.85,335.95,54.888996,9.803735,54.895069,9.793790
1386871521,1,1,485.9,0,1,0,0,0,200,-0.0292,486.8255,6.8213,0.4212,54.890495,9.805676,108.3,5.845,1.85,335.95,54.888996,9.803735,54.895069,9.793790
1386871521,1,1,485.9,0,1,0,0,0,200,-0.0292,486.8255,6.8213,0.4212,54.890495,9.805676,108.3,5.845,1.85,335.95,54.888996,9.803735,54.895069,9.793790
1386871522,1,1,485.9,0,1,0,0,0,200,-0.0292,486.8255,6.8213,0.4212,54.890495,9.805676,108.3,5.845,1.85,335.95,54.888996,9.803735,54.895069,9.793790
1386871522,1,1,485.9,0,1,0,0,0,200,-0.0292,486.8255,6.8213,0.4212,54.890495,9.805676,108.3,5.845,1.85,335.95,54.888996,9.803735,54.895069,9.793790
1386871522,1,1,485.9,0,1,0,0,0,200,-0.0292,486.8255,6.8213,0.4212,54.890495,9.805676,108.3,5.845,1.85,335.95,54.888996,9.803735,54.895069,9.793790
1386871522,1,1,485.9,0,1,0,0,0,200,-0.0292,486.8255,6.8213,0.4212,54.890495,9.805676,108.3,5.845,1.85,335.95,54.888996,9.803735,54.895069,9.793790
1386871523,1,1,485.9,0,1,0,0,0,200,-0.0292,486.8255,6.8213,0.4212,54.890495,9.805676,108.3,5.845,1.85,335.95,54.888996,9.803735,54.895069,9.793790
1386871523,1,1,485.9,5,1,0,0,0,200,-0.0292,486.8255,6.8213,0.4212,54.890495,9.805676,108.3,5.845,1.85,335.95,54.888996,9.803735,54.895069,9.793790
1386871523,1,1,485.9,5,1,0,0,0,200,-0.0292,486.8255,6.8213,0.4212,54.890495,9.805676,108.3,5.845,1.85,335.95,54.888996,9.803735,54.895069,9.793790
1386871523,1,1,485.9,5,1,0,0,0,200,-0.0292,486.8255,6.8213,0.4212,54.890495,9.805676,108.3,5.845,1.85,335.95,54.888996,9.803735,54.895069,9.793790
1386871524,1,1,485.9,10,1,0,0,0,200,-0.0292,486.8255,6.8213,0.4212,54.890495,9.805676,108.3,5.845,1.85,335.95,54.888996,9.803735,54.895069,9.793790
1386871524,1,1,485.9,10,1,0,0,0,200,-0.0292,486.8255,6.8213,0.4212,54.890495,9.805676,108.3,5.845,1.85,335.95,54.888996,9.803735,54.895069,9.793790
1386871524,1,1,485.9,10,1,0,0,0,200,-0.0292,486.8255,6.8213,0.4212,54.890495,9.805676,108.3,5.845,1.85,335.95,54.888996,9.803735,54.895069,9.793790
1386871524,1,1,485.9,15,1,0,0,0,200,-0.0292,486.8255,6.8213,0.4212,54.890495,9.805676,108.3,5.845,1.85,335.95,54.888996,9.803735,54.895069,9.793790
1386871525,1,1,485.9,20,1,0,0,0,200,-0.0292,486.8255,6.8213,0.4212,54.890495,9.805676,108.3,5.845,1.85,335.95,54.888996,9.803735,54.895069,9.793790
1386871525,1,1,485.9,20,1,0,0,0,200,-0.0292,486.8255,6.8213,0.4212,54.890495,9.805676,108.3,5.845,1.85,335.95,54.888996,9.803735,54.895069,9.793790
1386871525,1,1,485.9,20,1,0,0,0,200,-0.0292,486.8255,6.8213,0.4212,54.890495,9.805676,108.3,5.845,1.85,335.95,54.888996,9.803735,54.895069,9.793790
1386871525,1,1,485.9,20,1,0,0,0,200,-0.0292,486.8255,6.8213,0.4212,54.890495,9.805676,108.3,5.845,1.85,335.95,54.888996,9.803735,54.895069,9.793790
