MCU_timestamp,Navigation_System,Manual_Control,Guidance_Heading,Manual_Ctrl_Rudder,Rudder_Desired_Angle,Rudder_Feedback,Manual_Ctrl_Sail,Sail_Desired_Pos,Sail_Feedback,Rate,Heading,Pitch,Roll,Latitude,Longitude,COG,SOG,Wind_Speed,Wind_Angle,Point_Start_Lat,Point_Start_Lon,Point_End_Lat,Point_End_Lon
1390063670,0,0,0.0,0,0,0,0,0,0,-0.0292,-79.0412,6.8213,0.4212,54.894142,9.791196,108.3,5.845,1.85,335.95,0.000000,0.000000,0.000000,0.000000
1390063670,0,0,0.0,0,0,0,0,0,0,-0.0292,-79.0412,6.8213,0.4212,54.894142,9.791196,108.3,5.845,1.85,335.95,0.000000,0.000000,0.000000,0.000000
1390063670,0,0,0.0,0,0,0,0,0,0,-0.0292,-79.0412,6.8213,0.4212,54.894142,9.791196,108.3,5.845,1.85,335.95,0.000000,0.000000,0.000000,0.000000
1390063670,0,0,0.0,0,0,0,0,0,0,-0.0292,-79.0412,6.8213,0.4212,54.894142,9.791196,108.3,5.845,1.85,335.95,0.000000,0.000000,0.000000,0.000000
1390063671,0,0,0.0,0,0,0,0,0,0,-0.0292,-79.0412,6.8213,0.4212,54.894142,9.791196,108.3,5.845,1.85,335.95,0.000000,0.000000,0.000000,0.000000
1390063671,0,0,0.0,0,0,0,0,0,0,-0.0292,-79.0412,6.8213,0.4212,54.894142,9.791196,108.3,5.845,1.85,335.95,0.000000,0.000000,0.000000,0.000000
1390063671,0,0,0.0,0,0,0,0,0,0,-0.0292,-79.0412,6.8213,0.4212,54.894142,9.791196,108.3,5.845,1.85,335.95,0.000000,0.000000,0.000000,0.000000
1390063671,0,0,0.0,0,0,0,0,0,0,-0.0292,-79.0412,6.8213,0.4212,54.894142,9.791196,108.3,5.845,1.85,335.95,0.000000,0.000000,0.000000,0.000000
1390063672,0,0,0.0,0,0,0,0,0,0,-0.0292,-79.0412,6.8213,0.4212,54.894142,9.791196,108.3,5.845,1.85,335.95,0.000000,0.000000,0.000000,0.000000
1390063672,0,0,0.0,0,0,0,0,0,0,-0.0292,-79.0412,6.8213,0.4212,54.894142,9.791196,108.3,5.845,1.85,335.95,0.000000,0.000000,0.000000,0.000000
1390063672,0,0,0.0,0,0,0,0,0,0,-0.0292,-79.0412,6.8213,0.4212,54.894142,9.791196,108.3,5.845,1.85,335.95,0.000000,0.000000,0.000000,0.000000
1390063672,0,0,0.0,0,0,0,0,0,0,-0.0292,-79.0412,6.8213,0.4212,54.894142,9.791196,108.3,5.845,1.85,335.95,0.000000,0.000000,0.000000,0.000000
1390063673,0,0,0.0,0,0,0,0,0,0,-0.0292,-79.0412,6.8213,0.4212,54.894142,9.791196,108.3,5.845,1.85,335.95,0.000000,0.000000,0.000000,0.000000
1390063673,0,0,0.0,0,0,0,0,0,0,-0.0292,-79.0412,6.8213,0.4212,54.894142,9.791196,108.3,5.845,1.85,335.95,0.000000,0.000000,0.000000,0.000000
1390063673,0,0,0.0,0,0,0,0,0,0,-0.0292,-79.0412,6.8213,0.4212,54.894142,9.791196,108.3,5.845,1.85,335.95,0.000000,0.000000,0.000000,0.000000
1390063673,0,0,0.0,0,0,0,0,0,0,-0.0292,-79.0412,6.8213,0.4212,54.894142,9.791196,108.3,5.845,1.85,335.95,0.000000,0.000000,0.000000,0.000000
1390063674,0,0,0.0,0,0,0,0,0,0,-0.0292,-79.0412,6.8213,0.4212,54.894142,9.791196,108.3,5.845,1.85,335.95,0.000000,0.000000,0.000000,0.000000
1390063674,0,0,0.0,0,0,0,0,0,0,-0.0292,-79.0412,6.8213,0.4212,54.894142,9.791196,108.3,5.845,1.85,335.95,0.000000,0.000000,0.000000,0.000000
1390063674,0,0,0.0,0,0,0,0,0,0,-0.0292,-79.0412,6.8213,0.4212,54.894142,9.791196,108.3,5.845,1.85,335.95,0.000000,0.000000,0.000000,0.000000
1390063674,0,0,0.0,0,0,0,0,0,0,-0.0292,-79.0412,6.8213,0.4212,54.894142,9.791196,108.3,5.845,1.85,335.95,0.000000,0.000000,0.000000,0.000000
1390063675,0,0,0.0,0,0,0,0,0,0,-0.0292,-79.0412,6.8213,0.4212,54.894142,9.791196,108.3,5.845,1.85,335.95,0.000000,0.000000,0.000000,0.000000
1390063675,4,0,0.0,0,0,0,0,0,0,-0.0292,-79.0412,6.8213,0.4212,54.894142,9.791196,108.3,5.845,1.85,335.95,0.000000,0.000000,0.000000,0.000000
1390063675,1,0,0.0,0,35,4,0,0,0,-0.0292,-90.7078,6.8213,0.4212,54.894142,9.791235,108.3,5.845,1.85,335.95,54.895069,9.793790,54.895348,9.797490
1390063675,1,0,0.0,0,35,8,0,66,50,-0.0292,-102.3745,6.8213,0.4212,54.894146,9.791279,108.3,5.845,1.85,335.95,54.895348,9.797490,54.894039,9.801540
1390063676,1,0,0.0,0,35,12,0,217,100,-0.0292,-114.0411,6.8213,0.4212,54.894157,9.791326,108.3,5.845,1.85,335.95,54.894039,9.801540,54.893795,9.802299
1390063676,1,0,0.0,0,35,16,0,399,150,-0.0292,-125.7078,6.8213,0.4212,54.894180,9.791373,108.3,5.845,1.85,335.95,54.893795,9.802299,54.893364,9.803688
1390063676,1,0,0.0,0,35,20,0,585,200,-0.0292,-137.3745,6.8213,0.4212,54.894211,9.791417,108.3,5.845,1.85,335.95,54.893364,9.803688,54.892704,9.801139
1390063676,1,0,0.0,0,33,24,0,763,250,-0.0292,-148.3745,6.8213,0.4212,54.894245,9.791455,108.3,5.845,1.85,335.95,54.892704,9.801139,54.891663,9.800174
1390063677,1,0,0.0,0,22,20,0,870,300,-0.0292,-155.7078,6.8213,0.4212,54.894287,9.791487,108.3,5.845,1.85,335.95,54.891663,9.800174,54.892929,9.805077
1390063677,1,0,0.0,0,14,16,0,870,350,-0.0292,-160.3745,6.8213,0.4212,54.894329,9.791513,108.3,5.845,1.85,335.95,54.892929,9.805077,54.892498,9.806466
1390063677,1,0,0.0,0,10,12,0,713,400,-0.0292,-163.7078,6.8213,0.4212,54.894375,9.791536,108.3,5.845,1.85,335.95,54.892498,9.806466,54.891232,9.801563
1390063677,1,0,0.0,0,6,8,0,713,450,-0.0292,-165.7078,6.8213,0.4212,54.894424,9.791556,108.3,5.845,1.85,335.95,54.891232,9.801563,54.890800,9.802953
1390063678,1,0,0.0,0,4,4,0,713,500,-0.0292,-167.0411,6.8213,0.4212,54.894474,9.791575,108.3,5.845,1.85,335.95,54.890800,9.802953,54.891651,9.806246
1390063678,1,0,0.0,0,3,0,0,713,550,-0.0292,-168.0411,6.8213,0.4212,54.894524,9.791593,108.3,5.845,1.85,335.95,54.891651,9.806246,54.890560,9.805087
1390063678,1,0,0.0,0,2,4,0,713,600,-0.0292,-168.7078,6.8213,0.4212,54.894573,9.791610,108.3,5.845,1.85,335.95,54.890560,9.805087,54.890366,9.804342
1390063678,1,0,0.0,0,1,0,0,713,650,-0.0292,-169.0411,6.8213,0.4212,54.894623,9.791626,108.3,5.845,1.85,335.95,54.890366,9.804342,54.890846,9.801930
1390063679,1,0,0.0,0,1,4,0,713,700,-0.0292,-169.3745,6.8213,0.4212,54.894672,9.791642,108.3,5.845,1.85,335.95,54.890846,9.801930,54.889477,9.798280
1390063679,1,0,0.0,0,1,0,0,713,750,-0.0292,-169.7078,6.8213,0.4212,54.894722,9.791657,108.3,5.845,1.85,335.95,54.889477,9.798280,54.891819,9.794550
1390063679,1,0,0.0,0,0,4,0,713,700,-0.0292,-169.7078,6.8213,0.4212,54.894772,9.791673,108.3,5.845,1.85,335.95,54.891819,9.794550,54.895348,9.797490
1390063679,1,0,0.0,0,0,0,0,713,750,-0.0292,-169.7078,6.8213,0.4212,54.894821,9.791688,108.3,5.845,1.85,335.95,54.895348,9.797490,54.895069,9.793790
1390063680,1,0,0.0,0,0,4,0,713,700,-0.0292,-169.7078,6.8213,0.4212,54.894871,9.791704,108.3,5.845,1.85,335.95,54.895348,9.797490,54.895069,9.793790
1390063680,3,0,0.0,0,0,0,0,713,750,-0.0292,-169.7078,6.8213,0.4212,54.894920,9.791719,108.3,5.845,1.85,335.95,54.895348,9.797490,54.894871,9.791704
1390063680,3,0,0.0,0,0,4,0,713,700,-0.0292,-169.7078,6.8213,0.4212,54.894970,9.791735,108.3,5.845,1.85,335.95,54.895348,9.797490,54.894871,9.791704
1390063680,3,0,0.0,0,-10,0,0,713,750,-0.0292,-166.3745,6.8213,0.4212,54.895020,9.791754,108.3,5.845,1.85,335.95,54.895348,9.797490,54.894871,9.791704
1390063681,3,0,0.0,0,-6,-4,0,713,700,-0.0292,-164.3745,6.8213,0.4212,54.895069,9.791776,108.3,5.845,1.85,335.95,54.895348,9.797490,54.894871,9.791704
1390063681,3,0,0.0,0,-4,0,0,713,750,-0.0292,-163.0411,6.8213,0.4212,54.895111,9.791799,108.3,5.845,1.85,335.95,54.895348,9.797490,54.894871,9.791704
1390063681,3,0,0.0,0,-3,-4,0,713,700,-0.0292,-162.0411,6.8213,0.4212,54.895157,9.791823,108.3,5.845,1.85,335.95,54.895348,9.797490,54.894871,9.791704
1390063681,3,0,0.0,0,-2,0,0,713,750,-0.0292,-161.3745,6.8213,0.4212,54.895203,9.791848,108.3,5.845,1.85,335.95,54.895348,9.797490,54.894871,9.791704
1390063682,3,0,0.0,0,-1,-4,0,713,700,-0.0292,-161.0411,6.8213,0.4212,54.895245,9.791874,108.3,5.845,1.85,335.95,54.895348,9.797490,54.894871,9.791704
1390063682,3,0,0.0,0,-1,0,0,713,750,-0.0292,-160.7078,6.8213,0.4212,54.895287,9.791900,108.3,5.845,1.85,335.95,54.895348,9.797490,54.894871,9.791704
1390063682,3,0,0.0,0,-1,-4,0,713,700,-0.0292,-160.3745,6.8213,0.4212,54.895332,9.791926,108.3,5.845,1.85,335.95,54.895348,9.797490,54.894871,9.791704
1390063682,3,0,0.0,0,0,0,0,713,750,-0.0292,-160.3745,6.8213,0.4212,54.895378,9.791953,108.3,5.845,1.85,335.95,54.895348,9.797490,54.894871,9.791704
1390063683,3,0,0.0,0,0,4,0,713,700,-0.0292,-160.3745,6.8213,0.4212,54.895420,9.791980,108.3,5.845,1.85,335.95,54.895348,9.797490,54.894871,9.791704
1390063683,3,0,0.0,0,0,0,0,713,750,-0.0292,-160.3745,6.8213,0.4212,54.895462,9.792006,108.3,5.845,1.85,335.95,54.895348,9.797490,54.894871,9.791704
1390063683,3,0,0.0,0,0,4,0,713,700,-0.0292,-160.3745,6.8213,0.4212,54.895508,9.792033,108.3,5.845,1.85,335.95,54.895348,9.797490,54.894871,9.791704
1390063684,3,0,0.0,0,0,0,0,713,750,-0.0292,-160.3745,6.8213,0.4212,54.895554,9.792060,108.3,5.845,1.85,335.95,54.895348,9.797490,54.894871,9.791704
1390063684,3,0,0.0,0,0,4,0,713,700,-0.0292,-160.3745,6.8213,0.4212,54.895599,9.792087,108.3,5.845,1.85,335.95,54.895348,9.797490,54.894871,9.791704
1390063684,3,0,0.0,0,0,0,0,713,750,-0.0292,-160.3745,6.8213,0.4212,54.895641,9.792113,108.3,5.845,1.85,335.95,54.895348,9.797490,54.894871,9.791704
1390063684,3,0,0.0,0,0,4,0,713,700,-0.0292,-160.3745,6.8213,0.4212,54.895683,9.792140,108.3,5.845,1.85,335.95,54.895348,9.797490,54.894871,9.791704
1390063685,3,0,0.0,0,0,0,0,713,750,-0.0292,-160.3745,6.8213,0.4212,54.895729,9.792167,108.3,5.845,1.85,335.95,54.895348,9.797490,54.894871,9.791704
1390063685,3,0,0.0,0,0,4,0,713,700,-0.0292,-160.3745,6.8213,0.4212,54.895775,9.792193,108.3,5.845,1.85,335.95,54.895348,9.797490,54.894871,9.791704
1390063685,3,0,0.0,0,0,0,0,713,750,-0.0292,-160.3745,6.8213,0.4212,54.895821,9.792220,108.3,5.845,1.85,335.95,54.895348,9.797490,54.894871,9.791704
1390063685,3,0,0.0,0,0,4,0,713,700,-0.0292,-160.3745,6.8213,0.4212,54.895863,9.792247,108.3,5.845,1.85,335.95,54.895348,9.797490,54.894871,9.791704
1390063686,3,0,0.0,0,10,8,0,713,750,-0.0292,-163.7078,6.8213,0.4212,54.895908,9.792270,108.3,5.845,1.85,335.95,54.895348,9.797490,54.894871,9.791704
1390063686,3,0,0.0,0,6,4,0,713,700,-0.0292,-165.7078,6.8213,0.4212,54.895954,9.792291,108.3,5.845,1.85,335.95,54.895348,9.797490,54.894871,9.791704
1390063686,3,0,0.0,0,4,8,0,713,750,-0.0292,-167.0411,6.8213,0.4212,54.896004,9.792309,108.3,5.845,1.85,335.95,54.895348,9.797490,54.894871,9.791704
1390063686,3,0,0.0,0,3,4,0,713,700,-0.0292,-168.0411,6.8213,0.4212,54.896049,9.792326,108.3,5.845,1.85,335.95,54.895348,9.797490,54.894871,9.791704
1390063687,3,0,0.0,0,2,0,0,713,750,-0.0292,-168.7078,6.8213,0.4212,54.896099,9.792343,108.3,5.845,1.85,335.95,54.895348,9.797490,54.894871,9.791704
1390063687,3,0,0.0,0,1,4,0,713,700,-0.0292,-169.0411,6.8213,0.4212,54.896149,9.792359,108.3,5.845,1.85,335.95,54.895348,9.797490,54.894871,9.791704
1390063687,3,0,0.0,0,1,0,0,713,750,-0.0292,-169.3745,6.8213,0.4212,54.896198,9.792376,108.3,5.845,1.85,335.95,54.895348,9.797490,54.894871,9.791704
1390063687,3,0,0.0,0,1,4,0,713,700,-0.0292,-169.7078,6.8213,0.4212,54.896248,9.792391,108.3,5.845,1.85,335.95,54.895348,9.797490,54.894871,9.791704
1390063688,3,0,0.0,0,0,0,0,713,750,-0.0292,-169.7078,6.8213,0.4212,54.896297,9.792406,108.3,5.845,1.85,335.95,54.895348,9.797490,54.894871,9.791704
1390063688,3,0,0.0,0,0,4,0,713,700,-0.0292,-169.7078,6.8213,0.4212,54.896347,9.792421,108.3,5.845,1.85,335.95,54.895348,9.797490,54.894871,9.791704
1390063688,3,0,0.0,0,0,0,0,713,750,-0.0292,-169.7078,6.8213,0.4212,54.896397,9.792437,108.3,5.845,1.85,335.95,54.895348,9.797490,54.894871,9.791704
1390063688,3,0,0.0,0,0,4,0,713,700,-0.0292,-169.7078,6.8213,0.4212,54.896446,9.792452,108.3,5.845,1.85,335.95,54.895348,9.797490,54.894871,9.791704
1390063689,3,0,0.0,0,0,0,0,713,750,-0.0292,-169.7078,6.8213,0.4212,54.896492,9.792467,108.3,5.845,1.85,335.95,54.895348,9.797490,54.894871,9.791704
1390063689,3,0,0.0,0,0,4,0,713,700,-0.0292,-169.7078,6.8213,0.4212,54.896542,9.792482,108.3,5.845,1.85,335.95,54.895348,9.797490,54.894871,9.791704
1390063689,3,0,0.0,0,0,0,0,713,750,-0.0292,-169.7078,6.8213,0.4212,54.896591,9.792498,108.3,5.845,1.85,335.95,54.895348,9.797490,54.894871,9.791704
1390063689,3,0,0.0,0,0,4,0,713,700,-0.0292,-169.7078,6.8213,0.4212,54.896641,9.792513,108.3,5.845,1.85,335.95,54.895348,9.797490,54.894871,9.791704
1390063690,3,0,0.0,0,0,0,0,713,750,-0.0292,-169.7078,6.8213,0.4212,54.896690,9.792528,108.3,5.845,1.85,335.95,54.895348,9.797490,54.894871,9.791704
1390063690,3,0,0.0,0,0,4,0,713,700,-0.0292,-169.7078,6.8213,0.4212,54.896740,9.792543,108.3,5.845,1.85,335.95,54.895348,9.797490,54.894871,9.791704
1390063690,3,0,0.0,0,0,0,0,713,750,-0.0292,-169.7078,6.8213,0.4212,54.896790,9.792559,108.3,5.845,1.85,335.95,54.895348,9.797490,54.894871,9.791704
1390063690,3,0,0.0,0,0,4,0,713,700,-0.0292,-169.7078,6.8213,0.4212,54.896839,9.792574,108.3,5.845,1.85,335.95,54.895348,9.797490,54.894871,9.791704
1390063691,3,0,0.0,0,-10,0,0,713,750,-0.0292,-166.3745,6.8213,0.4212,54.896889,9.792594,108.3,5.845,1.85,335.95,54.895348,9.797490,54.894871,9.791704
1390063691,3,0,0.0,0,-6,-4,0,713,700,-0.0292,-164.3745,6.8213,0.4212,54.896938,9.792616,108.3,5.845,1.85,335.95,54.895348,9.797490,54.894871,9.791704
1390063691,3,0,0.0,0,-4,0,0,713,750,-0.0292,-163.0411,6.8213,0.4212,54.896980,9.792640,108.3,5.845,1.85,335.95,54.895348,9.797490,54.894871,9.791704
1390063691,3,0,0.0,0,-3,-4,0,713,700,-0.0292,-162.0411,6.8213,0.4212,54.897026,9.792665,108.3,5.845,1.85,335.95,54.895348,9.797490,54.894871,9.791704
1390063692,3,0,0.0,0,-2,0,0,713,750,-0.0292,-161.3745,6.8213,0.4212,54.897072,9.792690,108.3,5.845,1.85,335.95,54.895348,9.797490,54.894871,9.791704
1390063692,3,0,0.0,0,-1,-4,0,713,700,-0.0292,-161.0411,6.8213,0.4212,54.897114,9.792716,108.3,5.845,1.85,335.95,54.895348,9.797490,54.894871,9.791704
1390063692,3,0,0.0,0,-1,0,0,713,750,-0.0292,-160.7078,6.8213,0.4212,54.897156,9.792743,108.3,5.845,1.85,335.95,54.895348,9.797490,54.894871,9.791704
1390063692,3,0,0.0,0,-1,-4,0,713,700,-0.0292,-160.3745,6.8213,0.4212,54.897202,9.792769,108.3,5.845,1.85,335.95,54.895348,9.797490,54.894871,9.791704
1390063693,3,0,0.0,0,0,0,0,713,750,-0.0292,-160.3745,6.8213,0.4212,54.897247,9.792796,108.3,5.845,1.85,335.95,54.895348,9.797490,54.894871,9.791704
1390063693,3,0,0.0,0,0,4,0,713,700,-0.0292,-160.3745,6.8213,0.4212,54.897289,9.792823,108.3,5.845,1.85,335.95,54.895348,9.797490,54.894871,9.791704
1390063693,3,0,0.0,0,0,0,0,713,750,-0.0292,-160.3745,6.8213,0.4212,54.897331,9.792850,108.3,5.845,1.85,335.95,54.895348,9.797490,54.894871,9.791704
1390063693,3,0,0.0,0,0,4,0,713,700,-0.0292,-160.3745,6.8213,0.4212,54.897377,9.792876,108.3,5.845,1.85,335.95,54.895348,9.797490,54.894871,9.791704
1390063694,3,0,0.0,0,0,0,0,713,750,-0.0292,-160.3745,6.8213,0.4212,54.897423,9.792903,108.3,5.845,1.85,335.95,54.895348,9.797490,54.894871,9.791704
1390063694,3,0,0.0,0,0,4,0,713,700,-0.0292,-160.3745,6.8213,0.4212,54.897469,9.792930,108.3,5.845,1.85,335.95,54.895348,9.797490,54.894871,9.791704
1390063694,3,0,0.0,0,0,0,0,713,750,-0.0292,-160.3745,6.8213,0.4212,54.897511,9.792956,108.3,5.845,1.85,335.95,54.895348,9.797490,54.894871,9.791704
1390063694,3,0,0.0,0,0,4,0,713,700,-0.0292,-160.3745,6.8213,0.4212,54.897552,9.792983,108.3,5.845,1.85,335.95,54.895348,9.797490,54.894871,9.791704
1390063695,3,0,0.0,0,0,0,0,713,750,-0.0292,-160.3745,6.8213,0.4212,54.897598,9.793010,108.3,5.845,1.85,335.95,54.895348,9.797490,54.894871,9.791704
1390063695,3,0,0.0,0,0,4,0,713,700,-0.0292,-160.3745,6.8213,0.4212,54.897644,9.793036,108.3,5.845,1.85,335.95,54.895348,9.797490,54.894871,9.791704
1390063695,3,0,0.0,0,0,0,0,713,750,-0.0292,-160.3745,6.8213,0.4212,54.897690,9.793063,108.3,5.845,1.85,335.95,54.895348,9.797490,54.894871,9.791704
1390063695,3,0,0.0,0,0,4,0,713,700,-0.0292,-160.3745,6.8213,0.4212,54.897732,9.793090,108.3,5.845,1.85,335.95,54.895348,9.797490,54.894871,9.791704
1390063696,3,0,0.0,0,10,8,0,713,750,-0.0292,-163.7078,6.8213,0.4212,54.897778,9.793113,108.3,5.845,1.85,335.95,54.895348,9.797490,54.894871,9.791704
1390063696,3,0,0.0,0,6,4,0,713,700,-0.0292,-165.7078,6.8213,0.4212,54.897823,9.793133,108.3,5.845,1.85,335.95,54.895348,9.797490,54.894871,9.791704
1390063696,3,0,0.0,0,4,8,0,713,750,-0.0292,-167.0411,6.8213,0.4212,54.897873,9.793152,108.3,5.845,1.85,335.95,54.895348,9.797490,54.894871,9.791704
1390063696,3,0,0.0,0,3,4,0,713,700,-0.0292,-168.0411,6.8213,0.4212,54.897919,9.793169,108.3,5.845,1.85,335.95,54.895348,9.797490,54.894871,9.791704
1390063697,3,0,0.0,0,2,0,0,713,750,-0.0292,-168.7078,6.8213,0.4212,54.897968,9.793185,108.3,5.845,1.85,335.95,54.895348,9.797490,54.894871,9.791704
1390063697,3,0,0.0,0,1,4,0,713,700,-0.0292,-169.0411,6.8213,0.4212,54.898018,9.793201,108.3,5.845,1.85,335.95,54.895348,9.797490,54.894871,9.791704
1390063697,3,0,0.0,0,1,0,0,713,750,-0.0292,-169.3745,6.8213,0.4212,54.898067,9.793217,108.3,5.845,1.85,335.95,54.895348,9.797490,54.894871,9.791704
1390063697,3,0,0.0,0,1,4,0,713,700,-0.0292,-169.7078,6.8213,0.4212,54.898117,9.793232,108.3,5.845,1.85,335.95,54.895348,9.797490,54.894871,9.791704
1390063698,3,0,0.0,0,0,0,0,713,750,-0.0292,-169.7078,6.8213,0.4212,54.898167,9.793247,108.3,5.845,1.85,335.95,54.895348,9.797490,54.894871,9.791704
1390063698,3,0,0.0,0,0,4,0,713,700,-0.0292,-169.7078,6.8213,0.4212,54.898216,9.793262,108.3,5.845,1.85,335.95,54.895348,9.797490,54.894871,9.791704
1390063698,3,0,0.0,0,0,0,0,713,750,-0.0292,-169.7078,6.8213,0.4212,54.898266,9.793278,108.3,5.845,1.85,335.95,54.895348,9.797490,54.894871,9.791704
1390063698,3,0,0.0,0,0,4,0,713,700,-0.0292,-169.7078,6.8213,0.4212,54.898315,9.793293,108.3,5.845,1.85,335.95,54.895348,9.797490,54.894871,9.791704
1390063699,3,0,0.0,0,0,0,0,713,750,-0.0292,-169.7078,6.8213,0.4212,54.898361,9.793308,108.3,5.845,1.85,335.95,54.895348,9.797490,54.894871,9.791704
1390063699,3,0,0.0,0,0,4,0,713,700,-0.0292,-169.7078,6.8213,0.4212,54.898411,9.793324,108.3,5.845,1.85,335.95,54.895348,9.797490,54.894871,9.791704
1390063699,3,0,0.0,0,0,0,0,713,750,-0.0292,-169.7078,6.8213,0.4212,54.898460,9.793339,108.3,5.845,1.85,335.95,54.895348,9.797490,54.894871,9.791704
1390063699,3,0,0.0,0,0,4,0,713,700,-0.0292,-169.7078,6.8213,0.4212,54.898510,9.793354,108.3,5.845,1.85,335.95,54.895348,9.797490,54.894871,9.791704
1390063700,3,0,0.0,0,0,0,0,713,750,-0.0292,-169.7078,6.8213,0.4212,54.898560,9.793369,108.3,5.845,1.85,335.95,54.895348,9.797490,54.894871,9.791704
1390063700,3,0,0.0,0,0,4,0,713,700,-0.0292,-169.7078,6.8213,0.4212,54.898609,9.793385,108.3,5.845,1.85,335.95,54.895348,9.797490,54.894871,9.791704
1390063700,3,0,0.0,0,0,0,0,713,750,-0.0292,-169.7078,6.8213,0.4212,54.898659,9.793400,108.3,5.845,1.85,335.95,54.895348,9.797490,54.894871,9.791704
1390063700,3,0,0.0,0,0,4,0,713,700,-0.0292,-169.7078,6.8213,0.4212,54.898708,9.793415,108.3,5.845,1.85,335.95,54.895348,9.797490,54.894871,9.791704
1390063701,3,0,0.0,0,-10,0,0,713,750,-0.0292,-166.3745,6.8213,0.4212,54.898758,9.793434,108.3,5.845,1.85,335.95,54.895348,9.797490,54.894871,9.791704
1390063701,3,0,0.0,0,-6,-4,0,713,700,-0.0292,-164.3745,6.8213,0.4212,54.898808,9.793456,108.3,5.845,1.85,335.95,54.895348,9.797490,54.894871,9.791704
1390063701,3,0,0.0,0,-4,0,0,713,750,-0.0292,-163.0411,6.8213,0.4212,54.898849,9.793480,108.3,5.845,1.85,335.95,54.895348,9.797490,54.894871,9.791704
1390063701,3,0,0.0,0,-3,-4,0,713,700,-0.0292,-162.0411,6.8213,0.4212,54.898895,9.793505,108.3,5.845,1.85,335.95,54.895348,9.797490,54.894871,9.791704
1390063702,3,0,0.0,0,-2,0,0,713,750,-0.0292,-161.3745,6.8213,0.4212,54.898941,9.793530,108.3,5.845,1.85,335.95,54.895348,9.797490,54.894871,9.791704
1390063702,3,0,0.0,0,-1,-4,0,713,700,-0.0292,-161.0411,6.8213,0.4212,54.898983,9.793557,108.3,5.845,1.85,335.95,54.895348,9.797490,54.894871,9.791704
1390063702,3,0,0.0,0,-1,0,0,713,750,-0.0292,-160.7078,6.8213,0.4212,54.899025,9.793584,108.3,5.845,1.85,335.95,54.895348,9.797490,54.894871,9.791704
1390063702,3,0,0.0,0,-1,-4,0,713,700,-0.0292,-160.3745,6.8213,0.4212,54.899071,9.793611,108.3,5.845,1.85,335.95,54.895348,9.797490,54.894871,9.791704
1390063703,3,0,0.0,0,0,0,0,713,750,-0.0292,-160.3745,6.8213,0.4212,54.899117,9.793637,108.3,5.845,1.85,335.95,54.895348,9.797490,54.894871,9.791704
1390063703,3,0,0.0,0,0,4,0,713,700,-0.0292,-160.3745,6.8213,0.4212,54.899158,9.793664,108.3,5.845,1.85,335.95,54.895348,9.797490,54.894871,9.791704
1390063703,3,0,0.0,0,0,0,0,713,750,-0.0292,-160.3745,6.8213,0.4212,54.899200,9.793691,108.3,5.845,1.85,335.95,54.895348,9.797490,54.894871,9.791704
1390063703,3,0,0.0,0,0,4,0,713,700,-0.0292,-160.3745,6.8213,0.4212,54.899246,9.793717,108.3,5.845,1.85,335.95,54.895348,9.797490,54.894871,9.791704
1390063704,3,0,0.0,0,0,0,0,713,750,-0.0292,-160.3745,6.8213,0.4212,54.899292,9.793744,108.3,5.845,1.85,335.95,54.895348,9.797490,54.894871,9.791704
1390063704,3,0,0.0,0,0,4,0,713,700,-0.0292,-160.3745,6.8213,0.4212,54.899338,9.793771,108.3,5.845,1.85,335.95,54.895348,9.797490,54.894871,9.791704
1390063704,3,0,0.0,0,0,0,0,713,750,-0.0292,-160.3745,6.8213,0.4212,54.899380,9.793797,108.3,5.845,1.85,335.95,54.895348,9.797490,54.894871,9.791704
1390063704,3,0,0.0,0,0,4,0,713,700,-0.0292,-160.3745,6.8213,0.4212,54.899422,9.793824,108.3,5.845,1.85,335.95,54.895348,9.797490,54.894871,9.791704
1390063705,3,0,0.0,0,0,0,0,713,750,-0.0292,-160.3745,6.8213,0.4212,54.899467,9.793851,108.3,5.845,1.85,335.95,54.895348,9.797490,54.894871,9.791704
1390063705,3,0,0.0,0,0,4,0,713,700,-0.0292,-160.3745,6.8213,0.4212,54.899513,9.793878,108.3,5.845,1.85,335.95,54.895348,9.797490,54.894871,9.791704
1390063705,3,0,0.0,0,0,0,0,713,750,-0.0292,-160.3745,6.8213,0.4212,54.899559,9.793904,108.3,5.845,1.85,335.95,54.895348,9.797490,54.894871,9.791704
1390063705,3,0,0.0,0,0,4,0,713,700,-0.0292,-160.3745,6.8213,0.4212,54.899601,9.793931,108.3,5.845,1.85,335.95,54.895348,9.797490,54.894871,9.791704
1390063706,3,0,0.0,0,10,8,0,713,750,-0.0292,-163.7078,6.8213,0.4212,54.899647,9.793954,108.3,5.845,1.85,335.95,54.895348,9.797490,54.894871,9.791704
1390063706,3,0,0.0,0,6,4,0,713,700,-0.0292,-165.7078,6.8213,0.4212,54.899693,9.793975,108.3,5.845,1.85,335.95,54.895348,9.797490,54.894871,9.791704
1390063706,3,0,0.0,0,4,8,0,713,750,-0.0292,-167.0411,6.8213,0.4212,54.899742,9.793994,108.3,5.845,1.85,335.95,54.895348,9.797490,54.894871,9.791704
1390063706,3,0,0.0,0,3,4,0,713,700,-0.0292,-168.0411,6.8213,0.4212,54.899788,9.794012,108.3,5.845,1.85,335.95,54.895348,9.797490,54.894871,9.791704
1390063707,3,0,0.0,0,2,0,0,713,750,-0.0292,-168.7078,6.8213,0.4212,54.899837,9.794028,108.3,5.845,1.85,335.95,54.895348,9.797490,54.894871,9.791704
1390063707,3,0,0.0,0,1,4,0,713,700,-0.0292,-169.0411,6.8213,0.4212,54.899887,9.794044,108.3,5.845,1.85,335.95,54.895348,9.797490,54.894871,9.791704
1390063707,3,0,0.0,0,1,0,0,713,750,-0.0292,-169.3745,6.8213,0.4212,54.899937,9.794061,108.3,5.845,1.85,335.95,54.895348,9.797490,54.894871,9.791704
1390063707,3,0,0.0,0,1,4,0,713,700,-0.0292,-169.7078,6.8213,0.4212,54.899986,9.794076,108.3,5.845,1.85,335.95,54.895348,9.797490,54.894871,9.791704
1390063708,3,0,0.0,0,0,0,0,713,750,-0.0292,-169.7078,6.8213,0.4212,54.900036,9.794091,108.3,5.845,1.85,335.95,54.895348,9.797490,54.894871,9.791704
1390063708,3,0,0.0,0,0,4,0,713,700,-0.0292,-169.7078,6.8213,0.4212,54.900085,9.794106,108.3,5.845,1.85,335.95,54.895348,9.797490,54.894871,9.791704
1390063708,3,0,0.0,0,0,0,0,713,750,-0.0292,-169.7078,6.8213,0.4212,54.900135,9.794122,108.3,5.845,1.85,335.95,54.895348,9.797490,54.894871,9.791704
1390063708,3,0,0.0,0,0,4,0,713,700,-0.0292,-169.7078,6.8213,0.4212,54.900185,9.794137,108.3,5.845,1.85,335.95,54.895348,9.797490,54.894871,9.791704
1390063709,3,0,0.0,0,0,0,0,713,750,-0.0292,-169.7078,6.8213,0.4212,54.900230,9.794152,108.3,5.845,1.85,335.95,54.895348,9.797490,54.894871,9.791704
1390063709,3,0,0.0,0,0,4,0,713,700,-0.0292,-169.7078,6.8213,0.4212,54.900280,9.794168,108.3,5.845,1.85,335.95,54.895348,9.797490,54.894871,9.791704
1390063709,3,0,0.0,0,0,0,0,713,750,-0.0292,-169.7078,6.8213,0.4212,54.900330,9.794183,108.3,5.845,1.85,335.95,54.895348,9.797490,54.894871,9.791704
1390063709,3,0,0.0,0,0,4,0,713,700,-0.0292,-169.7078,6.8213,0.4212,54.900379,9.794198,108.3,5.845,1.85,335.95,54.895348,9.797490,54.894871,9.791704
1390063710,3,0,0.0,0,0,0,0,713,750,-0.0292,-169.7078,6.8213,0.4212,54.900429,9.794213,108.3,5.845,1.85,335.95,54.895348,9.797490,54.894871,9.791704
1390063710,3,0,0.0,0,0,4,0,713,700,-0.0292,-169.7078,6.8213,0.4212,54.900478,9.794229,108.3,5.845,1.85,335.95,54.895348,9.797490,54.894871,9.791704
1390063710,3,0,0.0,0,0,0,0,713,750,-0.0292,-169.7078,6.8213,0.4212,54.900528,9.794244,108.3,5.845,1.85,335.95,54.895348,9.797490,54.894871,9.791704
1390063710,3,0,0.0,0,0,4,0,713,700,-0.0292,-169.7078,6.8213,0.4212,54.900578,9.794259,108.3,5.845,1.85,335.95,54.895348,9.797490,54.894871,9.791704
1390063711,3,0,0.0,0,-10,0,0,713,750,-0.0292,-166.3745,6.8213,0.4212,54.900627,9.794279,108.3,5.845,1.85,335.95,54.895348,9.797490,54.894871,9.791704
1390063711,3,0,0.0,0,-6,-4,0,713,700,-0.0292,-164.3745,6.8213,0.4212,54.900677,9.794301,108.3,5.845,1.85,335.95,54.895348,9.797490,54.894871,9.791704
1390063711,3,0,0.0,0,-4,0,0,713,750,-0.0292,-163.0411,6.8213,0.4212,54.900719,9.794325,108.3,5.845,1.85,335.95,54.895348,9.797490,54.894871,9.791704
1390063711,3,0,0.0,0,-3,-4,0,713,700,-0.0292,-162.0411,6.8213,0.4212,54.900764,9.794350,108.3,5.845,1.85,335.95,54.895348,9.797490,54.894871,9.791704
1390063712,3,0,0.0,0,-2,0,0,713,750,-0.0292,-161.3745,6.8213,0.4212,54.900810,9.794374,108.3,5.845,1.85,335.95,54.895348,9.797490,54.894871,9.791704
1390063712,3,0,0.0,0,-1,-4,0,713,700,-0.0292,-161.0411,6.8213,0.4212,54.900852,9.794400,108.3,5.845,1.85,335.95,54.895348,9.797490,54.894871,9.791704
1390063712,3,0,0.0,0,-1,0,0,713,750,-0.0292,-160.7078,6.8213,0.4212,54.900894,9.794426,108.3,5.845,1.85,335.95,54.895348,9.797490,54.894871,9.791704
1390063712,3,0,0.0,0,-1,-4,0,713,700,-0.0292,-160.3745,6.8213,0.4212,54.900940,9.794453,108.3,5.845,1.85,335.95,54.895348,9.797490,54.894871,9.791704
1390063713,3,0,0.0,0,0,0,0,713,750,-0.0292,-160.3745,6.8213,0.4212,54.900986,9.794479,108.3,5.845,1.85,335.95,54.895348,9.797490,54.894871,9.791704
1390063713,3,0,0.0,0,0,4,0,713,700,-0.0292,-160.3745,6.8213,0.4212,54.901028,9.794506,108.3,5.845,1.85,335.95,54.895348,9.797490,54.894871,9.791704
1390063713,3,0,0.0,0,0,0,0,713,750,-0.0292,-160.3745,6.8213,0.4212,54.901070,9.794533,108.3,5.845,1.85,335.95,54.895348,9.797490,54.894871,9.791704
1390063713,3,0,0.0,0,0,4,0,713,700,-0.0292,-160.3745,6.8213,0.4212,54.901115,9.794559,108.3,5.845,1.85,335.95,54.895348,9.797490,54.894871,9.791704
1390063714,3,0,0.0,0,0,0,0,713,750,-0.0292,-160.3745,6.8213,0.4212,54.901161,9.794586,108.3,5.845,1.85,335.95,54.895348,9.797490,54.894871,9.791704
1390063714,3,0,0.0,0,0,4,0,713,700,-0.0292,-160.3745,6.8213,0.4212,54.901207,9.794613,108.3,5.845,1.85,335.95,54.895348,9.797490,54.894871,9.791704
1390063714,3,0,0.0,0,0,0,0,713,750,-0.0292,-160.3745,6.8213,0.4212,54.901249,9.794640,108.3,5.845,1.85,335.95,54.895348,9.797490,54.894871,9.791704
1390063714,3,0,0.0,0,0,4,0,713,700,-0.0292,-160.3745,6.8213,0.4212,54.901291,9.794666,108.3,5.845,1.85,335.95,54.895348,9.797490,54.894871,9.791704
1390063715,3,0,0.0,0,0,0,0,713,750,-0.0292,-160.3745,6.8213,0.4212,54.901337,9.794693,108.3,5.845,1.85,335.95,54.895348,9.797490,54.894871,9.791704
1390063715,3,0,0.0,0,0,4,0,713,700,-0.0292,-160.3745,6.8213,0.4212,54.901382,9.794720,108.3,5.845,1.85,335.95,54.895348,9.797490,54.894871,9.791704
1390063715,3,0,0.0,0,0,0,0,713,750,-0.0292,-160.3745,6.8213,0.4212,54.901428,9.794746,108.3,5.845,1.85,335.95,54.895348,9.797490,54.894871,9.791704
1390063715,3,0,0.0,0,0,4,0,713,700,-0.0292,-160.3745,6.8213,0.4212,54.901470,9.794773,108.3,5.845,1.85,335.95,54.895348,9.797490,54.894871,9.791704
1390063716,3,0,0.0,0,10,8,0,713,750,-0.0292,-163.7078,6.8213,0.4212,54.901516,9.794796,108.3,5.845,1.85,335.95,54.895348,9.797490,54.894871,9.791704
1390063716,3,0,0.0,0,6,4,0,713,700,-0.0292,-165.7078,6.8213,0.4212,54.901562,9.794816,108.3,5.845,1.85,335.95,54.895348,9.797490,54.894871,9.791704
1390063716,3,0,0.0,0,4,8,0,713,750,-0.0292,-167.0411,6.8213,0.4212,54.901608,9.794835,108.3,5.845,1.85,335.95,54.895348,9.797490,54.894871,9.791704
1390063716,3,0,0.0,0,3,4,0,713,700,-0.0292,-168.0411,6.8213,0.4212,54.901657,9.794852,108.3,5.845,1.85,335.95,54.895348,9.797490,54.894871,9.791704
1390063717,3,0,0.0,0,2,0,0,713,750,-0.0292,-168.7078,6.8213,0.4212,54.901707,9.794869,108.3,5.845,1.85,335.95,54.895348,9.797490,54.894871,9.791704
1390063717,3,0,0.0,0,1,4,0,713,700,-0.0292,-169.0411,6.8213,0.4212,54.901756,9.794886,108.3,5.845,1.85,335.95,54.895348,9.797490,54.894871,9.791704
1390063717,3,0,0.0,0,1,0,0,713,750,-0.0292,-169.3745,6.8213,0.4212,54.901806,9.794902,108.3,5.845,1.85,335.95,54.895348,9.797490,54.894871,9.791704
1390063717,3,0,0.0,0,1,4,0,713,700,-0.0292,-169.7078,6.8213,0.4212,54.901855,9.794918,108.3,5.845,1.85,335.95,54.895348,9.797490,54.894871,9.791704
1390063718,3,0,0.0,0,0,0,0,713,750,-0.0292,-169.7078,6.8213,0.4212,54.901905,9.794933,108.3,5.845,1.85,335.95,54.895348,9.797490,54.894871,9.791704
1390063718,3,0,0.0,0,0,4,0,713,700,-0.0292,-169.7078,6.8213,0.4212,54.901955,9.794949,108.3,5.845,1.85,335.95,54.895348,9.797490,54.894871,9.791704
1390063718,3,0,0.0,0,0,0,0,713,750,-0.0292,-169.7078,6.8213,0.4212,54.902004,9.794964,108.3,5.845,1.85,335.95,54.895348,9.797490,54.894871,9.791704
1390063719,3,0,0.0,0,0,4,0,713,700,-0.0292,-169.7078,6.8213,0.4212,54.902054,9.794979,108.3,5.845,1.85,335.95,54.895348,9.797490,54.894871,9.791704
1390063719,3,0,0.0,0,0,0,0,713,750,-0.0292,-169.7078,6.8213,0.4212,54.902100,9.794994,108.3,5.845,1.85,335.95,54.895348,9.797490,54.894871,9.791704
1390063719,3,0,0.0,0,0,4,0,713,700,-0.0292,-169.7078,6.8213,0.4212,54.902149,9.795010,108.3,5.845,1.85,335.95,54.895348,9.797490,54.894871,9.791704
1390063719,3,0,0.0,0,0,0,0,713,750,-0.0292,-169.7078,6.8213,0.4212,54.902199,9.795025,108.3,5.845,1.85,335.95,54.895348,9.797490,54.894871,9.791704
1390063720,3,0,0.0,0,0,4,0,713,700,-0.0292,-169.7078,6.8213,0.4212,54.902248,9.795040,108.3,5.845,1.85,335.95,54.895348,9.797490,54.894871,9.791704
1390063720,3,0,0.0,0,0,0,0,713,750,-0.0292,-169.7078,6.8213,0.4212,54.902298,9.795055,108.3,5.845,1.85,335.95,54.895348,9.797490,54.894871,9.791704
1390063720,3,0,0.0,0,0,4,0,713,700,-0.0292,-169.7078,6.8213,0.4212,54.902348,9.795071,108.3,5.845,1.85,335.95,54.895348,9.797490,54.894871,9.791704
1390063720,3,0,0.0,0,0,0,0,713,750,-0.0292,-169.7078,6.8213,0.4212,54.902397,9.795086,108.3,5.845,1.85,335.95,54.895348,9.797490,54.894871,9.791704
1390063721,3,0,0.0,0,0,4,0,713,700,-0.0292,-169.7078,6.8213,0.4212,54.902447,9.795101,108.3,5.845,1.85,335.95,54.895348,9.797490,54.894871,9.791704
1390063721,3,0,0.0,0,-10,0,0,713,750,-0.0292,-166.3745,6.8213,0.4212,54.902496,9.795121,108.3,5.845,1.85,335.95,54.895348,9.797490,54.894871,9.791704
1390063721,3,0,0.0,0,-6,-4,0,713,700,-0.0292,-164.3745,6.8213,0.4212,54.902538,9.795143,108.3,5.845,1.85,335.95,54.895348,9.797490,54.894871,9.791704
1390063721,3,0,0.0,0,-4,0,0,713,750,-0.0292,-163.0411,6.8213,0.4212,54.902584,9.795167,108.3,5.845,1.85,335.95,54.895348,9.797490,54.894871,9.791704
1390063722,3,0,0.0,0,-3,-4,0,713,700,-0.0292,-162.0411,6.8213,0.4212,54.902630,9.795192,108.3,5.845,1.85,335.95,54.895348,9.797490,54.894871,9.791704
1390063722,3,0,0.0,0,-2,0,0,713,750,-0.0292,-161.3745,6.8213,0.4212,54.902672,9.795218,108.3,5.845,1.85,335.95,54.895348,9.797490,54.894871,9.791704
1390063722,3,0,0.0,0,-1,-4,0,713,700,-0.0292,-161.0411,6.8213,0.4212,54.902714,9.795243,108.3,5.845,1.85,335.95,54.895348,9.797490,54.894871,9.791704
1390063722,3,0,0.0,0,-1,0,0,713,750,-0.0292,-160.7078,6.8213,0.4212,54.902760,9.795270,108.3,5.845,1.85,335.95,54.895348,9.797490,54.894871,9.791704
1390063723,3,0,0.0,0,-1,-4,0,713,700,-0.0292,-160.3745,6.8213,0.4212,54.902805,9.795297,108.3,5.845,1.85,335.95,54.895348,9.797490,54.894871,9.791704
1390063723,3,0,0.0,0,0,0,0,713,750,-0.0292,-160.3745,6.8213,0.4212,54.902847,9.795323,108.3,5.845,1.85,335.95,54.895348,9.797490,54.894871,9.791704
1390063723,3,0,0.0,0,0,4,0,713,700,-0.0292,-160.3745,6.8213,0.4212,54.902889,9.795350,108.3,5.845,1.85,335.95,54.895348,9.797490,54.894871,9.791704
1390063723,3,0,0.0,0,0,0,0,713,750,-0.0292,-160.3745,6.8213,0.4212,54.902935,9.795377,108.3,5.845,1.85,335.95,54.895348,9.797490,54.894871,9.791704
1390063724,3,0,0.0,0,0,4,0,713,700,-0.0292,-160.3745,6.8213,0.4212,54.902981,9.795403,108.3,5.845,1.85,335.95,54.895348,9.797490,54.894871,9.791704
1390063724,3,0,0.0,0,0,0,0,713,750,-0.0292,-160.3745,6.8213,0.4212,54.903027,9.795430,108.3,5.845,1.85,335.95,54.895348,9.797490,54.894871,9.791704
1390063724,3,0,0.0,0,0,4,0,713,700,-0.0292,-160.3745,6.8213,0.4212,54.903069,9.795457,108.3,5.845,1.85,335.95,54.895348,9.797490,54.894871,9.791704
1390063724,3,0,0.0,0,0,0,0,713,750,-0.0292,-160.3745,6.8213,0.4212,54.903111,9.795484,108.3,5.845,1.85,335.95,54.895348,9.797490,54.894871,9.791704
1390063725,3,0,0.0,0,0,4,0,713,700,-0.0292,-160.3745,6.8213,0.4212,54.903156,9.795510,108.3,5.845,1.85,335.95,54.895348,9.797490,54.894871,9.791704
1390063725,3,0,0.0,0,0,0,0,713,750,-0.0292,-160.3745,6.8213,0.4212,54.903202,9.795537,108.3,5.845,1.85,335.95,54.895348,9.797490,54.894871,9.791704
1390063725,3,0,0.0,0,0,4,0,713,700,-0.0292,-160.3745,6.8213,0.4212,54.903248,9.795564,108.3,5.845,1.85,335.95,54.895348,9.797490,54.894871,9.791704
