MCU_timestamp,Navigation_System,Manual_Control,Guidance_Heading,Manual_Ctrl_Rudder,Rudder_Desired_Angle,Rudder_Feedback,Manual_Ctrl_Sail,Sail_Desired_Pos,Sail_Feedback,Rate,Heading,Pitch,Roll,Latitude,Longitude,COG,SOG,Wind_Speed,Wind_Angle,Point_Start_Lat,Point_Start_Lon,Point_End_Lat,Point_End_Lon
1389997577,0,0,0.0,0,0,20,0,0,0,-0.0292,95.6255,6.8213,0.4212,54.896885,9.784269,108.3,5.845,1.85,335.95,0.000000,0.000000,0.000000,0.000000
1389997577,0,0,0.0,0,0,20,0,0,0,-0.0292,95.6255,6.8213,0.4212,54.896885,9.784269,108.3,5.845,1.85,335.95,0.000000,0.000000,0.000000,0.000000
1389997578,0,0,0.0,0,0,20,0,0,0,-0.0292,95.6255,6.8213,0.4212,54.896885,9.784269,108.3,5.845,1.85,335.95,0.000000,0.000000,0.000000,0.000000
1389997578,0,0,0.0,0,0,20,0,0,0,-0.0292,95.6255,6.8213,0.4212,54.896885,9.784269,108.3,5.845,1.85,335.95,0.000000,0.000000,0.000000,0.000000
1389997578,0,0,0.0,0,0,20,0,0,0,-0.0292,95.6255,6.8213,0.4212,54.896885,9.784269,108.3,5.845,1.85,335.95,0.000000,0.000000,0.000000,0.000000
1389997578,0,0,0.0,0,0,20,0,0,0,-0.0292,95.6255,6.8213,0.4212,54.896885,9.784269,108.3,5.845,1.85,335.95,0.000000,0.000000,0.000000,0.000000
1389997579,0,0,0.0,0,0,20,0,0,0,-0.0292,95.6255,6.8213,0.4212,54.896885,9.784269,108.3,5.845,1.85,335.95,0.000000,0.000000,0.000000,0.000000
1389997579,0,0,0.0,0,0,20,0,0,0,-0.0292,95.6255,6.8213,0.4212,54.896885,9.784269,108.3,5.845,1.85,335.95,0.000000,0.000000,0.000000,0.000000
1389997579,0,0,0.0,0,0,20,0,0,0,-0.0292,95.6255,6.8213,0.4212,54.896885,9.784269,108.3,5.845,1.85,335.95,0.000000,0.000000,0.000000,0.000000
1389997579,0,0,0.0,0,0,20,0,0,0,-0.0292,95.6255,6.8213,0.4212,54.896885,9.784269,108.3,5.845,1.85,335.95,0.000000,0.000000,0.000000,0.000000
1389997580,0,0,0.0,0,0,20,0,0,0,-0.0292,95.6255,6.8213,0.4212,54.896885,9.784269,108.3,5.845,1.85,335.95,0.000000,0.000000,0.000000,0.000000
1389997580,0,0,0.0,0,0,20,0,0,0,-0.0292,95.6255,6.8213,0.4212,54.896885,9.784269,108.3,5.845,1.85,335.95,0.000000,0.000000,0.000000,0.000000
1389997580,0,0,0.0,0,0,20,0,0,0,-0.0292,95.6255,6.8213,0.4212,54.896885,9.784269,108.3,5.845,1.85,335.95,0.000000,0.000000,0.000000,0.000000
1389997580,0,0,0.0,0,0,20,0,0,0,-0.0292,95.6255,6.8213,0.4212,54.896885,9.784269,108.3,5.845,1.85,335.95,0.000000,0.000000,0.000000,0.000000
1389997581,0,0,0.0,0,0,20,0,0,0,-0.0292,95.6255,6.8213,0.4212,54.896885,9.784269,108.3,5.845,1.85,335.95,0.000000,0.000000,0.000000,0.000000
1389997581,0,0,0.0,0,0,20,0,0,0,-0.0292,95.6255,6.8213,0.4212,54.896885,9.784269,108.3,5.845,1.85,335.95,0.000000,0.000000,0.000000,0.000000
1389997581,0,0,0.0,0,0,20,0,0,0,-0.0292,95.6255,6.8213,0.4212,54.896885,9.784269,108.3,5.845,1.85,335.95,0.000000,0.000000,0.000000,0.000000
1389997581,0,0,0.0,0,0,20,0,0,0,-0.0292,95.6255,6.8213,0.4212,54.896885,9.784269,108.3,5.845,1.85,335.95,0.000000,0.000000,0.000000,0.000000
1389997582,0,0,0.0,0,0,20,0,0,0,-0.0292,95.6255,6.8213,0.4212,54.896885,9.784269,108.3,5.845,1.85,335.95,0.000000,0.000000,0.000000,0.000000
1389997582,0,0,0.0,0,0,20,0,0,0,-0.0292,95.6255,6.8213,0.4212,54.896885,9.784269,108.3,5.845,1.85,335.95,0.000000,0.000000,0.000000,0.000000
1389997582,0,0,0.0,0,0,20,0,0,0,-0.0292,95.6255,6.8213,0.4212,54.896885,9.784269,108.3,5.845,1.85,335.95,0.000000,0.000000,0.000000,0.000000
1389997582,0,0,0.0,0,0,20,0,0,0,-0.0292,95.6255,6.8213,0.4212,54.896885,9.784269,108.3,5.845,1.85,335.95,0.000000,0.000000,0.000000,0.000000
1389997583,0,0,0.0,0,0,20,0,0,0,-0.0292,95.6255,6.8213,0.4212,54.896885,9.784269,108.3,5.845,1.85,335.95,0.000000,0.000000,0.000000,0.000000
1389997583,0,0,0.0,0,0,20,0,0,0,-0.0292,95.6255,6.8213,0.4212,54.896885,9.784269,108.3,5.845,1.85,335.95,0.000000,0.000000,0.000000,0.000000
1389997583,0,0,0.0,0,0,20,0,0,0,-0.0292,95.6255,6.8213,0.4212,54.896885,9.784269,108.3,5.845,1.85,335.95,0.000000,0.000000,0.000000,0.000000
1389997583,0,0,0.0,0,0,20,0,0,0,-0.0292,95.6255,6.8213,0.4212,54.896885,9.784269,108.3,5.845,1.85,335.95,0.000000,0.000000,0.000000,0.000000
1389997584,0,0,0.0,0,0,20,0,0,0,-0.0292,95.6255,6.8213,0.4212,54.896885,9.784269,108.3,5.845,1.85,335.95,0.000000,0.000000,0.000000,0.000000
1389997584,0,0,0.0,0,0,20,0,0,0,-0.0292,95.6255,6.8213,0.4212,54.896885,9.784269,108.3,5.845,1.85,335.95,0.000000,0.000000,0.000000,0.000000
1389997584,0,0,0.0,0,0,20,0,0,0,-0.0292,95.6255,6.8213,0.4212,54.896885,9.784269,108.3,5.845,1.85,335.95,0.000000,0.000000,0.000000,0.000000
1389997584,0,0,0.0,0,0,20,0,0,0,-0.0292,95.6255,6.8213,0.4212,54.896885,9.784269,108.3,5.845,1.85,335.95,0.000000,0.000000,0.000000,0.000000
1389997585,0,0,0.0,0,0,20,0,0,0,-0.0292,95.6255,6.8213,0.4212,54.896885,9.784269,108.3,5.845,1.85,335.95,0.000000,0.000000,0.000000,0.000000
1389997585,0,0,0.0,0,0,20,0,0,0,-0.0292,95.6255,6.8213,0.4212,54.896885,9.784269,108.3,5.845,1.85,335.95,0.000000,0.000000,0.000000,0.000000
1389997585,4,0,0.0,0,0,20,0,0,0,-0.0292,95.6255,6.8213,0.4212,54.896885,9.784269,108.3,5.845,1.85,335.95,0.000000,0.000000,0.000000,0.000000
1389997585,1,0,0.0,0,-35,16,0,855,50,-0.0292,107.2922,6.8213,0.4212,54.896881,9.784300,108.3,5.845,1.85,335.95,54.895069,9.793790,54.895348,9.797490
1389997586,1,0,0.0,0,-35,12,0,870,100,-0.0292,118.9588,6.8213,0.4212,54.896873,9.784328,108.3,5.845,1.85,335.95,54.895348,9.797490,54.894039,9.801540
1389997586,1,0,0.0,0,-35,8,0,713,150,-0.0292,130.6255,6.8213,0.4212,54.896862,9.784351,108.3,5.845,1.85,335.95,54.894039,9.801540,54.893795,9.802299
1389997586,1,0,0.0,0,-35,4,0,713,200,-0.0292,142.2922,6.8213,0.4212,54.896851,9.784370,108.3,5.845,1.85,335.95,54.893795,9.802299,54.893364,9.803688
1389997586,1,0,0.0,0,-28,0,0,713,250,-0.0292,151.6255,6.8213,0.4212,54.896835,9.784385,108.3,5.845,1.85,335.95,54.893364,9.803688,54.892704,9.801139
1389997587,1,0,0.0,0,-18,-4,0,0,200,-0.0292,157.6255,6.8213,0.4212,54.896820,9.784397,108.3,5.845,1.85,335.95,54.892704,9.801139,54.891663,9.800174
1389997587,1,0,0.0,0,-12,-8,0,0,150,-0.0292,161.6255,6.8213,0.4212,54.896801,9.784408,108.3,5.845,1.85,335.95,54.891663,9.800174,54.892929,9.805077
1389997587,1,0,0.0,0,-8,-4,0,0,100,-0.0292,164.2922,6.8213,0.4212,54.896782,9.784416,108.3,5.845,1.85,335.95,54.892929,9.805077,54.892498,9.806466
1389997587,1,0,0.0,0,-6,-8,0,0,50,-0.0292,166.2922,6.8213,0.4212,54.896767,9.784424,108.3,5.845,1.85,335.95,54.892498,9.806466,54.891232,9.801563
1389997588,1,0,0.0,0,-4,-4,0,713,100,-0.0292,167.6255,6.8213,0.4212,54.896748,9.784431,108.3,5.845,1.85,335.95,54.891232,9.801563,54.890800,9.802953
1389997588,1,0,0.0,0,-2,0,0,713,150,-0.0292,168.2922,6.8213,0.4212,54.896729,9.784437,108.3,5.845,1.85,335.95,54.890800,9.802953,54.891651,9.806246
1389997588,1,0,0.0,0,-2,-4,0,713,200,-0.0292,168.9588,6.8213,0.4212,54.896709,9.784444,108.3,5.845,1.85,335.95,54.891651,9.806246,54.890560,9.805087
1389997588,1,0,0.0,0,-1,0,0,713,250,-0.0292,169.2922,6.8213,0.4212,54.896694,9.784450,108.3,5.845,1.85,335.95,54.890560,9.805087,54.890366,9.804342
1389997589,1,0,0.0,0,-1,-4,0,713,300,-0.0292,169.6255,6.8213,0.4212,54.896675,9.784455,108.3,5.845,1.85,335.95,54.890366,9.804342,54.890846,9.801930
1389997589,1,0,0.0,0,0,0,0,713,350,-0.0292,169.6255,6.8213,0.4212,54.896656,9.784461,108.3,5.845,1.85,335.95,54.890846,9.801930,54.889477,9.798280
1389997589,1,0,0.0,0,0,4,0,713,400,-0.0292,169.6255,6.8213,0.4212,54.896637,9.784467,108.3,5.845,1.85,335.95,54.889477,9.798280,54.891819,9.794550
1389997589,1,0,0.0,0,0,0,0,713,450,-0.0292,169.6255,6.8213,0.4212,54.896622,9.784472,108.3,5.845,1.85,335.95,54.891819,9.794550,54.895348,9.797490
1389997590,1,0,0.0,0,0,4,0,713,500,-0.0292,169.6255,6.8213,0.4212,54.896603,9.784478,108.3,5.845,1.85,335.95,54.895348,9.797490,54.895069,9.793790
1389997590,1,0,0.0,0,0,0,0,713,550,-0.0292,169.6255,6.8213,0.4212,54.896584,9.784484,108.3,5.845,1.85,335.95,54.895348,9.797490,54.895069,9.793790
1389997590,3,0,0.0,0,0,4,0,713,600,-0.0292,169.6255,6.8213,0.4212,54.896564,9.784490,108.3,5.845,1.85,335.95,54.895348,9.797490,54.896584,9.784484
1389997590,3,0,0.0,0,0,0,0,713,650,-0.0292,169.6255,6.8213,0.4212,54.896549,9.784494,108.3,5.845,1.85,335.95,54.895348,9.797490,54.896584,9.784484
1389997591,3,0,0.0,0,-10,-4,0,713,700,-0.0292,172.9588,6.8213,0.4212,54.896530,9.784498,108.3,5.845,1.85,335.95,54.895348,9.797490,54.896584,9.784484
1389997591,3,0,0.0,0,-7,-8,0,713,750,-0.0292,175.2921,6.8213,0.4212,54.896511,9.784500,108.3,5.845,1.85,335.95,54.895348,9.797490,54.896584,9.784484
1389997591,3,0,0.0,0,-5,-4,0,713,700,-0.0292,176.9588,6.8213,0.4212,54.896492,9.784502,108.3,5.845,1.85,335.95,54.895348,9.797490,54.896584,9.784484
1389997591,3,0,0.0,0,-3,0,0,713,750,-0.0292,177.9588,6.8213,0.4212,54.896477,9.784503,108.3,5.845,1.85,335.95,54.895348,9.797490,54.896584,9.784484
1389997592,3,0,0.0,0,-2,-4,0,713,700,-0.0292,178.6255,6.8213,0.4212,54.896458,9.784504,108.3,5.845,1.85,335.95,54.895348,9.797490,54.896584,9.784484
1389997592,3,0,0.0,0,-1,0,0,713,750,-0.0292,178.9588,6.8213,0.4212,54.896439,9.784505,108.3,5.845,1.85,335.95,54.895348,9.797490,54.896584,9.784484
1389997592,3,0,0.0,0,-1,-4,0,713,700,-0.0292,179.2921,6.8213,0.4212,54.896420,9.784505,108.3,5.845,1.85,335.95,54.895348,9.797490,54.896584,9.784484
1389997592,3,0,0.0,0,-1,0,0,713,750,-0.0292,179.6255,6.8213,0.4212,54.896404,9.784505,108.3,5.845,1.85,335.95,54.895348,9.797490,54.896584,9.784484
1389997593,3,0,0.0,0,0,4,0,713,700,-0.0292,179.6255,6.8213,0.4212,54.896385,9.784505,108.3,5.845,1.85,335.95,54.895348,9.797490,54.896584,9.784484
1389997593,3,0,0.0,0,0,0,0,713,750,-0.0292,179.6255,6.8213,0.4212,54.896366,9.784505,108.3,5.845,1.85,335.95,54.895348,9.797490,54.896584,9.784484
1389997593,3,0,0.0,0,0,4,0,713,700,-0.0292,179.6255,6.8213,0.4212,54.896351,9.784505,108.3,5.845,1.85,335.95,54.895348,9.797490,54.896584,9.784484
1389997593,3,0,0.0,0,0,0,0,713,750,-0.0292,179.6255,6.8213,0.4212,54.896332,9.784505,108.3,5.845,1.85,335.95,54.895348,9.797490,54.896584,9.784484
1389997594,3,0,0.0,0,0,4,0,713,700,-0.0292,179.6255,6.8213,0.4212,54.896313,9.784505,108.3,5.845,1.85,335.95,54.895348,9.797490,54.896584,9.784484
1389997594,3,0,0.0,0,0,0,0,713,750,-0.0292,179.6255,6.8213,0.4212,54.896294,9.784505,108.3,5.845,1.85,335.95,54.895348,9.797490,54.896584,9.784484
1389997594,3,0,0.0,0,0,4,0,713,700,-0.0292,179.6255,6.8213,0.4212,54.896278,9.784505,108.3,5.845,1.85,335.95,54.895348,9.797490,54.896584,9.784484
1389997594,3,0,0.0,0,0,0,0,713,750,-0.0292,179.6255,6.8213,0.4212,54.896259,9.784505,108.3,5.845,1.85,335.95,54.895348,9.797490,54.896584,9.784484
1389997595,3,0,0.0,0,0,4,0,713,700,-0.0292,179.6255,6.8213,0.4212,54.896240,9.784505,108.3,5.845,1.85,335.95,54.895348,9.797490,54.896584,9.784484
1389997595,3,0,0.0,0,0,0,0,713,750,-0.0292,179.6255,6.8213,0.4212,54.896221,9.784505,108.3,5.845,1.85,335.95,54.895348,9.797490,54.896584,9.784484
1389997595,3,0,0.0,0,0,4,0,713,700,-0.0292,179.6255,6.8213,0.4212,54.896206,9.784505,108.3,5.845,1.85,335.95,54.895348,9.797490,54.896584,9.784484
1389997595,3,0,0.0,0,0,0,0,713,750,-0.0292,179.6255,6.8213,0.4212,54.896187,9.784505,108.3,5.845,1.85,335.95,54.895348,9.797490,54.896584,9.784484
1389997596,3,0,0.0,0,-10,-4,0,713,700,-0.0292,182.9588,6.8213,0.4212,54.896168,9.784503,108.3,5.845,1.85,335.95,54.895348,9.797490,54.896584,9.784484
1389997596,3,0,0.0,0,-7,-8,0,713,750,-0.0292,185.2921,6.8213,0.4212,54.896149,9.784500,108.3,5.845,1.85,335.95,54.895348,9.797490,54.896584,9.784484
1389997596,3,0,0.0,0,-5,-4,0,713,700,-0.0292,186.9588,6.8213,0.4212,54.896133,9.784496,108.3,5.845,1.85,335.95,54.895348,9.797490,54.896584,9.784484
1389997596,3,0,0.0,0,-3,0,0,713,750,-0.0292,187.9588,6.8213,0.4212,54.896114,9.784492,108.3,5.845,1.85,335.95,54.895348,9.797490,54.896584,9.784484
1389997597,3,0,0.0,0,-2,-4,0,713,700,-0.0292,188.6255,6.8213,0.4212,54.896095,9.784487,108.3,5.845,1.85,335.95,54.895348,9.797490,54.896584,9.784484
1389997597,3,0,0.0,0,-1,0,0,713,750,-0.0292,188.9588,6.8213,0.4212,54.896080,9.784481,108.3,5.845,1.85,335.95,54.895348,9.797490,54.896584,9.784484
1389997597,3,0,0.0,0,-1,-4,0,713,700,-0.0292,189.2921,6.8213,0.4212,54.896061,9.784476,108.3,5.845,1.85,335.95,54.895348,9.797490,54.896584,9.784484
1389997597,3,0,0.0,0,-1,0,0,713,750,-0.0292,189.6255,6.8213,0.4212,54.896042,9.784472,108.3,5.845,1.85,335.95,54.895348,9.797490,54.896584,9.784484
1389997598,3,0,0.0,0,0,4,0,713,700,-0.0292,189.6255,6.8213,0.4212,54.896023,9.784467,108.3,5.845,1.85,335.95,54.895348,9.797490,54.896584,9.784484
1389997598,3,0,0.0,0,0,0,0,713,750,-0.0292,189.6255,6.8213,0.4212,54.896008,9.784462,108.3,5.845,1.85,335.95,54.895348,9.797490,54.896584,9.784484
1389997598,3,0,0.0,0,0,4,0,713,700,-0.0292,189.6255,6.8213,0.4212,54.895988,9.784456,108.3,5.845,1.85,335.95,54.895348,9.797490,54.896584,9.784484
1389997598,3,0,0.0,0,0,0,0,713,750,-0.0292,189.6255,6.8213,0.4212,54.895969,9.784451,108.3,5.845,1.85,335.95,54.895348,9.797490,54.896584,9.784484
1389997599,3,0,0.0,0,0,4,0,713,700,-0.0292,189.6255,6.8213,0.4212,54.895950,9.784445,108.3,5.845,1.85,335.95,54.895348,9.797490,54.896584,9.784484
1389997599,3,0,0.0,0,0,0,0,713,750,-0.0292,189.6255,6.8213,0.4212,54.895935,9.784439,108.3,5.845,1.85,335.95,54.895348,9.797490,54.896584,9.784484
1389997599,3,0,0.0,0,0,4,0,713,700,-0.0292,189.6255,6.8213,0.4212,54.895916,9.784434,108.3,5.845,1.85,335.95,54.895348,9.797490,54.896584,9.784484
1389997599,3,0,0.0,0,0,0,0,713,750,-0.0292,189.6255,6.8213,0.4212,54.895897,9.784430,108.3,5.845,1.85,335.95,54.895348,9.797490,54.896584,9.784484
1389997600,3,0,0.0,0,0,4,0,713,700,-0.0292,189.6255,6.8213,0.4212,54.895882,9.784425,108.3,5.845,1.85,335.95,54.895348,9.797490,54.896584,9.784484
1389997600,3,0,0.0,0,0,0,0,713,750,-0.0292,189.6255,6.8213,0.4212,54.895863,9.784420,108.3,5.845,1.85,335.95,54.895348,9.797490,54.896584,9.784484
1389997600,3,0,0.0,0,0,4,0,713,700,-0.0292,189.6255,6.8213,0.4212,54.895844,9.784414,108.3,5.845,1.85,335.95,54.895348,9.797490,54.896584,9.784484
1389997600,3,0,0.0,0,0,0,0,713,750,-0.0292,189.6255,6.8213,0.4212,54.895824,9.784409,108.3,5.845,1.85,335.95,54.895348,9.797490,54.896584,9.784484
1389997601,3,0,0.0,0,10,4,0,713,700,-0.0292,186.2921,6.8213,0.4212,54.895809,9.784405,108.3,5.845,1.85,335.95,54.895348,9.797490,54.896584,9.784484
1389997601,3,0,0.0,0,6,8,0,713,750,-0.0292,184.2921,6.8213,0.4212,54.895790,9.784402,108.3,5.845,1.85,335.95,54.895348,9.797490,54.896584,9.784484
1389997601,3,0,0.0,0,4,4,0,713,700,-0.0292,182.9588,6.8213,0.4212,54.895771,9.784400,108.3,5.845,1.85,335.95,54.895348,9.797490,54.896584,9.784484
1389997601,3,0,0.0,0,3,0,0,713,750,-0.0292,181.9588,6.8213,0.4212,54.895752,9.784399,108.3,5.845,1.85,335.95,54.895348,9.797490,54.896584,9.784484
1389997602,3,0,0.0,0,2,4,0,713,700,-0.0292,181.2921,6.8213,0.4212,54.895737,9.784399,108.3,5.845,1.85,335.95,54.895348,9.797490,54.896584,9.784484
1389997602,3,0,0.0,0,1,0,0,713,750,-0.0292,180.9588,6.8213,0.4212,54.895718,9.784399,108.3,5.845,1.85,335.95,54.895348,9.797490,54.896584,9.784484
1389997602,3,0,0.0,0,1,4,0,713,700,-0.0292,180.6255,6.8213,0.4212,54.895699,9.784399,108.3,5.845,1.85,335.95,54.895348,9.797490,54.896584,9.784484
1389997602,3,0,0.0,0,1,0,0,713,750,-0.0292,180.2921,6.8213,0.4212,54.895679,9.784399,108.3,5.845,1.85,335.95,54.895348,9.797490,54.896584,9.784484
1389997603,3,0,0.0,0,0,4,0,713,700,-0.0292,180.2921,6.8213,0.4212,54.895664,9.784399,108.3,5.845,1.85,335.95,54.895348,9.797490,54.896584,9.784484
1389997603,3,0,0.0,0,0,0,0,713,750,-0.0292,180.2921,6.8213,0.4212,54.895645,9.784399,108.3,5.845,1.85,335.95,54.895348,9.797490,54.896584,9.784484
1389997603,3,0,0.0,0,0,4,0,713,700,-0.0292,180.2921,6.8213,0.4212,54.895626,9.784399,108.3,5.845,1.85,335.95,54.895348,9.797490,54.896584,9.784484
1389997603,3,0,0.0,0,0,0,0,713,750,-0.0292,180.2921,6.8213,0.4212,54.895607,9.784399,108.3,5.845,1.85,335.95,54.895348,9.797490,54.896584,9.784484
1389997604,3,0,0.0,0,0,4,0,713,700,-0.0292,180.2921,6.8213,0.4212,54.895592,9.784399,108.3,5.845,1.85,335.95,54.895348,9.797490,54.896584,9.784484
1389997604,3,0,0.0,0,0,0,0,713,750,-0.0292,180.2921,6.8213,0.4212,54.895573,9.784399,108.3,5.845,1.85,335.95,54.895348,9.797490,54.896584,9.784484
1389997604,3,0,0.0,0,0,4,0,713,700,-0.0292,180.2921,6.8213,0.4212,54.895554,9.784399,108.3,5.845,1.85,335.95,54.895348,9.797490,54.896584,9.784484
1389997604,3,0,0.0,0,0,0,0,713,750,-0.0292,180.2921,6.8213,0.4212,54.895538,9.784399,108.3,5.845,1.85,335.95,54.895348,9.797490,54.896584,9.784484
1389997605,3,0,0.0,0,0,4,0,713,700,-0.0292,180.2921,6.8213,0.4212,54.895519,9.784399,108.3,5.845,1.85,335.95,54.895348,9.797490,54.896584,9.784484
1389997605,3,0,0.0,0,0,0,0,713,750,-0.0292,180.2921,6.8213,0.4212,54.895500,9.784399,108.3,5.845,1.85,335.95,54.895348,9.797490,54.896584,9.784484
1389997605,3,0,0.0,0,0,4,0,713,700,-0.0292,180.2921,6.8213,0.4212,54.895481,9.784399,108.3,5.845,1.85,335.95,54.895348,9.797490,54.896584,9.784484
1389997605,3,0,0.0,0,0,0,0,713,750,-0.0292,180.2921,6.8213,0.4212,54.895466,9.784399,108.3,5.845,1.85,335.95,54.895348,9.797490,54.896584,9.784484
1389997606,3,0,0.0,0,-10,-4,0,713,700,-0.0292,183.6255,6.8213,0.4212,54.895447,9.784397,108.3,5.845,1.85,335.95,54.895348,9.797490,54.896584,9.784484
1389997606,3,0,0.0,0,-6,-8,0,713,750,-0.0292,185.6255,6.8213,0.4212,54.895428,9.784394,108.3,5.845,1.85,335.95,54.895348,9.797490,54.896584,9.784484
1389997606,3,0,0.0,0,-4,-4,0,713,700,-0.0292,186.9588,6.8213,0.4212,54.895409,9.784390,108.3,5.845,1.85,335.95,54.895348,9.797490,54.896584,9.784484
1389997606,3,0,0.0,0,-3,0,0,713,750,-0.0292,187.9588,6.8213,0.4212,54.895393,9.784387,108.3,5.845,1.85,335.95,54.895348,9.797490,54.896584,9.784484
1389997607,3,0,0.0,0,-2,-4,0,713,700,-0.0292,188.6255,6.8213,0.4212,54.895374,9.784382,108.3,5.845,1.85,335.95,54.895348,9.797490,54.896584,9.784484
1389997607,3,0,0.0,0,-1,0,0,713,750,-0.0292,188.9588,6.8213,0.4212,54.895355,9.784377,108.3,5.845,1.85,335.95,54.895348,9.797490,54.896584,9.784484
1389997607,3,0,0.0,0,-1,-4,0,713,700,-0.0292,189.2921,6.8213,0.4212,54.895336,9.784372,108.3,5.845,1.85,335.95,54.895348,9.797490,54.896584,9.784484
1389997607,3,0,0.0,0,-1,0,0,713,750,-0.0292,189.6255,6.8213,0.4212,54.895321,9.784367,108.3,5.845,1.85,335.95,54.895348,9.797490,54.896584,9.784484
1389997608,3,0,0.0,0,0,4,0,713,700,-0.0292,189.6255,6.8213,0.4212,54.895302,9.784361,108.3,5.845,1.85,335.95,54.895348,9.797490,54.896584,9.784484
1389997608,3,0,0.0,0,0,0,0,713,750,-0.0292,189.6255,6.8213,0.4212,54.895283,9.784355,108.3,5.845,1.85,335.95,54.895348,9.797490,54.896584,9.784484
1389997608,3,0,0.0,0,0,4,0,713,700,-0.0292,189.6255,6.8213,0.4212,54.895267,9.784350,108.3,5.845,1.85,335.95,54.895348,9.797490,54.896584,9.784484
1389997608,3,0,0.0,0,0,0,0,713,750,-0.0292,189.6255,6.8213,0.4212,54.895248,9.784346,108.3,5.845,1.85,335.95,54.895348,9.797490,54.896584,9.784484
1389997609,3,0,0.0,0,0,4,0,713,700,-0.0292,189.6255,6.8213,0.4212,54.895229,9.784341,108.3,5.845,1.85,335.95,54.895348,9.797490,54.896584,9.784484
1389997609,3,0,0.0,0,0,0,0,713,750,-0.0292,189.6255,6.8213,0.4212,54.895210,9.784336,108.3,5.845,1.85,335.95,54.895348,9.797490,54.896584,9.784484
1389997609,3,0,0.0,0,0,4,0,713,700,-0.0292,189.6255,6.8213,0.4212,54.895195,9.784331,108.3,5.845,1.85,335.95,54.895348,9.797490,54.896584,9.784484
1389997609,3,0,0.0,0,0,0,0,713,750,-0.0292,189.6255,6.8213,0.4212,54.895176,9.784326,108.3,5.845,1.85,335.95,54.895348,9.797490,54.896584,9.784484
1389997610,3,0,0.0,0,0,4,0,713,700,-0.0292,189.6255,6.8213,0.4212,54.895157,9.784320,108.3,5.845,1.85,335.95,54.895348,9.797490,54.896584,9.784484
1389997610,3,0,0.0,0,0,0,0,713,750,-0.0292,189.6255,6.8213,0.4212,54.895138,9.784314,108.3,5.845,1.85,335.95,54.895348,9.797490,54.896584,9.784484
1389997610,3,0,0.0,0,0,4,0,713,700,-0.0292,189.6255,6.8213,0.4212,54.895123,9.784309,108.3,5.845,1.85,335.95,54.895348,9.797490,54.896584,9.784484
1389997611,3,0,0.0,0,0,0,0,713,750,-0.0292,189.6255,6.8213,0.4212,54.895103,9.784305,108.3,5.845,1.85,335.95,54.895348,9.797490,54.896584,9.784484
1389997611,3,0,0.0,0,-10,-4,0,713,700,-0.0292,192.9588,6.8213,0.4212,54.895084,9.784298,108.3,5.845,1.85,335.95,54.895348,9.797490,54.896584,9.784484
1389997611,3,0,0.0,0,-7,-8,0,713,750,-0.0292,195.2921,6.8213,0.4212,54.895069,9.784289,108.3,5.845,1.85,335.95,54.895348,9.797490,54.896584,9.784484
1389997611,3,0,0.0,0,-5,-4,0,713,700,-0.0292,196.9588,6.8213,0.4212,54.895050,9.784280,108.3,5.845,1.85,335.95,54.895348,9.797490,54.896584,9.784484
1389997612,3,0,0.0,0,-3,0,0,713,750,-0.0292,197.9588,6.8213,0.4212,54.895031,9.784270,108.3,5.845,1.85,335.95,54.895348,9.797490,54.896584,9.784484
1389997612,3,0,0.0,0,-2,-4,0,713,700,-0.0292,198.6255,6.8213,0.4212,54.895012,9.784261,108.3,5.845,1.85,335.95,54.895348,9.797490,54.896584,9.784484
1389997612,3,0,0.0,0,-1,0,0,713,750,-0.0292,198.9588,6.8213,0.4212,54.894997,9.784251,108.3,5.845,1.85,335.95,54.895348,9.797490,54.896584,9.784484
1389997612,3,0,0.0,0,-1,-4,0,713,700,-0.0292,199.2921,6.8213,0.4212,54.894978,9.784241,108.3,5.845,1.85,335.95,54.895348,9.797490,54.896584,9.784484
1389997613,3,0,0.0,0,-1,0,0,713,750,-0.0292,199.6254,6.8213,0.4212,54.894958,9.784230,108.3,5.845,1.85,335.95,54.895348,9.797490,54.896584,9.784484
1389997613,3,0,0.0,0,0,4,0,713,700,-0.0292,199.6254,6.8213,0.4212,54.894943,9.784220,108.3,5.845,1.85,335.95,54.895348,9.797490,54.896584,9.784484
1389997613,3,0,0.0,0,0,0,0,713,750,-0.0292,199.6254,6.8213,0.4212,54.894928,9.784209,108.3,5.845,1.85,335.95,54.895348,9.797490,54.896584,9.784484
1389997613,3,0,0.0,0,0,4,0,713,700,-0.0292,199.6254,6.8213,0.4212,54.894909,9.784199,108.3,5.845,1.85,335.95,54.895348,9.797490,54.896584,9.784484
1389997614,3,0,0.0,0,0,0,0,713,750,-0.0292,199.6254,6.8213,0.4212,54.894894,9.784188,108.3,5.845,1.85,335.95,54.895348,9.797490,54.896584,9.784484
1389997614,3,0,0.0,0,0,4,0,713,700,-0.0292,199.6254,6.8213,0.4212,54.894878,9.784178,108.3,5.845,1.85,335.95,54.895348,9.797490,54.896584,9.784484
1389997614,3,0,0.0,0,0,0,0,713,750,-0.0292,199.6254,6.8213,0.4212,54.894859,9.784167,108.3,5.845,1.85,335.95,54.895348,9.797490,54.896584,9.784484
1389997614,3,0,0.0,0,0,4,0,713,700,-0.0292,199.6254,6.8213,0.4212,54.894844,9.784157,108.3,5.845,1.85,335.95,54.895348,9.797490,54.896584,9.784484
1389997615,3,0,0.0,0,0,0,0,713,750,-0.0292,199.6254,6.8213,0.4212,54.894829,9.784146,108.3,5.845,1.85,335.95,54.895348,9.797490,54.896584,9.784484
1389997615,3,0,0.0,0,0,4,0,713,700,-0.0292,199.6254,6.8213,0.4212,54.894810,9.784136,108.3,5.845,1.85,335.95,54.895348,9.797490,54.896584,9.784484
1389997615,3,0,0.0,0,0,0,0,713,750,-0.0292,199.6254,6.8213,0.4212,54.894791,9.784125,108.3,5.845,1.85,335.95,54.895348,9.797490,54.896584,9.784484
1389997615,3,0,0.0,0,0,4,0,713,700,-0.0292,199.6254,6.8213,0.4212,54.894775,9.784115,108.3,5.845,1.85,335.95,54.895348,9.797490,54.896584,9.784484
1389997616,3,0,0.0,0,0,0,0,713,750,-0.0292,199.6254,6.8213,0.4212,54.894756,9.784104,108.3,5.845,1.85,335.95,54.895348,9.797490,54.896584,9.784484
1389997616,3,0,0.0,0,10,4,0,713,700,-0.0292,196.2921,6.8213,0.4212,54.894737,9.784095,108.3,5.845,1.85,335.95,54.895348,9.797490,54.896584,9.784484
1389997616,3,0,0.0,0,6,8,0,713,750,-0.0292,194.2921,6.8213,0.4212,54.894718,9.784087,108.3,5.845,1.85,335.95,54.895348,9.797490,54.896584,9.784484
1389997616,3,0,0.0,0,4,4,0,713,700,-0.0292,192.9588,6.8213,0.4212,54.894703,9.784081,108.3,5.845,1.85,335.95,54.895348,9.797490,54.896584,9.784484
1389997617,3,0,0.0,0,3,0,0,713,750,-0.0292,191.9588,6.8213,0.4212,54.894684,9.784074,108.3,5.845,1.85,335.95,54.895348,9.797490,54.896584,9.784484
1389997617,3,0,0.0,0,2,4,0,713,700,-0.0292,191.2921,6.8213,0.4212,54.894665,9.784067,108.3,5.845,1.85,335.95,54.895348,9.797490,54.896584,9.784484
1389997617,3,0,0.0,0,1,0,0,713,750,-0.0292,190.9588,6.8213,0.4212,54.894646,9.784060,108.3,5.845,1.85,335.95,54.895348,9.797490,54.896584,9.784484
1389997617,3,0,0.0,0,1,4,0,713,700,-0.0292,190.6255,6.8213,0.4212,54.894630,9.784055,108.3,5.845,1.85,335.95,54.895348,9.797490,54.896584,9.784484
1389997618,3,0,0.0,0,1,0,0,713,750,-0.0292,190.2921,6.8213,0.4212,54.894611,9.784050,108.3,5.845,1.85,335.95,54.895348,9.797490,54.896584,9.784484
1389997618,3,0,0.0,0,0,4,0,713,700,-0.0292,190.2921,6.8213,0.4212,54.894592,9.784044,108.3,5.845,1.85,335.95,54.895348,9.797490,54.896584,9.784484
1389997618,3,0,0.0,0,0,0,0,713,750,-0.0292,190.2921,6.8213,0.4212,54.894573,9.784039,108.3,5.845,1.85,335.95,54.895348,9.797490,54.896584,9.784484
1389997618,3,0,0.0,0,0,4,0,713,700,-0.0292,190.2921,6.8213,0.4212,54.894558,9.784033,108.3,5.845,1.85,335.95,54.895348,9.797490,54.896584,9.784484
1389997619,3,0,0.0,0,0,0,0,713,750,-0.0292,190.2921,6.8213,0.4212,54.894539,9.784027,108.3,5.845,1.85,335.95,54.895348,9.797490,54.896584,9.784484
1389997619,3,0,0.0,0,0,4,0,713,700,-0.0292,190.2921,6.8213,0.4212,54.894520,9.784021,108.3,5.845,1.85,335.95,54.895348,9.797490,54.896584,9.784484
1389997619,3,0,0.0,0,0,0,0,713,750,-0.0292,190.2921,6.8213,0.4212,54.894505,9.784016,108.3,5.845,1.85,335.95,54.895348,9.797490,54.896584,9.784484
1389997619,3,0,0.0,0,0,4,0,713,700,-0.0292,190.2921,6.8213,0.4212,54.894485,9.784010,108.3,5.845,1.85,335.95,54.895348,9.797490,54.896584,9.784484
1389997620,3,0,0.0,0,0,0,0,713,750,-0.0292,190.2921,6.8213,0.4212,54.894466,9.784005,108.3,5.845,1.85,335.95,54.895348,9.797490,54.896584,9.784484
1389997620,3,0,0.0,0,0,4,0,713,700,-0.0292,190.2921,6.8213,0.4212,54.894447,9.783999,108.3,5.845,1.85,335.95,54.895348,9.797490,54.896584,9.784484
1389997620,3,0,0.0,0,0,0,0,713,750,-0.0292,190.2921,6.8213,0.4212,54.894432,9.783994,108.3,5.845,1.85,335.95,54.895348,9.797490,54.896584,9.784484
1389997620,3,0,0.0,0,0,4,0,713,700,-0.0292,190.2921,6.8213,0.4212,54.894413,9.783988,108.3,5.845,1.85,335.95,54.895348,9.797490,54.896584,9.784484
1389997621,3,0,0.0,0,0,0,0,713,750,-0.0292,190.2921,6.8213,0.4212,54.894394,9.783982,108.3,5.845,1.85,335.95,54.895348,9.797490,54.896584,9.784484
1389997621,3,0,0.0,0,10,4,0,713,700,-0.0292,186.9588,6.8213,0.4212,54.894375,9.783978,108.3,5.845,1.85,335.95,54.895348,9.797490,54.896584,9.784484
1389997621,3,0,0.0,0,7,8,0,713,750,-0.0292,184.6255,6.8213,0.4212,54.894360,9.783976,108.3,5.845,1.85,335.95,54.895348,9.797490,54.896584,9.784484
1389997621,3,0,0.0,0,5,4,0,713,700,-0.0292,182.9588,6.8213,0.4212,54.894341,9.783974,108.3,5.845,1.85,335.95,54.895348,9.797490,54.896584,9.784484
1389997622,3,0,0.0,0,3,0,0,713,750,-0.0292,181.9588,6.8213,0.4212,54.894321,9.783972,108.3,5.845,1.85,335.95,54.895348,9.797490,54.896584,9.784484
1389997622,3,0,0.0,0,2,4,0,713,700,-0.0292,181.2921,6.8213,0.4212,54.894302,9.783972,108.3,5.845,1.85,335.95,54.895348,9.797490,54.896584,9.784484
1389997622,3,0,0.0,0,1,0,0,713,750,-0.0292,180.9588,6.8213,0.4212,54.894287,9.783972,108.3,5.845,1.85,335.95,54.895348,9.797490,54.896584,9.784484
1389997622,3,0,0.0,0,1,4,0,713,700,-0.0292,180.6255,6.8213,0.4212,54.894268,9.783972,108.3,5.845,1.85,335.95,54.895348,9.797490,54.896584,9.784484
1389997623,3,0,0.0,0,1,0,0,713,750,-0.0292,180.2921,6.8213,0.4212,54.894249,9.783972,108.3,5.845,1.85,335.95,54.895348,9.797490,54.896584,9.784484
1389997623,3,0,0.0,0,0,4,0,713,700,-0.0292,180.2921,6.8213,0.4212,54.894230,9.783972,108.3,5.845,1.85,335.95,54.895348,9.797490,54.896584,9.784484
1389997623,3,0,0.0,0,0,0,0,713,750,-0.0292,180.2921,6.8213,0.4212,54.894215,9.783972,108.3,5.845,1.85,335.95,54.895348,9.797490,54.896584,9.784484
1389997623,3,0,0.0,0,0,4,0,713,700,-0.0292,180.2921,6.8213,0.4212,54.894196,9.783972,108.3,5.845,1.85,335.95,54.895348,9.797490,54.896584,9.784484
1389997624,3,0,0.0,0,0,0,0,713,750,-0.0292,180.2921,6.8213,0.4212,54.894176,9.783972,108.3,5.845,1.85,335.95,54.895348,9.797490,54.896584,9.784484
1389997624,3,0,0.0,0,0,4,0,713,700,-0.0292,180.2921,6.8213,0.4212,54.894161,9.783972,108.3,5.845,1.85,335.95,54.895348,9.797490,54.896584,9.784484
1389997624,3,0,0.0,0,0,0,0,713,750,-0.0292,180.2921,6.8213,0.4212,54.894142,9.783972,108.3,5.845,1.85,335.95,54.895348,9.797490,54.896584,9.784484
1389997624,3,0,0.0,0,0,4,0,713,700,-0.0292,180.2921,6.8213,0.4212,54.894123,9.783972,108.3,5.845,1.85,335.95,54.895348,9.797490,54.896584,9.784484
1389997625,3,0,0.0,0,0,0,0,713,750,-0.0292,180.2921,6.8213,0.4212,54.894104,9.783972,108.3,5.845,1.85,335.95,54.895348,9.797490,54.896584,9.784484
1389997625,3,0,0.0,0,0,4,0,713,700,-0.0292,180.2921,6.8213,0.4212,54.894089,9.783972,108.3,5.845,1.85,335.95,54.895348,9.797490,54.896584,9.784484
1389997625,3,0,0.0,0,0,0,0,713,750,-0.0292,180.2921,6.8213,0.4212,54.894070,9.783972,108.3,5.845,1.85,335.95,54.895348,9.797490,54.896584,9.784484
1389997625,3,0,0.0,0,0,4,0,713,700,-0.0292,180.2921,6.8213,0.4212,54.894051,9.783972,108.3,5.845,1.85,335.95,54.895348,9.797490,54.896584,9.784484
1389997626,3,0,0.0,0,0,0,0,713,750,-0.0292,180.2921,6.8213,0.4212,54.894032,9.783972,108.3,5.845,1.85,335.95,54.895348,9.797490,54.896584,9.784484
1389997626,3,0,0.0,0,-10,-4,0,713,700,-0.0292,183.6255,6.8213,0.4212,54.894016,9.783970,108.3,5.845,1.85,335.95,54.895348,9.797490,54.896584,9.784484
1389997626,3,0,0.0,0,-6,-8,0,713,750,-0.0292,185.6255,6.8213,0.4212,54.893997,9.783967,108.3,5.845,1.85,335.95,54.895348,9.797490,54.896584,9.784484
1389997626,3,0,0.0,0,-4,-4,0,713,700,-0.0292,186.9588,6.8213,0.4212,54.893978,9.783963,108.3,5.845,1.85,335.95,54.895348,9.797490,54.896584,9.784484
1389997627,3,0,0.0,0,-3,0,0,713,750,-0.0292,187.9588,6.8213,0.4212,54.893959,9.783959,108.3,5.845,1.85,335.95,54.895348,9.797490,54.896584,9.784484
1389997627,3,0,0.0,0,-2,-4,0,713,700,-0.0292,188.6255,6.8213,0.4212,54.893944,9.783955,108.3,5.845,1.85,335.95,54.895348,9.797490,54.896584,9.784484
1389997627,3,0,0.0,0,-1,0,0,713,750,-0.0292,188.9588,6.8213,0.4212,54.893925,9.783950,108.3,5.845,1.85,335.95,54.895348,9.797490,54.896584,9.784484
1389997627,3,0,0.0,0,-1,-4,0,713,700,-0.0292,189.2921,6.8213,0.4212,54.893906,9.783945,108.3,5.845,1.85,335.95,54.895348,9.797490,54.896584,9.784484
1389997628,3,0,0.0,0,-1,0,0,713,750,-0.0292,189.6255,6.8213,0.4212,54.893890,9.783939,108.3,5.845,1.85,335.95,54.895348,9.797490,54.896584,9.784484
1389997628,3,0,0.0,0,0,4,0,713,700,-0.0292,189.6255,6.8213,0.4212,54.893871,9.783934,108.3,5.845,1.85,335.95,54.895348,9.797490,54.896584,9.784484
1389997628,3,0,0.0,0,0,0,0,713,750,-0.0292,189.6255,6.8213,0.4212,54.893852,9.783928,108.3,5.845,1.85,335.95,54.895348,9.797490,54.896584,9.784484
1389997628,3,0,0.0,0,0,4,0,713,700,-0.0292,189.6255,6.8213,0.4212,54.893833,9.783923,108.3,5.845,1.85,335.95,54.895348,9.797490,54.896584,9.784484
1389997629,3,0,0.0,0,0,0,0,713,750,-0.0292,189.6255,6.8213,0.4212,54.893818,9.783918,108.3,5.845,1.85,335.95,54.895348,9.797490,54.896584,9.784484
1389997629,3,0,0.0,0,0,4,0,713,700,-0.0292,189.6255,6.8213,0.4212,54.893799,9.783914,108.3,5.845,1.85,335.95,54.895348,9.797490,54.896584,9.784484
1389997629,3,0,0.0,0,0,0,0,713,750,-0.0292,189.6255,6.8213,0.4212,54.893780,9.783909,108.3,5.845,1.85,335.95,54.895348,9.797490,54.896584,9.784484
1389997629,3,0,0.0,0,0,4,0,713,700,-0.0292,189.6255,6.8213,0.4212,54.893761,9.783904,108.3,5.845,1.85,335.95,54.895348,9.797490,54.896584,9.784484
1389997630,3,0,0.0,0,0,0,0,713,750,-0.0292,189.6255,6.8213,0.4212,54.893745,9.783898,108.3,5.845,1.85,335.95,54.895348,9.797490,54.896584,9.784484
1389997630,3,0,0.0,0,0,4,0,713,700,-0.0292,189.6255,6.8213,0.4212,54.893726,9.783893,108.3,5.845,1.85,335.95,54.895348,9.797490,54.896584,9.784484
1389997630,3,0,0.0,0,0,0,0,713,750,-0.0292,189.6255,6.8213,0.4212,54.893707,9.783887,108.3,5.845,1.85,335.95,54.895348,9.797490,54.896584,9.784484
1389997630,3,0,0.0,0,0,4,0,713,700,-0.0292,189.6255,6.8213,0.4212,54.893688,9.783881,108.3,5.845,1.85,335.95,54.895348,9.797490,54.896584,9.784484
1389997631,3,0,0.0,0,0,0,0,713,750,-0.0292,189.6255,6.8213,0.4212,54.893673,9.783876,108.3,5.845,1.85,335.95,54.895348,9.797490,54.896584,9.784484
1389997631,3,0,0.0,0,-10,-4,0,713,700,-0.0292,192.9588,6.8213,0.4212,54.893654,9.783870,108.3,5.845,1.85,335.95,54.895348,9.797490,54.896584,9.784484
1389997631,3,0,0.0,0,-7,-8,0,713,750,-0.0292,195.2921,6.8213,0.4212,54.893635,9.783861,108.3,5.845,1.85,335.95,54.895348,9.797490,54.896584,9.784484
1389997631,3,0,0.0,0,-5,-4,0,713,700,-0.0292,196.9588,6.8213,0.4212,54.893620,9.783852,108.3,5.845,1.85,335.95,54.895348,9.797490,54.896584,9.784484
1389997632,3,0,0.0,0,-3,0,0,713,750,-0.0292,197.9588,6.8213,0.4212,54.893600,9.783842,108.3,5.845,1.85,335.95,54.895348,9.797490,54.896584,9.784484
1389997632,3,0,0.0,0,-2,-4,0,713,700,-0.0292,198.6255,6.8213,0.4212,54.893581,9.783833,108.3,5.845,1.85,335.95,54.895348,9.797490,54.896584,9.784484
1389997632,3,0,0.0,0,-1,0,0,713,750,-0.0292,198.9588,6.8213,0.4212,54.893566,9.783823,108.3,5.845,1.85,335.95,54.895348,9.797490,54.896584,9.784484
1389997632,3,0,0.0,0,-1,-4,0,713,700,-0.0292,199.2921,6.8213,0.4212,54.893551,9.783813,108.3,5.845,1.85,335.95,54.895348,9.797490,54.896584,9.784484
1389997633,3,0,0.0,0,-1,0,0,713,750,-0.0292,199.6254,6.8213,0.4212,54.893532,9.783802,108.3,5.845,1.85,335.95,54.895348,9.797490,54.896584,9.784484
1389997633,3,0,0.0,0,0,4,0,713,700,-0.0292,199.6254,6.8213,0.4212,54.893517,9.783792,108.3,5.845,1.85,335.95,54.895348,9.797490,54.896584,9.784484
1389997633,3,0,0.0,0,0,0,0,713,750,-0.0292,199.6254,6.8213,0.4212,54.893501,9.783781,108.3,5.845,1.85,335.95,54.895348,9.797490,54.896584,9.784484
1389997633,3,0,0.0,0,0,4,0,713,700,-0.0292,199.6254,6.8213,0.4212,54.893482,9.783771,108.3,5.845,1.85,335.95,54.895348,9.797490,54.896584,9.784484
1389997634,3,0,0.0,0,0,0,0,713,750,-0.0292,199.6254,6.8213,0.4212,54.893467,9.783760,108.3,5.845,1.85,335.95,54.895348,9.797490,54.896584,9.784484
1389997634,3,0,0.0,0,0,4,0,713,700,-0.0292,199.6254,6.8213,0.4212,54.893452,9.783750,108.3,5.845,1.85,335.95,54.895348,9.797490,54.896584,9.784484
1389997634,3,0,0.0,0,0,0,0,713,750,-0.0292,199.6254,6.8213,0.4212,54.893433,9.783739,108.3,5.845,1.85,335.95,54.895348,9.797490,54.896584,9.784484
1389997634,3,0,0.0,0,0,4,0,713,700,-0.0292,199.6254,6.8213,0.4212,54.893417,9.783729,108.3,5.845,1.85,335.95,54.895348,9.797490,54.896584,9.784484
1389997635,3,0,0.0,0,0,0,0,713,750,-0.0292,199.6254,6.8213,0.4212,54.893402,9.783718,108.3,5.845,1.85,335.95,54.895348,9.797490,54.896584,9.784484
1389997635,3,0,0.0,0,0,4,0,713,700,-0.0292,199.6254,6.8213,0.4212,54.893383,9.783708,108.3,5.845,1.85,335.95,54.895348,9.797490,54.896584,9.784484
1389997635,3,0,0.0,0,0,0,0,713,750,-0.0292,199.6254,6.8213,0.4212,54.893364,9.783697,108.3,5.845,1.85,335.95,54.895348,9.797490,54.896584,9.784484
1389997635,3,0,0.0,0,0,4,0,713,700,-0.0292,199.6254,6.8213,0.4212,54.893349,9.783687,108.3,5.845,1.85,335.95,54.895348,9.797490,54.896584,9.784484
1389997636,3,0,0.0,0,0,0,0,713,750,-0.0292,199.6254,6.8213,0.4212,54.893330,9.783676,108.3,5.845,1.85,335.95,54.895348,9.797490,54.896584,9.784484
1389997636,3,0,0.0,0,10,4,0,713,700,-0.0292,196.2921,6.8213,0.4212,54.893311,9.783667,108.3,5.845,1.85,335.95,54.895348,9.797490,54.896584,9.784484
1389997636,3,0,0.0,0,6,8,0,713,750,-0.0292,194.2921,6.8213,0.4212,54.893291,9.783659,108.3,5.845,1.85,335.95,54.895348,9.797490,54.896584,9.784484
1389997636,0,0,0.0,0,6,8,0,713,750,-0.0292,194.2921,6.8213,0.4212,54.893291,9.783659,108.3,5.845,1.85,335.95,54.895348,9.797490,54.896584,9.784484
1389997637,0,0,0.0,0,6,8,0,713,750,-0.0292,194.2921,6.8213,0.4212,54.893291,9.783659,108.3,5.845,1.85,335.95,54.895348,9.797490,54.896584,9.784484
1389997637,0,0,0.0,0,6,8,0,713,750,-0.0292,194.2921,6.8213,0.4212,54.893291,9.783659,108.3,5.845,1.85,335.95,54.895348,9.797490,54.896584,9.784484
1389997637,0,0,0.0,0,6,8,0,713,750,-0.0292,194.2921,6.8213,0.4212,54.893291,9.783659,108.3,5.845,1.85,335.95,54.895348,9.797490,54.896584,9.784484
1389997637,0,0,0.0,0,6,8,0,713,750,-0.0292,194.2921,6.8213,0.4212,54.893291,9.783659,108.3,5.845,1.85,335.95,54.895348,9.797490,54.896584,9.784484
1389997638,0,0,0.0,0,6,8,0,713,750,-0.0292,194.2921,6.8213,0.4212,54.893291,9.783659,108.3,5.845,1.85,335.95,54.895348,9.797490,54.896584,9.784484
1389997638,0,0,0.0,0,6,8,0,713,750,-0.0292,194.2921,6.8213,0.4212,54.893291,9.783659,108.3,5.845,1.85,335.95,54.895348,9.797490,54.896584,9.784484
1389997638,0,0,0.0,0,6,8,0,713,750,-0.0292,194.2921,6.8213,0.4212,54.893291,9.783659,108.3,5.845,1.85,335.95,54.895348,9.797490,54.896584,9.784484
1389997638,0,0,0.0,0,6,8,0,713,750,-0.0292,194.2921,6.8213,0.4212,54.893291,9.783659,108.3,5.845,1.85,335.95,54.895348,9.797490,54.896584,9.784484
1389997639,0,0,0.0,0,6,8,0,713,750,-0.0292,194.2921,6.8213,0.4212,54.893291,9.783659,108.3,5.845,1.85,335.95,54.895348,9.797490,54.896584,9.784484
1389997639,0,0,0.0,0,6,8,0,713,750,-0.0292,194.2921,6.8213,0.4212,54.893291,9.783659,108.3,5.845,1.85,335.95,54.895348,9.797490,54.896584,9.784484
1389997639,0,0,0.0,0,6,8,0,713,750,-0.0292,194.2921,6.8213,0.4212,54.893291,9.783659,108.3,5.845,1.85,335.95,54.895348,9.797490,54.896584,9.784484
1389997639,0,0,0.0,0,6,8,0,713,750,-0.0292,194.2921,6.8213,0.4212,54.893291,9.783659,108.3,5.845,1.85,335.95,54.895348,9.797490,54.896584,9.784484
1389997640,0,0,0.0,0,6,8,0,713,750,-0.0292,194.2921,6.8213,0.4212,54.893291,9.783659,108.3,5.845,1.85,335.95,54.895348,9.797490,54.896584,9.784484
1389997640,0,0,0.0,0,6,8,0,713,750,-0.0292,194.2921,6.8213,0.4212,54.893291,9.783659,108.3,5.845,1.85,335.95,54.895348,9.797490,54.896584,9.784484
1389997640,0,0,0.0,0,6,8,0,713,750,-0.0292,194.2921,6.8213,0.4212,54.893291,9.783659,108.3,5.845,1.85,335.95,54.895348,9.797490,54.896584,9.784484
1389997640,0,0,0.0,0,6,8,0,713,750,-0.0292,194.2921,6.8213,0.4212,54.893291,9.783659,108.3,5.845,1.85,335.95,54.895348,9.797490,54.896584,9.784484
1389997641,0,0,0.0,0,6,8,0,713,750,-0.0292,194.2921,6.8213,0.4212,54.893291,9.783659,108.3,5.845,1.85,335.95,54.895348,9.797490,54.896584,9.784484
1389997641,0,0,0.0,0,6,8,0,713,750,-0.0292,194.2921,6.8213,0.4212,54.893291,9.783659,108.3,5.845,1.85,335.95,54.895348,9.797490,54.896584,9.784484
1389997641,0,0,0.0,0,6,8,0,713,750,-0.0292,194.2921,6.8213,0.4212,54.893291,9.783659,108.3,5.845,1.85,335.95,54.895348,9.797490,54.896584,9.784484
1389997641,0,0,0.0,0,6,8,0,713,750,-0.0292,194.2921,6.8213,0.4212,54.893291,9.783659,108.3,5.845,1.85,335.95,54.895348,9.797490,54.896584,9.784484
1389997642,0,0,0.0,0,6,8,0,713,750,-0.0292,194.2921,6.8213,0.4212,54.893291,9.783659,108.3,5.845,1.85,335.95,54.895348,9.797490,54.896584,9.784484
1389997642,0,0,0.0,0,6,8,0,713,750,-0.0292,194.2921,6.8213,0.4212,54.893291,9.783659,108.3,5.845,1.85,335.95,54.895348,9.797490,54.896584,9.784484
1389997642,0,0,0.0,0,6,8,0,713,750,-0.0292,194.2921,6.8213,0.4212,54.893291,9.783659,108.3,5.845,1.85,335.95,54.895348,9.797490,54.896584,9.784484
1389997642,0,0,0.0,0,6,8,0,713,750,-0.0292,194.2921,6.8213,0.4212,54.893291,9.783659,108.3,5.845,1.85,335.95,54.895348,9.797490,54.896584,9.784484
