MCU_timestamp,Navigation_System,Manual_Control,Guidance_Heading,Manual_Ctrl_Rudder,Rudder_Desired_Angle,Rudder_Feedback,Manual_Ctrl_Sail,Sail_Desired_Pos,Sail_Feedback,Rate,Heading,Pitch,Roll,Latitude,Longitude,COG,SOG,Wind_Speed,Wind_Angle,Point_Start_Lat,Point_Start_Lon,Point_End_Lat,Point_End_Lon
1386963605,0,0,0.0,0,0,4,0,0,0,-0.0292,8490.4355,6.8213,0.4212,54.892120,9.800452,108.3,5.845,1.85,0.00,0.000000,0.000000,0.000000,0.000000
1386963605,0,0,0.0,0,0,4,0,0,0,-0.0292,8490.4355,6.8213,0.4212,54.892120,9.800452,108.3,5.845,1.85,0.00,0.000000,0.000000,0.000000,0.000000
1386963605,0,0,0.0,0,0,4,0,0,0,-0.0292,8490.4355,6.8213,0.4212,54.892120,9.800452,108.3,5.845,1.85,0.00,0.000000,0.000000,0.000000,0.000000
1386963606,0,0,0.0,0,0,4,0,0,0,-0.0292,8490.4355,6.8213,0.4212,54.892120,9.800452,108.3,5.845,1.85,0.00,0.000000,0.000000,0.000000,0.000000
1386963606,0,0,0.0,0,0,4,0,0,0,-0.0292,8490.4355,6.8213,0.4212,54.892120,9.800452,108.3,5.845,1.85,0.00,0.000000,0.000000,0.000000,0.000000
1386963606,0,0,0.0,0,0,4,0,0,0,-0.0292,8490.4355,6.8213,0.4212,54.892120,9.800452,108.3,5.845,1.85,0.00,0.000000,0.000000,0.000000,0.000000
1386963606,0,0,0.0,0,0,4,0,0,0,-0.0292,8490.4355,6.8213,0.4212,54.892120,9.800452,108.3,5.845,1.85,0.00,0.000000,0.000000,0.000000,0.000000
1386963607,0,0,0.0,0,0,4,0,0,0,-0.0292,8490.4355,6.8213,0.4212,54.892120,9.800452,108.3,5.845,1.85,0.00,0.000000,0.000000,0.000000,0.000000
1386963607,0,0,0.0,0,0,4,0,0,0,-0.0292,8490.4355,6.8213,0.4212,54.892120,9.800452,108.3,5.845,1.85,0.00,0.000000,0.000000,0.000000,0.000000
1386963607,0,0,0.0,0,0,4,0,0,0,-0.0292,8490.4355,6.8213,0.4212,54.892120,9.800452,108.3,5.845,1.85,0.00,0.000000,0.000000,0.000000,0.000000
1386963607,0,0,0.0,0,0,4,0,0,0,-0.0292,8490.4355,6.8213,0.4212,54.892120,9.800452,108.3,5.845,1.85,0.00,0.000000,0.000000,0.000000,0.000000
1386963608,0,0,0.0,0,0,4,0,0,0,-0.0292,8490.4355,6.8213,0.4212,54.892120,9.800452,108.3,5.845,1.85,0.00,0.000000,0.000000,0.000000,0.000000
1386963608,0,0,0.0,0,0,4,0,0,0,-0.0292,8490.4355,6.8213,0.4212,54.892120,9.800452,108.3,5.845,1.85,0.00,0.000000,0.000000,0.000000,0.000000
1386963608,0,0,0.0,0,0,4,0,0,0,-0.0292,8490.4355,6.8213,0.4212,54.892120,9.800452,108.3,5.845,1.85,0.00,0.000000,0.000000,0.000000,0.000000
1386963608,0,0,0.0,0,0,4,0,0,0,-0.0292,8490.4355,6.8213,0.4212,54.892120,9.800452,108.3,5.845,1.85,0.00,0.000000,0.000000,0.000000,0.000000
1386963609,0,0,0.0,0,0,4,0,0,0,-0.0292,8490.4355,6.8213,0.4212,54.892120,9.800452,108.3,5.845,1.85,0.00,0.000000,0.000000,0.000000,0.000000
1386963609,0,0,0.0,0,0,4,0,0,0,-0.0292,8490.4355,6.8213,0.4212,54.892120,9.800452,108.3,5.845,1.85,0.00,0.000000,0.000000,0.000000,0.000000
1386963609,0,0,0.0,0,0,4,0,0,0,-0.0292,8490.4355,6.8213,0.4212,54.892120,9.800452,108.3,5.845,1.85,0.00,0.000000,0.000000,0.000000,0.000000
1386963609,0,0,0.0,0,0,4,0,0,0,-0.0292,8490.4355,6.8213,0.4212,54.892120,9.800452,108.3,5.845,1.85,0.00,0.000000,0.000000,0.000000,0.000000
1386963610,0,0,0.0,0,0,4,0,0,0,-0.0292,8490.4355,6.8213,0.4212,54.892120,9.800452,108.3,5.845,1.85,0.00,0.000000,0.000000,0.000000,0.000000
1386963610,0,0,0.0,0,0,4,0,0,0,-0.0292,8490.4355,6.8213,0.4212,54.892120,9.800452,108.3,5.845,1.85,0.00,0.000000,0.000000,0.000000,0.000000
1386963610,0,0,0.0,0,0,4,0,0,0,-0.0292,8490.4355,6.8213,0.4212,54.892120,9.800452,108.3,5.845,1.85,0.00,0.000000,0.000000,0.000000,0.000000
1386963610,0,0,0.0,0,0,4,0,0,0,-0.0292,8490.4355,6.8213,0.4212,54.894955,9.792101,108.3,5.845,1.85,0.00,0.000000,0.000000,0.000000,0.000000
1386963611,0,0,0.0,0,0,4,0,0,0,-0.0292,8490.4355,6.8213,0.4212,54.894955,9.792101,108.3,5.845,1.85,0.00,0.000000,0.000000,0.000000,0.000000
1386963611,0,0,0.0,0,0,4,0,0,0,-0.0292,8490.4355,6.8213,0.4212,54.894955,9.792101,108.3,5.845,1.85,0.00,0.000000,0.000000,0.000000,0.000000
1386963611,0,0,0.0,0,0,4,0,0,0,-0.0292,8490.4355,6.8213,0.4212,54.894955,9.792101,108.3,5.845,1.85,0.00,0.000000,0.000000,0.000000,0.000000
1386963611,0,0,0.0,0,0,4,0,0,0,-0.0292,8490.4355,6.8213,0.4212,54.894955,9.792101,108.3,5.845,1.85,0.00,0.000000,0.000000,0.000000,0.000000
1386963612,0,0,0.0,0,0,4,0,0,0,-0.0292,8490.4355,6.8213,0.4212,54.894955,9.792101,108.3,5.845,1.85,0.00,0.000000,0.000000,0.000000,0.000000
1386963612,4,0,0.0,0,0,4,0,0,0,-0.0292,8490.4355,6.8213,0.4212,54.894955,9.792101,108.3,5.845,1.85,0.00,0.000000,0.000000,0.000000,0.000000
1386963612,1,0,83.3,0,35,8,0,713,100,-0.0292,8478.7686,6.8213,0.4212,54.894936,9.792091,108.3,5.845,1.85,0.00,54.894955,9.792101,54.895069,9.793790
1386963612,1,0,82.3,0,35,12,0,713,150,-0.0292,8467.1016,6.8213,0.4212,54.894917,9.792088,108.3,5.845,1.85,0.00,54.894955,9.792101,54.895069,9.793790
1386963613,1,0,81.2,0,35,16,0,0,100,-0.0292,8455.4346,6.8213,0.4212,54.894901,9.792089,108.3,5.845,1.85,0.00,54.894955,9.792101,54.895069,9.793790
1386963613,1,0,80.3,0,35,20,0,0,50,-0.0292,8443.7676,6.8213,0.4212,54.894882,9.792098,108.3,5.845,1.85,0.00,54.894955,9.792101,54.895069,9.793790
1386963613,1,0,79.2,0,35,24,0,713,100,-0.0292,8432.1006,6.8213,0.4212,54.894867,9.792112,108.3,5.845,1.85,0.00,54.894955,9.792101,54.895069,9.793790
1386963613,1,0,78.2,0,35,28,0,713,150,-0.0292,8420.4336,6.8213,0.4212,54.894855,9.792132,108.3,5.845,1.85,0.00,54.894955,9.792101,54.895069,9.793790
1386963614,1,0,77.4,0,35,32,0,713,200,-0.0292,8408.7666,6.8213,0.4212,54.894844,9.792156,108.3,5.845,1.85,0.00,54.894955,9.792101,54.895069,9.793790
1386963614,1,0,76.6,0,35,36,0,870,250,-0.0292,8397.0996,6.8213,0.4212,54.894836,9.792185,108.3,5.845,1.85,0.00,54.894955,9.792101,54.895069,9.793790
1386963614,1,0,75.9,0,35,32,0,818,300,-0.0292,8385.4326,6.8213,0.4212,54.894833,9.792215,108.3,5.845,1.85,0.00,54.894955,9.792101,54.895069,9.793790
1386963614,1,0,75.4,0,30,28,0,643,350,-0.0292,8375.4326,6.8213,0.4212,54.894829,9.792246,108.3,5.845,1.85,0.00,54.894955,9.792101,54.895069,9.793790
1386963615,1,0,55.0,0,35,32,0,486,400,-0.0292,8363.7656,6.8213,0.4212,54.894829,9.792276,108.3,5.845,1.85,0.00,54.894955,9.792101,54.895069,9.793790
1386963615,1,0,55.0,0,29,28,0,301,350,-0.0292,8354.0986,6.8213,0.4212,54.894833,9.792307,108.3,5.845,1.85,0.00,54.894955,9.792101,54.895069,9.793790
1386963615,1,0,55.0,0,19,24,0,157,300,-0.0292,8347.7656,6.8213,0.4212,54.894840,9.792336,108.3,5.845,1.85,0.00,54.894955,9.792101,54.895069,9.793790
1386963615,1,0,55.0,0,13,20,0,78,250,-0.0292,8343.4326,6.8213,0.4212,54.894848,9.792363,108.3,5.845,1.85,0.00,54.894955,9.792101,54.895069,9.793790
1386963616,1,0,55.0,0,8,16,0,36,200,-0.0292,8340.7656,6.8213,0.4212,54.894855,9.792391,108.3,5.845,1.85,0.00,54.894955,9.792101,54.895069,9.793790
1386963616,1,0,75.2,0,-14,12,0,17,150,-0.0292,8345.4326,6.8213,0.4212,54.894863,9.792419,108.3,5.845,1.85,0.00,54.894955,9.792101,54.895069,9.793790
1386963616,1,0,75.4,0,-10,8,0,54,100,-0.0292,8348.7656,6.8213,0.4212,54.894871,9.792448,108.3,5.845,1.85,0.00,54.894955,9.792101,54.895069,9.793790
1386963616,1,0,75.7,0,-7,4,0,89,50,-0.0292,8351.0986,6.8213,0.4212,54.894878,9.792478,108.3,5.845,1.85,0.00,54.894955,9.792101,54.895069,9.793790
1386963617,1,0,75.9,0,-5,0,0,117,100,-0.0292,8352.7656,6.8213,0.4212,54.894882,9.792507,108.3,5.845,1.85,0.00,54.894955,9.792101,54.895069,9.793790
1386963617,1,0,75.9,0,-3,-4,0,139,150,-0.0292,8353.7656,6.8213,0.4212,54.894886,9.792537,108.3,5.845,1.85,0.00,54.894955,9.792101,54.895069,9.793790
1386963617,1,0,75.8,0,-2,0,0,153,200,-0.0292,8354.4326,6.8213,0.4212,54.894890,9.792567,108.3,5.845,1.85,0.00,54.894955,9.792101,54.895069,9.793790
1386963617,1,0,75.8,0,-1,-4,0,162,150,-0.0292,8354.7656,6.8213,0.4212,54.894897,9.792598,108.3,5.845,1.85,0.00,54.894955,9.792101,54.895069,9.793790
1386963618,1,0,76.0,0,-1,0,0,166,200,-0.0292,8355.0986,6.8213,0.4212,54.894901,9.792627,108.3,5.845,1.85,0.00,54.894955,9.792101,54.895069,9.793790
1386963618,1,0,76.0,0,-1,-4,0,171,150,-0.0292,8355.4316,6.8213,0.4212,54.894905,9.792658,108.3,5.845,1.85,0.00,54.894955,9.792101,54.895069,9.793790
1386963618,1,0,75.9,0,-1,0,0,176,200,-0.0292,8355.7646,6.8213,0.4212,54.894909,9.792688,108.3,5.845,1.85,0.00,54.894955,9.792101,54.895069,9.793790
1386963618,1,0,75.9,0,0,4,0,180,150,-0.0292,8355.7646,6.8213,0.4212,54.894913,9.792719,108.3,5.845,1.85,0.00,54.894955,9.792101,54.895069,9.793790
1386963619,1,0,75.8,0,0,0,0,180,200,-0.0292,8355.7646,6.8213,0.4212,54.894917,9.792748,108.3,5.845,1.85,0.00,54.894955,9.792101,54.895069,9.793790
1386963619,1,0,75.8,0,0,4,0,180,150,-0.0292,8355.7646,6.8213,0.4212,54.894924,9.792779,108.3,5.845,1.85,0.00,54.894955,9.792101,54.895069,9.793790
1386963619,1,0,76.1,0,0,0,0,180,200,-0.0292,8355.7646,6.8213,0.4212,54.894928,9.792809,108.3,5.845,1.85,0.00,54.894955,9.792101,54.895069,9.793790
1386963619,1,0,76.0,0,0,4,0,180,150,-0.0292,8355.7646,6.8213,0.4212,54.894932,9.792839,108.3,5.845,1.85,0.00,54.894955,9.792101,54.895069,9.793790
1386963620,1,0,76.0,0,0,0,0,180,200,-0.0292,8355.7646,6.8213,0.4212,54.894936,9.792870,108.3,5.845,1.85,0.00,54.894955,9.792101,54.895069,9.793790
1386963620,1,0,75.9,0,0,4,0,180,150,-0.0292,8355.7646,6.8213,0.4212,54.894939,9.792900,108.3,5.845,1.85,0.00,54.894955,9.792101,54.895069,9.793790
1386963620,1,0,75.9,0,0,0,0,180,200,-0.0292,8355.7646,6.8213,0.4212,54.894943,9.792930,108.3,5.845,1.85,0.00,54.894955,9.792101,54.895069,9.793790
1386963620,1,0,75.8,0,0,4,0,180,150,-0.0292,8355.7646,6.8213,0.4212,54.894951,9.792960,108.3,5.845,1.85,0.00,54.894955,9.792101,54.895069,9.793790
1386963621,1,0,76.2,0,0,0,0,180,200,-0.0292,8355.7646,6.8213,0.4212,54.894955,9.792991,108.3,5.845,1.85,0.00,54.894955,9.792101,54.895069,9.793790
1386963621,1,0,76.1,0,0,4,0,180,150,-0.0292,8355.7646,6.8213,0.4212,54.894958,9.793021,108.3,5.845,1.85,0.00,54.894955,9.792101,54.895069,9.793790
1386963621,1,0,76.0,0,0,0,0,180,200,-0.0292,8355.7646,6.8213,0.4212,54.894962,9.793051,108.3,5.845,1.85,0.00,54.894955,9.792101,54.895069,9.793790
1386963621,1,0,76.0,0,0,4,0,180,150,-0.0292,8355.7646,6.8213,0.4212,54.894966,9.793081,108.3,5.845,1.85,0.00,54.894955,9.792101,54.895069,9.793790
1386963622,1,0,75.9,0,0,0,0,180,200,-0.0292,8355.7646,6.8213,0.4212,54.894974,9.793112,108.3,5.845,1.85,0.00,54.894955,9.792101,54.895069,9.793790
1386963622,1,0,76.3,0,-1,-4,0,180,150,-0.0292,8356.0977,6.8213,0.4212,54.894978,9.793141,108.3,5.845,1.85,0.00,54.894955,9.792101,54.895069,9.793790
1386963622,1,0,76.3,0,0,0,0,185,200,-0.0292,8356.0977,6.8213,0.4212,54.894981,9.793172,108.3,5.845,1.85,0.00,54.894955,9.792101,54.895069,9.793790
1386963622,1,0,76.2,0,0,4,0,185,150,-0.0292,8356.0977,6.8213,0.4212,54.894985,9.793202,108.3,5.845,1.85,0.00,54.894955,9.792101,54.895069,9.793790
1386963623,1,0,76.1,0,0,0,0,185,200,-0.0292,8356.0977,6.8213,0.4212,54.894989,9.793233,108.3,5.845,1.85,0.00,54.894955,9.792101,54.895069,9.793790
1386963623,1,0,76.0,0,0,4,0,185,150,-0.0292,8356.0977,6.8213,0.4212,54.894993,9.793262,108.3,5.845,1.85,0.00,54.894955,9.792101,54.895069,9.793790
1386963623,1,0,76.0,0,0,0,0,185,200,-0.0292,8356.0977,6.8213,0.4212,54.895000,9.793293,108.3,5.845,1.85,0.00,54.894955,9.792101,54.895069,9.793790
1386963623,1,0,76.6,0,0,4,0,185,150,-0.0292,8356.0977,6.8213,0.4212,54.895004,9.793324,108.3,5.845,1.85,0.00,54.894955,9.792101,54.895069,9.793790
1386963624,1,0,76.5,0,0,0,0,185,200,-0.0292,8356.0977,6.8213,0.4212,54.895008,9.793353,108.3,5.845,1.85,0.00,54.894955,9.792101,54.895069,9.793790
1386963624,1,0,76.4,0,0,4,0,185,150,-0.0292,8356.0977,6.8213,0.4212,54.895012,9.793384,108.3,5.845,1.85,0.00,54.894955,9.792101,54.895069,9.793790
1386963624,1,0,76.3,0,0,0,0,185,200,-0.0292,8356.0977,6.8213,0.4212,54.895016,9.793414,108.3,5.845,1.85,0.00,54.894955,9.792101,54.895069,9.793790
1386963625,1,0,76.2,0,0,4,0,185,150,-0.0292,8356.0977,6.8213,0.4212,54.895023,9.793445,108.3,5.845,1.85,0.00,54.894955,9.792101,54.895069,9.793790
1386963625,1,0,55.0,0,21,8,0,185,200,-0.0292,8349.0977,6.8213,0.4212,54.895023,9.793633,108.3,5.845,1.85,0.00,54.894955,9.792101,54.895069,9.793790
1386963625,1,0,55.0,0,14,12,0,93,150,-0.0292,8344.4307,6.8213,0.4212,54.895031,9.793660,108.3,5.845,1.85,0.00,54.894955,9.792101,54.895069,9.793790
1386963625,1,0,55.0,0,9,8,0,44,100,-0.0292,8341.4307,6.8213,0.4212,54.895039,9.793687,108.3,5.845,1.85,0.00,54.894955,9.792101,54.895069,9.793790
1386963626,1,0,55.0,0,6,4,0,21,50,-0.0292,8339.4307,6.8213,0.4212,54.895050,9.793714,108.3,5.845,1.85,0.00,54.894955,9.792101,54.895069,9.793790
1386963626,1,0,55.0,0,4,8,0,10,0,-0.0292,8338.0977,6.8213,0.4212,54.895058,9.793740,108.3,5.845,1.85,0.00,54.894955,9.792101,54.895069,9.793790
1386963626,1,0,55.0,0,3,4,0,5,50,-0.0292,8337.0977,6.8213,0.4212,54.895069,9.793767,108.3,5.845,1.85,0.00,54.895069,9.793790,54.895348,9.797490
1386963626,1,0,82.6,0,-26,0,0,2,0,-0.0292,8345.7646,6.8213,0.4212,54.895073,9.793796,108.3,5.845,1.85,0.00,54.895069,9.793790,54.895348,9.797490
1386963627,1,0,82.7,0,-17,-4,0,57,50,-0.0292,8351.4316,6.8213,0.4212,54.895077,9.793825,108.3,5.845,1.85,0.00,54.895069,9.793790,54.895348,9.797490
1386963627,1,0,82.7,0,-11,-8,0,122,100,-0.0292,8355.0986,6.8213,0.4212,54.895081,9.793856,108.3,5.845,1.85,0.00,54.895069,9.793790,54.895348,9.797490
1386963627,1,0,82.8,0,-8,-4,0,171,150,-0.0292,8357.7656,6.8213,0.4212,54.895084,9.793886,108.3,5.845,1.85,0.00,54.895069,9.793790,54.895348,9.797490
1386963627,1,0,82.8,0,-5,-8,0,209,200,-0.0292,8359.4326,6.8213,0.4212,54.895088,9.793917,108.3,5.845,1.85,0.00,54.895069,9.793790,54.895348,9.797490
1386963628,1,0,82.8,0,-3,-4,0,234,250,-0.0292,8360.4326,6.8213,0.4212,54.895092,9.793948,108.3,5.845,1.85,0.00,54.895069,9.793790,54.895348,9.797490
1386963628,1,0,82.9,0,-2,0,0,249,200,-0.0292,8361.0996,6.8213,0.4212,54.895096,9.793980,108.3,5.845,1.85,0.00,54.895069,9.793790,54.895348,9.797490
1386963628,1,0,82.9,0,-2,-4,0,259,250,-0.0292,8361.7666,6.8213,0.4212,54.895096,9.794010,108.3,5.845,1.85,0.00,54.895069,9.793790,54.895348,9.797490
1386963628,1,0,82.9,0,-1,0,0,270,300,-0.0292,8362.0996,6.8213,0.4212,54.895096,9.794041,108.3,5.845,1.85,0.00,54.895069,9.793790,54.895348,9.797490
1386963629,1,0,82.8,0,-1,-4,0,275,250,-0.0292,8362.4326,6.8213,0.4212,54.895096,9.794072,108.3,5.845,1.85,0.00,54.895069,9.793790,54.895348,9.797490
1386963629,1,0,82.7,0,0,0,0,280,300,-0.0292,8362.4326,6.8213,0.4212,54.895096,9.794104,108.3,5.845,1.85,0.00,54.895069,9.793790,54.895348,9.797490
1386963629,1,0,77.2,0,5,4,0,280,250,-0.0292,8360.7656,6.8213,0.4212,54.895329,9.797346,108.3,5.845,1.85,0.00,54.895069,9.793790,54.895348,9.797490
1386963629,1,0,77.1,0,4,8,0,254,300,-0.0292,8359.4326,6.8213,0.4212,54.895332,9.797378,108.3,5.845,1.85,0.00,54.895069,9.793790,54.895348,9.797490
1386963630,1,0,76.8,0,3,4,0,234,250,-0.0292,8358.4326,6.8213,0.4212,54.895336,9.797408,108.3,5.845,1.85,0.00,54.895069,9.793790,54.895348,9.797490
1386963630,1,0,76.4,0,2,0,0,219,200,-0.0292,8357.7656,6.8213,0.4212,54.895340,9.797439,108.3,5.845,1.85,0.00,54.895069,9.793790,54.895348,9.797490
1386963630,1,0,75.6,0,2,4,0,209,250,-0.0292,8357.0986,6.8213,0.4212,54.895340,9.797469,108.3,5.845,1.85,0.00,54.895348,9.797490,54.894039,9.801540
1386963630,1,0,118.9,0,-35,0,0,200,200,-0.0292,8368.7656,6.8213,0.4212,54.895340,9.797501,108.3,5.845,1.85,0.00,54.895348,9.797490,54.894039,9.801540
1386963631,1,0,119.1,0,-30,-4,0,379,250,-0.0292,8378.7656,6.8213,0.4212,54.895336,9.797531,108.3,5.845,1.85,0.00,54.895348,9.797490,54.894039,9.801540
1386963631,1,0,119.2,0,-20,-8,0,539,300,-0.0292,8385.4326,6.8213,0.4212,54.895332,9.797561,108.3,5.845,1.85,0.00,54.895348,9.797490,54.894039,9.801540
1386963631,1,0,119.3,0,-14,-12,0,643,350,-0.0292,8390.0996,6.8213,0.4212,54.895329,9.797590,108.3,5.845,1.85,0.00,54.895348,9.797490,54.894039,9.801540
1386963631,1,0,119.4,0,-9,-8,0,715,400,-0.0292,8393.0996,6.8213,0.4212,54.895321,9.797619,108.3,5.845,1.85,0.00,54.895348,9.797490,54.894039,9.801540
1386963632,1,0,119.5,0,-6,-4,0,760,450,-0.0292,8395.0996,6.8213,0.4212,54.895313,9.797647,108.3,5.845,1.85,0.00,54.895348,9.797490,54.894039,9.801540
1386963632,1,0,119.5,0,-4,0,0,789,500,-0.0292,8396.4326,6.8213,0.4212,54.895306,9.797675,108.3,5.845,1.85,0.00,54.895348,9.797490,54.894039,9.801540
1386963632,1,0,119.5,0,-3,-4,0,808,550,-0.0292,8397.4326,6.8213,0.4212,54.895298,9.797703,108.3,5.845,1.85,0.00,54.895348,9.797490,54.894039,9.801540
1386963632,1,0,119.5,0,-2,0,0,823,600,-0.0292,8398.0996,6.8213,0.4212,54.895290,9.797730,108.3,5.845,1.85,0.00,54.895348,9.797490,54.894039,9.801540
1386963633,1,0,119.6,0,-1,-4,0,832,650,-0.0292,8398.4326,6.8213,0.4212,54.895279,9.797758,108.3,5.845,1.85,0.00,54.895348,9.797490,54.894039,9.801540
1386963633,1,0,119.5,0,-1,0,0,837,700,-0.0292,8398.7656,6.8213,0.4212,54.895271,9.797786,108.3,5.845,1.85,0.00,54.895348,9.797490,54.894039,9.801540
1386963633,1,0,119.6,0,-1,-4,0,842,750,-0.0292,8399.0986,6.8213,0.4212,54.895260,9.797812,108.3,5.845,1.85,0.00,54.895348,9.797490,54.894039,9.801540
1386963633,1,0,119.5,0,0,0,0,846,800,-0.0292,8399.0986,6.8213,0.4212,54.895252,9.797840,108.3,5.845,1.85,0.00,54.895348,9.797490,54.894039,9.801540
1386963634,1,0,119.5,0,0,4,0,846,850,-0.0292,8399.0986,6.8213,0.4212,54.895245,9.797868,108.3,5.845,1.85,0.00,54.895348,9.797490,54.894039,9.801540
1386963634,1,0,119.6,0,0,0,0,846,800,-0.0292,8399.0986,6.8213,0.4212,54.895233,9.797894,108.3,5.845,1.85,0.00,54.895348,9.797490,54.894039,9.801540
1386963634,1,0,119.5,0,0,4,0,846,850,-0.0292,8399.0986,6.8213,0.4212,54.895226,9.797922,108.3,5.845,1.85,0.00,54.895348,9.797490,54.894039,9.801540
1386963634,1,0,109.1,0,10,8,0,846,800,-0.0292,8395.7656,6.8213,0.4212,54.894070,9.801377,108.3,5.845,1.85,0.00,54.895348,9.797490,54.894039,9.801540
1386963635,1,0,107.9,0,8,12,0,799,750,-0.0292,8393.0986,6.8213,0.4212,54.894062,9.801406,108.3,5.845,1.85,0.00,54.895348,9.797490,54.894039,9.801540
1386963635,1,0,106.4,0,7,8,0,760,800,-0.0292,8390.7656,6.8213,0.4212,54.894054,9.801435,108.3,5.845,1.85,0.00,54.895348,9.797490,54.894039,9.801540
1386963635,1,0,104.1,0,7,4,0,725,750,-0.0292,8388.4326,6.8213,0.4212,54.894051,9.801465,108.3,5.845,1.85,0.00,54.895348,9.797490,54.894039,9.801540
1386963635,1,0,104.7,0,4,8,0,690,700,-0.0292,8387.0996,6.8213,0.4212,54.894047,9.801495,108.3,5.845,1.85,0.00,54.894039,9.801540,54.893795,9.802254
1386963636,1,0,119.8,0,-13,4,0,669,650,-0.0292,8391.4326,6.8213,0.4212,54.894039,9.801524,108.3,5.845,1.85,0.00,54.894039,9.801540,54.893795,9.802254
1386963636,1,0,120.0,0,-9,0,0,735,700,-0.0292,8394.4326,6.8213,0.4212,54.894032,9.801553,108.3,5.845,1.85,0.00,54.894039,9.801540,54.893795,9.802254
1386963636,1,0,120.2,0,-6,-4,0,779,750,-0.0292,8396.4326,6.8213,0.4212,54.894024,9.801580,108.3,5.845,1.85,0.00,54.894039,9.801540,54.893795,9.802254
1386963636,1,0,120.4,0,-4,0,0,808,800,-0.0292,8397.7656,6.8213,0.4212,54.894016,9.801608,108.3,5.845,1.85,0.00,54.894039,9.801540,54.893795,9.802254
1386963637,1,0,120.6,0,-3,-4,0,827,850,-0.0292,8398.7656,6.8213,0.4212,54.894005,9.801636,108.3,5.845,1.85,0.00,54.894039,9.801540,54.893795,9.802254
1386963637,1,0,120.4,0,-2,0,0,842,800,-0.0292,8399.4326,6.8213,0.4212,54.893997,9.801662,108.3,5.845,1.85,0.00,54.894039,9.801540,54.893795,9.802254
1386963637,1,0,120.6,0,-1,-4,0,851,850,-0.0292,8399.7656,6.8213,0.4212,54.893990,9.801690,108.3,5.845,1.85,0.00,54.894039,9.801540,54.893795,9.802254
1386963637,1,0,120.8,0,-1,0,0,856,900,-0.0292,8400.0986,6.8213,0.4212,54.893978,9.801717,108.3,5.845,1.85,0.00,54.894039,9.801540,54.893795,9.802254
1386963638,1,0,120.5,0,0,4,0,860,850,-0.0292,8400.0986,6.8213,0.4212,54.893970,9.801744,108.3,5.845,1.85,0.00,54.894039,9.801540,54.893795,9.802254
1386963638,1,0,120.8,0,-1,0,0,860,900,-0.0292,8400.4316,6.8213,0.4212,54.893959,9.801771,108.3,5.845,1.85,0.00,54.894039,9.801540,54.893795,9.802254
1386963638,1,0,120.4,0,0,4,0,865,850,-0.0292,8400.4316,6.8213,0.4212,54.893951,9.801798,108.3,5.845,1.85,0.00,54.894039,9.801540,54.893795,9.802254
1386963638,1,0,120.7,0,0,0,0,865,900,-0.0292,8400.4316,6.8213,0.4212,54.893944,9.801826,108.3,5.845,1.85,0.00,54.894039,9.801540,54.893795,9.802254
1386963639,1,0,121.0,0,-1,-4,0,865,850,-0.0292,8400.7646,6.8213,0.4212,54.893932,9.801852,108.3,5.845,1.85,0.00,54.894039,9.801540,54.893795,9.802254
1386963639,1,0,120.6,0,0,0,0,870,900,-0.0292,8400.7646,6.8213,0.4212,54.893925,9.801879,108.3,5.845,1.85,0.00,54.894039,9.801540,54.893795,9.802254
1386963639,1,0,120.9,0,0,4,0,870,850,-0.0292,8400.7646,6.8213,0.4212,54.893917,9.801906,108.3,5.845,1.85,0.00,54.894039,9.801540,54.893795,9.802254
1386963639,1,0,114.0,0,7,8,0,870,900,-0.0292,8398.4316,6.8213,0.4212,54.893806,9.802193,108.3,5.845,1.85,0.00,54.894039,9.801540,54.893795,9.802254
1386963640,1,0,108.0,0,10,12,0,837,850,-0.0292,8395.0986,6.8213,0.4212,54.893799,9.802220,108.3,5.845,1.85,0.00,54.893795,9.802254,54.893074,9.804575
1386963640,1,0,118.0,0,-3,8,0,789,800,-0.0292,8396.0986,6.8213,0.4212,54.893791,9.802249,108.3,5.845,1.85,0.00,54.893795,9.802254,54.893074,9.804575
1386963640,1,0,118.1,0,-2,4,0,804,850,-0.0292,8396.7656,6.8213,0.4212,54.893780,9.802277,108.3,5.845,1.85,0.00,54.893795,9.802254,54.893074,9.804575
1386963640,1,0,118.0,0,-1,0,0,813,800,-0.0292,8397.0986,6.8213,0.4212,54.893772,9.802304,108.3,5.845,1.85,0.00,54.893795,9.802254,54.893074,9.804575
1386963641,1,0,118.0,0,-1,-4,0,818,850,-0.0292,8397.4316,6.8213,0.4212,54.893764,9.802332,108.3,5.845,1.85,0.00,54.893795,9.802254,54.893074,9.804575
1386963641,1,0,118.0,0,-1,0,0,823,800,-0.0292,8397.7646,6.8213,0.4212,54.893757,9.802360,108.3,5.845,1.85,0.00,54.893795,9.802254,54.893074,9.804575
1386963641,1,0,118.0,0,0,4,0,827,850,-0.0292,8397.7646,6.8213,0.4212,54.893749,9.802387,108.3,5.845,1.85,0.00,54.893795,9.802254,54.893074,9.804575
1386963641,1,0,118.1,0,0,0,0,827,800,-0.0292,8397.7646,6.8213,0.4212,54.893742,9.802415,108.3,5.845,1.85,0.00,54.893795,9.802254,54.893074,9.804575
1386963642,1,0,118.1,0,0,4,0,827,850,-0.0292,8397.7646,6.8213,0.4212,54.893730,9.802443,108.3,5.845,1.85,0.00,54.893795,9.802254,54.893074,9.804575
1386963642,1,0,118.0,0,0,0,0,827,800,-0.0292,8397.7646,6.8213,0.4212,54.893723,9.802470,108.3,5.845,1.85,0.00,54.893795,9.802254,54.893074,9.804575
1386963642,1,0,118.0,0,0,4,0,827,850,-0.0292,8397.7646,6.8213,0.4212,54.893715,9.802498,108.3,5.845,1.85,0.00,54.893795,9.802254,54.893074,9.804575
1386963642,1,0,118.1,0,0,0,0,827,800,-0.0292,8397.7646,6.8213,0.4212,54.893707,9.802526,108.3,5.845,1.85,0.00,54.893795,9.802254,54.893074,9.804575
1386963643,1,0,118.1,0,0,4,0,827,850,-0.0292,8397.7646,6.8213,0.4212,54.893700,9.802553,108.3,5.845,1.85,0.00,54.893795,9.802254,54.893074,9.804575
1386963643,1,0,118.1,0,0,0,0,827,800,-0.0292,8397.7646,6.8213,0.4212,54.893692,9.802581,108.3,5.845,1.85,0.00,54.893795,9.802254,54.893074,9.804575
1386963643,1,0,118.2,0,0,4,0,827,850,-0.0292,8397.7646,6.8213,0.4212,54.893681,9.802608,108.3,5.845,1.85,0.00,54.893795,9.802254,54.893074,9.804575
1386963643,1,0,118.1,0,0,0,0,827,800,-0.0292,8397.7646,6.8213,0.4212,54.893673,9.802636,108.3,5.845,1.85,0.00,54.893795,9.802254,54.893074,9.804575
1386963644,1,0,118.1,0,0,4,0,827,850,-0.0292,8397.7646,6.8213,0.4212,54.893661,9.802664,108.3,5.845,1.85,0.00,54.893795,9.802254,54.893074,9.804575
1386963644,1,0,112.1,0,6,8,0,827,800,-0.0292,8395.7646,6.8213,0.4212,54.893108,9.804424,108.3,5.845,1.85,0.00,54.893795,9.802254,54.893074,9.804575
1386963644,1,0,111.5,0,4,4,0,799,750,-0.0292,8394.4316,6.8213,0.4212,54.893101,9.804452,108.3,5.845,1.85,0.00,54.893795,9.802254,54.893074,9.804575
1386963644,1,0,110.6,0,4,8,0,779,800,-0.0292,8393.0986,6.8213,0.4212,54.893097,9.804481,108.3,5.845,1.85,0.00,54.893795,9.802254,54.893074,9.804575
1386963645,1,0,112.7,0,0,4,0,760,750,-0.0292,8393.0986,6.8213,0.4212,54.893093,9.804509,108.3,5.845,1.85,0.00,54.893795,9.802254,54.893074,9.804575
1386963645,1,0,116.6,0,-4,0,0,760,800,-0.0292,8394.4316,6.8213,0.4212,54.893085,9.804537,108.3,5.845,1.85,0.00,54.893074,9.804575,54.893074,9.801486
1386963645,1,0,150.0,0,-35,-4,0,779,750,-0.0292,8406.0986,6.8213,0.4212,54.893074,9.804563,108.3,5.845,1.85,0.00,54.893074,9.804575,54.893074,9.801486
1386963645,1,0,150.0,0,-24,-8,0,870,800,-0.0292,8414.0986,6.8213,0.4212,54.893063,9.804585,108.3,5.845,1.85,0.00,54.893074,9.804575,54.893074,9.801486
1386963646,1,0,150.0,0,-16,-12,0,870,850,-0.0292,8419.4316,6.8213,0.4212,54.893047,9.804605,108.3,5.845,1.85,0.00,54.893074,9.804575,54.893074,9.801486
1386963646,1,0,150.0,0,-11,-8,0,713,800,-0.0292,8423.0986,6.8213,0.4212,54.893036,9.804624,108.3,5.845,1.85,0.00,54.893074,9.804575,54.893074,9.801486
1386963646,1,0,150.0,0,-7,-4,0,713,750,-0.0292,8425.4316,6.8213,0.4212,54.893021,9.804642,108.3,5.845,1.85,0.00,54.893074,9.804575,54.893074,9.801486
1386963646,1,0,150.0,0,-5,-8,0,713,700,-0.0292,8427.0986,6.8213,0.4212,54.893005,9.804658,108.3,5.845,1.85,0.00,54.893074,9.804575,54.893074,9.801486
1386963647,1,0,150.0,0,-3,-4,0,0,650,-0.0292,8428.0986,6.8213,0.4212,54.892990,9.804674,108.3,5.845,1.85,0.00,54.893074,9.804575,54.893074,9.801486
1386963647,1,0,150.0,0,-2,0,0,0,600,-0.0292,8428.7656,6.8213,0.4212,54.892975,9.804690,108.3,5.845,1.85,0.00,54.893074,9.804575,54.893074,9.801486
1386963647,1,0,150.0,0,-1,-4,0,0,550,-0.0292,8429.0986,6.8213,0.4212,54.892960,9.804707,108.3,5.845,1.85,0.00,54.893074,9.804575,54.893074,9.801486
1386963647,1,0,150.0,0,-1,0,0,0,500,-0.0292,8429.4316,6.8213,0.4212,54.892944,9.804723,108.3,5.845,1.85,0.00,54.893074,9.804575,54.893074,9.801486
1386963648,1,0,150.0,0,-1,-4,0,0,450,-0.0292,8429.7646,6.8213,0.4212,54.892929,9.804738,108.3,5.845,1.85,0.00,54.893074,9.804575,54.893074,9.801486
1386963648,1,0,150.0,0,0,0,0,0,400,-0.0292,8429.7646,6.8213,0.4212,54.892914,9.804753,108.3,5.845,1.85,0.00,54.893074,9.804575,54.893074,9.801486
1386963648,1,0,150.0,0,0,4,0,0,350,-0.0292,8429.7646,6.8213,0.4212,54.892899,9.804770,108.3,5.845,1.85,0.00,54.893074,9.804575,54.893074,9.801486
1386963648,1,0,150.0,0,0,0,0,0,300,-0.0292,8429.7646,6.8213,0.4212,54.892883,9.804785,108.3,5.845,1.85,0.00,54.893074,9.804575,54.893074,9.801486
1386963649,1,0,150.0,0,0,4,0,0,250,-0.0292,8429.7646,6.8213,0.4212,54.892864,9.804800,108.3,5.845,1.85,0.00,54.893074,9.804575,54.893074,9.801486
1386963649,1,0,150.0,0,0,0,0,0,200,-0.0292,8429.7646,6.8213,0.4212,54.892849,9.804816,108.3,5.845,1.85,0.00,54.893074,9.804575,54.893074,9.801486
1386963649,1,0,150.0,0,0,4,0,0,150,-0.0292,8429.7646,6.8213,0.4212,54.892834,9.804832,108.3,5.845,1.85,0.00,54.893074,9.804575,54.893074,9.801486
1386963649,1,0,150.0,0,0,0,0,0,100,-0.0292,8429.7646,6.8213,0.4212,54.892815,9.804848,108.3,5.845,1.85,0.00,54.893074,9.804575,54.893074,9.801486
1386963650,1,0,150.0,0,0,4,0,0,50,-0.0292,8429.7646,6.8213,0.4212,54.892799,9.804864,108.3,5.845,1.85,0.00,54.893074,9.804575,54.893074,9.801486
1386963650,1,0,150.0,0,0,0,0,0,0,-0.0292,8429.7646,6.8213,0.4212,54.892784,9.804879,108.3,5.845,1.85,0.00,54.893074,9.804575,54.893074,9.801486
1386963650,1,0,150.0,0,0,4,0,0,0,-0.0292,8429.7646,6.8213,0.4212,54.892765,9.804895,108.3,5.845,1.85,0.00,54.893074,9.804575,54.893074,9.801486
1386963650,1,0,210.0,0,-35,0,0,0,0,-0.0292,8441.4316,6.8213,0.4212,54.892746,9.804905,108.3,5.845,1.85,0.00,54.893074,9.804575,54.893074,9.801486
1386963651,1,0,210.0,0,-35,-4,0,0,0,-0.0292,8453.0986,6.8213,0.4212,54.892727,9.804909,108.3,5.845,1.85,0.00,54.893074,9.804575,54.893074,9.801486
1386963651,1,0,210.0,0,-35,-8,0,0,0,-0.0292,8464.7656,6.8213,0.4212,54.892712,9.804906,108.3,5.845,1.85,0.00,54.893074,9.804575,54.893074,9.801486
1386963651,1,0,210.0,0,-25,-12,0,0,0,-0.0292,8473.0986,6.8213,0.4212,54.892693,9.804898,108.3,5.845,1.85,0.00,54.893074,9.804575,54.893074,9.801486
1386963651,1,0,210.0,0,-17,-16,0,0,0,-0.0292,8478.7656,6.8213,0.4212,54.892673,9.804888,108.3,5.845,1.85,0.00,54.893074,9.804575,54.893074,9.801486
1386963652,1,0,210.0,0,-11,-12,0,0,0,-0.0292,8482.4326,6.8213,0.4212,54.892658,9.804876,108.3,5.845,1.85,0.00,54.893074,9.804575,54.893074,9.801486
1386963652,1,0,210.0,0,-8,-8,0,0,0,-0.0292,8485.0996,6.8213,0.4212,54.892643,9.804863,108.3,5.845,1.85,0.00,54.893074,9.804575,54.893074,9.801486
1386963652,1,0,210.0,0,-5,-4,0,0,0,-0.0292,8486.7666,6.8213,0.4212,54.892628,9.804849,108.3,5.845,1.85,0.00,54.893074,9.804575,54.893074,9.801486
1386963652,1,0,210.0,0,-3,0,0,713,50,-0.0292,8487.7666,6.8213,0.4212,54.892612,9.804833,108.3,5.845,1.85,0.00,54.893074,9.804575,54.893074,9.801486
1386963653,1,0,210.0,0,-2,-4,0,713,100,-0.0292,8488.4336,6.8213,0.4212,54.892593,9.804819,108.3,5.845,1.85,0.00,54.893074,9.804575,54.893074,9.801486
1386963653,1,0,210.0,0,-2,0,0,713,150,-0.0292,8489.1006,6.8213,0.4212,54.892578,9.804804,108.3,5.845,1.85,0.00,54.893074,9.804575,54.893074,9.801486
1386963653,1,0,210.0,0,-1,-4,0,713,200,-0.0292,8489.4336,6.8213,0.4212,54.892563,9.804789,108.3,5.845,1.85,0.00,54.893074,9.804575,54.893074,9.801486
1386963653,1,0,210.0,0,-1,0,0,713,250,-0.0292,8489.7666,6.8213,0.4212,54.892544,9.804773,108.3,5.845,1.85,0.00,54.893074,9.804575,54.893074,9.801486
1386963654,1,0,210.0,0,0,4,0,713,300,-0.0292,8489.7666,6.8213,0.4212,54.892529,9.804757,108.3,5.845,1.85,0.00,54.893074,9.804575,54.893074,9.801486
1386963654,1,0,210.0,0,0,0,0,713,350,-0.0292,8489.7666,6.8213,0.4212,54.892513,9.804742,108.3,5.845,1.85,0.00,54.893074,9.804575,54.893074,9.801486
1386963654,1,0,269.6,0,-35,-4,0,713,400,-0.0292,8501.4336,6.8213,0.4212,54.892498,9.804721,108.3,5.845,1.85,0.00,54.893074,9.804575,54.893074,9.801486
1386963654,1,0,-55.0,0,-35,-8,0,713,450,-0.0292,8513.1006,6.8213,0.4212,54.892487,9.804695,108.3,5.845,1.85,0.00,54.893074,9.804575,54.893074,9.801486
1386963655,1,0,55.0,0,35,-4,0,870,500,-0.0292,8501.4336,6.8213,0.4212,54.892471,9.804674,108.3,5.845,1.85,0.00,54.893074,9.804575,54.893074,9.801486
1386963655,1,0,55.0,0,35,0,0,713,550,-0.0292,8489.7666,6.8213,0.4212,54.892456,9.804659,108.3,5.845,1.85,0.00,54.893074,9.804575,54.893074,9.801486
1386963655,1,0,55.0,0,35,4,0,713,600,-0.0292,8478.0996,6.8213,0.4212,54.892441,9.804649,108.3,5.845,1.85,0.00,54.893074,9.804575,54.893074,9.801486
1386963655,1,0,55.0,0,35,8,0,713,650,-0.0292,8466.4326,6.8213,0.4212,54.892422,9.804646,108.3,5.845,1.85,0.00,54.893074,9.804575,54.893074,9.801486
1386963656,1,0,55.0,0,35,12,0,0,600,-0.0292,8454.7656,6.8213,0.4212,54.892403,9.804648,108.3,5.845,1.85,0.00,54.893074,9.804575,54.893074,9.801486
1386963656,1,0,55.0,0,35,16,0,0,550,-0.0292,8443.0986,6.8213,0.4212,54.892387,9.804657,108.3,5.845,1.85,0.00,54.893074,9.804575,54.893074,9.801486
1386963656,1,0,55.0,0,35,20,0,713,600,-0.0292,8431.4316,6.8213,0.4212,54.892372,9.804672,108.3,5.845,1.85,0.00,54.893074,9.804575,54.893074,9.801486
1386963656,1,0,55.0,0,35,24,0,713,650,-0.0292,8419.7646,6.8213,0.4212,54.892357,9.804693,108.3,5.845,1.85,0.00,54.893074,9.804575,54.893074,9.801486
1386963657,1,0,55.0,0,35,28,0,713,700,-0.0292,8408.0977,6.8213,0.4212,54.892345,9.804718,108.3,5.845,1.85,0.00,54.893074,9.804575,54.893074,9.801486
1386963657,1,0,55.0,0,35,32,0,870,750,-0.0292,8396.4307,6.8213,0.4212,54.892338,9.804747,108.3,5.845,1.85,0.00,54.893074,9.804575,54.893074,9.801486
1386963657,1,0,55.0,0,35,36,0,808,800,-0.0292,8384.7637,6.8213,0.4212,54.892334,9.804777,108.3,5.845,1.85,0.00,54.893074,9.804575,54.893074,9.801486
1386963658,1,0,55.0,0,35,32,0,633,750,-0.0292,8373.0967,6.8213,0.4212,54.892334,9.804809,108.3,5.845,1.85,0.00,54.893074,9.804575,54.893074,9.801486
1386963658,1,0,55.0,0,35,36,0,449,700,-0.0292,8361.4297,6.8213,0.4212,54.892338,9.804839,108.3,5.845,1.85,0.00,54.893074,9.804575,54.893074,9.801486
1386963658,1,0,55.0,0,26,32,0,264,650,-0.0292,8352.7627,6.8213,0.4212,54.892345,9.804870,108.3,5.845,1.85,0.00,54.893074,9.804575,54.893074,9.801486
1386963658,1,0,55.0,0,18,28,0,139,600,-0.0292,8346.7627,6.8213,0.4212,54.892353,9.804898,108.3,5.845,1.85,0.00,54.893074,9.804575,54.893074,9.801486
1386963659,1,0,55.0,0,12,24,0,67,550,-0.0292,8342.7627,6.8213,0.4212,54.892361,9.804926,108.3,5.845,1.85,0.00,54.893074,9.804575,54.893074,9.801486
1386963659,1,0,55.0,0,8,20,0,31,500,-0.0292,8340.0957,6.8213,0.4212,54.892372,9.804954,108.3,5.845,1.85,0.00,54.893074,9.804575,54.893074,9.801486
1386963659,1,0,55.0,0,5,16,0,14,450,-0.0292,8338.4287,6.8213,0.4212,54.892380,9.804980,108.3,5.845,1.85,0.00,54.893074,9.804575,54.893074,9.801486
1386963659,1,0,55.0,0,3,12,0,6,400,-0.0292,8337.4287,6.8213,0.4212,54.892391,9.805006,108.3,5.845,1.85,0.00,54.893074,9.804575,54.893074,9.801486
1386963660,1,0,55.0,0,2,8,0,3,350,-0.0292,8336.7617,6.8213,0.4212,54.892399,9.805033,108.3,5.845,1.85,0.00,54.893074,9.804575,54.893074,9.801486
1386963660,1,0,55.0,0,2,4,0,2,300,-0.0292,8336.0947,6.8213,0.4212,54.892410,9.805058,108.3,5.845,1.85,0.00,54.893074,9.804575,54.893074,9.801486
1386963660,1,0,55.0,0,1,0,0,1,250,-0.0292,8335.7617,6.8213,0.4212,54.892422,9.805084,108.3,5.845,1.85,0.00,54.893074,9.804575,54.893074,9.801486
1386963660,1,0,55.0,0,1,4,0,0,200,-0.0292,8335.4287,6.8213,0.4212,54.892433,9.805110,108.3,5.845,1.85,0.00,54.893074,9.804575,54.893074,9.801486
1386963661,1,0,55.0,0,0,0,0,0,150,-0.0292,8335.4287,6.8213,0.4212,54.892445,9.805136,108.3,5.845,1.85,0.00,54.893074,9.804575,54.893074,9.801486
1386963661,1,0,55.0,0,0,4,0,0,100,-0.0292,8335.4287,6.8213,0.4212,54.892452,9.805161,108.3,5.845,1.85,0.00,54.893074,9.804575,54.893074,9.801486
1386963661,1,0,55.0,0,0,0,0,0,50,-0.0292,8335.4287,6.8213,0.4212,54.892464,9.805187,108.3,5.845,1.85,0.00,54.893074,9.804575,54.893074,9.801486
1386963661,1,0,55.0,0,0,4,0,0,0,-0.0292,8335.4287,6.8213,0.4212,54.892471,9.805213,108.3,5.845,1.85,0.00,54.893074,9.804575,54.893074,9.801486
1386963662,1,0,55.0,0,0,0,0,0,0,-0.0292,8335.4287,6.8213,0.4212,54.892483,9.805239,108.3,5.845,1.85,0.00,54.893074,9.804575,54.893074,9.801486
1386963662,1,0,55.0,0,0,4,0,0,0,-0.0292,8335.4287,6.8213,0.4212,54.892494,9.805264,108.3,5.845,1.85,0.00,54.893074,9.804575,54.893074,9.801486
1386963662,1,0,-75.1,0,35,8,0,0,0,-0.0292,8323.7617,6.8213,0.4212,54.892506,9.805286,108.3,5.845,1.85,0.00,54.893074,9.804575,54.893074,9.801486
1386963662,1,0,-75.5,0,35,12,0,0,0,-0.0292,8312.0947,6.8213,0.4212,54.892521,9.805303,108.3,5.845,1.85,0.00,54.893074,9.804575,54.893074,9.801486
1386963663,1,0,-75.9,0,35,16,0,0,0,-0.0292,8300.4277,6.8213,0.4212,54.892536,9.805314,108.3,5.845,1.85,0.00,54.893074,9.804575,54.893074,9.801486
1386963663,1,0,-76.4,0,35,20,0,0,0,-0.0292,8288.7607,6.8213,0.4212,54.892551,9.805319,108.3,5.845,1.85,0.00,54.893074,9.804575,54.893074,9.801486
1386963663,1,0,-76.7,0,35,24,0,0,0,-0.0292,8277.0938,6.8213,0.4212,54.892570,9.805318,108.3,5.845,1.85,0.00,54.893074,9.804575,54.893074,9.801486
1386963663,1,0,-77.2,0,35,28,0,0,0,-0.0292,8265.4268,6.8213,0.4212,54.892586,9.805310,108.3,5.845,1.85,0.00,54.893074,9.804575,54.893074,9.801486
1386963664,1,0,-77.6,0,35,32,0,0,0,-0.0292,8253.7598,6.8213,0.4212,54.892601,9.805297,108.3,5.845,1.85,0.00,54.893074,9.804575,54.893074,9.801486
1386963664,1,0,-77.9,0,35,36,0,0,0,-0.0292,8242.0928,6.8213,0.4212,54.892616,9.805278,108.3,5.845,1.85,0.00,54.893074,9.804575,54.893074,9.801486
1386963664,1,0,-78.2,0,35,32,0,0,0,-0.0292,8230.4258,6.8213,0.4212,54.892628,9.805254,108.3,5.845,1.85,0.00,54.893074,9.804575,54.893074,9.801486
1386963664,1,0,-78.4,0,29,28,0,0,0,-0.0292,8220.7588,6.8213,0.4212,54.892639,9.805227,108.3,5.845,1.85,0.00,54.893074,9.804575,54.893074,9.801486
1386963665,1,0,-78.6,0,19,24,0,9,50,-0.0292,8214.4258,6.8213,0.4212,54.892647,9.805200,108.3,5.845,1.85,0.00,54.893074,9.804575,54.893074,9.801486
1386963665,1,0,-78.8,0,13,20,0,55,100,-0.0292,8210.0928,6.8213,0.4212,54.892654,9.805170,108.3,5.845,1.85,0.00,54.893074,9.804575,54.893074,9.801486
1386963665,1,0,-78.9,0,9,16,0,103,150,-0.0292,8207.0928,6.8213,0.4212,54.892662,9.805140,108.3,5.845,1.85,0.00,54.893074,9.804575,54.893074,9.801486
1386963665,1,0,-79.0,0,6,12,0,141,100,-0.0292,8205.0928,6.8213,0.4212,54.892666,9.805111,108.3,5.845,1.85,0.00,54.893074,9.804575,54.893074,9.801486
1386963666,1,0,-79.0,0,4,8,0,168,150,-0.0292,8203.7598,6.8213,0.4212,54.892670,9.805080,108.3,5.845,1.85,0.00,54.893074,9.804575,54.893074,9.801486
1386963666,1,0,-79.0,0,3,4,0,187,200,-0.0292,8202.7598,6.8213,0.4212,54.892673,9.805050,108.3,5.845,1.85,0.00,54.893074,9.804575,54.893074,9.801486
1386963666,1,0,-79.0,0,2,0,0,202,250,-0.0292,8202.0928,6.8213,0.4212,54.892677,9.805019,108.3,5.845,1.85,0.00,54.893074,9.804575,54.893074,9.801486
1386963666,1,0,-79.0,0,1,4,0,211,200,-0.0292,8201.7598,6.8213,0.4212,54.892681,9.804989,108.3,5.845,1.85,0.00,54.893074,9.804575,54.893074,9.801486
1386963667,1,0,-79.0,0,1,0,0,216,250,-0.0292,8201.4268,6.8213,0.4212,54.892685,9.804958,108.3,5.845,1.85,0.00,54.893074,9.804575,54.893074,9.801486
1386963667,1,0,-79.0,0,0,4,0,221,200,-0.0292,8201.4268,6.8213,0.4212,54.892685,9.804928,108.3,5.845,1.85,0.00,54.893074,9.804575,54.893074,9.801486
1386963667,1,0,-78.9,0,0,0,0,221,250,-0.0292,8201.4268,6.8213,0.4212,54.892685,9.804897,108.3,5.845,1.85,0.00,54.893074,9.804575,54.893074,9.801486
1386963667,1,0,-78.8,0,0,4,0,221,200,-0.0292,8201.4268,6.8213,0.4212,54.892685,9.804867,108.3,5.845,1.85,0.00,54.893074,9.804575,54.893074,9.801486
1386963668,1,0,-78.8,0,0,0,0,221,250,-0.0292,8201.4268,6.8213,0.4212,54.892685,9.804836,108.3,5.845,1.85,0.00,54.893074,9.804575,54.893074,9.801486
1386963668,1,0,-78.7,0,0,4,0,221,200,-0.0292,8201.4268,6.8213,0.4212,54.892685,9.804806,108.3,5.845,1.85,0.00,54.893074,9.804575,54.893074,9.801486
1386963668,1,0,-78.5,0,0,0,0,221,250,-0.0292,8201.4268,6.8213,0.4212,54.892685,9.804774,108.3,5.845,1.85,0.00,54.893074,9.804575,54.893074,9.801486
1386963668,1,0,-78.4,0,0,4,0,221,200,-0.0292,8201.4268,6.8213,0.4212,54.892685,9.804744,108.3,5.845,1.85,0.00,54.893074,9.804575,54.893074,9.801486
1386963669,1,0,-78.3,0,0,0,0,221,250,-0.0292,8201.4268,6.8213,0.4212,54.892685,9.804713,108.3,5.845,1.85,0.00,54.893074,9.804575,54.893074,9.801486
1386963669,1,0,-78.2,0,0,4,0,221,200,-0.0292,8201.4268,6.8213,0.4212,54.892685,9.804683,108.3,5.845,1.85,0.00,54.893074,9.804575,54.893074,9.801486
1386963669,1,0,-78.1,0,0,0,0,221,250,-0.0292,8201.4268,6.8213,0.4212,54.892685,9.804652,108.3,5.845,1.85,0.00,54.893074,9.804575,54.893074,9.801486
1386963669,1,0,-78.0,0,-1,-4,0,221,200,-0.0292,8201.7598,6.8213,0.4212,54.892685,9.804622,108.3,5.845,1.85,0.00,54.893074,9.804575,54.893074,9.801486
1386963670,1,0,-77.9,0,0,0,0,216,250,-0.0292,8201.7598,6.8213,0.4212,54.892685,9.804591,108.3,5.845,1.85,0.00,54.893074,9.804575,54.893074,9.801486
1386963670,1,0,-77.8,0,0,4,0,216,200,-0.0292,8201.7598,6.8213,0.4212,54.892685,9.804560,108.3,5.845,1.85,0.00,54.893074,9.804575,54.893074,9.801486
1386963670,1,0,-77.7,0,-1,0,0,216,250,-0.0292,8202.0928,6.8213,0.4212,54.892685,9.804529,108.3,5.845,1.85,0.00,54.893074,9.804575,54.893074,9.801486
1386963670,1,0,-77.5,0,0,4,0,211,200,-0.0292,8202.0928,6.8213,0.4212,54.892685,9.804499,108.3,5.845,1.85,0.00,54.893074,9.804575,54.893074,9.801486
1386963671,1,0,-77.4,0,0,0,0,211,250,-0.0292,8202.0928,6.8213,0.4212,54.892685,9.804468,108.3,5.845,1.85,0.00,54.893074,9.804575,54.893074,9.801486
1386963671,1,0,-77.3,0,-1,-4,0,211,200,-0.0292,8202.4258,6.8213,0.4212,54.892689,9.804438,108.3,5.845,1.85,0.00,54.893074,9.804575,54.893074,9.801486
1386963671,1,0,-77.3,0,0,0,0,207,250,-0.0292,8202.4258,6.8213,0.4212,54.892693,9.804407,108.3,5.845,1.85,0.00,54.893074,9.804575,54.893074,9.801486
1386963671,1,0,-77.3,0,0,4,0,207,200,-0.0292,8202.4258,6.8213,0.4212,54.892696,9.804377,108.3,5.845,1.85,0.00,54.893074,9.804575,54.893074,9.801486
1386963672,1,0,-77.3,0,0,0,0,207,250,-0.0292,8202.4258,6.8213,0.4212,54.892700,9.804347,108.3,5.845,1.85,0.00,54.893074,9.804575,54.893074,9.801486
1386963672,1,0,-77.3,0,0,4,0,207,200,-0.0292,8202.4258,6.8213,0.4212,54.892704,9.804317,108.3,5.845,1.85,0.00,54.893074,9.804575,54.893074,9.801486
1386963672,1,0,-77.3,0,0,0,0,207,250,-0.0292,8202.4258,6.8213,0.4212,54.892708,9.804286,108.3,5.845,1.85,0.00,54.893074,9.804575,54.893074,9.801486
1386963672,1,0,-77.3,0,0,4,0,207,200,-0.0292,8202.4258,6.8213,0.4212,54.892708,9.804255,108.3,5.845,1.85,0.00,54.893074,9.804575,54.893074,9.801486
1386963673,1,0,-77.1,0,0,0,0,207,250,-0.0292,8202.4258,6.8213,0.4212,54.892708,9.804225,108.3,5.845,1.85,0.00,54.893074,9.804575,54.893074,9.801486
1386963673,1,0,-77.0,0,-1,-4,0,207,200,-0.0292,8202.7588,6.8213,0.4212,54.892708,9.804194,108.3,5.845,1.85,0.00,54.893074,9.804575,54.893074,9.801486
1386963673,1,0,-76.8,0,0,0,0,202,250,-0.0292,8202.7588,6.8213,0.4212,54.892708,9.804164,108.3,5.845,1.85,0.00,54.893074,9.804575,54.893074,9.801486
1386963673,1,0,-76.7,0,-1,-4,0,202,200,-0.0292,8203.0918,6.8213,0.4212,54.892708,9.804133,108.3,5.845,1.85,0.00,54.893074,9.804575,54.893074,9.801486
1386963674,1,0,-76.6,0,0,0,0,197,150,-0.0292,8203.0918,6.8213,0.4212,54.892708,9.804103,108.3,5.845,1.85,0.00,54.893074,9.804575,54.893074,9.801486
1386963674,1,0,-76.4,0,-1,-4,0,197,200,-0.0292,8203.4248,6.8213,0.4212,54.892712,9.804072,108.3,5.845,1.85,0.00,54.893074,9.804575,54.893074,9.801486
1386963674,1,0,-76.4,0,0,0,0,192,150,-0.0292,8203.4248,6.8213,0.4212,54.892715,9.804043,108.3,5.845,1.85,0.00,54.893074,9.804575,54.893074,9.801486
1386963674,1,0,-76.4,0,0,4,0,192,200,-0.0292,8203.4248,6.8213,0.4212,54.892719,9.804012,108.3,5.845,1.85,0.00,54.893074,9.804575,54.893074,9.801486
1386963675,1,0,-76.4,0,0,0,0,192,150,-0.0292,8203.4248,6.8213,0.4212,54.892723,9.803982,108.3,5.845,1.85,0.00,54.893074,9.804575,54.893074,9.801486
1386963675,1,0,-76.3,0,0,4,0,192,200,-0.0292,8203.4248,6.8213,0.4212,54.892727,9.803951,108.3,5.845,1.85,0.00,54.893074,9.804575,54.893074,9.801486
1386963675,1,0,-76.3,0,0,0,0,192,150,-0.0292,8203.4248,6.8213,0.4212,54.892731,9.803921,108.3,5.845,1.85,0.00,54.893074,9.804575,54.893074,9.801486
1386963675,1,0,-76.3,0,0,4,0,192,200,-0.0292,8203.4248,6.8213,0.4212,54.892738,9.803890,108.3,5.845,1.85,0.00,54.893074,9.804575,54.893074,9.801486
1386963676,1,0,-76.4,0,0,0,0,192,150,-0.0292,8203.4248,6.8213,0.4212,54.892742,9.803860,108.3,5.845,1.85,0.00,54.893074,9.804575,54.893074,9.801486
1386963676,1,0,-76.4,0,0,4,0,192,200,-0.0292,8203.4248,6.8213,0.4212,54.892746,9.803830,108.3,5.845,1.85,0.00,54.893074,9.804575,54.893074,9.801486
1386963676,1,0,-76.4,0,0,0,0,192,150,-0.0292,8203.4248,6.8213,0.4212,54.892750,9.803800,108.3,5.845,1.85,0.00,54.893074,9.804575,54.893074,9.801486
1386963676,1,0,-76.4,0,0,4,0,192,200,-0.0292,8203.4248,6.8213,0.4212,54.892754,9.803769,108.3,5.845,1.85,0.00,54.893074,9.804575,54.893074,9.801486
1386963677,1,0,-76.4,0,0,0,0,192,150,-0.0292,8203.4248,6.8213,0.4212,54.892761,9.803739,108.3,5.845,1.85,0.00,54.893074,9.804575,54.893074,9.801486
1386963677,1,0,-76.5,0,0,4,0,192,200,-0.0292,8203.4248,6.8213,0.4212,54.892765,9.803708,108.3,5.845,1.85,0.00,54.893074,9.804575,54.893074,9.801486
1386963677,1,0,-76.5,0,0,0,0,192,150,-0.0292,8203.4248,6.8213,0.4212,54.892769,9.803678,108.3,5.845,1.85,0.00,54.893074,9.804575,54.893074,9.801486
1386963677,1,0,-76.5,0,0,4,0,192,200,-0.0292,8203.4248,6.8213,0.4212,54.892773,9.803647,108.3,5.845,1.85,0.00,54.893074,9.804575,54.893074,9.801486
1386963678,1,0,-76.4,0,0,0,0,192,150,-0.0292,8203.4248,6.8213,0.4212,54.892776,9.803617,108.3,5.845,1.85,0.00,54.893074,9.804575,54.893074,9.801486
1386963678,1,0,-76.4,0,0,4,0,192,200,-0.0292,8203.4248,6.8213,0.4212,54.892780,9.803587,108.3,5.845,1.85,0.00,54.893074,9.804575,54.893074,9.801486
1386963678,1,0,-76.4,0,0,0,0,192,150,-0.0292,8203.4248,6.8213,0.4212,54.892788,9.803556,108.3,5.845,1.85,0.00,54.893074,9.804575,54.893074,9.801486
1386963678,1,0,-76.6,0,0,4,0,192,200,-0.0292,8203.4248,6.8213,0.4212,54.892792,9.803527,108.3,5.845,1.85,0.00,54.893074,9.804575,54.893074,9.801486
1386963679,1,0,-76.6,0,0,0,0,192,150,-0.0292,8203.4248,6.8213,0.4212,54.892796,9.803496,108.3,5.845,1.85,0.00,54.893074,9.804575,54.893074,9.801486
1386963679,1,0,-76.5,0,0,4,0,192,200,-0.0292,8203.4248,6.8213,0.4212,54.892799,9.803466,108.3,5.845,1.85,0.00,54.893074,9.804575,54.893074,9.801486
1386963679,1,0,-76.5,0,0,0,0,192,150,-0.0292,8203.4248,6.8213,0.4212,54.892803,9.803435,108.3,5.845,1.85,0.00,54.893074,9.804575,54.893074,9.801486
1386963679,1,0,-76.5,0,0,4,0,192,200,-0.0292,8203.4248,6.8213,0.4212,54.892811,9.803405,108.3,5.845,1.85,0.00,54.893074,9.804575,54.893074,9.801486
1386963680,1,0,-76.7,0,0,0,0,192,150,-0.0292,8203.4248,6.8213,0.4212,54.892815,9.803374,108.3,5.845,1.85,0.00,54.893074,9.804575,54.893074,9.801486
1386963680,1,0,-76.6,0,0,4,0,192,200,-0.0292,8203.4248,6.8213,0.4212,54.892818,9.803344,108.3,5.845,1.85,0.00,54.893074,9.804575,54.893074,9.801486
1386963680,1,0,-76.6,0,0,0,0,192,150,-0.0292,8203.4248,6.8213,0.4212,54.892822,9.803314,108.3,5.845,1.85,0.00,54.893074,9.804575,54.893074,9.801486
1386963680,1,0,-76.6,0,0,4,0,192,200,-0.0292,8203.4248,6.8213,0.4212,54.892826,9.803284,108.3,5.845,1.85,0.00,54.893074,9.804575,54.893074,9.801486
1386963681,1,0,-76.6,0,0,0,0,192,150,-0.0292,8203.4248,6.8213,0.4212,54.892830,9.803253,108.3,5.845,1.85,0.00,54.893074,9.804575,54.893074,9.801486
1386963681,1,0,-76.6,0,0,4,0,192,200,-0.0292,8203.4248,6.8213,0.4212,54.892838,9.803223,108.3,5.845,1.85,0.00,54.893074,9.804575,54.893074,9.801486
1386963681,1,0,-76.8,0,0,0,0,192,150,-0.0292,8203.4248,6.8213,0.4212,54.892841,9.803192,108.3,5.845,1.85,0.00,54.893074,9.804575,54.893074,9.801486
1386963681,1,0,-76.7,0,0,4,0,192,200,-0.0292,8203.4248,6.8213,0.4212,54.892845,9.803162,108.3,5.845,1.85,0.00,54.893074,9.804575,54.893074,9.801486
1386963682,1,0,-76.7,0,0,0,0,192,150,-0.0292,8203.4248,6.8213,0.4212,54.892849,9.803131,108.3,5.845,1.85,0.00,54.893074,9.804575,54.893074,9.801486
1386963682,1,0,-76.7,0,0,4,0,192,200,-0.0292,8203.4248,6.8213,0.4212,54.892853,9.803102,108.3,5.845,1.85,0.00,54.893074,9.804575,54.893074,9.801486
1386963682,1,0,-76.7,0,0,0,0,192,150,-0.0292,8203.4248,6.8213,0.4212,54.892860,9.803071,108.3,5.845,1.85,0.00,54.893074,9.804575,54.893074,9.801486
1386963682,1,0,-76.9,0,0,4,0,192,200,-0.0292,8203.4248,6.8213,0.4212,54.892864,9.803041,108.3,5.845,1.85,0.00,54.893074,9.804575,54.893074,9.801486
1386963683,1,0,-76.9,0,0,0,0,192,150,-0.0292,8203.4248,6.8213,0.4212,54.892868,9.803011,108.3,5.845,1.85,0.00,54.893074,9.804575,54.893074,9.801486
1386963683,1,0,-76.9,0,0,4,0,192,200,-0.0292,8203.4248,6.8213,0.4212,54.892872,9.802980,108.3,5.845,1.85,0.00,54.893074,9.804575,54.893074,9.801486
1386963683,1,0,-76.8,0,0,0,0,192,150,-0.0292,8203.4248,6.8213,0.4212,54.892876,9.802950,108.3,5.845,1.85,0.00,54.893074,9.804575,54.893074,9.801486
1386963683,1,0,-76.8,0,0,4,0,192,200,-0.0292,8203.4248,6.8213,0.4212,54.892879,9.802919,108.3,5.845,1.85,0.00,54.893074,9.804575,54.893074,9.801486
1386963684,1,0,-76.8,0,0,0,0,192,150,-0.0292,8203.4248,6.8213,0.4212,54.892887,9.802889,108.3,5.845,1.85,0.00,54.893074,9.804575,54.893074,9.801486
1386963684,1,0,-77.0,0,0,4,0,192,200,-0.0292,8203.4248,6.8213,0.4212,54.892891,9.802858,108.3,5.845,1.85,0.00,54.893074,9.804575,54.893074,9.801486
1386963684,1,0,-77.0,0,0,0,0,192,150,-0.0292,8203.4248,6.8213,0.4212,54.892895,9.802828,108.3,5.845,1.85,0.00,54.893074,9.804575,54.893074,9.801486
1386963684,1,0,-77.0,0,0,4,0,192,200,-0.0292,8203.4248,6.8213,0.4212,54.892899,9.802798,108.3,5.845,1.85,0.00,54.893074,9.804575,54.893074,9.801486
1386963685,1,0,-77.0,0,0,0,0,192,150,-0.0292,8203.4248,6.8213,0.4212,54.892902,9.802768,108.3,5.845,1.85,0.00,54.893074,9.804575,54.893074,9.801486
1386963685,1,0,-77.0,0,0,4,0,192,200,-0.0292,8203.4248,6.8213,0.4212,54.892910,9.802737,108.3,5.845,1.85,0.00,54.893074,9.804575,54.893074,9.801486
1386963685,1,0,-77.2,0,1,0,0,192,150,-0.0292,8203.0918,6.8213,0.4212,54.892914,9.802707,108.3,5.845,1.85,0.00,54.893074,9.804575,54.893074,9.801486
1386963685,1,0,-77.2,0,0,4,0,197,200,-0.0292,8203.0918,6.8213,0.4212,54.892918,9.802676,108.3,5.845,1.85,0.00,54.893074,9.804575,54.893074,9.801486
1386963686,1,0,-77.2,0,0,0,0,197,150,-0.0292,8203.0918,6.8213,0.4212,54.892921,9.802646,108.3,5.845,1.85,0.00,54.893074,9.804575,54.893074,9.801486
1386963686,1,0,-77.2,0,0,4,0,197,200,-0.0292,8203.0918,6.8213,0.4212,54.892925,9.802615,108.3,5.845,1.85,0.00,54.893074,9.804575,54.893074,9.801486
1386963686,1,0,-77.2,0,0,0,0,197,150,-0.0292,8203.0918,6.8213,0.4212,54.892929,9.802586,108.3,5.845,1.85,0.00,54.893074,9.804575,54.893074,9.801486
1386963686,1,0,-77.2,0,0,4,0,197,200,-0.0292,8203.0918,6.8213,0.4212,54.892937,9.802555,108.3,5.845,1.85,0.00,54.893074,9.804575,54.893074,9.801486
1386963687,1,0,-77.5,0,1,0,0,197,150,-0.0292,8202.7588,6.8213,0.4212,54.892941,9.802525,108.3,5.845,1.85,0.00,54.893074,9.804575,54.893074,9.801486
1386963687,1,0,-77.5,0,0,4,0,202,200,-0.0292,8202.7588,6.8213,0.4212,54.892944,9.802494,108.3,5.845,1.85,0.00,54.893074,9.804575,54.893074,9.801486
1386963687,1,0,-77.5,0,0,0,0,202,250,-0.0292,8202.7588,6.8213,0.4212,54.892948,9.802464,108.3,5.845,1.85,0.00,54.893074,9.804575,54.893074,9.801486
1386963687,1,0,-77.5,0,0,4,0,202,200,-0.0292,8202.7588,6.8213,0.4212,54.892952,9.802433,108.3,5.845,1.85,0.00,54.893074,9.804575,54.893074,9.801486
1386963688,1,0,-77.4,0,0,0,0,202,250,-0.0292,8202.7588,6.8213,0.4212,54.892960,9.802402,108.3,5.845,1.85,0.00,54.893074,9.804575,54.893074,9.801486
1386963688,1,0,-77.8,0,1,4,0,202,200,-0.0292,8202.4258,6.8213,0.4212,54.892963,9.802372,108.3,5.845,1.85,0.00,54.893074,9.804575,54.893074,9.801486
1386963688,1,0,-77.8,0,0,0,0,207,250,-0.0292,8202.4258,6.8213,0.4212,54.892967,9.802341,108.3,5.845,1.85,0.00,54.893074,9.804575,54.893074,9.801486
1386963688,1,0,-77.8,0,0,4,0,207,200,-0.0292,8202.4258,6.8213,0.4212,54.892971,9.802311,108.3,5.845,1.85,0.00,54.893074,9.804575,54.893074,9.801486
1386963689,1,0,-77.8,0,0,0,0,207,250,-0.0292,8202.4258,6.8213,0.4212,54.892975,9.802280,108.3,5.845,1.85,0.00,54.893074,9.804575,54.893074,9.801486
1386963689,1,0,-77.8,0,0,4,0,207,200,-0.0292,8202.4258,6.8213,0.4212,54.892979,9.802250,108.3,5.845,1.85,0.00,54.893074,9.804575,54.893074,9.801486
1386963689,1,0,-77.8,0,0,0,0,207,250,-0.0292,8202.4258,6.8213,0.4212,54.892979,9.802219,108.3,5.845,1.85,0.00,54.893074,9.804575,54.893074,9.801486
1386963689,1,0,-77.3,0,0,4,0,207,200,-0.0292,8202.4258,6.8213,0.4212,54.892979,9.802189,108.3,5.845,1.85,0.00,54.893074,9.804575,54.893074,9.801486
1386963690,1,0,-76.8,0,-1,0,0,207,250,-0.0292,8202.7588,6.8213,0.4212,54.892979,9.802159,108.3,5.845,1.85,0.00,54.893074,9.804575,54.893074,9.801486
1386963690,1,0,-76.2,0,-1,-4,0,202,200,-0.0292,8203.0918,6.8213,0.4212,54.892979,9.802129,108.3,5.845,1.85,0.00,54.893074,9.804575,54.893074,9.801486
1386963690,1,0,-75.6,0,-1,0,0,197,150,-0.0292,8203.4248,6.8213,0.4212,54.892982,9.802098,108.3,5.845,1.85,0.00,54.893074,9.804575,54.893074,9.801486
1386963690,1,0,-75.5,0,-1,-4,0,192,200,-0.0292,8203.7578,6.8213,0.4212,54.892986,9.802069,108.3,5.845,1.85,0.00,54.893074,9.804575,54.893074,9.801486
1386963691,1,0,-75.4,0,-1,0,0,187,150,-0.0292,8204.0908,6.8213,0.4212,54.892990,9.802038,108.3,5.845,1.85,0.00,54.893074,9.804575,54.893074,9.801486
1386963691,1,0,-75.3,0,-1,-4,0,182,200,-0.0292,8204.4238,6.8213,0.4212,54.892994,9.802008,108.3,5.845,1.85,0.00,54.893074,9.804575,54.893074,9.801486
1386963691,1,0,-75.1,0,0,0,0,178,150,-0.0292,8204.4238,6.8213,0.4212,54.892998,9.801978,108.3,5.845,1.85,0.00,54.893074,9.804575,54.893074,9.801486
1386963691,1,0,-75.0,0,-1,-4,0,178,200,-0.0292,8204.7568,6.8213,0.4212,54.893005,9.801948,108.3,5.845,1.85,0.00,54.893074,9.804575,54.893074,9.801486
1386963692,1,0,-75.6,0,0,0,0,173,150,-0.0292,8204.7568,6.8213,0.4212,54.893009,9.801917,108.3,5.845,1.85,0.00,54.893074,9.804575,54.893074,9.801486
1386963692,1,0,-75.4,0,0,4,0,173,200,-0.0292,8204.7568,6.8213,0.4212,54.893013,9.801887,108.3,5.845,1.85,0.00,54.893074,9.804575,54.893074,9.801486
1386963692,1,0,-75.2,0,0,0,0,173,150,-0.0292,8204.7568,6.8213,0.4212,54.893017,9.801857,108.3,5.845,1.85,0.00,54.893074,9.804575,54.893074,9.801486
1386963692,1,0,-75.1,0,0,4,0,173,200,-0.0292,8204.7568,6.8213,0.4212,54.893021,9.801826,108.3,5.845,1.85,0.00,54.893074,9.804575,54.893074,9.801486
1386963693,1,0,-55.0,0,-20,0,0,173,150,-0.0292,8211.4238,6.8213,0.4212,54.893028,9.801798,108.3,5.845,1.85,0.00,54.893074,9.804575,54.893074,9.801486
1386963693,1,0,-75.8,0,7,4,0,87,100,-0.0292,8209.0908,6.8213,0.4212,54.893032,9.801768,108.3,5.845,1.85,0.00,54.893074,9.804575,54.893074,9.801486
1386963693,1,0,-75.6,0,5,8,0,115,150,-0.0292,8207.4238,6.8213,0.4212,54.893036,9.801738,108.3,5.845,1.85,0.00,54.893074,9.804575,54.893074,9.801486
1386963693,1,0,-75.3,0,3,4,0,137,100,-0.0292,8206.4238,6.8213,0.4212,54.893040,9.801708,108.3,5.845,1.85,0.00,54.893074,9.804575,54.893074,9.801486
1386963694,1,0,-75.0,0,1,0,0,150,150,-0.0292,8206.0908,6.8213,0.4212,54.893044,9.801679,108.3,5.845,1.85,0.00,54.893074,9.804575,54.893074,9.801486
1386963694,1,0,-55.0,0,-19,-4,0,154,200,-0.0292,8212.4238,6.8213,0.4212,54.893051,9.801649,108.3,5.845,1.85,0.00,54.893074,9.804575,54.893074,9.801486
1386963694,1,0,-76.4,0,9,0,0,76,150,-0.0292,8209.4238,6.8213,0.4212,54.893059,9.801620,108.3,5.845,1.85,0.00,54.893074,9.804575,54.893074,9.801486
1386963694,1,0,-78.8,0,8,4,0,111,100,-0.0292,8206.7568,6.8213,0.4212,54.893063,9.801590,108.3,5.845,1.85,0.00,54.893074,9.804575,54.893074,9.801486
1386963695,1,0,-79.2,0,6,8,0,145,150,-0.0292,8204.7568,6.8213,0.4212,54.893066,9.801560,108.3,5.845,1.85,0.00,54.893074,9.804575,54.893074,9.801486
1386963695,1,0,-79.9,0,5,4,0,173,200,-0.0292,8203.0898,6.8213,0.4212,54.893070,9.801530,108.3,5.845,1.85,0.00,54.893074,9.801486,54.892349,9.800717
1386963695,1,0,213.1,0,35,8,0,197,150,-0.0292,8191.4233,6.8213,0.4212,54.893070,9.801498,108.3,5.845,1.85,0.00,54.893074,9.801486,54.892349,9.800717
1386963696,1,0,212.1,0,35,12,0,376,200,-0.0292,8179.7568,6.8213,0.4212,54.893066,9.801468,108.3,5.845,1.85,0.00,54.893074,9.801486,54.892349,9.800717
1386963696,1,0,211.2,0,35,16,0,562,250,-0.0292,8168.0903,6.8213,0.4212,54.893059,9.801438,108.3,5.845,1.85,0.00,54.893074,9.801486,54.892349,9.800717
1386963696,1,0,210.5,0,35,20,0,742,300,-0.0292,8156.4238,6.8213,0.4212,54.893047,9.801413,108.3,5.845,1.85,0.00,54.893074,9.801486,54.892349,9.800717
1386963696,1,0,210.5,0,26,24,0,870,350,-0.0292,8147.7573,6.8213,0.4212,54.893036,9.801390,108.3,5.845,1.85,0.00,54.893074,9.801486,54.892349,9.800717
1386963697,1,0,210.5,0,17,20,0,870,400,-0.0292,8142.0908,6.8213,0.4212,54.893021,9.801369,108.3,5.845,1.85,0.00,54.893074,9.801486,54.892349,9.800717
1386963697,1,0,210.5,0,12,16,0,713,450,-0.0292,8138.0908,6.8213,0.4212,54.893009,9.801350,108.3,5.845,1.85,0.00,54.893074,9.801486,54.892349,9.800717
1386963697,1,0,210.5,0,8,12,0,713,500,-0.0292,8135.4243,6.8213,0.4212,54.892994,9.801332,108.3,5.845,1.85,0.00,54.893074,9.801486,54.892349,9.800717
1386963697,1,0,210.5,0,5,8,0,713,550,-0.0292,8133.7578,6.8213,0.4212,54.892979,9.801314,108.3,5.845,1.85,0.00,54.893074,9.801486,54.892349,9.800717
1386963698,1,0,210.5,0,3,4,0,713,600,-0.0292,8132.7578,6.8213,0.4212,54.892960,9.801297,108.3,5.845,1.85,0.00,54.893074,9.801486,54.892349,9.800717
1386963698,1,0,210.5,0,2,0,0,713,650,-0.0292,8132.0913,6.8213,0.4212,54.892944,9.801280,108.3,5.845,1.85,0.00,54.893074,9.801486,54.892349,9.800717
1386963698,1,0,210.5,0,2,4,0,713,700,-0.0292,8131.4248,6.8213,0.4212,54.892929,9.801264,108.3,5.845,1.85,0.00,54.893074,9.801486,54.892349,9.800717
1386963698,1,0,210.5,0,1,0,0,713,750,-0.0292,8131.0913,6.8213,0.4212,54.892918,9.801248,108.3,5.845,1.85,0.00,54.893074,9.801486,54.892349,9.800717
1386963699,1,0,210.5,0,1,4,0,713,700,-0.0292,8130.7578,6.8213,0.4212,54.892902,9.801231,108.3,5.845,1.85,0.00,54.893074,9.801486,54.892349,9.800717
1386963699,1,0,210.5,0,0,0,0,713,750,-0.0292,8130.7578,6.8213,0.4212,54.892887,9.801215,108.3,5.845,1.85,0.00,54.893074,9.801486,54.892349,9.800717
1386963699,1,0,210.5,0,0,4,0,713,700,-0.0292,8130.7578,6.8213,0.4212,54.892872,9.801199,108.3,5.845,1.85,0.00,54.893074,9.801486,54.892349,9.800717
1386963699,1,0,210.5,0,0,0,0,713,750,-0.0292,8130.7578,6.8213,0.4212,54.892857,9.801184,108.3,5.845,1.85,0.00,54.893074,9.801486,54.892349,9.800717
1386963700,1,0,210.5,0,0,4,0,713,700,-0.0292,8130.7578,6.8213,0.4212,54.892838,9.801167,108.3,5.845,1.85,0.00,54.893074,9.801486,54.892349,9.800717
1386963700,1,0,210.5,0,0,0,0,713,750,-0.0292,8130.7578,6.8213,0.4212,54.892822,9.801151,108.3,5.845,1.85,0.00,54.893074,9.801486,54.892349,9.800717
1386963700,1,0,210.5,0,0,4,0,713,700,-0.0292,8130.7578,6.8213,0.4212,54.892807,9.801136,108.3,5.845,1.85,0.00,54.893074,9.801486,54.892349,9.800717
1386963700,1,0,210.5,0,0,0,0,713,750,-0.0292,8130.7578,6.8213,0.4212,54.892788,9.801120,108.3,5.845,1.85,0.00,54.893074,9.801486,54.892349,9.800717
1386963701,1,0,210.5,0,0,4,0,713,700,-0.0292,8130.7578,6.8213,0.4212,54.892773,9.801104,108.3,5.845,1.85,0.00,54.893074,9.801486,54.892349,9.800717
1386963701,1,0,210.5,0,0,0,0,713,750,-0.0292,8130.7578,6.8213,0.4212,54.892757,9.801087,108.3,5.845,1.85,0.00,54.893074,9.801486,54.892349,9.800717
1386963701,1,0,210.5,0,0,4,0,713,700,-0.0292,8130.7578,6.8213,0.4212,54.892738,9.801071,108.3,5.845,1.85,0.00,54.893074,9.801486,54.892349,9.800717
1386963701,1,0,210.5,0,0,0,0,713,750,-0.0292,8130.7578,6.8213,0.4212,54.892723,9.801056,108.3,5.845,1.85,0.00,54.893074,9.801486,54.892349,9.800717
1386963702,1,0,210.5,0,0,4,0,713,700,-0.0292,8130.7578,6.8213,0.4212,54.892708,9.801040,108.3,5.845,1.85,0.00,54.893074,9.801486,54.892349,9.800717
1386963702,1,0,210.5,0,0,0,0,713,750,-0.0292,8130.7578,6.8213,0.4212,54.892689,9.801023,108.3,5.845,1.85,0.00,54.893074,9.801486,54.892349,9.800717
1386963702,1,0,210.5,0,0,4,0,713,700,-0.0292,8130.7578,6.8213,0.4212,54.892673,9.801008,108.3,5.845,1.85,0.00,54.893074,9.801486,54.892349,9.800717
1386963702,1,0,210.5,0,0,0,0,713,750,-0.0292,8130.7578,6.8213,0.4212,54.892658,9.800992,108.3,5.845,1.85,0.00,54.893074,9.801486,54.892349,9.800717
1386963703,1,0,210.5,0,0,4,0,713,700,-0.0292,8130.7578,6.8213,0.4212,54.892647,9.800976,108.3,5.845,1.85,0.00,54.893074,9.801486,54.892349,9.800717
1386963703,1,0,210.5,0,0,0,0,713,750,-0.0292,8130.7578,6.8213,0.4212,54.892632,9.800960,108.3,5.845,1.85,0.00,54.893074,9.801486,54.892349,9.800717
1386963703,1,0,210.5,0,0,4,0,713,700,-0.0292,8130.7578,6.8213,0.4212,54.892616,9.800943,108.3,5.845,1.85,0.00,54.893074,9.801486,54.892349,9.800717
1386963703,1,0,210.5,0,0,0,0,713,750,-0.0292,8130.7578,6.8213,0.4212,54.892601,9.800928,108.3,5.845,1.85,0.00,54.893074,9.801486,54.892349,9.800717
1386963704,1,0,210.5,0,0,4,0,713,700,-0.0292,8130.7578,6.8213,0.4212,54.892586,9.800912,108.3,5.845,1.85,0.00,54.893074,9.801486,54.892349,9.800717
1386963704,1,0,210.5,0,0,0,0,713,750,-0.0292,8130.7578,6.8213,0.4212,54.892567,9.800896,108.3,5.845,1.85,0.00,54.893074,9.801486,54.892349,9.800717
1386963704,1,0,210.5,0,0,4,0,713,700,-0.0292,8130.7578,6.8213,0.4212,54.892551,9.800880,108.3,5.845,1.85,0.00,54.893074,9.801486,54.892349,9.800717
1386963704,1,0,210.5,0,0,0,0,713,750,-0.0292,8130.7578,6.8213,0.4212,54.892536,9.800864,108.3,5.845,1.85,0.00,54.893074,9.801486,54.892349,9.800717
1386963705,1,0,210.5,0,0,4,0,713,700,-0.0292,8130.7578,6.8213,0.4212,54.892517,9.800848,108.3,5.845,1.85,0.00,54.893074,9.801486,54.892349,9.800717
1386963705,1,0,210.5,0,0,0,0,713,750,-0.0292,8130.7578,6.8213,0.4212,54.892502,9.800832,108.3,5.845,1.85,0.00,54.893074,9.801486,54.892349,9.800717
1386963705,1,0,210.5,0,0,4,0,713,700,-0.0292,8130.7578,6.8213,0.4212,54.892487,9.800816,108.3,5.845,1.85,0.00,54.893074,9.801486,54.892349,9.800717
1386963705,1,0,210.5,0,0,0,0,713,750,-0.0292,8130.7578,6.8213,0.4212,54.892467,9.800800,108.3,5.845,1.85,0.00,54.893074,9.801486,54.892349,9.800717
1386963706,1,0,210.5,0,0,4,0,713,700,-0.0292,8130.7578,6.8213,0.4212,54.892452,9.800784,108.3,5.845,1.85,0.00,54.893074,9.801486,54.892349,9.800717
1386963706,1,0,210.5,0,0,0,0,713,750,-0.0292,8130.7578,6.8213,0.4212,54.892437,9.800768,108.3,5.845,1.85,0.00,54.893074,9.801486,54.892349,9.800717
1386963706,1,0,210.5,0,0,4,0,713,700,-0.0292,8130.7578,6.8213,0.4212,54.892426,9.800753,108.3,5.845,1.85,0.00,54.893074,9.801486,54.892349,9.800717
1386963706,1,0,210.5,0,0,0,0,713,750,-0.0292,8130.7578,6.8213,0.4212,54.892410,9.800736,108.3,5.845,1.85,0.00,54.893074,9.801486,54.892349,9.800717
