MCU_timestamp,Navigation_System,Manual_Control,Guidance_Heading,Manual_Ctrl_Rudder,Rudder_Desired_Angle,Rudder_Feedback,Manual_Ctrl_Sail,Sail_Desired_Pos,Sail_Feedback,Rate,Heading,Pitch,Roll,Latitude,Longitude,COG,SOG,Wind_Speed,Wind_Angle,Point_Start_Lat,Point_Start_Lon,Point_End_Lat,Point_End_Lon
1386960915,0,0,0.0,0,0,0,0,0,0,-0.0292,5159.3599,6.8213,0.4212,54.894764,9.799325,108.3,5.845,1.85,0.00,0.000000,0.000000,0.000000,0.000000
1386960915,0,0,0.0,0,0,0,0,0,0,-0.0292,5159.3599,6.8213,0.4212,54.894764,9.799325,108.3,5.845,1.85,0.00,0.000000,0.000000,0.000000,0.000000
1386960916,0,0,0.0,0,0,0,0,0,0,-0.0292,5159.3599,6.8213,0.4212,54.894764,9.799325,108.3,5.845,1.85,0.00,0.000000,0.000000,0.000000,0.000000
1386960916,0,0,0.0,0,0,0,0,0,0,-0.0292,5159.3599,6.8213,0.4212,54.894764,9.799325,108.3,5.845,1.85,0.00,0.000000,0.000000,0.000000,0.000000
1386960916,0,0,0.0,0,0,0,0,0,0,-0.0292,5159.3599,6.8213,0.4212,54.894764,9.799325,108.3,5.845,1.85,0.00,0.000000,0.000000,0.000000,0.000000
1386960916,0,0,0.0,0,0,0,0,0,0,-0.0292,5159.3599,6.8213,0.4212,54.894764,9.799325,108.3,5.845,1.85,0.00,0.000000,0.000000,0.000000,0.000000
1386960917,0,0,0.0,0,0,0,0,0,0,-0.0292,5159.3599,6.8213,0.4212,54.894764,9.799325,108.3,5.845,1.85,0.00,0.000000,0.000000,0.000000,0.000000
1386960917,0,0,0.0,0,0,0,0,0,0,-0.0292,5159.3599,6.8213,0.4212,54.894764,9.799325,108.3,5.845,1.85,0.00,0.000000,0.000000,0.000000,0.000000
1386960917,0,0,0.0,0,0,0,0,0,0,-0.0292,5159.3599,6.8213,0.4212,54.894764,9.799325,108.3,5.845,1.85,0.00,0.000000,0.000000,0.000000,0.000000
1386960917,0,0,0.0,0,0,0,0,0,0,-0.0292,5159.3599,6.8213,0.4212,54.894764,9.799325,108.3,5.845,1.85,0.00,0.000000,0.000000,0.000000,0.000000
1386960918,0,0,0.0,0,0,0,0,0,0,-0.0292,5159.3599,6.8213,0.4212,54.894764,9.799325,108.3,5.845,1.85,0.00,0.000000,0.000000,0.000000,0.000000
1386960918,0,0,0.0,0,0,0,0,0,0,-0.0292,5159.3599,6.8213,0.4212,54.894764,9.799325,108.3,5.845,1.85,0.00,0.000000,0.000000,0.000000,0.000000
1386960918,0,0,0.0,0,0,0,0,0,0,-0.0292,5159.3599,6.8213,0.4212,54.894764,9.799325,108.3,5.845,1.85,0.00,0.000000,0.000000,0.000000,0.000000
1386960918,0,0,0.0,0,0,0,0,0,0,-0.0292,5159.3599,6.8213,0.4212,54.894764,9.799325,108.3,5.845,1.85,0.00,0.000000,0.000000,0.000000,0.000000
1386960919,0,0,0.0,0,0,0,0,0,0,-0.0292,5159.3599,6.8213,0.4212,54.894764,9.799325,108.3,5.845,1.85,0.00,0.000000,0.000000,0.000000,0.000000
1386960919,0,0,0.0,0,0,0,0,0,0,-0.0292,5159.3599,6.8213,0.4212,54.894764,9.799325,108.3,5.845,1.85,0.00,0.000000,0.000000,0.000000,0.000000
1386960919,0,0,0.0,0,0,0,0,0,0,-0.0292,5159.3599,6.8213,0.4212,54.894764,9.799325,108.3,5.845,1.85,0.00,0.000000,0.000000,0.000000,0.000000
1386960919,0,0,0.0,0,0,0,0,0,0,-0.0292,5159.3599,6.8213,0.4212,54.894764,9.799325,108.3,5.845,1.85,0.00,0.000000,0.000000,0.000000,0.000000
1386960920,0,0,0.0,0,0,0,0,0,0,-0.0292,5159.3599,6.8213,0.4212,54.894764,9.799325,108.3,5.845,1.85,0.00,0.000000,0.000000,0.000000,0.000000
1386960920,0,0,0.0,0,0,0,0,0,0,-0.0292,5159.3599,6.8213,0.4212,54.894928,9.789612,108.3,5.845,1.85,0.00,0.000000,0.000000,0.000000,0.000000
1386960920,0,0,0.0,0,0,0,0,0,0,-0.0292,5159.3599,6.8213,0.4212,54.894928,9.789612,108.3,5.845,1.85,0.00,0.000000,0.000000,0.000000,0.000000
1386960920,0,0,0.0,0,0,0,0,0,0,-0.0292,5159.3599,6.8213,0.4212,54.894928,9.789612,108.3,5.845,1.85,0.00,0.000000,0.000000,0.000000,0.000000
1386960921,0,0,0.0,0,0,0,0,0,0,-0.0292,5159.3599,6.8213,0.4212,54.894928,9.789612,108.3,5.845,1.85,0.00,0.000000,0.000000,0.000000,0.000000
1386960921,0,0,0.0,0,0,0,0,0,0,-0.0292,5159.3599,6.8213,0.4212,54.894928,9.789612,108.3,5.845,1.85,0.00,0.000000,0.000000,0.000000,0.000000
1386960921,0,0,0.0,0,0,0,0,0,0,-0.0292,5159.3599,6.8213,0.4212,54.894928,9.789612,108.3,5.845,1.85,0.00,0.000000,0.000000,0.000000,0.000000
1386960921,0,0,0.0,0,0,0,0,0,0,-0.0292,5159.3599,6.8213,0.4212,54.894928,9.789612,108.3,5.845,1.85,0.00,0.000000,0.000000,0.000000,0.000000
1386960922,4,0,0.0,0,0,0,0,0,0,-0.0292,5159.3599,6.8213,0.4212,54.894928,9.789612,108.3,5.845,1.85,0.00,0.000000,0.000000,0.000000,0.000000
1386960922,1,0,86.7,0,33,4,0,850,850,-0.0292,5150.5601,6.8213,0.4212,54.894920,9.789641,108.3,5.845,1.85,0.00,54.894928,9.789612,54.895069,9.793790
1386960922,1,0,86.5,0,24,8,0,722,800,-0.0292,5144.1602,6.8213,0.4212,54.894917,9.789671,108.3,5.845,1.85,0.00,54.894928,9.789612,54.895069,9.793790
1386960922,1,0,86.3,0,18,12,0,624,750,-0.0292,5139.3604,6.8213,0.4212,54.894917,9.789702,108.3,5.845,1.85,0.00,54.894928,9.789612,54.895069,9.793790
1386960923,1,0,86.3,0,13,16,0,548,700,-0.0292,5135.8936,6.8213,0.4212,54.894917,9.789734,108.3,5.845,1.85,0.00,54.894928,9.789612,54.895069,9.793790
1386960923,1,0,86.3,0,10,12,0,493,650,-0.0292,5133.2271,6.8213,0.4212,54.894917,9.789765,108.3,5.845,1.85,0.00,54.894928,9.789612,54.895069,9.793790
1386960923,1,0,86.3,0,7,8,0,451,600,-0.0292,5131.3604,6.8213,0.4212,54.894917,9.789796,108.3,5.845,1.85,0.00,54.894928,9.789612,54.895069,9.793790
1386960923,1,0,86.2,0,5,4,0,421,550,-0.0292,5130.0269,6.8213,0.4212,54.894917,9.789827,108.3,5.845,1.85,0.00,54.894928,9.789612,54.895069,9.793790
1386960924,1,0,86.2,0,4,8,0,400,500,-0.0292,5128.9600,6.8213,0.4212,54.894917,9.789859,108.3,5.845,1.85,0.00,54.894928,9.789612,54.895069,9.793790
1386960924,1,0,86.2,0,3,4,0,383,450,-0.0292,5128.1602,6.8213,0.4212,54.894920,9.789890,108.3,5.845,1.85,0.00,54.894928,9.789612,54.895069,9.793790
1386960924,1,0,86.2,0,2,0,0,370,400,-0.0292,5127.6270,6.8213,0.4212,54.894924,9.789921,108.3,5.845,1.85,0.00,54.894928,9.789612,54.895069,9.793790
1386960925,1,0,86.3,0,1,4,0,361,350,-0.0292,5127.3604,6.8213,0.4212,54.894924,9.789952,108.3,5.845,1.85,0.00,54.894928,9.789612,54.895069,9.793790
1386960925,1,0,86.3,0,1,0,0,357,400,-0.0292,5127.0938,6.8213,0.4212,54.894924,9.789984,108.3,5.845,1.85,0.00,54.894928,9.789612,54.895069,9.793790
1386960925,1,0,86.2,0,1,4,0,353,350,-0.0292,5126.8271,6.8213,0.4212,54.894924,9.790014,108.3,5.845,1.85,0.00,54.894928,9.789612,54.895069,9.793790
1386960925,1,0,86.2,0,1,0,0,349,300,-0.0292,5126.5605,6.8213,0.4212,54.894924,9.790046,108.3,5.845,1.85,0.00,54.894928,9.789612,54.895069,9.793790
1386960926,1,0,86.2,0,0,4,0,344,350,-0.0292,5126.5605,6.8213,0.4212,54.894924,9.790077,108.3,5.845,1.85,0.00,54.894928,9.789612,54.895069,9.793790
1386960926,1,0,86.1,0,0,0,0,344,300,-0.0292,5126.5605,6.8213,0.4212,54.894924,9.790109,108.3,5.845,1.85,0.00,54.894928,9.789612,54.895069,9.793790
1386960926,1,0,86.1,0,0,4,0,344,350,-0.0292,5126.5605,6.8213,0.4212,54.894924,9.790139,108.3,5.845,1.85,0.00,54.894928,9.789612,54.895069,9.793790
1386960926,1,0,86.1,0,0,0,0,344,300,-0.0292,5126.5605,6.8213,0.4212,54.894924,9.790171,108.3,5.845,1.85,0.00,54.894928,9.789612,54.895069,9.793790
1386960927,1,0,86.0,0,1,4,0,344,350,-0.0292,5126.2939,6.8213,0.4212,54.894924,9.790202,108.3,5.845,1.85,0.00,54.894928,9.789612,54.895069,9.793790
1386960927,1,0,86.0,0,0,0,0,340,300,-0.0292,5126.2939,6.8213,0.4212,54.894924,9.790233,108.3,5.845,1.85,0.00,54.894928,9.789612,54.895069,9.793790
1386960927,1,0,86.0,0,0,4,0,340,350,-0.0292,5126.2939,6.8213,0.4212,54.894924,9.790263,108.3,5.845,1.85,0.00,54.894928,9.789612,54.895069,9.793790
1386960927,1,0,85.9,0,0,0,0,340,300,-0.0292,5126.2939,6.8213,0.4212,54.894924,9.790295,108.3,5.845,1.85,0.00,54.894928,9.789612,54.895069,9.793790
1386960928,1,0,85.9,0,0,4,0,340,350,-0.0292,5126.2939,6.8213,0.4212,54.894924,9.790326,108.3,5.845,1.85,0.00,54.894928,9.789612,54.895069,9.793790
1386960928,1,0,85.9,0,0,0,0,340,300,-0.0292,5126.2939,6.8213,0.4212,54.894924,9.790357,108.3,5.845,1.85,0.00,54.894928,9.789612,54.895069,9.793790
1386960928,1,0,85.8,0,0,4,0,340,350,-0.0292,5126.2939,6.8213,0.4212,54.894924,9.790388,108.3,5.845,1.85,0.00,54.894928,9.789612,54.895069,9.793790
1386960928,1,0,85.8,0,1,0,0,340,300,-0.0292,5126.0273,6.8213,0.4212,54.894924,9.790420,108.3,5.845,1.85,0.00,54.894928,9.789612,54.895069,9.793790
1386960929,1,0,85.7,0,0,4,0,336,350,-0.0292,5126.0273,6.8213,0.4212,54.894924,9.790451,108.3,5.845,1.85,0.00,54.894928,9.789612,54.895069,9.793790
1386960929,1,0,85.7,0,0,0,0,336,300,-0.0292,5126.0273,6.8213,0.4212,54.894924,9.790482,108.3,5.845,1.85,0.00,54.894928,9.789612,54.895069,9.793790
1386960929,1,0,85.7,0,0,4,0,336,350,-0.0292,5126.0273,6.8213,0.4212,54.894924,9.790513,108.3,5.845,1.85,0.00,54.894928,9.789612,54.895069,9.793790
1386960929,1,0,85.6,0,0,0,0,336,300,-0.0292,5126.0273,6.8213,0.4212,54.894924,9.790545,108.3,5.845,1.85,0.00,54.894928,9.789612,54.895069,9.793790
1386960930,1,0,85.6,0,0,4,0,336,350,-0.0292,5126.0273,6.8213,0.4212,54.894924,9.790575,108.3,5.845,1.85,0.00,54.894928,9.789612,54.895069,9.793790
1386960930,1,0,85.5,0,0,0,0,336,300,-0.0292,5126.0273,6.8213,0.4212,54.894924,9.790606,108.3,5.845,1.85,0.00,54.894928,9.789612,54.895069,9.793790
1386960930,1,0,85.5,0,1,4,0,336,350,-0.0292,5125.7607,6.8213,0.4212,54.894924,9.790637,108.3,5.845,1.85,0.00,54.894928,9.789612,54.895069,9.793790
1386960930,1,0,85.5,0,0,0,0,332,300,-0.0292,5125.7607,6.8213,0.4212,54.894924,9.790668,108.3,5.845,1.85,0.00,54.894928,9.789612,54.895069,9.793790
1386960931,1,0,85.4,0,0,4,0,332,350,-0.0292,5125.7607,6.8213,0.4212,54.894924,9.790699,108.3,5.845,1.85,0.00,54.894928,9.789612,54.895069,9.793790
1386960931,1,0,85.4,0,0,0,0,332,300,-0.0292,5125.7607,6.8213,0.4212,54.894924,9.790730,108.3,5.845,1.85,0.00,54.894928,9.789612,54.895069,9.793790
