MCU_timestamp,Navigation_System,Manual_Control,Guidance_Heading,Manual_Ctrl_Rudder,Rudder_Desired_Angle,Rudder_Feedback,Manual_Ctrl_Sail,Sail_Desired_Pos,Sail_Feedback,Rate,Heading,Pitch,Roll,Latitude,Longitude,COG,SOG,Wind_Speed,Wind_Angle,Point_Start_Lat,Point_Start_Lon,Point_End_Lat,Point_End_Lon
1390001065,0,0,0.0,0,0,4,0,0,0,-0.0292,150.2922,6.8213,0.4212,54.890648,9.797395,108.3,5.845,1.85,335.95,0.000000,0.000000,0.000000,0.000000
1390001066,0,0,0.0,0,0,4,0,0,0,-0.0292,150.2922,6.8213,0.4212,54.890648,9.797395,108.3,5.845,1.85,335.95,0.000000,0.000000,0.000000,0.000000
1390001066,0,0,0.0,0,0,4,0,0,0,-0.0292,150.2922,6.8213,0.4212,54.890648,9.797395,108.3,5.845,1.85,335.95,0.000000,0.000000,0.000000,0.000000
1390001066,0,0,0.0,0,0,4,0,0,0,-0.0292,150.2922,6.8213,0.4212,54.890648,9.797395,108.3,5.845,1.85,335.95,0.000000,0.000000,0.000000,0.000000
1390001066,0,0,0.0,0,0,4,0,0,0,-0.0292,150.2922,6.8213,0.4212,54.890648,9.797395,108.3,5.845,1.85,335.95,0.000000,0.000000,0.000000,0.000000
1390001067,0,0,0.0,0,0,4,0,0,0,-0.0292,150.2922,6.8213,0.4212,54.890648,9.797395,108.3,5.845,1.85,335.95,0.000000,0.000000,0.000000,0.000000
1390001067,0,0,0.0,0,0,4,0,0,0,-0.0292,150.2922,6.8213,0.4212,54.890648,9.797395,108.3,5.845,1.85,335.95,0.000000,0.000000,0.000000,0.000000
1390001067,0,0,0.0,0,0,4,0,0,0,-0.0292,150.2922,6.8213,0.4212,54.890648,9.797395,108.3,5.845,1.85,335.95,0.000000,0.000000,0.000000,0.000000
1390001067,0,0,0.0,0,0,4,0,0,0,-0.0292,150.2922,6.8213,0.4212,54.890648,9.797395,108.3,5.845,1.85,335.95,0.000000,0.000000,0.000000,0.000000
1390001068,0,0,0.0,0,0,4,0,0,0,-0.0292,150.2922,6.8213,0.4212,54.890648,9.797395,108.3,5.845,1.85,335.95,0.000000,0.000000,0.000000,0.000000
1390001068,0,0,0.0,0,0,4,0,0,0,-0.0292,150.2922,6.8213,0.4212,54.890648,9.797395,108.3,5.845,1.85,335.95,0.000000,0.000000,0.000000,0.000000
1390001068,0,0,0.0,0,0,4,0,0,0,-0.0292,150.2922,6.8213,0.4212,54.890648,9.797395,108.3,5.845,1.85,335.95,0.000000,0.000000,0.000000,0.000000
1390001068,0,0,0.0,0,0,4,0,0,0,-0.0292,150.2922,6.8213,0.4212,54.890648,9.797395,108.3,5.845,1.85,335.95,0.000000,0.000000,0.000000,0.000000
1390001069,0,0,0.0,0,0,4,0,0,0,-0.0292,150.2922,6.8213,0.4212,54.890648,9.797395,108.3,5.845,1.85,335.95,0.000000,0.000000,0.000000,0.000000
1390001069,0,0,0.0,0,0,4,0,0,0,-0.0292,150.2922,6.8213,0.4212,54.890648,9.797395,108.3,5.845,1.85,335.95,0.000000,0.000000,0.000000,0.000000
1390001069,0,0,0.0,0,0,4,0,0,0,-0.0292,150.2922,6.8213,0.4212,54.890648,9.797395,108.3,5.845,1.85,335.95,0.000000,0.000000,0.000000,0.000000
1390001069,0,0,0.0,0,0,4,0,0,0,-0.0292,150.2922,6.8213,0.4212,54.890648,9.797395,108.3,5.845,1.85,335.95,0.000000,0.000000,0.000000,0.000000
1390001070,0,0,0.0,0,0,4,0,0,0,-0.0292,150.2922,6.8213,0.4212,54.890648,9.797395,108.3,5.845,1.85,335.95,0.000000,0.000000,0.000000,0.000000
1390001070,0,0,0.0,0,0,4,0,0,0,-0.0292,150.2922,6.8213,0.4212,54.890648,9.797395,108.3,5.845,1.85,335.95,0.000000,0.000000,0.000000,0.000000
1390001070,0,0,0.0,0,0,4,0,0,0,-0.0292,150.2922,6.8213,0.4212,54.890648,9.797395,108.3,5.845,1.85,335.95,0.000000,0.000000,0.000000,0.000000
1390001070,0,0,0.0,0,0,4,0,0,0,-0.0292,150.2922,6.8213,0.4212,54.890648,9.797395,108.3,5.845,1.85,335.95,0.000000,0.000000,0.000000,0.000000
1390001071,0,0,0.0,0,0,4,0,0,0,-0.0292,150.2922,6.8213,0.4212,54.890648,9.797395,108.3,5.845,1.85,335.95,0.000000,0.000000,0.000000,0.000000
1390001071,0,0,0.0,0,0,4,0,0,0,-0.0292,150.2922,6.8213,0.4212,54.890648,9.797395,108.3,5.845,1.85,335.95,0.000000,0.000000,0.000000,0.000000
1390001071,0,0,0.0,0,0,4,0,0,0,-0.0292,150.2922,6.8213,0.4212,54.890648,9.797395,108.3,5.845,1.85,335.95,0.000000,0.000000,0.000000,0.000000
1390001071,0,0,0.0,0,0,4,0,0,0,-0.0292,150.2922,6.8213,0.4212,54.890648,9.797395,108.3,5.845,1.85,335.95,0.000000,0.000000,0.000000,0.000000
1390001072,0,0,0.0,0,0,4,0,0,0,-0.0292,150.2922,6.8213,0.4212,54.890648,9.797395,108.3,5.845,1.85,335.95,0.000000,0.000000,0.000000,0.000000
1390001072,0,0,0.0,0,0,4,0,0,0,-0.0292,150.2922,6.8213,0.4212,54.890648,9.797395,108.3,5.845,1.85,335.95,0.000000,0.000000,0.000000,0.000000
1390001072,0,0,0.0,0,0,4,0,0,0,-0.0292,150.2922,6.8213,0.4212,54.890648,9.797395,108.3,5.845,1.85,335.95,0.000000,0.000000,0.000000,0.000000
1390001072,4,0,0.0,0,0,4,0,0,0,-0.0292,150.2922,6.8213,0.4212,54.890648,9.797395,108.3,5.845,1.85,335.95,0.000000,0.000000,0.000000,0.000000
1390001073,1,0,0.0,0,-30,0,0,0,0,-0.0292,160.2922,6.8213,0.4212,54.890629,9.797404,108.3,5.845,1.85,335.95,54.895069,9.793790,54.895348,9.797490
1390001073,1,0,0.0,0,-10,-4,0,0,0,-0.0292,163.6255,6.8213,0.4212,54.890610,9.797413,108.3,5.845,1.85,335.95,54.895348,9.797490,54.894039,9.801540
1390001073,1,0,0.0,0,-6,-8,0,0,0,-0.0292,165.6255,6.8213,0.4212,54.890594,9.797421,108.3,5.845,1.85,335.95,54.894039,9.801540,54.893795,9.802299
1390001073,1,0,0.0,0,-4,-4,0,0,0,-0.0292,166.9589,6.8213,0.4212,54.890575,9.797428,108.3,5.845,1.85,335.95,54.893795,9.802299,54.893364,9.803688
1390001074,1,0,0.0,0,-3,0,0,713,50,-0.0292,167.9589,6.8213,0.4212,54.890556,9.797435,108.3,5.845,1.85,335.95,54.893364,9.803688,54.892704,9.801139
1390001074,1,0,0.0,0,-2,-4,0,713,100,-0.0292,168.6255,6.8213,0.4212,54.890537,9.797441,108.3,5.845,1.85,335.95,54.892704,9.801139,54.891663,9.800174
1390001074,1,0,0.0,0,-1,0,0,713,150,-0.0292,168.9589,6.8213,0.4212,54.890522,9.797446,108.3,5.845,1.85,335.95,54.891663,9.800174,54.892929,9.805077
1390001074,1,0,0.0,0,-1,-4,0,713,200,-0.0292,169.2922,6.8213,0.4212,54.890503,9.797452,108.3,5.845,1.85,335.95,54.892929,9.805077,54.892498,9.806466
1390001075,1,0,0.0,0,-1,0,0,713,250,-0.0292,169.6255,6.8213,0.4212,54.890484,9.797458,108.3,5.845,1.85,335.95,54.892498,9.806466,54.891232,9.801563
1390001075,1,0,0.0,0,0,4,0,713,300,-0.0292,169.6255,6.8213,0.4212,54.890465,9.797463,108.3,5.845,1.85,335.95,54.891232,9.801563,54.890800,9.802953
1390001075,1,0,0.0,0,0,0,0,713,350,-0.0292,169.6255,6.8213,0.4212,54.890450,9.797469,108.3,5.845,1.85,335.95,54.890800,9.802953,54.891651,9.806246
1390001075,1,0,0.0,0,0,4,0,713,400,-0.0292,169.6255,6.8213,0.4212,54.890430,9.797475,108.3,5.845,1.85,335.95,54.891651,9.806246,54.890560,9.805087
1390001076,1,0,0.0,0,0,0,0,713,450,-0.0292,169.6255,6.8213,0.4212,54.890411,9.797481,108.3,5.845,1.85,335.95,54.890560,9.805087,54.890366,9.804342
1390001076,1,0,0.0,0,0,4,0,713,500,-0.0292,169.6255,6.8213,0.4212,54.890396,9.797485,108.3,5.845,1.85,335.95,54.890366,9.804342,54.890846,9.801930
1390001076,1,0,0.0,0,0,0,0,713,550,-0.0292,169.6255,6.8213,0.4212,54.890377,9.797491,108.3,5.845,1.85,335.95,54.890846,9.801930,54.889477,9.798280
1390001076,1,0,0.0,0,0,4,0,713,600,-0.0292,169.6255,6.8213,0.4212,54.890358,9.797497,108.3,5.845,1.85,335.95,54.889477,9.798280,54.891819,9.794550
1390001077,1,0,0.0,0,0,0,0,713,650,-0.0292,169.6255,6.8213,0.4212,54.890339,9.797503,108.3,5.845,1.85,335.95,54.891819,9.794550,54.895348,9.797490
1390001077,1,0,0.0,0,0,4,0,713,700,-0.0292,169.6255,6.8213,0.4212,54.890324,9.797508,108.3,5.845,1.85,335.95,54.895348,9.797490,54.895069,9.793790
1390001077,1,0,0.0,0,0,0,0,713,750,-0.0292,169.6255,6.8213,0.4212,54.890305,9.797514,108.3,5.845,1.85,335.95,54.895348,9.797490,54.895069,9.793790
1390001077,3,0,0.0,0,0,4,0,713,700,-0.0292,169.6255,6.8213,0.4212,54.890285,9.797520,108.3,5.845,1.85,335.95,54.895348,9.797490,54.890305,9.797514
1390001078,3,0,0.0,0,0,0,0,713,750,-0.0292,169.6255,6.8213,0.4212,54.890266,9.797524,108.3,5.845,1.85,335.95,54.895348,9.797490,54.890305,9.797514
1390001078,3,0,0.0,0,-10,-4,0,713,700,-0.0292,172.9588,6.8213,0.4212,54.890251,9.797528,108.3,5.845,1.85,335.95,54.895348,9.797490,54.890305,9.797514
1390001078,3,0,0.0,0,-7,-8,0,713,750,-0.0292,175.2922,6.8213,0.4212,54.890232,9.797530,108.3,5.845,1.85,335.95,54.895348,9.797490,54.890305,9.797514
1390001078,3,0,0.0,0,-5,-4,0,713,700,-0.0292,176.9588,6.8213,0.4212,54.890213,9.797532,108.3,5.845,1.85,335.95,54.895348,9.797490,54.890305,9.797514
1390001079,3,0,0.0,0,-3,0,0,713,750,-0.0292,177.9588,6.8213,0.4212,54.890194,9.797533,108.3,5.845,1.85,335.95,54.895348,9.797490,54.890305,9.797514
1390001079,3,0,0.0,0,-2,-4,0,713,700,-0.0292,178.6255,6.8213,0.4212,54.890179,9.797534,108.3,5.845,1.85,335.95,54.895348,9.797490,54.890305,9.797514
1390001079,3,0,0.0,0,-1,0,0,713,750,-0.0292,178.9588,6.8213,0.4212,54.890160,9.797534,108.3,5.845,1.85,335.95,54.895348,9.797490,54.890305,9.797514
1390001080,3,0,0.0,0,-1,-4,0,713,700,-0.0292,179.2922,6.8213,0.4212,54.890141,9.797534,108.3,5.845,1.85,335.95,54.895348,9.797490,54.890305,9.797514
1390001080,3,0,0.0,0,-1,0,0,713,750,-0.0292,179.6255,6.8213,0.4212,54.890121,9.797534,108.3,5.845,1.85,335.95,54.895348,9.797490,54.890305,9.797514
1390001080,3,0,0.0,0,0,4,0,713,700,-0.0292,179.6255,6.8213,0.4212,54.890106,9.797534,108.3,5.845,1.85,335.95,54.895348,9.797490,54.890305,9.797514
1390001080,3,0,0.0,0,0,0,0,713,750,-0.0292,179.6255,6.8213,0.4212,54.890087,9.797534,108.3,5.845,1.85,335.95,54.895348,9.797490,54.890305,9.797514
1390001081,3,0,0.0,0,0,4,0,713,700,-0.0292,179.6255,6.8213,0.4212,54.890068,9.797534,108.3,5.845,1.85,335.95,54.895348,9.797490,54.890305,9.797514
1390001081,3,0,0.0,0,0,0,0,713,750,-0.0292,179.6255,6.8213,0.4212,54.890049,9.797534,108.3,5.845,1.85,335.95,54.895348,9.797490,54.890305,9.797514
1390001081,3,0,0.0,0,0,4,0,713,700,-0.0292,179.6255,6.8213,0.4212,54.890034,9.797534,108.3,5.845,1.85,335.95,54.895348,9.797490,54.890305,9.797514
1390001081,3,0,0.0,0,0,0,0,713,750,-0.0292,179.6255,6.8213,0.4212,54.890015,9.797534,108.3,5.845,1.85,335.95,54.895348,9.797490,54.890305,9.797514
1390001082,3,0,0.0,0,0,4,0,713,700,-0.0292,179.6255,6.8213,0.4212,54.889996,9.797534,108.3,5.845,1.85,335.95,54.895348,9.797490,54.890305,9.797514
1390001082,3,0,0.0,0,0,0,0,713,750,-0.0292,179.6255,6.8213,0.4212,54.889980,9.797534,108.3,5.845,1.85,335.95,54.895348,9.797490,54.890305,9.797514
1390001082,3,0,0.0,0,0,4,0,713,700,-0.0292,179.6255,6.8213,0.4212,54.889961,9.797534,108.3,5.845,1.85,335.95,54.895348,9.797490,54.890305,9.797514
1390001082,3,0,0.0,0,0,0,0,713,750,-0.0292,179.6255,6.8213,0.4212,54.889942,9.797534,108.3,5.845,1.85,335.95,54.895348,9.797490,54.890305,9.797514
1390001083,3,0,0.0,0,0,4,0,713,700,-0.0292,179.6255,6.8213,0.4212,54.889923,9.797534,108.3,5.845,1.85,335.95,54.895348,9.797490,54.890305,9.797514
1390001083,3,0,0.0,0,0,0,0,713,750,-0.0292,179.6255,6.8213,0.4212,54.889908,9.797534,108.3,5.845,1.85,335.95,54.895348,9.797490,54.890305,9.797514
1390001083,3,0,0.0,0,10,4,0,713,700,-0.0292,176.2922,6.8213,0.4212,54.889889,9.797536,108.3,5.845,1.85,335.95,54.895348,9.797490,54.890305,9.797514
1390001083,3,0,0.0,0,6,8,0,713,750,-0.0292,174.2922,6.8213,0.4212,54.889870,9.797539,108.3,5.845,1.85,335.95,54.895348,9.797490,54.890305,9.797514
1390001084,3,0,0.0,0,4,4,0,713,700,-0.0292,172.9588,6.8213,0.4212,54.889851,9.797543,108.3,5.845,1.85,335.95,54.895348,9.797490,54.890305,9.797514
1390001084,3,0,0.0,0,3,0,0,713,750,-0.0292,171.9588,6.8213,0.4212,54.889835,9.797547,108.3,5.845,1.85,335.95,54.895348,9.797490,54.890305,9.797514
1390001084,3,0,0.0,0,2,4,0,713,700,-0.0292,171.2922,6.8213,0.4212,54.889816,9.797552,108.3,5.845,1.85,335.95,54.895348,9.797490,54.890305,9.797514
1390001084,3,0,0.0,0,1,0,0,713,750,-0.0292,170.9588,6.8213,0.4212,54.889797,9.797557,108.3,5.845,1.85,335.95,54.895348,9.797490,54.890305,9.797514
1390001085,3,0,0.0,0,1,4,0,713,700,-0.0292,170.6255,6.8213,0.4212,54.889782,9.797563,108.3,5.845,1.85,335.95,54.895348,9.797490,54.890305,9.797514
1390001085,3,0,0.0,0,1,0,0,713,750,-0.0292,170.2922,6.8213,0.4212,54.889763,9.797567,108.3,5.845,1.85,335.95,54.895348,9.797490,54.890305,9.797514
1390001085,3,0,0.0,0,0,4,0,713,700,-0.0292,170.2922,6.8213,0.4212,54.889744,9.797572,108.3,5.845,1.85,335.95,54.895348,9.797490,54.890305,9.797514
1390001085,3,0,0.0,0,0,0,0,713,750,-0.0292,170.2922,6.8213,0.4212,54.889725,9.797577,108.3,5.845,1.85,335.95,54.895348,9.797490,54.890305,9.797514
1390001086,3,0,0.0,0,0,4,0,713,700,-0.0292,170.2922,6.8213,0.4212,54.889709,9.797582,108.3,5.845,1.85,335.95,54.895348,9.797490,54.890305,9.797514
1390001086,3,0,0.0,0,0,0,0,713,750,-0.0292,170.2922,6.8213,0.4212,54.889690,9.797586,108.3,5.845,1.85,335.95,54.895348,9.797490,54.890305,9.797514
1390001086,3,0,0.0,0,0,4,0,713,700,-0.0292,170.2922,6.8213,0.4212,54.889671,9.797592,108.3,5.845,1.85,335.95,54.895348,9.797490,54.890305,9.797514
1390001086,3,0,0.0,0,0,0,0,713,750,-0.0292,170.2922,6.8213,0.4212,54.889652,9.797598,108.3,5.845,1.85,335.95,54.895348,9.797490,54.890305,9.797514
1390001087,3,0,0.0,0,0,4,0,713,700,-0.0292,170.2922,6.8213,0.4212,54.889637,9.797604,108.3,5.845,1.85,335.95,54.895348,9.797490,54.890305,9.797514
1390001087,3,0,0.0,0,0,0,0,713,750,-0.0292,170.2922,6.8213,0.4212,54.889618,9.797609,108.3,5.845,1.85,335.95,54.895348,9.797490,54.890305,9.797514
1390001087,3,0,0.0,0,0,4,0,713,700,-0.0292,170.2922,6.8213,0.4212,54.889599,9.797614,108.3,5.845,1.85,335.95,54.895348,9.797490,54.890305,9.797514
1390001087,3,0,0.0,0,0,0,0,713,750,-0.0292,170.2922,6.8213,0.4212,54.889580,9.797619,108.3,5.845,1.85,335.95,54.895348,9.797490,54.890305,9.797514
1390001088,3,0,0.0,0,0,4,0,713,700,-0.0292,170.2922,6.8213,0.4212,54.889565,9.797624,108.3,5.845,1.85,335.95,54.895348,9.797490,54.890305,9.797514
1390001088,3,0,0.0,0,0,0,0,713,750,-0.0292,170.2922,6.8213,0.4212,54.889545,9.797628,108.3,5.845,1.85,335.95,54.895348,9.797490,54.890305,9.797514
1390001088,3,0,0.0,0,10,4,0,713,700,-0.0292,166.9589,6.8213,0.4212,54.889526,9.797635,108.3,5.845,1.85,335.95,54.895348,9.797490,54.890305,9.797514
1390001088,3,0,0.0,0,7,8,0,713,750,-0.0292,164.6255,6.8213,0.4212,54.889511,9.797644,108.3,5.845,1.85,335.95,54.895348,9.797490,54.890305,9.797514
1390001089,3,0,0.0,0,5,4,0,0,700,-0.0292,162.9589,6.8213,0.4212,54.889492,9.797653,108.3,5.845,1.85,335.95,54.895348,9.797490,54.890305,9.797514
1390001089,3,0,0.0,0,3,0,0,0,650,-0.0292,161.9589,6.8213,0.4212,54.889473,9.797663,108.3,5.845,1.85,335.95,54.895348,9.797490,54.890305,9.797514
1390001089,3,0,0.0,0,2,4,0,0,600,-0.0292,161.2922,6.8213,0.4212,54.889458,9.797672,108.3,5.845,1.85,335.95,54.895348,9.797490,54.890305,9.797514
1390001089,3,0,0.0,0,1,0,0,0,550,-0.0292,160.9589,6.8213,0.4212,54.889442,9.797683,108.3,5.845,1.85,335.95,54.895348,9.797490,54.890305,9.797514
1390001090,3,0,0.0,0,1,4,0,0,500,-0.0292,160.6255,6.8213,0.4212,54.889423,9.797693,108.3,5.845,1.85,335.95,54.895348,9.797490,54.890305,9.797514
1390001090,3,0,0.0,0,1,0,0,0,450,-0.0292,160.2922,6.8213,0.4212,54.889408,9.797703,108.3,5.845,1.85,335.95,54.895348,9.797490,54.890305,9.797514
1390001090,3,0,0.0,0,0,4,0,0,400,-0.0292,160.2922,6.8213,0.4212,54.889393,9.797713,108.3,5.845,1.85,335.95,54.895348,9.797490,54.890305,9.797514
1390001090,3,0,0.0,0,0,0,0,0,350,-0.0292,160.2922,6.8213,0.4212,54.889374,9.797724,108.3,5.845,1.85,335.95,54.895348,9.797490,54.890305,9.797514
1390001091,3,0,0.0,0,0,4,0,0,300,-0.0292,160.2922,6.8213,0.4212,54.889359,9.797734,108.3,5.845,1.85,335.95,54.895348,9.797490,54.890305,9.797514
1390001091,3,0,0.0,0,0,0,0,0,250,-0.0292,160.2922,6.8213,0.4212,54.889343,9.797744,108.3,5.845,1.85,335.95,54.895348,9.797490,54.890305,9.797514
1390001091,3,0,0.0,0,0,4,0,0,200,-0.0292,160.2922,6.8213,0.4212,54.889324,9.797754,108.3,5.845,1.85,335.95,54.895348,9.797490,54.890305,9.797514
1390001091,3,0,0.0,0,0,0,0,0,150,-0.0292,160.2922,6.8213,0.4212,54.889309,9.797765,108.3,5.845,1.85,335.95,54.895348,9.797490,54.890305,9.797514
1390001092,3,0,0.0,0,0,4,0,0,100,-0.0292,160.2922,6.8213,0.4212,54.889294,9.797775,108.3,5.845,1.85,335.95,54.895348,9.797490,54.890305,9.797514
1390001092,3,0,0.0,0,0,0,0,0,50,-0.0292,160.2922,6.8213,0.4212,54.889275,9.797785,108.3,5.845,1.85,335.95,54.895348,9.797490,54.890305,9.797514
1390001092,3,0,0.0,0,0,4,0,0,0,-0.0292,160.2922,6.8213,0.4212,54.889256,9.797795,108.3,5.845,1.85,335.95,54.895348,9.797490,54.890305,9.797514
1390001092,3,0,0.0,0,0,0,0,0,0,-0.0292,160.2922,6.8213,0.4212,54.889240,9.797806,108.3,5.845,1.85,335.95,54.895348,9.797490,54.890305,9.797514
1390001093,3,0,0.0,0,0,4,0,0,0,-0.0292,160.2922,6.8213,0.4212,54.889221,9.797816,108.3,5.845,1.85,335.95,54.895348,9.797490,54.890305,9.797514
1390001093,3,0,0.0,0,0,0,0,0,0,-0.0292,160.2922,6.8213,0.4212,54.889202,9.797827,108.3,5.845,1.85,335.95,54.895348,9.797490,54.890305,9.797514
1390001093,3,0,0.0,0,10,4,0,0,0,-0.0292,156.9589,6.8213,0.4212,54.889187,9.797838,108.3,5.845,1.85,335.95,54.895348,9.797490,54.890305,9.797514
1390001093,3,0,0.0,0,7,8,0,0,0,-0.0292,154.6255,6.8213,0.4212,54.889172,9.797852,108.3,5.845,1.85,335.95,54.895348,9.797490,54.890305,9.797514
1390001094,3,0,0.0,0,5,4,0,0,0,-0.0292,152.9589,6.8213,0.4212,54.889156,9.797866,108.3,5.845,1.85,335.95,54.895348,9.797490,54.890305,9.797514
1390001094,3,0,0.0,0,3,0,0,0,0,-0.0292,151.9589,6.8213,0.4212,54.889141,9.797880,108.3,5.845,1.85,335.95,54.895348,9.797490,54.890305,9.797514
1390001094,3,0,0.0,0,2,4,0,0,0,-0.0292,151.2922,6.8213,0.4212,54.889130,9.797894,108.3,5.845,1.85,335.95,54.895348,9.797490,54.890305,9.797514
1390001094,3,0,0.0,0,1,0,0,0,0,-0.0292,150.9589,6.8213,0.4212,54.889114,9.797910,108.3,5.845,1.85,335.95,54.895348,9.797490,54.890305,9.797514
1390001095,3,0,0.0,0,1,4,0,0,0,-0.0292,150.6255,6.8213,0.4212,54.889099,9.797924,108.3,5.845,1.85,335.95,54.895348,9.797490,54.890305,9.797514
1390001095,3,0,0.0,0,1,0,0,0,0,-0.0292,150.2922,6.8213,0.4212,54.889084,9.797939,108.3,5.845,1.85,335.95,54.895348,9.797490,54.890305,9.797514
1390001095,3,0,0.0,0,0,4,0,0,0,-0.0292,150.2922,6.8213,0.4212,54.889069,9.797955,108.3,5.845,1.85,335.95,54.895348,9.797490,54.890305,9.797514
1390001095,3,0,0.0,0,0,0,0,0,0,-0.0292,150.2922,6.8213,0.4212,54.889050,9.797969,108.3,5.845,1.85,335.95,54.895348,9.797490,54.890305,9.797514
1390001096,3,0,0.0,0,0,4,0,0,0,-0.0292,150.2922,6.8213,0.4212,54.889034,9.797984,108.3,5.845,1.85,335.95,54.895348,9.797490,54.890305,9.797514
1390001096,3,0,0.0,0,0,0,0,0,0,-0.0292,150.2922,6.8213,0.4212,54.889019,9.797999,108.3,5.845,1.85,335.95,54.895348,9.797490,54.890305,9.797514
1390001096,3,0,0.0,0,0,4,0,0,0,-0.0292,150.2922,6.8213,0.4212,54.889000,9.798014,108.3,5.845,1.85,335.95,54.895348,9.797490,54.890305,9.797514
1390001096,3,0,0.0,0,0,0,0,0,0,-0.0292,150.2922,6.8213,0.4212,54.888985,9.798029,108.3,5.845,1.85,335.95,54.895348,9.797490,54.890305,9.797514
1390001097,3,0,0.0,0,0,4,0,0,0,-0.0292,150.2922,6.8213,0.4212,54.888969,9.798044,108.3,5.845,1.85,335.95,54.895348,9.797490,54.890305,9.797514
1390001097,3,0,0.0,0,0,0,0,0,0,-0.0292,150.2922,6.8213,0.4212,54.888958,9.798059,108.3,5.845,1.85,335.95,54.895348,9.797490,54.890305,9.797514
1390001097,3,0,0.0,0,0,4,0,0,0,-0.0292,150.2922,6.8213,0.4212,54.888943,9.798074,108.3,5.845,1.85,335.95,54.895348,9.797490,54.890305,9.797514
1390001097,3,0,0.0,0,0,0,0,0,0,-0.0292,150.2922,6.8213,0.4212,54.888927,9.798089,108.3,5.845,1.85,335.95,54.895348,9.797490,54.890305,9.797514
1390001098,3,0,0.0,0,0,4,0,0,0,-0.0292,150.2922,6.8213,0.4212,54.888912,9.798104,108.3,5.845,1.85,335.95,54.895348,9.797490,54.890305,9.797514
1390001098,3,0,0.0,0,0,0,0,0,0,-0.0292,150.2922,6.8213,0.4212,54.888897,9.798120,108.3,5.845,1.85,335.95,54.895348,9.797490,54.890305,9.797514
1390001098,3,0,0.0,0,10,4,0,0,0,-0.0292,146.9589,6.8213,0.4212,54.888882,9.798136,108.3,5.845,1.85,335.95,54.895348,9.797490,54.890305,9.797514
1390001098,3,0,0.0,0,7,8,0,0,0,-0.0292,144.6256,6.8213,0.4212,54.888866,9.798153,108.3,5.845,1.85,335.95,54.895348,9.797490,54.890305,9.797514
1390001099,3,0,0.0,0,5,4,0,713,50,-0.0292,142.9589,6.8213,0.4212,54.888855,9.798171,108.3,5.845,1.85,335.95,54.895348,9.797490,54.890305,9.797514
1390001099,3,0,0.0,0,3,0,0,713,100,-0.0292,141.9589,6.8213,0.4212,54.888840,9.798189,108.3,5.845,1.85,335.95,54.895348,9.797490,54.890305,9.797514
1390001099,3,0,0.0,0,2,4,0,713,150,-0.0292,141.2922,6.8213,0.4212,54.888828,9.798208,108.3,5.845,1.85,335.95,54.895348,9.797490,54.890305,9.797514
1390001099,3,0,0.0,0,1,0,0,713,200,-0.0292,140.9589,6.8213,0.4212,54.888813,9.798226,108.3,5.845,1.85,335.95,54.895348,9.797490,54.890305,9.797514
1390001100,3,0,0.0,0,1,4,0,713,250,-0.0292,140.6256,6.8213,0.4212,54.888802,9.798245,108.3,5.845,1.85,335.95,54.895348,9.797490,54.890305,9.797514
1390001100,3,0,0.0,0,1,0,0,713,300,-0.0292,140.2922,6.8213,0.4212,54.888786,9.798265,108.3,5.845,1.85,335.95,54.895348,9.797490,54.890305,9.797514
1390001100,3,0,0.0,0,0,4,0,713,350,-0.0292,140.2922,6.8213,0.4212,54.888775,9.798284,108.3,5.845,1.85,335.95,54.895348,9.797490,54.890305,9.797514
1390001100,3,0,0.0,0,0,0,0,713,400,-0.0292,140.2922,6.8213,0.4212,54.888760,9.798303,108.3,5.845,1.85,335.95,54.895348,9.797490,54.890305,9.797514
1390001101,3,0,0.0,0,0,4,0,713,450,-0.0292,140.2922,6.8213,0.4212,54.888748,9.798322,108.3,5.845,1.85,335.95,54.895348,9.797490,54.890305,9.797514
1390001101,3,0,0.0,0,0,0,0,713,500,-0.0292,140.2922,6.8213,0.4212,54.888733,9.798341,108.3,5.845,1.85,335.95,54.895348,9.797490,54.890305,9.797514
1390001101,3,0,0.0,0,0,4,0,713,550,-0.0292,140.2922,6.8213,0.4212,54.888718,9.798359,108.3,5.845,1.85,335.95,54.895348,9.797490,54.890305,9.797514
1390001101,3,0,0.0,0,0,0,0,713,600,-0.0292,140.2922,6.8213,0.4212,54.888706,9.798378,108.3,5.845,1.85,335.95,54.895348,9.797490,54.890305,9.797514
1390001102,3,0,0.0,0,0,4,0,713,650,-0.0292,140.2922,6.8213,0.4212,54.888691,9.798396,108.3,5.845,1.85,335.95,54.895348,9.797490,54.890305,9.797514
1390001102,3,0,0.0,0,0,0,0,713,700,-0.0292,140.2922,6.8213,0.4212,54.888680,9.798415,108.3,5.845,1.85,335.95,54.895348,9.797490,54.890305,9.797514
1390001102,3,0,0.0,0,0,4,0,713,750,-0.0292,140.2922,6.8213,0.4212,54.888664,9.798434,108.3,5.845,1.85,335.95,54.895348,9.797490,54.890305,9.797514
1390001102,3,0,0.0,0,0,0,0,713,700,-0.0292,140.2922,6.8213,0.4212,54.888653,9.798453,108.3,5.845,1.85,335.95,54.895348,9.797490,54.890305,9.797514
1390001103,3,0,0.0,0,0,4,0,713,750,-0.0292,140.2922,6.8213,0.4212,54.888638,9.798472,108.3,5.845,1.85,335.95,54.895348,9.797490,54.890305,9.797514
1390001103,3,0,0.0,0,0,0,0,713,700,-0.0292,140.2922,6.8213,0.4212,54.888626,9.798491,108.3,5.845,1.85,335.95,54.895348,9.797490,54.890305,9.797514
1390001103,3,0,0.0,0,10,4,0,713,750,-0.0292,136.9589,6.8213,0.4212,54.888611,9.798512,108.3,5.845,1.85,335.95,54.895348,9.797490,54.890305,9.797514
1390001103,3,0,0.0,0,7,8,0,713,700,-0.0292,134.6256,6.8213,0.4212,54.888599,9.798532,108.3,5.845,1.85,335.95,54.895348,9.797490,54.890305,9.797514
1390001104,3,0,0.0,0,5,4,0,713,750,-0.0292,132.9589,6.8213,0.4212,54.888592,9.798553,108.3,5.845,1.85,335.95,54.895348,9.797490,54.890305,9.797514
1390001104,3,0,0.0,0,3,0,0,713,700,-0.0292,131.9589,6.8213,0.4212,54.888580,9.798573,108.3,5.845,1.85,335.95,54.895348,9.797490,54.890305,9.797514
1390001104,3,0,0.0,0,2,4,0,713,750,-0.0292,131.2922,6.8213,0.4212,54.888569,9.798595,108.3,5.845,1.85,335.95,54.895348,9.797490,54.890305,9.797514
1390001104,3,0,0.0,0,1,0,0,713,700,-0.0292,130.9589,6.8213,0.4212,54.888557,9.798616,108.3,5.845,1.85,335.95,54.895348,9.797490,54.890305,9.797514
1390001105,3,0,0.0,0,1,4,0,713,750,-0.0292,130.6256,6.8213,0.4212,54.888546,9.798638,108.3,5.845,1.85,335.95,54.895348,9.797490,54.890305,9.797514
1390001105,3,0,0.0,0,1,0,0,713,700,-0.0292,130.2923,6.8213,0.4212,54.888538,9.798660,108.3,5.845,1.85,335.95,54.895348,9.797490,54.890305,9.797514
1390001105,3,0,0.0,0,0,4,0,713,750,-0.0292,130.2923,6.8213,0.4212,54.888527,9.798682,108.3,5.845,1.85,335.95,54.895348,9.797490,54.890305,9.797514
1390001105,3,0,0.0,0,0,0,0,713,700,-0.0292,130.2923,6.8213,0.4212,54.888515,9.798704,108.3,5.845,1.85,335.95,54.895348,9.797490,54.890305,9.797514
1390001106,3,0,0.0,0,0,4,0,713,750,-0.0292,130.2923,6.8213,0.4212,54.888504,9.798726,108.3,5.845,1.85,335.95,54.895348,9.797490,54.890305,9.797514
1390001106,3,0,0.0,0,0,0,0,713,700,-0.0292,130.2923,6.8213,0.4212,54.888493,9.798748,108.3,5.845,1.85,335.95,54.895348,9.797490,54.890305,9.797514
1390001106,3,0,0.0,0,0,4,0,713,750,-0.0292,130.2923,6.8213,0.4212,54.888481,9.798770,108.3,5.845,1.85,335.95,54.895348,9.797490,54.890305,9.797514
1390001106,3,0,0.0,0,0,0,0,713,700,-0.0292,130.2923,6.8213,0.4212,54.888470,9.798792,108.3,5.845,1.85,335.95,54.895348,9.797490,54.890305,9.797514
1390001107,3,0,0.0,0,0,4,0,713,750,-0.0292,130.2923,6.8213,0.4212,54.888458,9.798814,108.3,5.845,1.85,335.95,54.895348,9.797490,54.890305,9.797514
1390001107,3,0,0.0,0,0,0,0,713,700,-0.0292,130.2923,6.8213,0.4212,54.888447,9.798836,108.3,5.845,1.85,335.95,54.895348,9.797490,54.890305,9.797514
1390001107,3,0,0.0,0,0,4,0,713,750,-0.0292,130.2923,6.8213,0.4212,54.888435,9.798858,108.3,5.845,1.85,335.95,54.895348,9.797490,54.890305,9.797514
1390001107,3,0,0.0,0,0,0,0,713,700,-0.0292,130.2923,6.8213,0.4212,54.888424,9.798880,108.3,5.845,1.85,335.95,54.895348,9.797490,54.890305,9.797514
1390001108,3,0,0.0,0,0,4,0,713,750,-0.0292,130.2923,6.8213,0.4212,54.888416,9.798902,108.3,5.845,1.85,335.95,54.895348,9.797490,54.890305,9.797514
1390001108,3,0,0.0,0,0,0,0,713,700,-0.0292,130.2923,6.8213,0.4212,54.888405,9.798923,108.3,5.845,1.85,335.95,54.895348,9.797490,54.890305,9.797514
1390001108,3,0,0.0,0,10,4,0,713,750,-0.0292,126.9589,6.8213,0.4212,54.888393,9.798946,108.3,5.845,1.85,335.95,54.895348,9.797490,54.890305,9.797514
1390001108,3,0,0.0,0,7,8,0,713,700,-0.0292,124.6256,6.8213,0.4212,54.888386,9.798969,108.3,5.845,1.85,335.95,54.895348,9.797490,54.890305,9.797514
1390001109,3,0,0.0,0,5,4,0,713,750,-0.0292,122.9589,6.8213,0.4212,54.888374,9.798993,108.3,5.845,1.85,335.95,54.895348,9.797490,54.890305,9.797514
1390001109,3,0,0.0,0,3,0,0,713,700,-0.0292,121.9589,6.8213,0.4212,54.888367,9.799017,108.3,5.845,1.85,335.95,54.895348,9.797490,54.890305,9.797514
1390001109,3,0,0.0,0,2,4,0,713,750,-0.0292,121.2923,6.8213,0.4212,54.888359,9.799041,108.3,5.845,1.85,335.95,54.895348,9.797490,54.890305,9.797514
1390001109,3,0,0.0,0,1,0,0,713,700,-0.0292,120.9589,6.8213,0.4212,54.888348,9.799065,108.3,5.845,1.85,335.95,54.895348,9.797490,54.890305,9.797514
1390001110,3,0,0.0,0,1,4,0,713,750,-0.0292,120.6256,6.8213,0.4212,54.888340,9.799088,108.3,5.845,1.85,335.95,54.895348,9.797490,54.890305,9.797514
1390001110,3,0,0.0,0,1,0,0,713,700,-0.0292,120.2922,6.8213,0.4212,54.888332,9.799112,108.3,5.845,1.85,335.95,54.895348,9.797490,54.890305,9.797514
1390001110,3,0,0.0,0,0,4,0,713,750,-0.0292,120.2922,6.8213,0.4212,54.888321,9.799136,108.3,5.845,1.85,335.95,54.895348,9.797490,54.890305,9.797514
1390001110,3,0,0.0,0,0,0,0,713,700,-0.0292,120.2922,6.8213,0.4212,54.888313,9.799160,108.3,5.845,1.85,335.95,54.895348,9.797490,54.890305,9.797514
1390001111,3,0,0.0,0,0,4,0,713,750,-0.0292,120.2922,6.8213,0.4212,54.888306,9.799184,108.3,5.845,1.85,335.95,54.895348,9.797490,54.890305,9.797514
1390001111,3,0,0.0,0,0,0,0,713,700,-0.0292,120.2922,6.8213,0.4212,54.888294,9.799208,108.3,5.845,1.85,335.95,54.895348,9.797490,54.890305,9.797514
1390001111,3,0,0.0,0,0,4,0,713,750,-0.0292,120.2922,6.8213,0.4212,54.888287,9.799232,108.3,5.845,1.85,335.95,54.895348,9.797490,54.890305,9.797514
1390001111,3,0,0.0,0,0,0,0,713,700,-0.0292,120.2922,6.8213,0.4212,54.888279,9.799255,108.3,5.845,1.85,335.95,54.895348,9.797490,54.890305,9.797514
1390001112,3,0,0.0,0,0,4,0,713,750,-0.0292,120.2922,6.8213,0.4212,54.888271,9.799279,108.3,5.845,1.85,335.95,54.895348,9.797490,54.890305,9.797514
1390001112,3,0,0.0,0,0,0,0,713,700,-0.0292,120.2922,6.8213,0.4212,54.888264,9.799303,108.3,5.845,1.85,335.95,54.895348,9.797490,54.890305,9.797514
1390001112,3,0,0.0,0,0,4,0,713,750,-0.0292,120.2922,6.8213,0.4212,54.888256,9.799327,108.3,5.845,1.85,335.95,54.895348,9.797490,54.890305,9.797514
1390001112,3,0,0.0,0,0,0,0,713,700,-0.0292,120.2922,6.8213,0.4212,54.888248,9.799351,108.3,5.845,1.85,335.95,54.895348,9.797490,54.890305,9.797514
1390001113,3,0,0.0,0,0,4,0,713,750,-0.0292,120.2922,6.8213,0.4212,54.888241,9.799375,108.3,5.845,1.85,335.95,54.895348,9.797490,54.890305,9.797514
1390001113,3,0,0.0,0,0,0,0,713,700,-0.0292,120.2922,6.8213,0.4212,54.888233,9.799398,108.3,5.845,1.85,335.95,54.895348,9.797490,54.890305,9.797514
1390001113,3,0,0.0,0,10,4,0,713,750,-0.0292,116.9589,6.8213,0.4212,54.888226,9.799423,108.3,5.845,1.85,335.95,54.895348,9.797490,54.890305,9.797514
1390001114,3,0,0.0,0,7,8,0,713,700,-0.0292,114.6256,6.8213,0.4212,54.888222,9.799448,108.3,5.845,1.85,335.95,54.895348,9.797490,54.890305,9.797514
1390001114,3,0,0.0,0,5,4,0,713,750,-0.0292,112.9589,6.8213,0.4212,54.888218,9.799472,108.3,5.845,1.85,335.95,54.895348,9.797490,54.890305,9.797514
1390001114,3,0,0.0,0,3,0,0,713,700,-0.0292,111.9589,6.8213,0.4212,54.888210,9.799497,108.3,5.845,1.85,335.95,54.895348,9.797490,54.890305,9.797514
1390001114,3,0,0.0,0,2,4,0,713,750,-0.0292,111.2922,6.8213,0.4212,54.888203,9.799521,108.3,5.845,1.85,335.95,54.895348,9.797490,54.890305,9.797514
1390001115,3,0,0.0,0,1,0,0,713,700,-0.0292,110.9589,6.8213,0.4212,54.888199,9.799546,108.3,5.845,1.85,335.95,54.895348,9.797490,54.890305,9.797514
1390001115,3,0,0.0,0,1,4,0,713,750,-0.0292,110.6256,6.8213,0.4212,54.888195,9.799571,108.3,5.845,1.85,335.95,54.895348,9.797490,54.890305,9.797514
1390001115,3,0,0.0,0,1,0,0,870,800,-0.0292,110.2922,6.8213,0.4212,54.888191,9.799596,108.3,5.845,1.85,335.95,54.895348,9.797490,54.890305,9.797514
1390001115,3,0,0.0,0,0,4,0,870,850,-0.0292,110.2922,6.8213,0.4212,54.888184,9.799621,108.3,5.845,1.85,335.95,54.895348,9.797490,54.890305,9.797514
1390001116,3,0,0.0,0,0,0,0,870,900,-0.0292,110.2922,6.8213,0.4212,54.888176,9.799644,108.3,5.845,1.85,335.95,54.895348,9.797490,54.890305,9.797514
1390001116,3,0,0.0,0,0,4,0,870,850,-0.0292,110.2922,6.8213,0.4212,54.888172,9.799669,108.3,5.845,1.85,335.95,54.895348,9.797490,54.890305,9.797514
1390001116,3,0,0.0,0,0,0,0,870,900,-0.0292,110.2922,6.8213,0.4212,54.888168,9.799694,108.3,5.845,1.85,335.95,54.895348,9.797490,54.890305,9.797514
1390001116,3,0,0.0,0,0,4,0,870,850,-0.0292,110.2922,6.8213,0.4212,54.888165,9.799719,108.3,5.845,1.85,335.95,54.895348,9.797490,54.890305,9.797514
1390001117,3,0,0.0,0,0,0,0,870,900,-0.0292,110.2922,6.8213,0.4212,54.888157,9.799744,108.3,5.845,1.85,335.95,54.895348,9.797490,54.890305,9.797514
1390001117,3,0,0.0,0,0,4,0,870,850,-0.0292,110.2922,6.8213,0.4212,54.888153,9.799768,108.3,5.845,1.85,335.95,54.895348,9.797490,54.890305,9.797514
1390001117,3,0,0.0,0,0,0,0,870,900,-0.0292,110.2922,6.8213,0.4212,54.888149,9.799793,108.3,5.845,1.85,335.95,54.895348,9.797490,54.890305,9.797514
1390001117,3,0,0.0,0,0,4,0,870,850,-0.0292,110.2922,6.8213,0.4212,54.888145,9.799817,108.3,5.845,1.85,335.95,54.895348,9.797490,54.890305,9.797514
1390001118,3,0,0.0,0,0,0,0,870,900,-0.0292,110.2922,6.8213,0.4212,54.888142,9.799842,108.3,5.845,1.85,335.95,54.895348,9.797490,54.890305,9.797514
1390001118,3,0,0.0,0,0,4,0,870,850,-0.0292,110.2922,6.8213,0.4212,54.888134,9.799867,108.3,5.845,1.85,335.95,54.895348,9.797490,54.890305,9.797514
1390001118,3,0,0.0,0,0,0,0,870,900,-0.0292,110.2922,6.8213,0.4212,54.888126,9.799891,108.3,5.845,1.85,335.95,54.895348,9.797490,54.890305,9.797514
1390001118,3,0,0.0,0,10,4,0,870,850,-0.0292,106.9589,6.8213,0.4212,54.888123,9.799916,108.3,5.845,1.85,335.95,54.895348,9.797490,54.890305,9.797514
1390001119,3,0,0.0,0,7,8,0,870,900,-0.0292,104.6256,6.8213,0.4212,54.888119,9.799941,108.3,5.845,1.85,335.95,54.895348,9.797490,54.890305,9.797514
1390001119,3,0,0.0,0,5,4,0,870,850,-0.0292,102.9589,6.8213,0.4212,54.888115,9.799966,108.3,5.845,1.85,335.95,54.895348,9.797490,54.890305,9.797514
1390001119,3,0,0.0,0,3,0,0,870,900,-0.0292,101.9589,6.8213,0.4212,54.888111,9.799990,108.3,5.845,1.85,335.95,54.895348,9.797490,54.890305,9.797514
1390001119,3,0,0.0,0,2,4,0,870,850,-0.0292,101.2922,6.8213,0.4212,54.888107,9.800014,108.3,5.845,1.85,335.95,54.895348,9.797490,54.890305,9.797514
1390001120,3,0,0.0,0,1,0,0,870,900,-0.0292,100.9589,6.8213,0.4212,54.888107,9.800038,108.3,5.845,1.85,335.95,54.895348,9.797490,54.890305,9.797514
1390001120,3,0,0.0,0,1,4,0,870,850,-0.0292,100.6256,6.8213,0.4212,54.888107,9.800063,108.3,5.845,1.85,335.95,54.895348,9.797490,54.890305,9.797514
1390001120,3,0,0.0,0,1,0,0,870,900,-0.0292,100.2922,6.8213,0.4212,54.888107,9.800088,108.3,5.845,1.85,335.95,54.895348,9.797490,54.890305,9.797514
1390001120,3,0,0.0,0,0,4,0,870,850,-0.0292,100.2922,6.8213,0.4212,54.888107,9.800113,108.3,5.845,1.85,335.95,54.895348,9.797490,54.890305,9.797514
1390001121,3,0,0.0,0,0,0,0,870,900,-0.0292,100.2922,6.8213,0.4212,54.888107,9.800138,108.3,5.845,1.85,335.95,54.895348,9.797490,54.890305,9.797514
1390001121,3,0,0.0,0,0,4,0,870,850,-0.0292,100.2922,6.8213,0.4212,54.888107,9.800161,108.3,5.845,1.85,335.95,54.895348,9.797490,54.890305,9.797514
1390001121,3,0,0.0,0,0,0,0,870,900,-0.0292,100.2922,6.8213,0.4212,54.888107,9.800186,108.3,5.845,1.85,335.95,54.895348,9.797490,54.890305,9.797514
1390001121,3,0,0.0,0,0,4,0,870,850,-0.0292,100.2922,6.8213,0.4212,54.888107,9.800210,108.3,5.845,1.85,335.95,54.895348,9.797490,54.890305,9.797514
1390001122,3,0,0.0,0,0,0,0,870,900,-0.0292,100.2922,6.8213,0.4212,54.888107,9.800235,108.3,5.845,1.85,335.95,54.895348,9.797490,54.890305,9.797514
1390001122,3,0,0.0,0,0,4,0,870,850,-0.0292,100.2922,6.8213,0.4212,54.888107,9.800260,108.3,5.845,1.85,335.95,54.895348,9.797490,54.890305,9.797514
1390001122,3,0,0.0,0,0,0,0,870,900,-0.0292,100.2922,6.8213,0.4212,54.888107,9.800284,108.3,5.845,1.85,335.95,54.895348,9.797490,54.890305,9.797514
1390001122,3,0,0.0,0,0,4,0,870,850,-0.0292,100.2922,6.8213,0.4212,54.888107,9.800309,108.3,5.845,1.85,335.95,54.895348,9.797490,54.890305,9.797514
1390001123,3,0,0.0,0,0,0,0,870,900,-0.0292,100.2922,6.8213,0.4212,54.888107,9.800333,108.3,5.845,1.85,335.95,54.895348,9.797490,54.890305,9.797514
1390001123,3,0,0.0,0,0,4,0,870,850,-0.0292,100.2922,6.8213,0.4212,54.888107,9.800358,108.3,5.845,1.85,335.95,54.895348,9.797490,54.890305,9.797514
1390001123,3,0,0.0,0,0,0,0,870,900,-0.0292,100.2922,6.8213,0.4212,54.888107,9.800382,108.3,5.845,1.85,335.95,54.895348,9.797490,54.890305,9.797514
1390001123,3,0,0.0,0,10,4,0,870,850,-0.0292,96.9589,6.8213,0.4212,54.888107,9.800406,108.3,5.845,1.85,335.95,54.895348,9.797490,54.890305,9.797514
1390001124,3,0,0.0,0,7,8,0,870,900,-0.0292,94.6256,6.8213,0.4212,54.888107,9.800430,108.3,5.845,1.85,335.95,54.895348,9.797490,54.890305,9.797514
1390001124,3,0,0.0,0,5,4,0,840,850,-0.0292,92.9589,6.8213,0.4212,54.888107,9.800454,108.3,5.845,1.85,335.95,54.895348,9.797490,54.890305,9.797514
1390001124,3,0,0.0,0,3,0,0,817,800,-0.0292,91.9589,6.8213,0.4212,54.888107,9.800478,108.3,5.845,1.85,335.95,54.895348,9.797490,54.890305,9.797514
1390001124,3,0,0.0,0,2,4,0,802,850,-0.0292,91.2922,6.8213,0.4212,54.888107,9.800501,108.3,5.845,1.85,335.95,54.895348,9.797490,54.890305,9.797514
1390001125,3,0,0.0,0,1,0,0,793,800,-0.0292,90.9589,6.8213,0.4212,54.888107,9.800525,108.3,5.845,1.85,335.95,54.895348,9.797490,54.890305,9.797514
1390001125,3,0,0.0,0,1,4,0,788,750,-0.0292,90.6256,6.8213,0.4212,54.888107,9.800548,108.3,5.845,1.85,335.95,54.895348,9.797490,54.890305,9.797514
1390001125,3,0,0.0,0,1,0,0,783,800,-0.0292,90.2922,6.8213,0.4212,54.888111,9.800571,108.3,5.845,1.85,335.95,54.895348,9.797490,54.890305,9.797514
1390001125,3,0,0.0,0,0,4,0,778,750,-0.0292,90.2922,6.8213,0.4212,54.888111,9.800594,108.3,5.845,1.85,335.95,54.895348,9.797490,54.890305,9.797514
1390001126,3,0,0.0,0,0,0,0,778,800,-0.0292,90.2922,6.8213,0.4212,54.888111,9.800618,108.3,5.845,1.85,335.95,54.895348,9.797490,54.890305,9.797514
1390001126,3,0,0.0,0,0,4,0,778,750,-0.0292,90.2922,6.8213,0.4212,54.888111,9.800641,108.3,5.845,1.85,335.95,54.895348,9.797490,54.890305,9.797514
1390001126,3,0,0.0,0,0,0,0,778,800,-0.0292,90.2922,6.8213,0.4212,54.888111,9.800665,108.3,5.845,1.85,335.95,54.895348,9.797490,54.890305,9.797514
1390001126,3,0,0.0,0,0,4,0,778,750,-0.0292,90.2922,6.8213,0.4212,54.888111,9.800688,108.3,5.845,1.85,335.95,54.895348,9.797490,54.890305,9.797514
1390001127,3,0,0.0,0,0,0,0,778,800,-0.0292,90.2922,6.8213,0.4212,54.888111,9.800712,108.3,5.845,1.85,335.95,54.895348,9.797490,54.890305,9.797514
1390001127,3,0,0.0,0,0,4,0,778,750,-0.0292,90.2922,6.8213,0.4212,54.888111,9.800735,108.3,5.845,1.85,335.95,54.895348,9.797490,54.890305,9.797514
1390001127,3,0,0.0,0,0,0,0,778,800,-0.0292,90.2922,6.8213,0.4212,54.888111,9.800757,108.3,5.845,1.85,335.95,54.895348,9.797490,54.890305,9.797514
1390001127,3,0,0.0,0,0,4,0,778,750,-0.0292,90.2922,6.8213,0.4212,54.888111,9.800780,108.3,5.845,1.85,335.95,54.895348,9.797490,54.890305,9.797514
1390001128,3,0,0.0,0,0,0,0,778,800,-0.0292,90.2922,6.8213,0.4212,54.888111,9.800803,108.3,5.845,1.85,335.95,54.895348,9.797490,54.890305,9.797514
1390001128,3,0,0.0,0,0,4,0,778,750,-0.0292,90.2922,6.8213,0.4212,54.888111,9.800827,108.3,5.845,1.85,335.95,54.895348,9.797490,54.890305,9.797514
1390001128,3,0,0.0,0,0,0,0,778,800,-0.0292,90.2922,6.8213,0.4212,54.888111,9.800850,108.3,5.845,1.85,335.95,54.895348,9.797490,54.890305,9.797514
1390001128,3,0,0.0,0,10,4,0,778,750,-0.0292,86.9589,6.8213,0.4212,54.888111,9.800873,108.3,5.845,1.85,335.95,54.895348,9.797490,54.890305,9.797514
1390001129,3,0,0.0,0,7,8,0,729,700,-0.0292,84.6255,6.8213,0.4212,54.888111,9.800895,108.3,5.845,1.85,335.95,54.895348,9.797490,54.890305,9.797514
1390001129,3,0,0.0,0,5,4,0,693,650,-0.0292,82.9589,6.8213,0.4212,54.888111,9.800917,108.3,5.845,1.85,335.95,54.895348,9.797490,54.890305,9.797514
1390001129,3,0,0.0,0,3,0,0,668,700,-0.0292,81.9589,6.8213,0.4212,54.888111,9.800938,108.3,5.845,1.85,335.95,54.895348,9.797490,54.890305,9.797514
1390001129,3,0,0.0,0,2,4,0,652,650,-0.0292,81.2922,6.8213,0.4212,54.888111,9.800960,108.3,5.845,1.85,335.95,54.895348,9.797490,54.890305,9.797514
1390001130,3,0,0.0,0,1,0,0,642,600,-0.0292,80.9589,6.8213,0.4212,54.888111,9.800981,108.3,5.845,1.85,335.95,54.895348,9.797490,54.890305,9.797514
1390001130,3,0,0.0,0,1,4,0,637,650,-0.0292,80.6255,6.8213,0.4212,54.888111,9.801003,108.3,5.845,1.85,335.95,54.895348,9.797490,54.890305,9.797514
1390001130,3,0,0.0,0,1,0,0,632,600,-0.0292,80.2922,6.8213,0.4212,54.888111,9.801023,108.3,5.845,1.85,335.95,54.895348,9.797490,54.890305,9.797514
1390001130,3,0,0.0,0,0,4,0,627,650,-0.0292,80.2922,6.8213,0.4212,54.888111,9.801044,108.3,5.845,1.85,335.95,54.895348,9.797490,54.890305,9.797514
1390001131,3,0,0.0,0,0,0,0,627,600,-0.0292,80.2922,6.8213,0.4212,54.888111,9.801065,108.3,5.845,1.85,335.95,54.895348,9.797490,54.890305,9.797514
1390001131,3,0,0.0,0,0,4,0,627,650,-0.0292,80.2922,6.8213,0.4212,54.888111,9.801086,108.3,5.845,1.85,335.95,54.895348,9.797490,54.890305,9.797514
1390001131,3,0,0.0,0,0,0,0,627,600,-0.0292,80.2922,6.8213,0.4212,54.888111,9.801107,108.3,5.845,1.85,335.95,54.895348,9.797490,54.890305,9.797514
1390001131,3,0,0.0,0,0,4,0,627,650,-0.0292,80.2922,6.8213,0.4212,54.888111,9.801128,108.3,5.845,1.85,335.95,54.895348,9.797490,54.890305,9.797514
1390001132,3,0,0.0,0,0,0,0,627,600,-0.0292,80.2922,6.8213,0.4212,54.888111,9.801149,108.3,5.845,1.85,335.95,54.895348,9.797490,54.890305,9.797514
1390001132,3,0,0.0,0,0,4,0,627,650,-0.0292,80.2922,6.8213,0.4212,54.888111,9.801170,108.3,5.845,1.85,335.95,54.895348,9.797490,54.890305,9.797514
1390001132,3,0,0.0,0,0,0,0,627,600,-0.0292,80.2922,6.8213,0.4212,54.888111,9.801191,108.3,5.845,1.85,335.95,54.895348,9.797490,54.890305,9.797514
1390001132,3,0,0.0,0,0,4,0,627,650,-0.0292,80.2922,6.8213,0.4212,54.888111,9.801212,108.3,5.845,1.85,335.95,54.895348,9.797490,54.890305,9.797514
1390001133,3,0,0.0,0,0,0,0,627,600,-0.0292,80.2922,6.8213,0.4212,54.888111,9.801233,108.3,5.845,1.85,335.95,54.895348,9.797490,54.890305,9.797514
1390001133,3,0,0.0,0,0,4,0,627,650,-0.0292,80.2922,6.8213,0.4212,54.888111,9.801254,108.3,5.845,1.85,335.95,54.895348,9.797490,54.890305,9.797514
1390001133,3,0,0.0,0,0,0,0,627,600,-0.0292,80.2922,6.8213,0.4212,54.888111,9.801275,108.3,5.845,1.85,335.95,54.895348,9.797490,54.890305,9.797514
1390001133,3,0,0.0,0,10,4,0,627,650,-0.0292,76.9589,6.8213,0.4212,54.888111,9.801295,108.3,5.845,1.85,335.95,54.895348,9.797490,54.890305,9.797514
1390001134,3,0,0.0,0,7,8,0,574,600,-0.0292,74.6255,6.8213,0.4212,54.888111,9.801314,108.3,5.845,1.85,335.95,54.895348,9.797490,54.890305,9.797514
1390001134,3,0,0.0,0,5,4,0,538,550,-0.0292,72.9589,6.8213,0.4212,54.888111,9.801333,108.3,5.845,1.85,335.95,54.895348,9.797490,54.890305,9.797514
1390001134,3,0,0.0,0,3,0,0,511,500,-0.0292,71.9589,6.8213,0.4212,54.888111,9.801352,108.3,5.845,1.85,335.95,54.895348,9.797490,54.890305,9.797514
1390001134,3,0,0.0,0,2,4,0,495,450,-0.0292,71.2922,6.8213,0.4212,54.888111,9.801370,108.3,5.845,1.85,335.95,54.895348,9.797490,54.890305,9.797514
1390001135,3,0,0.0,0,1,0,0,485,500,-0.0292,70.9589,6.8213,0.4212,54.888111,9.801389,108.3,5.845,1.85,335.95,54.895348,9.797490,54.890305,9.797514
1390001135,3,0,0.0,0,1,4,0,479,450,-0.0292,70.6255,6.8213,0.4212,54.888115,9.801407,108.3,5.845,1.85,335.95,54.895348,9.797490,54.890305,9.797514
1390001135,3,0,0.0,0,1,0,0,474,500,-0.0292,70.2922,6.8213,0.4212,54.888119,9.801425,108.3,5.845,1.85,335.95,54.895348,9.797490,54.890305,9.797514
1390001135,3,0,0.0,0,0,4,0,469,450,-0.0292,70.2922,6.8213,0.4212,54.888123,9.801443,108.3,5.845,1.85,335.95,54.895348,9.797490,54.890305,9.797514
1390001136,3,0,0.0,0,0,0,0,469,500,-0.0292,70.2922,6.8213,0.4212,54.888126,9.801461,108.3,5.845,1.85,335.95,54.895348,9.797490,54.890305,9.797514
1390001136,3,0,0.0,0,0,4,0,469,450,-0.0292,70.2922,6.8213,0.4212,54.888130,9.801480,108.3,5.845,1.85,335.95,54.895348,9.797490,54.890305,9.797514
1390001136,3,0,0.0,0,0,0,0,469,500,-0.0292,70.2922,6.8213,0.4212,54.888134,9.801498,108.3,5.845,1.85,335.95,54.895348,9.797490,54.890305,9.797514
1390001136,3,0,0.0,0,0,4,0,469,450,-0.0292,70.2922,6.8213,0.4212,54.888134,9.801517,108.3,5.845,1.85,335.95,54.895348,9.797490,54.890305,9.797514
1390001137,3,0,0.0,0,0,0,0,469,500,-0.0292,70.2922,6.8213,0.4212,54.888134,9.801536,108.3,5.845,1.85,335.95,54.895348,9.797490,54.890305,9.797514
1390001137,3,0,0.0,0,0,4,0,469,450,-0.0292,70.2922,6.8213,0.4212,54.888134,9.801554,108.3,5.845,1.85,335.95,54.895348,9.797490,54.890305,9.797514
1390001137,3,0,0.0,0,0,0,0,469,500,-0.0292,70.2922,6.8213,0.4212,54.888134,9.801572,108.3,5.845,1.85,335.95,54.895348,9.797490,54.890305,9.797514
1390001137,3,0,0.0,0,0,4,0,469,450,-0.0292,70.2922,6.8213,0.4212,54.888134,9.801590,108.3,5.845,1.85,335.95,54.895348,9.797490,54.890305,9.797514
1390001138,3,0,0.0,0,0,0,0,469,500,-0.0292,70.2922,6.8213,0.4212,54.888134,9.801609,108.3,5.845,1.85,335.95,54.895348,9.797490,54.890305,9.797514
1390001138,3,0,0.0,0,0,4,0,469,450,-0.0292,70.2922,6.8213,0.4212,54.888134,9.801627,108.3,5.845,1.85,335.95,54.895348,9.797490,54.890305,9.797514
1390001138,3,0,0.0,0,0,0,0,469,500,-0.0292,70.2922,6.8213,0.4212,54.888134,9.801646,108.3,5.845,1.85,335.95,54.895348,9.797490,54.890305,9.797514
1390001138,3,0,0.0,0,10,4,0,469,450,-0.0292,66.9589,6.8213,0.4212,54.888138,9.801663,108.3,5.845,1.85,335.95,54.895348,9.797490,54.890305,9.797514
1390001139,3,0,0.0,0,7,8,0,415,400,-0.0292,64.6255,6.8213,0.4212,54.888142,9.801680,108.3,5.845,1.85,335.95,54.895348,9.797490,54.890305,9.797514
1390001139,3,0,0.0,0,5,4,0,378,350,-0.0292,62.9589,6.8213,0.4212,54.888145,9.801695,108.3,5.845,1.85,335.95,54.895348,9.797490,54.890305,9.797514
1390001139,3,0,0.0,0,3,0,0,352,400,-0.0292,61.9589,6.8213,0.4212,54.888149,9.801710,108.3,5.845,1.85,335.95,54.895348,9.797490,54.890305,9.797514
1390001139,3,0,0.0,0,2,4,0,336,350,-0.0292,61.2922,6.8213,0.4212,54.888153,9.801725,108.3,5.845,1.85,335.95,54.895348,9.797490,54.890305,9.797514
1390001140,3,0,0.0,0,1,0,0,325,300,-0.0292,60.9589,6.8213,0.4212,54.888161,9.801741,108.3,5.845,1.85,335.95,54.895348,9.797490,54.890305,9.797514
1390001140,3,0,0.0,0,1,4,0,320,350,-0.0292,60.6255,6.8213,0.4212,54.888165,9.801756,108.3,5.845,1.85,335.95,54.895348,9.797490,54.890305,9.797514
1390001140,3,0,0.0,0,1,0,0,315,300,-0.0292,60.2922,6.8213,0.4212,54.888168,9.801771,108.3,5.845,1.85,335.95,54.895348,9.797490,54.890305,9.797514
1390001140,3,0,0.0,0,0,4,0,310,350,-0.0292,60.2922,6.8213,0.4212,54.888172,9.801785,108.3,5.845,1.85,335.95,54.895348,9.797490,54.890305,9.797514
1390001141,3,0,0.0,0,0,0,0,310,300,-0.0292,60.2922,6.8213,0.4212,54.888176,9.801801,108.3,5.845,1.85,335.95,54.895348,9.797490,54.890305,9.797514
1390001141,3,0,0.0,0,0,4,0,310,350,-0.0292,60.2922,6.8213,0.4212,54.888184,9.801816,108.3,5.845,1.85,335.95,54.895348,9.797490,54.890305,9.797514
1390001141,3,0,0.0,0,0,0,0,310,300,-0.0292,60.2922,6.8213,0.4212,54.888187,9.801830,108.3,5.845,1.85,335.95,54.895348,9.797490,54.890305,9.797514
1390001141,3,0,0.0,0,0,4,0,310,350,-0.0292,60.2922,6.8213,0.4212,54.888191,9.801846,108.3,5.845,1.85,335.95,54.895348,9.797490,54.890305,9.797514
1390001142,3,0,0.0,0,0,0,0,310,300,-0.0292,60.2922,6.8213,0.4212,54.888195,9.801861,108.3,5.845,1.85,335.95,54.895348,9.797490,54.890305,9.797514
1390001142,3,0,0.0,0,0,4,0,310,350,-0.0292,60.2922,6.8213,0.4212,54.888199,9.801875,108.3,5.845,1.85,335.95,54.895348,9.797490,54.890305,9.797514
1390001142,3,0,0.0,0,0,0,0,310,300,-0.0292,60.2922,6.8213,0.4212,54.888203,9.801890,108.3,5.845,1.85,335.95,54.895348,9.797490,54.890305,9.797514
1390001142,3,0,0.0,0,0,4,0,310,350,-0.0292,60.2922,6.8213,0.4212,54.888210,9.801906,108.3,5.845,1.85,335.95,54.895348,9.797490,54.890305,9.797514
1390001143,3,0,0.0,0,0,0,0,310,300,-0.0292,60.2922,6.8213,0.4212,54.888214,9.801921,108.3,5.845,1.85,335.95,54.895348,9.797490,54.890305,9.797514
1390001143,3,0,0.0,0,0,4,0,310,350,-0.0292,60.2922,6.8213,0.4212,54.888218,9.801936,108.3,5.845,1.85,335.95,54.895348,9.797490,54.890305,9.797514
1390001143,3,0,0.0,0,0,0,0,310,300,-0.0292,60.2922,6.8213,0.4212,54.888222,9.801950,108.3,5.845,1.85,335.95,54.895348,9.797490,54.890305,9.797514
1390001143,3,0,0.0,0,10,4,0,310,350,-0.0292,56.9589,6.8213,0.4212,54.888226,9.801964,108.3,5.845,1.85,335.95,54.895348,9.797490,54.890305,9.797514
1390001144,3,0,0.0,0,7,8,0,258,300,-0.0292,54.6255,6.8213,0.4212,54.888233,9.801977,108.3,5.845,1.85,335.95,54.895348,9.797490,54.890305,9.797514
1390001144,3,0,0.0,0,5,4,0,223,250,-0.0292,52.9589,6.8213,0.4212,54.888237,9.801989,108.3,5.845,1.85,335.95,54.895348,9.797490,54.890305,9.797514
1390001144,3,0,0.0,0,3,0,0,198,200,-0.0292,51.9589,6.8213,0.4212,54.888241,9.802000,108.3,5.845,1.85,335.95,54.895348,9.797490,54.890305,9.797514
1390001144,3,0,0.0,0,2,4,0,184,150,-0.0292,51.2922,6.8213,0.4212,54.888245,9.802011,108.3,5.845,1.85,335.95,54.895348,9.797490,54.890305,9.797514
1390001145,3,0,0.0,0,1,0,0,174,200,-0.0292,50.9589,6.8213,0.4212,54.888248,9.802024,108.3,5.845,1.85,335.95,54.895348,9.797490,54.890305,9.797514
1390001145,3,0,0.0,0,1,4,0,170,150,-0.0292,50.6255,6.8213,0.4212,54.888256,9.802035,108.3,5.845,1.85,335.95,54.895348,9.797490,54.890305,9.797514
1390001145,3,0,0.0,0,1,0,0,165,200,-0.0292,50.2922,6.8213,0.4212,54.888264,9.802047,108.3,5.845,1.85,335.95,54.895348,9.797490,54.890305,9.797514
1390001145,3,0,0.0,0,0,4,0,160,150,-0.0292,50.2922,6.8213,0.4212,54.888268,9.802058,108.3,5.845,1.85,335.95,54.895348,9.797490,54.890305,9.797514
1390001146,3,0,0.0,0,0,0,0,160,200,-0.0292,50.2922,6.8213,0.4212,54.888271,9.802070,108.3,5.845,1.85,335.95,54.895348,9.797490,54.890305,9.797514
1390001146,3,0,0.0,0,0,4,0,160,150,-0.0292,50.2922,6.8213,0.4212,54.888279,9.802081,108.3,5.845,1.85,335.95,54.895348,9.797490,54.890305,9.797514
1390001146,3,0,0.0,0,0,0,0,160,200,-0.0292,50.2922,6.8213,0.4212,54.888287,9.802093,108.3,5.845,1.85,335.95,54.895348,9.797490,54.890305,9.797514
1390001146,3,0,0.0,0,0,4,0,160,150,-0.0292,50.2922,6.8213,0.4212,54.888290,9.802104,108.3,5.845,1.85,335.95,54.895348,9.797490,54.890305,9.797514
1390001147,3,0,0.0,0,0,0,0,160,200,-0.0292,50.2922,6.8213,0.4212,54.888294,9.802115,108.3,5.845,1.85,335.95,54.895348,9.797490,54.890305,9.797514
1390001147,3,0,0.0,0,0,4,0,160,150,-0.0292,50.2922,6.8213,0.4212,54.888298,9.802127,108.3,5.845,1.85,335.95,54.895348,9.797490,54.890305,9.797514
1390001147,3,0,0.0,0,0,0,0,160,200,-0.0292,50.2922,6.8213,0.4212,54.888306,9.802138,108.3,5.845,1.85,335.95,54.895348,9.797490,54.890305,9.797514
1390001147,3,0,0.0,0,0,4,0,160,150,-0.0292,50.2922,6.8213,0.4212,54.888309,9.802150,108.3,5.845,1.85,335.95,54.895348,9.797490,54.890305,9.797514
1390001148,3,0,0.0,0,0,0,0,160,200,-0.0292,50.2922,6.8213,0.4212,54.888313,9.802161,108.3,5.845,1.85,335.95,54.895348,9.797490,54.890305,9.797514
1390001148,3,0,0.0,0,0,4,0,160,150,-0.0292,50.2922,6.8213,0.4212,54.888317,9.802173,108.3,5.845,1.85,335.95,54.895348,9.797490,54.890305,9.797514
1390001148,3,0,0.0,0,0,0,0,160,200,-0.0292,50.2922,6.8213,0.4212,54.888321,9.802184,108.3,5.845,1.85,335.95,54.895348,9.797490,54.890305,9.797514
1390001148,3,0,0.0,0,10,4,0,160,150,-0.0292,46.9589,6.8213,0.4212,54.888329,9.802195,108.3,5.845,1.85,335.95,54.895348,9.797490,54.890305,9.797514
1390001149,3,0,0.0,0,7,8,0,116,100,-0.0292,44.6255,6.8213,0.4212,54.888336,9.802203,108.3,5.845,1.85,335.95,54.895348,9.797490,54.890305,9.797514
1390001149,3,0,0.0,0,5,4,0,88,50,-0.0292,42.9589,6.8213,0.4212,54.888340,9.802212,108.3,5.845,1.85,335.95,54.895348,9.797490,54.890305,9.797514
1390001149,3,0,0.0,0,3,0,0,70,100,-0.0292,41.9589,6.8213,0.4212,54.888344,9.802220,108.3,5.845,1.85,335.95,54.895348,9.797490,54.890305,9.797514
1390001149,3,0,0.0,0,2,4,0,59,50,-0.0292,41.2922,6.8213,0.4212,54.888348,9.802229,108.3,5.845,1.85,335.95,54.895348,9.797490,54.890305,9.797514
1390001150,3,0,0.0,0,1,0,0,53,100,-0.0292,40.9589,6.8213,0.4212,54.888355,9.802238,108.3,5.845,1.85,335.95,54.895348,9.797490,54.890305,9.797514
1390001150,3,0,0.0,0,1,4,0,50,50,-0.0292,40.6255,6.8213,0.4212,54.888359,9.802245,108.3,5.845,1.85,335.95,54.895348,9.797490,54.890305,9.797514
1390001150,3,0,0.0,0,1,0,0,47,0,-0.0292,40.2922,6.8213,0.4212,54.888363,9.802253,108.3,5.845,1.85,335.95,54.895348,9.797490,54.890305,9.797514
1390001150,3,0,0.0,0,0,4,0,44,50,-0.0292,40.2922,6.8213,0.4212,54.888367,9.802260,108.3,5.845,1.85,335.95,54.895348,9.797490,54.890305,9.797514
1390001151,3,0,0.0,0,0,0,0,44,0,-0.0292,40.2922,6.8213,0.4212,54.888371,9.802268,108.3,5.845,1.85,335.95,54.895348,9.797490,54.890305,9.797514
1390001151,3,0,0.0,0,0,4,0,44,50,-0.0292,40.2922,6.8213,0.4212,54.888378,9.802277,108.3,5.845,1.85,335.95,54.895348,9.797490,54.890305,9.797514
1390001151,3,0,0.0,0,0,0,0,44,0,-0.0292,40.2922,6.8213,0.4212,54.888386,9.802284,108.3,5.845,1.85,335.95,54.895348,9.797490,54.890305,9.797514
1390001152,3,0,0.0,0,0,4,0,44,50,-0.0292,40.2922,6.8213,0.4212,54.888390,9.802292,108.3,5.845,1.85,335.95,54.895348,9.797490,54.890305,9.797514
1390001152,3,0,0.0,0,0,0,0,44,0,-0.0292,40.2922,6.8213,0.4212,54.888393,9.802299,108.3,5.845,1.85,335.95,54.895348,9.797490,54.890305,9.797514
1390001152,3,0,0.0,0,0,4,0,44,50,-0.0292,40.2922,6.8213,0.4212,54.888401,9.802307,108.3,5.845,1.85,335.95,54.895348,9.797490,54.890305,9.797514
1390001152,3,0,0.0,0,0,0,0,44,0,-0.0292,40.2922,6.8213,0.4212,54.888409,9.802316,108.3,5.845,1.85,335.95,54.895348,9.797490,54.890305,9.797514
1390001153,3,0,0.0,0,0,4,0,44,50,-0.0292,40.2922,6.8213,0.4212,54.888412,9.802324,108.3,5.845,1.85,335.95,54.895348,9.797490,54.890305,9.797514
1390001153,3,0,0.0,0,0,0,0,44,0,-0.0292,40.2922,6.8213,0.4212,54.888416,9.802332,108.3,5.845,1.85,335.95,54.895348,9.797490,54.890305,9.797514
1390001153,3,0,0.0,0,0,4,0,44,50,-0.0292,40.2922,6.8213,0.4212,54.888420,9.802340,108.3,5.845,1.85,335.95,54.895348,9.797490,54.890305,9.797514
1390001153,3,0,0.0,0,0,0,0,44,0,-0.0292,40.2922,6.8213,0.4212,54.888428,9.802347,108.3,5.845,1.85,335.95,54.895348,9.797490,54.890305,9.797514
1390001154,3,0,0.0,0,-10,-4,0,44,50,-0.0292,43.6255,6.8213,0.4212,54.888435,9.802357,108.3,5.845,1.85,335.95,54.895348,9.797490,54.890305,9.797514
1390001154,3,0,0.0,0,-6,-8,0,77,100,-0.0292,45.6255,6.8213,0.4212,54.888439,9.802367,108.3,5.845,1.85,335.95,54.895348,9.797490,54.890305,9.797514
1390001154,3,0,0.0,0,-4,-4,0,100,100,-0.0292,46.9589,6.8213,0.4212,54.888443,9.802377,108.3,5.845,1.85,335.95,54.895348,9.797490,54.890305,9.797514
1390001154,3,0,0.0,0,-3,0,0,116,150,-0.0292,47.9589,6.8213,0.4212,54.888451,9.802387,108.3,5.845,1.85,335.95,54.895348,9.797490,54.890305,9.797514
1390001155,3,0,0.0,0,-2,-4,0,129,100,-0.0292,48.6255,6.8213,0.4212,54.888458,9.802398,108.3,5.845,1.85,335.95,54.895348,9.797490,54.890305,9.797514
1390001155,3,0,0.0,0,-1,0,0,138,150,-0.0292,48.9589,6.8213,0.4212,54.888462,9.802409,108.3,5.845,1.85,335.95,54.895348,9.797490,54.890305,9.797514
1390001155,3,0,0.0,0,-1,-4,0,142,100,-0.0292,49.2922,6.8213,0.4212,54.888466,9.802420,108.3,5.845,1.85,335.95,54.895348,9.797490,54.890305,9.797514
1390001155,3,0,0.0,0,-1,0,0,147,150,-0.0292,49.6255,6.8213,0.4212,54.888470,9.802431,108.3,5.845,1.85,335.95,54.895348,9.797490,54.890305,9.797514
1390001156,3,0,0.0,0,0,4,0,151,200,-0.0292,49.6255,6.8213,0.4212,54.888477,9.802443,108.3,5.845,1.85,335.95,54.895348,9.797490,54.890305,9.797514
1390001156,3,0,0.0,0,0,0,0,151,150,-0.0292,49.6255,6.8213,0.4212,54.888485,9.802454,108.3,5.845,1.85,335.95,54.895348,9.797490,54.890305,9.797514
1390001156,3,0,0.0,0,0,4,0,151,200,-0.0292,49.6255,6.8213,0.4212,54.888489,9.802464,108.3,5.845,1.85,335.95,54.895348,9.797490,54.890305,9.797514
1390001156,3,0,0.0,0,0,0,0,151,150,-0.0292,49.6255,6.8213,0.4212,54.888493,9.802476,108.3,5.845,1.85,335.95,54.895348,9.797490,54.890305,9.797514
1390001157,3,0,0.0,0,0,4,0,151,200,-0.0292,49.6255,6.8213,0.4212,54.888500,9.802487,108.3,5.845,1.85,335.95,54.895348,9.797490,54.890305,9.797514
1390001157,3,0,0.0,0,0,0,0,151,150,-0.0292,49.6255,6.8213,0.4212,54.888508,9.802499,108.3,5.845,1.85,335.95,54.895348,9.797490,54.890305,9.797514
1390001157,3,0,0.0,0,0,4,0,151,200,-0.0292,49.6255,6.8213,0.4212,54.888512,9.802509,108.3,5.845,1.85,335.95,54.895348,9.797490,54.890305,9.797514
1390001157,3,0,0.0,0,0,0,0,151,150,-0.0292,49.6255,6.8213,0.4212,54.888515,9.802521,108.3,5.845,1.85,335.95,54.895348,9.797490,54.890305,9.797514
1390001158,3,0,0.0,0,0,4,0,151,200,-0.0292,49.6255,6.8213,0.4212,54.888519,9.802532,108.3,5.845,1.85,335.95,54.895348,9.797490,54.890305,9.797514
1390001158,3,0,0.0,0,0,0,0,151,150,-0.0292,49.6255,6.8213,0.4212,54.888527,9.802544,108.3,5.845,1.85,335.95,54.895348,9.797490,54.890305,9.797514
1390001158,3,0,0.0,0,0,4,0,151,200,-0.0292,49.6255,6.8213,0.4212,54.888531,9.802554,108.3,5.845,1.85,335.95,54.895348,9.797490,54.890305,9.797514
1390001158,3,0,0.0,0,0,0,0,151,150,-0.0292,49.6255,6.8213,0.4212,54.888535,9.802566,108.3,5.845,1.85,335.95,54.895348,9.797490,54.890305,9.797514
1390001159,3,0,0.0,0,-10,-4,0,151,200,-0.0292,52.9589,6.8213,0.4212,54.888538,9.802578,108.3,5.845,1.85,335.95,54.895348,9.797490,54.890305,9.797514
1390001159,3,0,0.0,0,-7,-8,0,198,150,-0.0292,55.2922,6.8213,0.4212,54.888542,9.802590,108.3,5.845,1.85,335.95,54.895348,9.797490,54.890305,9.797514
1390001159,3,0,0.0,0,-5,-4,0,233,200,-0.0292,56.9589,6.8213,0.4212,54.888550,9.802604,108.3,5.845,1.85,335.95,54.895348,9.797490,54.890305,9.797514
1390001159,3,0,0.0,0,-3,0,0,258,250,-0.0292,57.9589,6.8213,0.4212,54.888557,9.802618,108.3,5.845,1.85,335.95,54.895348,9.797490,54.890305,9.797514
1390001160,3,0,0.0,0,-2,-4,0,273,300,-0.0292,58.6255,6.8213,0.4212,54.888561,9.802633,108.3,5.845,1.85,335.95,54.895348,9.797490,54.890305,9.797514
1390001160,3,0,0.0,0,-1,0,0,284,250,-0.0292,58.9589,6.8213,0.4212,54.888565,9.802648,108.3,5.845,1.85,335.95,54.895348,9.797490,54.890305,9.797514
1390001160,3,0,0.0,0,-1,-4,0,289,300,-0.0292,59.2922,6.8213,0.4212,54.888569,9.802662,108.3,5.845,1.85,335.95,54.895348,9.797490,54.890305,9.797514
1390001160,3,0,0.0,0,-1,0,0,294,250,-0.0292,59.6255,6.8213,0.4212,54.888577,9.802677,108.3,5.845,1.85,335.95,54.895348,9.797490,54.890305,9.797514
1390001161,3,0,0.0,0,0,4,0,299,300,-0.0292,59.6255,6.8213,0.4212,54.888580,9.802691,108.3,5.845,1.85,335.95,54.895348,9.797490,54.890305,9.797514
1390001161,3,0,0.0,0,0,0,0,299,250,-0.0292,59.6255,6.8213,0.4212,54.888584,9.802707,108.3,5.845,1.85,335.95,54.895348,9.797490,54.890305,9.797514
1390001161,3,0,0.0,0,0,4,0,299,300,-0.0292,59.6255,6.8213,0.4212,54.888588,9.802721,108.3,5.845,1.85,335.95,54.895348,9.797490,54.890305,9.797514
1390001161,3,0,0.0,0,0,0,0,299,250,-0.0292,59.6255,6.8213,0.4212,54.888592,9.802735,108.3,5.845,1.85,335.95,54.895348,9.797490,54.890305,9.797514
1390001162,3,0,0.0,0,0,4,0,299,300,-0.0292,59.6255,6.8213,0.4212,54.888596,9.802751,108.3,5.845,1.85,335.95,54.895348,9.797490,54.890305,9.797514
1390001162,3,0,0.0,0,0,0,0,299,250,-0.0292,59.6255,6.8213,0.4212,54.888603,9.802765,108.3,5.845,1.85,335.95,54.895348,9.797490,54.890305,9.797514
1390001162,3,0,0.0,0,0,4,0,299,300,-0.0292,59.6255,6.8213,0.4212,54.888607,9.802779,108.3,5.845,1.85,335.95,54.895348,9.797490,54.890305,9.797514
1390001162,3,0,0.0,0,0,0,0,299,250,-0.0292,59.6255,6.8213,0.4212,54.888611,9.802794,108.3,5.845,1.85,335.95,54.895348,9.797490,54.890305,9.797514
1390001163,3,0,0.0,0,0,4,0,299,300,-0.0292,59.6255,6.8213,0.4212,54.888615,9.802809,108.3,5.845,1.85,335.95,54.895348,9.797490,54.890305,9.797514
1390001163,3,0,0.0,0,0,0,0,299,250,-0.0292,59.6255,6.8213,0.4212,54.888618,9.802823,108.3,5.845,1.85,335.95,54.895348,9.797490,54.890305,9.797514
1390001163,3,0,0.0,0,0,4,0,299,300,-0.0292,59.6255,6.8213,0.4212,54.888626,9.802838,108.3,5.845,1.85,335.95,54.895348,9.797490,54.890305,9.797514
1390001163,3,0,0.0,0,0,0,0,299,250,-0.0292,59.6255,6.8213,0.4212,54.888630,9.802853,108.3,5.845,1.85,335.95,54.895348,9.797490,54.890305,9.797514
1390001164,3,0,0.0,0,10,4,0,299,300,-0.0292,56.2922,6.8213,0.4212,54.888634,9.802866,108.3,5.845,1.85,335.95,54.895348,9.797490,54.890305,9.797514
1390001164,3,0,0.0,0,6,8,0,248,250,-0.0292,54.2922,6.8213,0.4212,54.888638,9.802879,108.3,5.845,1.85,335.95,54.895348,9.797490,54.890305,9.797514
1390001164,3,0,0.0,0,4,4,0,218,200,-0.0292,52.9589,6.8213,0.4212,54.888641,9.802892,108.3,5.845,1.85,335.95,54.895348,9.797490,54.890305,9.797514
1390001164,3,0,0.0,0,3,0,0,198,150,-0.0292,51.9589,6.8213,0.4212,54.888649,9.802903,108.3,5.845,1.85,335.95,54.895348,9.797490,54.890305,9.797514
1390001165,3,0,0.0,0,2,4,0,184,200,-0.0292,51.2922,6.8213,0.4212,54.888657,9.802915,108.3,5.845,1.85,335.95,54.895348,9.797490,54.890305,9.797514
1390001165,3,0,0.0,0,1,0,0,174,150,-0.0292,50.9589,6.8213,0.4212,54.888660,9.802927,108.3,5.845,1.85,335.95,54.895348,9.797490,54.890305,9.797514
1390001165,3,0,0.0,0,1,4,0,170,200,-0.0292,50.6255,6.8213,0.4212,54.888664,9.802938,108.3,5.845,1.85,335.95,54.895348,9.797490,54.890305,9.797514
1390001165,3,0,0.0,0,1,0,0,165,150,-0.0292,50.2922,6.8213,0.4212,54.888672,9.802950,108.3,5.845,1.85,335.95,54.895348,9.797490,54.890305,9.797514
1390001166,3,0,0.0,0,0,4,0,160,200,-0.0292,50.2922,6.8213,0.4212,54.888680,9.802961,108.3,5.845,1.85,335.95,54.895348,9.797490,54.890305,9.797514
1390001166,3,0,0.0,0,0,0,0,160,150,-0.0292,50.2922,6.8213,0.4212,54.888683,9.802973,108.3,5.845,1.85,335.95,54.895348,9.797490,54.890305,9.797514
1390001166,3,0,0.0,0,0,4,0,160,200,-0.0292,50.2922,6.8213,0.4212,54.888687,9.802984,108.3,5.845,1.85,335.95,54.895348,9.797490,54.890305,9.797514
1390001166,3,0,0.0,0,0,0,0,160,150,-0.0292,50.2922,6.8213,0.4212,54.888691,9.802996,108.3,5.845,1.85,335.95,54.895348,9.797490,54.890305,9.797514
1390001167,3,0,0.0,0,0,4,0,160,200,-0.0292,50.2922,6.8213,0.4212,54.888699,9.803007,108.3,5.845,1.85,335.95,54.895348,9.797490,54.890305,9.797514
1390001167,3,0,0.0,0,0,0,0,160,150,-0.0292,50.2922,6.8213,0.4212,54.888706,9.803019,108.3,5.845,1.85,335.95,54.895348,9.797490,54.890305,9.797514
1390001167,3,0,0.0,0,0,4,0,160,200,-0.0292,50.2922,6.8213,0.4212,54.888710,9.803030,108.3,5.845,1.85,335.95,54.895348,9.797490,54.890305,9.797514
1390001167,3,0,0.0,0,0,0,0,160,150,-0.0292,50.2922,6.8213,0.4212,54.888714,9.803041,108.3,5.845,1.85,335.95,54.895348,9.797490,54.890305,9.797514
1390001168,3,0,0.0,0,0,4,0,160,200,-0.0292,50.2922,6.8213,0.4212,54.888721,9.803053,108.3,5.845,1.85,335.95,54.895348,9.797490,54.890305,9.797514
1390001168,3,0,0.0,0,0,0,0,160,150,-0.0292,50.2922,6.8213,0.4212,54.888729,9.803064,108.3,5.845,1.85,335.95,54.895348,9.797490,54.890305,9.797514
1390001168,3,0,0.0,0,0,4,0,160,200,-0.0292,50.2922,6.8213,0.4212,54.888733,9.803076,108.3,5.845,1.85,335.95,54.895348,9.797490,54.890305,9.797514
