MCU_timestamp,Navigation_System,Manual_Control,Guidance_Heading,Manual_Ctrl_Rudder,Rudder_Desired_Angle,Rudder_Feedback,Manual_Ctrl_Sail,Sail_Desired_Pos,Sail_Feedback,Rate,Heading,Pitch,Roll,Latitude,Longitude,COG,SOG,Wind_Speed,Wind_Angle,Point_Start_Lat,Point_Start_Lon,Point_End_Lat,Point_End_Lon
1386890477,0,0,0.0,0,0,12,0,0,0,-0.0292,3339.0505,6.8213,0.4212,54.895931,9.790208,108.3,5.845,1.85,335.95,0.000000,0.000000,0.000000,0.000000
1386890477,0,0,0.0,0,0,12,0,0,0,-0.0292,3339.0505,6.8213,0.4212,54.895931,9.790208,108.3,5.845,1.85,335.95,0.000000,0.000000,0.000000,0.000000
1386890477,0,0,0.0,0,0,12,0,0,0,-0.0292,3339.0505,6.8213,0.4212,54.895931,9.790208,108.3,5.845,1.85,335.95,0.000000,0.000000,0.000000,0.000000
1386890477,0,0,0.0,0,0,12,0,0,0,-0.0292,3339.0505,6.8213,0.4212,54.895931,9.790208,108.3,5.845,1.85,335.95,0.000000,0.000000,0.000000,0.000000
1386890478,0,0,0.0,0,0,12,0,0,0,-0.0292,3339.0505,6.8213,0.4212,54.895931,9.790208,108.3,5.845,1.85,335.95,0.000000,0.000000,0.000000,0.000000
1386890478,0,0,0.0,0,0,12,0,0,0,-0.0292,3339.0505,6.8213,0.4212,54.895931,9.790208,108.3,5.845,1.85,335.95,0.000000,0.000000,0.000000,0.000000
1386890478,0,0,0.0,0,0,12,0,0,0,-0.0292,3339.0505,6.8213,0.4212,54.895931,9.790208,108.3,5.845,1.85,335.95,0.000000,0.000000,0.000000,0.000000
1386890478,0,0,0.0,0,0,12,0,0,0,-0.0292,3339.0505,6.8213,0.4212,54.895931,9.790208,108.3,5.845,1.85,335.95,0.000000,0.000000,0.000000,0.000000
1386890479,0,0,0.0,0,0,12,0,0,0,-0.0292,3339.0505,6.8213,0.4212,54.895931,9.790208,108.3,5.845,1.85,335.95,0.000000,0.000000,0.000000,0.000000
1386890479,0,0,0.0,0,0,12,0,0,0,-0.0292,3339.0505,6.8213,0.4212,54.895931,9.790208,108.3,5.845,1.85,335.95,0.000000,0.000000,0.000000,0.000000
1386890479,0,0,0.0,0,0,12,0,0,0,-0.0292,3339.0505,6.8213,0.4212,54.895931,9.790208,108.3,5.845,1.85,335.95,0.000000,0.000000,0.000000,0.000000
1386890479,0,0,0.0,0,0,12,0,0,0,-0.0292,3339.0505,6.8213,0.4212,54.895931,9.790208,108.3,5.845,1.85,335.95,0.000000,0.000000,0.000000,0.000000
1386890480,0,0,0.0,0,0,12,0,0,0,-0.0292,3339.0505,6.8213,0.4212,54.895931,9.790208,108.3,5.845,1.85,335.95,0.000000,0.000000,0.000000,0.000000
1386890480,0,0,0.0,0,0,12,0,0,0,-0.0292,3339.0505,6.8213,0.4212,54.895931,9.790208,108.3,5.845,1.85,335.95,0.000000,0.000000,0.000000,0.000000
1386890480,0,0,0.0,0,0,12,0,0,0,-0.0292,3339.0505,6.8213,0.4212,54.895931,9.790208,108.3,5.845,1.85,335.95,0.000000,0.000000,0.000000,0.000000
1386890480,0,0,0.0,0,0,12,0,0,0,-0.0292,3339.0505,6.8213,0.4212,54.895931,9.790208,108.3,5.845,1.85,335.95,0.000000,0.000000,0.000000,0.000000
1386890481,0,0,0.0,0,0,12,0,0,0,-0.0292,3339.0505,6.8213,0.4212,54.895931,9.790208,108.3,5.845,1.85,335.95,0.000000,0.000000,0.000000,0.000000
1386890481,0,0,0.0,0,0,12,0,0,0,-0.0292,3339.0505,6.8213,0.4212,54.895931,9.790208,108.3,5.845,1.85,335.95,0.000000,0.000000,0.000000,0.000000
1386890481,0,0,0.0,0,0,12,0,0,0,-0.0292,3339.0505,6.8213,0.4212,54.895931,9.790208,108.3,5.845,1.85,335.95,0.000000,0.000000,0.000000,0.000000
1386890481,0,0,0.0,0,0,12,0,0,0,-0.0292,3339.0505,6.8213,0.4212,54.895931,9.790208,108.3,5.845,1.85,335.95,0.000000,0.000000,0.000000,0.000000
1386890482,0,0,0.0,0,0,12,0,0,0,-0.0292,3339.0505,6.8213,0.4212,54.895931,9.790208,108.3,5.845,1.85,335.95,0.000000,0.000000,0.000000,0.000000
1386890482,0,0,0.0,0,0,12,0,0,0,-0.0292,3339.0505,6.8213,0.4212,54.895931,9.790208,108.3,5.845,1.85,335.95,0.000000,0.000000,0.000000,0.000000
1386890482,0,0,0.0,0,0,12,0,0,0,-0.0292,3339.0505,6.8213,0.4212,54.895931,9.790208,108.3,5.845,1.85,335.95,0.000000,0.000000,0.000000,0.000000
1386890482,0,0,0.0,0,0,12,0,0,0,-0.0292,3339.0505,6.8213,0.4212,54.895931,9.790208,108.3,5.845,1.85,335.95,0.000000,0.000000,0.000000,0.000000
1386890483,0,0,0.0,0,0,12,0,0,0,-0.0292,3339.0505,6.8213,0.4212,54.895931,9.790208,108.3,5.845,1.85,335.95,0.000000,0.000000,0.000000,0.000000
1386890483,0,0,0.0,0,0,12,0,0,0,-0.0292,3339.0505,6.8213,0.4212,54.895931,9.790208,108.3,5.845,1.85,335.95,0.000000,0.000000,0.000000,0.000000
1386890483,0,0,0.0,0,0,12,0,0,0,-0.0292,3339.0505,6.8213,0.4212,54.895931,9.790208,108.3,5.845,1.85,335.95,0.000000,0.000000,0.000000,0.000000
1386890483,0,0,0.0,0,0,12,0,0,0,-0.0292,3339.0505,6.8213,0.4212,54.895931,9.790208,108.3,5.845,1.85,335.95,0.000000,0.000000,0.000000,0.000000
1386890484,0,0,0.0,0,0,12,0,0,0,-0.0292,3339.0505,6.8213,0.4212,54.895931,9.790208,108.3,5.845,1.85,335.95,0.000000,0.000000,0.000000,0.000000
1386890484,0,0,0.0,0,0,12,0,0,0,-0.0292,3339.0505,6.8213,0.4212,54.895931,9.790208,108.3,5.845,1.85,335.95,0.000000,0.000000,0.000000,0.000000
1386890484,0,0,0.0,0,0,12,0,0,0,-0.0292,3339.0505,6.8213,0.4212,54.895931,9.790208,108.3,5.845,1.85,335.95,0.000000,0.000000,0.000000,0.000000
1386890484,0,0,0.0,0,0,12,0,0,0,-0.0292,3339.0505,6.8213,0.4212,54.895931,9.790208,108.3,5.845,1.85,335.95,0.000000,0.000000,0.000000,0.000000
1386890485,4,0,0.0,0,0,12,0,0,0,-0.0292,3339.0505,6.8213,0.4212,54.895931,9.790208,108.3,5.845,1.85,335.95,0.000000,0.000000,0.000000,0.000000
1386890485,1,0,472.6,0,-14,8,0,870,550,-0.0292,3331.0298,6.8213,0.4212,54.895927,9.790239,108.3,5.845,1.85,335.95,54.895931,9.790208,54.895069,9.793790
1386890485,1,0,472.7,0,-22,4,0,788,600,-0.0292,3331.1016,6.8213,0.4212,54.895927,9.790270,108.3,5.845,1.85,335.95,54.895931,9.790208,54.895069,9.793790
1386890485,1,0,472.9,0,-22,0,0,789,650,-0.0292,3331.1733,6.8213,0.4212,54.895927,9.790301,108.3,5.845,1.85,335.95,54.895931,9.790208,54.895069,9.793790
1386890486,1,0,473.0,0,-22,-4,0,790,700,-0.0292,3331.2451,6.8213,0.4212,54.895927,9.790333,108.3,5.845,1.85,335.95,54.895931,9.790208,54.895069,9.793790
1386890486,1,0,473.2,0,-22,-8,0,791,750,-0.0292,3331.3169,6.8213,0.4212,54.895927,9.790364,108.3,5.845,1.85,335.95,54.895931,9.790208,54.895069,9.793790
1386890486,1,0,473.4,0,-22,-12,0,792,800,-0.0292,3331.3887,6.8213,0.4212,54.895927,9.790395,108.3,5.845,1.85,335.95,54.895931,9.790208,54.895069,9.793790
1386890486,1,0,473.6,0,-22,-16,0,794,750,-0.0292,3331.4604,6.8213,0.4212,54.895927,9.790426,108.3,5.845,1.85,335.95,54.895931,9.790208,54.895069,9.793790
1386890487,1,0,473.8,0,-22,-20,0,795,800,-0.0292,3331.5322,6.8213,0.4212,54.895927,9.790458,108.3,5.845,1.85,335.95,54.895931,9.790208,54.895069,9.793790
1386890487,1,0,474.0,0,-22,-24,0,796,750,-0.0292,3331.6040,6.8213,0.4212,54.895927,9.790489,108.3,5.845,1.85,335.95,54.895931,9.790208,54.895069,9.793790
1386890487,1,0,474.2,0,-23,-20,0,797,800,-0.0292,3338.4558,6.8213,0.4212,54.895927,9.790520,108.3,5.845,1.85,335.95,54.895931,9.790208,54.895069,9.793790
1386890487,1,0,474.4,0,-16,-16,0,870,850,-0.0292,3340.7869,6.8213,0.4212,54.895927,9.790550,108.3,5.845,1.85,335.95,54.895931,9.790208,54.895069,9.793790
1386890488,1,0,474.6,0,-14,-12,0,870,900,-0.0292,3332.7661,6.8213,0.4212,54.895927,9.790582,108.3,5.845,1.85,335.95,54.895931,9.790208,54.895069,9.793790
1386890488,1,0,474.8,0,-22,-16,0,813,850,-0.0292,3332.8379,6.8213,0.4212,54.895927,9.790612,108.3,5.845,1.85,335.95,54.895931,9.790208,54.895069,9.793790
1386890488,1,0,475.0,0,-22,-20,0,814,800,-0.0292,3332.9097,6.8213,0.4212,54.895927,9.790644,108.3,5.845,1.85,335.95,54.895931,9.790208,54.895069,9.793790
1386890489,1,0,475.2,0,-22,-24,0,815,850,-0.0292,3332.9814,6.8213,0.4212,54.895927,9.790675,108.3,5.845,1.85,335.95,54.895931,9.790208,54.895069,9.793790
1386890489,1,0,475.5,0,-22,-20,0,817,800,-0.0292,3333.0532,6.8213,0.4212,54.895927,9.790707,108.3,5.845,1.85,335.95,54.895931,9.790208,54.895069,9.793790
1386890489,1,0,475.7,0,-23,-24,0,818,850,-0.0292,3339.9050,6.8213,0.4212,54.895927,9.790737,108.3,5.845,1.85,335.95,54.895931,9.790208,54.895069,9.793790
1386890489,1,0,475.9,0,-16,-20,0,870,900,-0.0292,3342.2361,6.8213,0.4212,54.895924,9.790768,108.3,5.845,1.85,335.95,54.895931,9.790208,54.895069,9.793790
1386890490,1,0,476.0,0,-14,-16,0,870,850,-0.0292,3334.2153,6.8213,0.4212,54.895924,9.790799,108.3,5.845,1.85,335.95,54.895931,9.790208,54.895069,9.793790
1386890490,1,0,476.3,0,-22,-20,0,834,800,-0.0292,3334.2871,6.8213,0.4212,54.895924,9.790830,108.3,5.845,1.85,335.95,54.895931,9.790208,54.895069,9.793790
1386890490,1,0,476.5,0,-22,-24,0,835,850,-0.0292,3334.3589,6.8213,0.4212,54.895924,9.790861,108.3,5.845,1.85,335.95,54.895931,9.790208,54.895069,9.793790
1386890490,1,0,476.8,0,-22,-20,0,836,800,-0.0292,3334.4307,6.8213,0.4212,54.895924,9.790893,108.3,5.845,1.85,335.95,54.895931,9.790208,54.895069,9.793790
1386890491,1,0,477.0,0,-23,-24,0,837,850,-0.0292,3341.2825,6.8213,0.4212,54.895920,9.790923,108.3,5.845,1.85,335.95,54.895931,9.790208,54.895069,9.793790
1386890491,1,0,477.2,0,-16,-20,0,870,900,-0.0292,3343.6135,6.8213,0.4212,54.895916,9.790953,108.3,5.845,1.85,335.95,54.895931,9.790208,54.895069,9.793790
1386890491,0,0,477.2,0,-16,-20,0,870,900,-0.0292,3343.6135,6.8213,0.4212,54.895916,9.790953,108.3,5.845,1.85,335.95,54.895931,9.790208,54.895069,9.793790
1386890491,0,0,477.2,0,-16,-20,0,870,900,-0.0292,3343.6135,6.8213,0.4212,54.895916,9.790953,108.3,5.845,1.85,335.95,54.895931,9.790208,54.895069,9.793790
1386890492,0,0,477.2,0,-16,-20,0,870,900,-0.0292,3343.6135,6.8213,0.4212,54.895916,9.790953,108.3,5.845,1.85,335.95,54.895931,9.790208,54.895069,9.793790
1386890492,0,0,477.2,0,-16,-20,0,870,900,-0.0292,3343.6135,6.8213,0.4212,54.895916,9.790953,108.3,5.845,1.85,335.95,54.895931,9.790208,54.895069,9.793790
1386890492,0,0,477.2,0,-16,-20,0,870,900,-0.0292,3343.6135,6.8213,0.4212,54.895916,9.790953,108.3,5.845,1.85,335.95,54.895931,9.790208,54.895069,9.793790
1386890492,0,0,477.2,0,-16,-20,0,870,900,-0.0292,3343.6135,6.8213,0.4212,54.895916,9.790953,108.3,5.845,1.85,335.95,54.895931,9.790208,54.895069,9.793790
1386890493,0,0,477.2,0,-16,-20,0,870,900,-0.0292,3343.6135,6.8213,0.4212,54.895916,9.790953,108.3,5.845,1.85,335.95,54.895931,9.790208,54.895069,9.793790
1386890493,0,0,477.2,0,-16,-20,0,870,900,-0.0292,3343.6135,6.8213,0.4212,54.895916,9.790953,108.3,5.845,1.85,335.95,54.895931,9.790208,54.895069,9.793790
1386890493,0,0,477.2,0,-16,-20,0,870,900,-0.0292,3343.6135,6.8213,0.4212,54.895916,9.790953,108.3,5.845,1.85,335.95,54.895931,9.790208,54.895069,9.793790
1386890493,4,0,477.2,0,-16,-20,0,870,900,-0.0292,3343.6135,6.8213,0.4212,54.895916,9.790953,108.3,5.845,1.85,335.95,54.895931,9.790208,54.895069,9.793790
1386890494,1,0,477.3,0,-14,-16,0,870,850,-0.0292,3335.5928,6.8213,0.4212,54.895912,9.790984,108.3,5.845,1.85,335.95,54.895916,9.790953,54.895069,9.793790
1386890494,1,0,477.4,0,-22,-20,0,854,900,-0.0292,3335.6646,6.8213,0.4212,54.895908,9.791016,108.3,5.845,1.85,335.95,54.895916,9.790953,54.895069,9.793790
1386890494,1,0,477.6,0,-22,-24,0,855,850,-0.0292,3335.7363,6.8213,0.4212,54.895905,9.791046,108.3,5.845,1.85,335.95,54.895916,9.790953,54.895069,9.793790
1386890494,1,0,477.8,0,-22,-20,0,856,900,-0.0292,3335.8081,6.8213,0.4212,54.895905,9.791077,108.3,5.845,1.85,335.95,54.895916,9.790953,54.895069,9.793790
1386890495,1,0,478.0,0,-22,-24,0,857,850,-0.0292,3335.8799,6.8213,0.4212,54.895905,9.791108,108.3,5.845,1.85,335.95,54.895916,9.790953,54.895069,9.793790
1386890495,1,0,478.3,0,-22,-20,0,858,900,-0.0292,3335.9517,6.8213,0.4212,54.895905,9.791140,108.3,5.845,1.85,335.95,54.895916,9.790953,54.895069,9.793790
1386890495,1,0,478.6,0,-23,-24,0,859,850,-0.0292,3342.8035,6.8213,0.4212,54.895905,9.791170,108.3,5.845,1.85,335.95,54.895916,9.790953,54.895069,9.793790
1386890495,1,0,478.9,0,-16,-20,0,870,900,-0.0292,3345.1345,6.8213,0.4212,54.895901,9.791201,108.3,5.845,1.85,335.95,54.895916,9.790953,54.895069,9.793790
1386890496,1,0,479.0,0,-14,-16,0,870,850,-0.0292,3337.1138,6.8213,0.4212,54.895901,9.791232,108.3,5.845,1.85,335.95,54.895916,9.790953,54.895069,9.793790
1386890496,1,0,479.3,0,-22,-20,0,870,900,-0.0292,3337.1855,6.8213,0.4212,54.895901,9.791263,108.3,5.845,1.85,335.95,54.895916,9.790953,54.895069,9.793790
1386890496,1,0,479.6,0,-22,-24,0,870,850,-0.0292,3337.2573,6.8213,0.4212,54.895901,9.791293,108.3,5.845,1.85,335.95,54.895916,9.790953,54.895069,9.793790
1386890496,1,0,479.9,0,-23,-20,0,870,900,-0.0292,3344.1091,6.8213,0.4212,54.895897,9.791324,108.3,5.845,1.85,335.95,54.895916,9.790953,54.895069,9.793790
1386890497,1,0,480.1,0,-16,-16,0,870,850,-0.0292,3346.4402,6.8213,0.4212,54.895893,9.791353,108.3,5.845,1.85,335.95,54.895916,9.790953,54.895069,9.793790
1386890497,1,0,480.3,0,-14,-12,0,870,900,-0.0292,3338.4194,6.8213,0.4212,54.895889,9.791384,108.3,5.845,1.85,335.95,54.895916,9.790953,54.895069,9.793790
1386890497,1,0,480.5,0,-22,-16,0,870,850,-0.0292,3338.4912,6.8213,0.4212,54.895885,9.791415,108.3,5.845,1.85,335.95,54.895916,9.790953,54.895069,9.793790
1386890497,1,0,480.7,0,-22,-20,0,870,900,-0.0292,3338.5630,6.8213,0.4212,54.895882,9.791447,108.3,5.845,1.85,335.95,54.895916,9.790953,54.895069,9.793790
1386890498,1,0,480.9,0,-22,-24,0,870,850,-0.0292,3338.6348,6.8213,0.4212,54.895878,9.791477,108.3,5.845,1.85,335.95,54.895916,9.790953,54.895069,9.793790
1386890498,1,0,481.1,0,-23,-20,0,870,900,-0.0292,3345.4866,6.8213,0.4212,54.895874,9.791507,108.3,5.845,1.85,335.95,54.895916,9.790953,54.895069,9.793790
1386890498,1,0,481.4,0,-16,-16,0,870,850,-0.0292,3347.8176,6.8213,0.4212,54.895870,9.791536,108.3,5.845,1.85,335.95,54.895916,9.790953,54.895069,9.793790
1386890498,1,0,481.6,0,-14,-12,0,870,900,-0.0292,3339.7969,6.8213,0.4212,54.895866,9.791567,108.3,5.845,1.85,335.95,54.895916,9.790953,54.895069,9.793790
1386890499,1,0,481.8,0,-22,-16,0,870,850,-0.0292,3339.8687,6.8213,0.4212,54.895863,9.791597,108.3,5.845,1.85,335.95,54.895916,9.790953,54.895069,9.793790
1386890499,1,0,482.0,0,-22,-20,0,870,900,-0.0292,3339.9404,6.8213,0.4212,54.895859,9.791629,108.3,5.845,1.85,335.95,54.895916,9.790953,54.895069,9.793790
1386890499,1,0,482.3,0,-22,-24,0,870,850,-0.0292,3340.0122,6.8213,0.4212,54.895855,9.791659,108.3,5.845,1.85,335.95,54.895916,9.790953,54.895069,9.793790
1386890499,1,0,482.5,0,-23,-20,0,870,900,-0.0292,3346.8640,6.8213,0.4212,54.895851,9.791689,108.3,5.845,1.85,335.95,54.895916,9.790953,54.895069,9.793790
1386890500,1,0,482.8,0,-16,-16,0,870,850,-0.0292,3349.1951,6.8213,0.4212,54.895847,9.791718,108.3,5.845,1.85,335.95,54.895916,9.790953,54.895069,9.793790
1386890500,1,0,483.0,0,-14,-12,0,870,900,-0.0292,3341.1743,6.8213,0.4212,54.895844,9.791748,108.3,5.845,1.85,335.95,54.895916,9.790953,54.895069,9.793790
1386890500,1,0,483.2,0,-22,-16,0,870,850,-0.0292,3341.2461,6.8213,0.4212,54.895840,9.791779,108.3,5.845,1.85,335.95,54.895916,9.790953,54.895069,9.793790
1386890500,1,0,483.5,0,-22,-20,0,870,900,-0.0292,3341.3179,6.8213,0.4212,54.895836,9.791809,108.3,5.845,1.85,335.95,54.895916,9.790953,54.895069,9.793790
1386890501,1,0,483.8,0,-22,-24,0,870,850,-0.0292,3341.3896,6.8213,0.4212,54.895832,9.791840,108.3,5.845,1.85,335.95,54.895916,9.790953,54.895069,9.793790
1386890501,1,0,484.1,0,-23,-20,0,870,900,-0.0292,3348.2415,6.8213,0.4212,54.895824,9.791869,108.3,5.845,1.85,335.95,54.895916,9.790953,54.895069,9.793790
1386890501,1,0,484.2,0,-16,-16,0,870,850,-0.0292,3350.5725,6.8213,0.4212,54.895821,9.791898,108.3,5.845,1.85,335.95,54.895916,9.790953,54.895069,9.793790
1386890501,1,0,484.5,0,-14,-12,0,870,900,-0.0292,3342.5518,6.8213,0.4212,54.895817,9.791928,108.3,5.845,1.85,335.95,54.895916,9.790953,54.895069,9.793790
1386890502,1,0,484.8,0,-22,-16,0,870,850,-0.0292,3342.6235,6.8213,0.4212,54.895813,9.791959,108.3,5.845,1.85,335.95,54.895916,9.790953,54.895069,9.793790
1386890502,1,0,485.1,0,-22,-20,0,870,900,-0.0292,3342.6953,6.8213,0.4212,54.895809,9.791989,108.3,5.845,1.85,335.95,54.895916,9.790953,54.895069,9.793790
1386890502,1,0,485.4,0,-23,-24,0,870,850,-0.0292,3349.5471,6.8213,0.4212,54.895802,9.792018,108.3,5.845,1.85,335.95,54.895916,9.790953,54.895069,9.793790
1386890502,1,0,485.5,0,-16,-20,0,870,900,-0.0292,3351.8782,6.8213,0.4212,54.895798,9.792048,108.3,5.845,1.85,335.95,54.895916,9.790953,54.895069,9.793790
1386890503,1,0,485.9,0,-14,-16,0,713,850,-0.0292,3343.8574,6.8213,0.4212,54.895794,9.792078,108.3,5.845,1.85,335.95,54.895916,9.790953,54.895069,9.793790
1386890503,1,0,485.9,0,-22,-20,0,870,900,-0.0292,3343.9292,6.8213,0.4212,54.895790,9.792108,108.3,5.845,1.85,335.95,54.895916,9.790953,54.895069,9.793790
1386890503,1,0,485.9,0,-22,-24,0,870,850,-0.0292,3344.0010,6.8213,0.4212,54.895786,9.792138,108.3,5.845,1.85,335.95,54.895916,9.790953,54.895069,9.793790
1386890503,1,0,485.9,0,-22,-20,0,870,900,-0.0292,3344.0728,6.8213,0.4212,54.895779,9.792169,108.3,5.845,1.85,335.95,54.895916,9.790953,54.895069,9.793790
1386890504,1,0,485.9,0,-22,-24,0,870,850,-0.0292,3344.1445,6.8213,0.4212,54.895775,9.792198,108.3,5.845,1.85,335.95,54.895916,9.790953,54.895069,9.793790
1386890504,1,0,485.9,0,-22,-20,0,870,900,-0.0292,3344.2163,6.8213,0.4212,54.895771,9.792229,108.3,5.845,1.85,335.95,54.895916,9.790953,54.895069,9.793790
1386890504,1,0,485.9,0,-22,-24,0,870,850,-0.0292,3344.2881,6.8213,0.4212,54.895767,9.792259,108.3,5.845,1.85,335.95,54.895916,9.790953,54.895069,9.793790
1386890504,1,0,485.9,0,-22,-20,0,870,900,-0.0292,3344.3599,6.8213,0.4212,54.895763,9.792290,108.3,5.845,1.85,335.95,54.895916,9.790953,54.895069,9.793790
1386890505,1,0,485.9,0,-21,-24,0,870,850,-0.0292,3337.5854,6.8213,0.4212,54.895760,9.792320,108.3,5.845,1.85,335.95,54.895916,9.790953,54.895069,9.793790
1386890505,1,0,485.9,0,-28,-28,0,870,900,-0.0292,3335.3918,6.8213,0.4212,54.895756,9.792352,108.3,5.845,1.85,335.95,54.895916,9.790953,54.895069,9.793790
1386890505,1,0,485.9,0,-30,-32,0,851,850,-0.0292,3343.3918,6.8213,0.4212,54.895752,9.792382,108.3,5.845,1.85,335.95,54.895916,9.790953,54.895069,9.793790
1386890505,1,0,485.9,0,-22,-28,0,870,900,-0.0292,3343.4636,6.8213,0.4212,54.895748,9.792413,108.3,5.845,1.85,335.95,54.895916,9.790953,54.895069,9.793790
1386890506,1,0,485.9,0,-22,-24,0,870,850,-0.0292,3343.5354,6.8213,0.4212,54.895744,9.792443,108.3,5.845,1.85,335.95,54.895916,9.790953,54.895069,9.793790
1386890506,1,0,485.9,0,-22,-20,0,870,900,-0.0292,3343.6072,6.8213,0.4212,54.895741,9.792474,108.3,5.845,1.85,335.95,54.895916,9.790953,54.895069,9.793790
1386890506,1,0,485.9,0,-22,-24,0,870,850,-0.0292,3343.6790,6.8213,0.4212,54.895737,9.792504,108.3,5.845,1.85,335.95,54.895916,9.790953,54.895069,9.793790
1386890506,1,0,485.9,0,-22,-20,0,870,900,-0.0292,3343.7507,6.8213,0.4212,54.895729,9.792534,108.3,5.845,1.85,335.95,54.895916,9.790953,54.895069,9.793790
1386890507,1,0,485.9,0,-22,-24,0,870,850,-0.0292,3343.8225,6.8213,0.4212,54.895725,9.792564,108.3,5.845,1.85,335.95,54.895916,9.790953,54.895069,9.793790
1386890507,1,0,485.9,0,-22,-20,0,870,900,-0.0292,3343.8943,6.8213,0.4212,54.895721,9.792595,108.3,5.845,1.85,335.95,54.895916,9.790953,54.895069,9.793790
1386890507,1,0,485.9,0,-22,-24,0,870,850,-0.0292,3343.9661,6.8213,0.4212,54.895718,9.792624,108.3,5.845,1.85,335.95,54.895916,9.790953,54.895069,9.793790
1386890507,1,0,485.9,0,-22,-20,0,870,900,-0.0292,3344.0378,6.8213,0.4212,54.895714,9.792655,108.3,5.845,1.85,335.95,54.895916,9.790953,54.895069,9.793790
1386890508,1,0,485.9,0,-22,-24,0,870,850,-0.0292,3344.1096,6.8213,0.4212,54.895710,9.792686,108.3,5.845,1.85,335.95,54.895916,9.790953,54.895069,9.793790
1386890508,1,0,485.9,0,-22,-20,0,870,900,-0.0292,3344.1814,6.8213,0.4212,54.895702,9.792715,108.3,5.845,1.85,335.95,54.895916,9.790953,54.895069,9.793790
1386890508,1,0,485.9,0,-22,-24,0,870,850,-0.0292,3344.2532,6.8213,0.4212,54.895699,9.792746,108.3,5.845,1.85,335.95,54.895916,9.790953,54.895069,9.793790
1386890508,1,0,485.9,0,-22,-20,0,870,900,-0.0292,3344.3250,6.8213,0.4212,54.895695,9.792776,108.3,5.845,1.85,335.95,54.895916,9.790953,54.895069,9.793790
1386890509,1,0,485.9,0,-22,-24,0,870,850,-0.0292,3344.3967,6.8213,0.4212,54.895691,9.792807,108.3,5.845,1.85,335.95,54.895916,9.790953,54.895069,9.793790
1386890509,1,0,485.9,0,-21,-20,0,870,900,-0.0292,3337.6223,6.8213,0.4212,54.895687,9.792837,108.3,5.845,1.85,335.95,54.895916,9.790953,54.895069,9.793790
1386890509,1,0,485.9,0,-28,-24,0,870,850,-0.0292,3335.4287,6.8213,0.4212,54.895683,9.792869,108.3,5.845,1.85,335.95,54.895916,9.790953,54.895069,9.793790
1386890509,1,0,485.9,0,-30,-28,0,851,900,-0.0292,3343.4287,6.8213,0.4212,54.895679,9.792899,108.3,5.845,1.85,335.95,54.895916,9.790953,54.895069,9.793790
1386890510,1,0,485.9,0,-22,-24,0,870,850,-0.0292,3343.5005,6.8213,0.4212,54.895676,9.792930,108.3,5.845,1.85,335.95,54.895916,9.790953,54.895069,9.793790
1386890510,1,0,485.9,0,-22,-20,0,870,900,-0.0292,3343.5723,6.8213,0.4212,54.895672,9.792960,108.3,5.845,1.85,335.95,54.895916,9.790953,54.895069,9.793790
1386890510,1,0,485.9,0,-22,-24,0,870,850,-0.0292,3343.6440,6.8213,0.4212,54.895668,9.792991,108.3,5.845,1.85,335.95,54.895916,9.790953,54.895069,9.793790
1386890510,1,0,485.9,0,-22,-20,0,870,900,-0.0292,3343.7158,6.8213,0.4212,54.895664,9.793021,108.3,5.845,1.85,335.95,54.895916,9.790953,54.895069,9.793790
1386890511,1,0,485.9,0,-22,-24,0,870,850,-0.0292,3343.7876,6.8213,0.4212,54.895660,9.793051,108.3,5.845,1.85,335.95,54.895916,9.790953,54.895069,9.793790
1386890511,1,0,485.9,0,-22,-20,0,870,900,-0.0292,3343.8594,6.8213,0.4212,54.895653,9.793081,108.3,5.845,1.85,335.95,54.895916,9.790953,54.895069,9.793790
1386890511,1,0,485.9,0,-22,-24,0,870,850,-0.0292,3343.9312,6.8213,0.4212,54.895649,9.793112,108.3,5.845,1.85,335.95,54.895916,9.790953,54.895069,9.793790
1386890511,1,0,485.9,0,-22,-20,0,870,900,-0.0292,3344.0029,6.8213,0.4212,54.895645,9.793141,108.3,5.845,1.85,335.95,54.895916,9.790953,54.895069,9.793790
1386890512,1,0,485.9,0,-22,-24,0,870,850,-0.0292,3344.0747,6.8213,0.4212,54.895641,9.793172,108.3,5.845,1.85,335.95,54.895916,9.790953,54.895069,9.793790
1386890512,1,0,485.9,0,-22,-20,0,870,900,-0.0292,3344.1465,6.8213,0.4212,54.895638,9.793202,108.3,5.845,1.85,335.95,54.895916,9.790953,54.895069,9.793790
1386890512,1,0,485.9,0,-22,-24,0,870,850,-0.0292,3344.2183,6.8213,0.4212,54.895630,9.793233,108.3,5.845,1.85,335.95,54.895916,9.790953,54.895069,9.793790
1386890512,1,0,485.9,0,-22,-20,0,870,900,-0.0292,3344.2900,6.8213,0.4212,54.895626,9.793262,108.3,5.845,1.85,335.95,54.895916,9.790953,54.895069,9.793790
1386890513,1,0,485.9,0,-22,-24,0,870,850,-0.0292,3344.3618,6.8213,0.4212,54.895622,9.793293,108.3,5.845,1.85,335.95,54.895916,9.790953,54.895069,9.793790
1386890513,1,0,485.9,0,-21,-20,0,870,900,-0.0292,3337.5874,6.8213,0.4212,54.895618,9.793324,108.3,5.845,1.85,335.95,54.895916,9.790953,54.895069,9.793790
1386890513,1,0,485.9,0,-28,-24,0,870,850,-0.0292,3335.3938,6.8213,0.4212,54.895615,9.793354,108.3,5.845,1.85,335.95,54.895916,9.790953,54.895069,9.793790
1386890513,1,0,485.9,0,-30,-28,0,851,900,-0.0292,3343.3938,6.8213,0.4212,54.895611,9.793385,108.3,5.845,1.85,335.95,54.895916,9.790953,54.895069,9.793790
1386890514,1,0,485.9,0,-22,-24,0,870,850,-0.0292,3343.4656,6.8213,0.4212,54.895603,9.793415,108.3,5.845,1.85,335.95,54.895916,9.790953,54.895069,9.793790
1386890514,1,0,485.9,0,-22,-20,0,870,900,-0.0292,3343.5374,6.8213,0.4212,54.895599,9.793446,108.3,5.845,1.85,335.95,54.895916,9.790953,54.895069,9.793790
1386890514,1,0,485.9,0,-22,-24,0,870,850,-0.0292,3343.6091,6.8213,0.4212,54.895596,9.793476,108.3,5.845,1.85,335.95,54.895916,9.790953,54.895069,9.793790
1386890514,1,0,485.9,0,-22,-20,0,870,900,-0.0292,3343.6809,6.8213,0.4212,54.895592,9.793507,108.3,5.845,1.85,335.95,54.895916,9.790953,54.895069,9.793790
1386890515,1,0,485.9,0,-22,-24,0,870,850,-0.0292,3343.7527,6.8213,0.4212,54.895588,9.793537,108.3,5.845,1.85,335.95,54.895916,9.790953,54.895069,9.793790
1386890515,1,0,485.9,0,-22,-20,0,870,900,-0.0292,3343.8245,6.8213,0.4212,54.895580,9.793567,108.3,5.845,1.85,335.95,54.895916,9.790953,54.895069,9.793790
1386890515,1,0,485.9,0,-22,-24,0,870,850,-0.0292,3343.8962,6.8213,0.4212,54.895576,9.793597,108.3,5.845,1.85,335.95,54.895916,9.790953,54.895069,9.793790
1386890515,1,0,485.9,0,-22,-20,0,870,900,-0.0292,3343.9680,6.8213,0.4212,54.895573,9.793628,108.3,5.845,1.85,335.95,54.895916,9.790953,54.895069,9.793790
1386890516,1,0,485.9,0,-22,-24,0,870,850,-0.0292,3344.0398,6.8213,0.4212,54.895569,9.793657,108.3,5.845,1.85,335.95,54.895916,9.790953,54.895069,9.793790
1386890516,1,0,485.9,0,-22,-20,0,870,900,-0.0292,3344.1116,6.8213,0.4212,54.895565,9.793688,108.3,5.845,1.85,335.95,54.895916,9.790953,54.895069,9.793790
1386890516,1,0,485.9,0,-22,-24,0,870,850,-0.0292,3344.1833,6.8213,0.4212,54.895557,9.793718,108.3,5.845,1.85,335.95,54.895916,9.790953,54.895069,9.793790
1386890516,1,0,485.9,0,-22,-20,0,870,900,-0.0292,3344.2551,6.8213,0.4212,54.895554,9.793749,108.3,5.845,1.85,335.95,54.895916,9.790953,54.895069,9.793790
1386890517,1,0,485.9,0,-22,-24,0,870,850,-0.0292,3344.3269,6.8213,0.4212,54.895550,9.793778,108.3,5.845,1.85,335.95,54.895916,9.790953,54.895069,9.793790
1386890517,1,0,485.9,0,-22,-20,0,870,900,-0.0292,3344.3987,6.8213,0.4212,54.895546,9.793809,108.3,5.845,1.85,335.95,54.895916,9.790953,54.895069,9.793790
1386890517,1,0,485.9,0,-21,-24,0,870,850,-0.0292,3337.6243,6.8213,0.4212,54.895542,9.793839,108.3,5.845,1.85,335.95,54.895916,9.790953,54.895069,9.793790
1386890517,1,0,485.9,0,-28,-28,0,870,900,-0.0292,3335.4307,6.8213,0.4212,54.895538,9.793870,108.3,5.845,1.85,335.95,54.895916,9.790953,54.895069,9.793790
1386890518,1,0,485.9,0,-30,-32,0,851,850,-0.0292,3343.4307,6.8213,0.4212,54.895531,9.793900,108.3,5.845,1.85,335.95,54.895916,9.790953,54.895069,9.793790
1386890518,0,0,485.9,0,-30,-32,0,851,850,-0.0292,3343.4307,6.8213,0.4212,54.895531,9.793900,108.3,5.845,1.85,335.95,54.895916,9.790953,54.895069,9.793790
1386890518,0,0,485.9,0,-30,-32,0,851,850,-0.0292,3343.4307,6.8213,0.4212,54.895531,9.793900,108.3,5.845,1.85,335.95,54.895916,9.790953,54.895069,9.793790
1386890518,0,0,485.9,0,-30,-32,0,851,850,-0.0292,3343.4307,6.8213,0.4212,54.895531,9.793900,108.3,5.845,1.85,335.95,54.895916,9.790953,54.895069,9.793790
1386890519,0,0,485.9,0,-30,-32,0,851,850,-0.0292,3343.4307,6.8213,0.4212,54.895531,9.793900,108.3,5.845,1.85,335.95,54.895916,9.790953,54.895069,9.793790
1386890519,0,0,485.9,0,-30,-32,0,851,850,-0.0292,3343.4307,6.8213,0.4212,54.895531,9.793900,108.3,5.845,1.85,335.95,54.895916,9.790953,54.895069,9.793790
1386890519,0,0,485.9,0,-30,-32,0,851,850,-0.0292,3343.4307,6.8213,0.4212,54.895531,9.793900,108.3,5.845,1.85,335.95,54.895916,9.790953,54.895069,9.793790
