MCU_timestamp,Navigation_System,Manual_Control,Guidance_Heading,Manual_Ctrl_Rudder,Rudder_Desired_Angle,Rudder_Feedback,Manual_Ctrl_Sail,Sail_Desired_Pos,Sail_Feedback,Rate,Heading,Pitch,Roll,Latitude,Longitude,COG,SOG,Wind_Speed,Wind_Angle,Point_Start_Lat,Point_Start_Lon,Point_End_Lat,Point_End_Lon
1390199874,0,0,0.0,0,0,12,0,0,0,-0.0292,1518.6255,6.8213,0.4212,54.882069,9.822637,108.3,5.845,1.85,0.00,0.000000,0.000000,0.000000,0.000000
1390199874,0,0,0.0,0,0,12,0,0,0,-0.0292,1518.6255,6.8213,0.4212,54.882069,9.822637,108.3,5.845,1.85,0.00,0.000000,0.000000,0.000000,0.000000
1390199874,0,0,0.0,0,0,12,0,0,0,-0.0292,1518.6255,6.8213,0.4212,54.882069,9.822637,108.3,5.845,1.85,0.00,0.000000,0.000000,0.000000,0.000000
1390199875,0,0,0.0,0,0,12,0,0,0,-0.0292,1518.6255,6.8213,0.4212,54.882069,9.822637,108.3,5.845,1.85,0.00,0.000000,0.000000,0.000000,0.000000
1390199875,0,0,0.0,0,0,12,0,0,0,-0.0292,1518.6255,6.8213,0.4212,54.882069,9.822637,108.3,5.845,1.85,0.00,0.000000,0.000000,0.000000,0.000000
1390199875,0,0,0.0,0,0,12,0,0,0,-0.0292,1518.6255,6.8213,0.4212,54.882069,9.822637,108.3,5.845,1.85,0.00,0.000000,0.000000,0.000000,0.000000
1390199875,0,0,0.0,0,0,12,0,0,0,-0.0292,1518.6255,6.8213,0.4212,54.882069,9.822637,108.3,5.845,1.85,0.00,0.000000,0.000000,0.000000,0.000000
1390199876,0,0,0.0,0,0,12,0,0,0,-0.0292,1518.6255,6.8213,0.4212,54.882069,9.822637,108.3,5.845,1.85,0.00,0.000000,0.000000,0.000000,0.000000
1390199876,0,0,0.0,0,0,12,0,0,0,-0.0292,1518.6255,6.8213,0.4212,54.882069,9.822637,108.3,5.845,1.85,0.00,0.000000,0.000000,0.000000,0.000000
1390199876,0,0,0.0,0,0,12,0,0,0,-0.0292,1518.6255,6.8213,0.4212,54.882069,9.822637,108.3,5.845,1.85,0.00,0.000000,0.000000,0.000000,0.000000
1390199876,0,0,0.0,0,0,12,0,0,0,-0.0292,1518.6255,6.8213,0.4212,54.882069,9.822637,108.3,5.845,1.85,0.00,0.000000,0.000000,0.000000,0.000000
1390199877,0,0,0.0,0,0,12,0,0,0,-0.0292,1518.6255,6.8213,0.4212,54.882069,9.822637,108.3,5.845,1.85,0.00,0.000000,0.000000,0.000000,0.000000
1390199877,0,0,0.0,0,0,12,0,0,0,-0.0292,1518.6255,6.8213,0.4212,54.882069,9.822637,108.3,5.845,1.85,0.00,0.000000,0.000000,0.000000,0.000000
1390199877,0,0,0.0,0,0,12,0,0,0,-0.0292,1518.6255,6.8213,0.4212,54.882069,9.822637,108.3,5.845,1.85,0.00,0.000000,0.000000,0.000000,0.000000
1390199877,0,0,0.0,0,0,12,0,0,0,-0.0292,1518.6255,6.8213,0.4212,54.882069,9.822637,108.3,5.845,1.85,0.00,0.000000,0.000000,0.000000,0.000000
1390199878,0,0,0.0,0,0,12,0,0,0,-0.0292,1518.6255,6.8213,0.4212,54.882069,9.822637,108.3,5.845,1.85,0.00,0.000000,0.000000,0.000000,0.000000
1390199878,0,0,0.0,0,0,12,0,0,0,-0.0292,1518.6255,6.8213,0.4212,54.882069,9.822637,108.3,5.845,1.85,0.00,0.000000,0.000000,0.000000,0.000000
1390199878,0,0,0.0,0,0,12,0,0,0,-0.0292,1518.6255,6.8213,0.4212,54.882069,9.822637,108.3,5.845,1.85,0.00,0.000000,0.000000,0.000000,0.000000
1390199878,0,0,0.0,0,0,12,0,0,0,-0.0292,1518.6255,6.8213,0.4212,54.882069,9.822637,108.3,5.845,1.85,0.00,0.000000,0.000000,0.000000,0.000000
1390199879,0,0,0.0,0,0,12,0,0,0,-0.0292,1518.6255,6.8213,0.4212,54.882069,9.822637,108.3,5.845,1.85,0.00,0.000000,0.000000,0.000000,0.000000
1390199879,0,0,0.0,0,0,12,0,0,0,-0.0292,1518.6255,6.8213,0.4212,54.882069,9.822637,108.3,5.845,1.85,0.00,0.000000,0.000000,0.000000,0.000000
1390199879,0,0,0.0,0,0,12,0,0,0,-0.0292,1518.6255,6.8213,0.4212,54.882069,9.822637,108.3,5.845,1.85,0.00,0.000000,0.000000,0.000000,0.000000
1390199879,0,0,0.0,0,0,12,0,0,0,-0.0292,1518.6255,6.8213,0.4212,54.882069,9.822637,108.3,5.845,1.85,0.00,0.000000,0.000000,0.000000,0.000000
1390199880,0,0,0.0,0,0,12,0,0,0,-0.0292,1518.6255,6.8213,0.4212,54.882069,9.822637,108.3,5.845,1.85,0.00,0.000000,0.000000,0.000000,0.000000
1390199880,0,0,0.0,0,0,12,0,0,0,-0.0292,1518.6255,6.8213,0.4212,54.882069,9.822637,108.3,5.845,1.85,0.00,0.000000,0.000000,0.000000,0.000000
1390199880,0,0,0.0,0,0,12,0,0,0,-0.0292,1518.6255,6.8213,0.4212,54.882069,9.822637,108.3,5.845,1.85,0.00,0.000000,0.000000,0.000000,0.000000
1390199880,0,0,0.0,0,0,12,0,0,0,-0.0292,1518.6255,6.8213,0.4212,54.882069,9.822637,108.3,5.845,1.85,0.00,0.000000,0.000000,0.000000,0.000000
1390199881,0,0,0.0,0,0,12,0,0,0,-0.0292,1518.6255,6.8213,0.4212,54.882069,9.822637,108.3,5.845,1.85,0.00,0.000000,0.000000,0.000000,0.000000
1390199881,0,0,0.0,0,0,12,0,0,0,-0.0292,1518.6255,6.8213,0.4212,54.882069,9.822637,108.3,5.845,1.85,0.00,0.000000,0.000000,0.000000,0.000000
1390199881,0,0,0.0,0,0,12,0,0,0,-0.0292,1518.6255,6.8213,0.4212,54.882069,9.822637,108.3,5.845,1.85,0.00,0.000000,0.000000,0.000000,0.000000
1390199881,0,0,0.0,0,0,12,0,0,0,-0.0292,1518.6255,6.8213,0.4212,54.882069,9.822637,108.3,5.845,1.85,0.00,0.000000,0.000000,0.000000,0.000000
1390199882,0,0,0.0,0,0,12,0,0,0,-0.0292,1518.6255,6.8213,0.4212,54.882069,9.822637,108.3,5.845,1.85,0.00,0.000000,0.000000,0.000000,0.000000
1390199882,0,0,0.0,0,0,12,0,0,0,-0.0292,1518.6255,6.8213,0.4212,54.882069,9.822637,108.3,5.845,1.85,0.00,0.000000,0.000000,0.000000,0.000000
1390199882,0,0,0.0,0,0,12,0,0,0,-0.0292,1518.6255,6.8213,0.4212,54.882069,9.822637,108.3,5.845,1.85,0.00,0.000000,0.000000,0.000000,0.000000
1390199882,0,0,0.0,0,0,12,0,0,0,-0.0292,1518.6255,6.8213,0.4212,54.882069,9.822637,108.3,5.845,1.85,0.00,0.000000,0.000000,0.000000,0.000000
1390199883,0,0,0.0,0,0,12,0,0,0,-0.0292,1518.6255,6.8213,0.4212,54.882069,9.822637,108.3,5.845,1.85,0.00,0.000000,0.000000,0.000000,0.000000
1390199883,0,0,0.0,0,0,12,0,0,0,-0.0292,1518.6255,6.8213,0.4212,54.882069,9.822637,108.3,5.845,1.85,0.00,0.000000,0.000000,0.000000,0.000000
1390199883,0,0,0.0,0,0,12,0,0,0,-0.0292,1518.6255,6.8213,0.4212,54.882069,9.822637,108.3,5.845,1.85,0.00,0.000000,0.000000,0.000000,0.000000
1390199883,0,0,0.0,0,0,12,0,0,0,-0.0292,1518.6255,6.8213,0.4212,54.882069,9.822637,108.3,5.845,1.85,0.00,0.000000,0.000000,0.000000,0.000000
1390199884,0,0,0.0,0,0,12,0,0,0,-0.0292,1518.6255,6.8213,0.4212,54.882069,9.822637,108.3,5.845,1.85,0.00,0.000000,0.000000,0.000000,0.000000
1390199884,0,0,0.0,0,0,12,0,0,0,-0.0292,1518.6255,6.8213,0.4212,54.882069,9.822637,108.3,5.845,1.85,0.00,0.000000,0.000000,0.000000,0.000000
1390199884,0,0,0.0,0,0,12,0,0,0,-0.0292,1518.6255,6.8213,0.4212,54.882069,9.822637,108.3,5.845,1.85,0.00,0.000000,0.000000,0.000000,0.000000
1390199884,0,0,0.0,0,0,12,0,0,0,-0.0292,1518.6255,6.8213,0.4212,54.882069,9.822637,108.3,5.845,1.85,0.00,0.000000,0.000000,0.000000,0.000000
1390199885,0,0,0.0,0,0,12,0,0,0,-0.0292,1518.6255,6.8213,0.4212,54.882069,9.822637,108.3,5.845,1.85,0.00,0.000000,0.000000,0.000000,0.000000
1390199885,0,0,0.0,0,0,12,0,0,0,-0.0292,1518.6255,6.8213,0.4212,54.882069,9.822637,108.3,5.845,1.85,0.00,0.000000,0.000000,0.000000,0.000000
1390199885,0,0,0.0,0,0,12,0,0,0,-0.0292,1518.6255,6.8213,0.4212,54.882069,9.822637,108.3,5.845,1.85,0.00,0.000000,0.000000,0.000000,0.000000
1390199885,0,0,0.0,0,0,12,0,0,0,-0.0292,1518.6255,6.8213,0.4212,54.882069,9.822637,108.3,5.845,1.85,0.00,0.000000,0.000000,0.000000,0.000000
1390199886,0,0,0.0,0,0,12,0,0,0,-0.0292,1518.6255,6.8213,0.4212,54.882069,9.822637,108.3,5.845,1.85,0.00,0.000000,0.000000,0.000000,0.000000
1390199886,0,0,0.0,0,0,12,0,0,0,-0.0292,1518.6255,6.8213,0.4212,54.882069,9.822637,108.3,5.845,1.85,0.00,0.000000,0.000000,0.000000,0.000000
1390199886,0,0,0.0,0,0,12,0,0,0,-0.0292,1518.6255,6.8213,0.4212,54.882069,9.822637,108.3,5.845,1.85,0.00,0.000000,0.000000,0.000000,0.000000
1390199886,0,0,0.0,0,0,12,0,0,0,-0.0292,1518.6255,6.8213,0.4212,54.882069,9.822637,108.3,5.845,1.85,0.00,0.000000,0.000000,0.000000,0.000000
1390199887,0,0,0.0,0,0,12,0,0,0,-0.0292,1518.6255,6.8213,0.4212,54.882069,9.822637,108.3,5.845,1.85,0.00,0.000000,0.000000,0.000000,0.000000
1390199887,0,0,0.0,0,0,12,0,0,0,-0.0292,1518.6255,6.8213,0.4212,54.882069,9.822637,108.3,5.845,1.85,0.00,0.000000,0.000000,0.000000,0.000000
1390199887,0,0,0.0,0,0,12,0,0,0,-0.0292,1518.6255,6.8213,0.4212,54.882069,9.822637,108.3,5.845,1.85,0.00,0.000000,0.000000,0.000000,0.000000
1390199887,0,0,0.0,0,0,12,0,0,0,-0.0292,1518.6255,6.8213,0.4212,54.882069,9.822637,108.3,5.845,1.85,0.00,0.000000,0.000000,0.000000,0.000000
1390199888,0,0,0.0,0,0,12,0,0,0,-0.0292,1518.6255,6.8213,0.4212,54.882069,9.822637,108.3,5.845,1.85,0.00,0.000000,0.000000,0.000000,0.000000
1390199888,0,0,0.0,0,0,12,0,0,0,-0.0292,1518.6255,6.8213,0.4212,54.882069,9.822637,108.3,5.845,1.85,0.00,0.000000,0.000000,0.000000,0.000000
1390199888,0,0,0.0,0,0,12,0,0,0,-0.0292,1518.6255,6.8213,0.4212,54.885773,9.810383,108.3,5.845,1.85,0.00,0.000000,0.000000,0.000000,0.000000
1390199888,0,0,0.0,0,0,12,0,0,0,-0.0292,1518.6255,6.8213,0.4212,54.885773,9.810383,108.3,5.845,1.85,0.00,0.000000,0.000000,0.000000,0.000000
1390199889,0,0,0.0,0,0,12,0,0,0,-0.0292,1518.6255,6.8213,0.4212,54.885773,9.810383,108.3,5.845,1.85,0.00,0.000000,0.000000,0.000000,0.000000
1390199889,0,0,0.0,0,0,12,0,0,0,-0.0292,1518.6255,6.8213,0.4212,54.885773,9.810383,108.3,5.845,1.85,0.00,0.000000,0.000000,0.000000,0.000000
1390199889,0,0,0.0,0,0,12,0,0,0,-0.0292,1518.6255,6.8213,0.4212,54.885773,9.810383,108.3,5.845,1.85,0.00,0.000000,0.000000,0.000000,0.000000
1390199889,0,0,0.0,0,0,12,0,0,0,-0.0292,1518.6255,6.8213,0.4212,54.885773,9.810383,108.3,5.845,1.85,0.00,0.000000,0.000000,0.000000,0.000000
1390199890,0,0,0.0,0,0,12,0,0,0,-0.0292,1518.6255,6.8213,0.4212,54.885773,9.810383,108.3,5.845,1.85,0.00,0.000000,0.000000,0.000000,0.000000
1390199890,0,0,0.0,0,0,12,0,0,0,-0.0292,1518.6255,6.8213,0.4212,54.885773,9.810383,108.3,5.845,1.85,0.00,0.000000,0.000000,0.000000,0.000000
1390199890,0,0,0.0,0,0,12,0,0,0,-0.0292,1518.6255,6.8213,0.4212,54.885773,9.810383,108.3,5.845,1.85,0.00,0.000000,0.000000,0.000000,0.000000
1390199890,0,0,0.0,0,0,12,0,0,0,-0.0292,1518.6255,6.8213,0.4212,54.885773,9.810383,108.3,5.845,1.85,0.00,0.000000,0.000000,0.000000,0.000000
1390199891,0,0,0.0,0,0,12,0,0,0,-0.0292,1518.6255,6.8213,0.4212,54.885773,9.810383,108.3,5.845,1.85,0.00,0.000000,0.000000,0.000000,0.000000
1390199891,0,0,0.0,0,0,12,0,0,0,-0.0292,1518.6255,6.8213,0.4212,54.885773,9.810383,108.3,5.845,1.85,0.00,0.000000,0.000000,0.000000,0.000000
1390199891,0,0,0.0,0,0,12,0,0,0,-0.0292,1518.6255,6.8213,0.4212,54.885773,9.810383,108.3,5.845,1.85,0.00,0.000000,0.000000,0.000000,0.000000
1390199891,0,0,0.0,0,0,12,0,0,0,-0.0292,1518.6255,6.8213,0.4212,54.885773,9.810383,108.3,5.845,1.85,0.00,0.000000,0.000000,0.000000,0.000000
1390199892,0,0,0.0,0,0,12,0,0,0,-0.0292,1518.6255,6.8213,0.4212,54.885773,9.810383,108.3,5.845,1.85,0.00,0.000000,0.000000,0.000000,0.000000
1390199892,0,0,0.0,0,0,12,0,0,0,-0.0292,1518.6255,6.8213,0.4212,54.885773,9.810383,108.3,5.845,1.85,0.00,0.000000,0.000000,0.000000,0.000000
1390199892,0,0,0.0,0,0,12,0,0,0,-0.0292,1518.6255,6.8213,0.4212,54.885773,9.810383,108.3,5.845,1.85,0.00,0.000000,0.000000,0.000000,0.000000
1390199892,0,0,0.0,0,0,12,0,0,0,-0.0292,1518.6255,6.8213,0.4212,54.885773,9.810383,108.3,5.845,1.85,0.00,0.000000,0.000000,0.000000,0.000000
1390199893,0,0,0.0,0,0,12,0,0,0,-0.0292,1518.6255,6.8213,0.4212,54.885773,9.810383,108.3,5.845,1.85,0.00,0.000000,0.000000,0.000000,0.000000
1390199893,0,0,0.0,0,0,12,0,0,0,-0.0292,1518.6255,6.8213,0.4212,54.885773,9.810383,108.3,5.845,1.85,0.00,0.000000,0.000000,0.000000,0.000000
1390199893,0,0,0.0,0,0,12,0,0,0,-0.0292,1518.6255,6.8213,0.4212,54.885773,9.810383,108.3,5.845,1.85,0.00,0.000000,0.000000,0.000000,0.000000
1390199893,0,0,0.0,0,0,12,0,0,0,-0.0292,1518.6255,6.8213,0.4212,54.885773,9.810383,108.3,5.845,1.85,0.00,0.000000,0.000000,0.000000,0.000000
1390199894,0,0,0.0,0,0,12,0,0,0,-0.0292,1518.6255,6.8213,0.4212,54.885773,9.810383,108.3,5.845,1.85,0.00,0.000000,0.000000,0.000000,0.000000
1390199894,0,0,0.0,0,0,12,0,0,0,-0.0292,1518.6255,6.8213,0.4212,54.885773,9.810383,108.3,5.845,1.85,0.00,0.000000,0.000000,0.000000,0.000000
1390199894,0,0,0.0,0,0,12,0,0,0,-0.0292,1518.6255,6.8213,0.4212,54.885773,9.810383,108.3,5.845,1.85,0.00,0.000000,0.000000,0.000000,0.000000
1390199894,0,0,0.0,0,0,12,0,0,0,-0.0292,1518.6255,6.8213,0.4212,54.885773,9.810383,108.3,5.845,1.85,0.00,0.000000,0.000000,0.000000,0.000000
1390199895,0,0,0.0,0,0,12,0,0,0,-0.0292,1518.6255,6.8213,0.4212,54.885773,9.810383,108.3,5.845,1.85,0.00,0.000000,0.000000,0.000000,0.000000
1390199895,0,0,0.0,0,0,12,0,0,0,-0.0292,1518.6255,6.8213,0.4212,54.885773,9.810383,108.3,5.845,1.85,0.00,0.000000,0.000000,0.000000,0.000000
1390199895,0,0,0.0,0,0,12,0,0,0,-0.0292,1518.6255,6.8213,0.4212,54.885773,9.810383,108.3,5.845,1.85,0.00,0.000000,0.000000,0.000000,0.000000
1390199895,0,0,0.0,0,0,12,0,0,0,-0.0292,1518.6255,6.8213,0.4212,54.885773,9.810383,108.3,5.845,1.85,0.00,0.000000,0.000000,0.000000,0.000000
1390199896,0,0,0.0,0,0,12,0,0,0,-0.0292,1518.6255,6.8213,0.4212,54.885773,9.810383,108.3,5.845,1.85,0.00,0.000000,0.000000,0.000000,0.000000
1390199896,0,0,0.0,0,0,12,0,0,0,-0.0292,1518.6255,6.8213,0.4212,54.885773,9.810383,108.3,5.845,1.85,0.00,0.000000,0.000000,0.000000,0.000000
1390199896,0,0,0.0,0,0,12,0,0,0,-0.0292,1518.6255,6.8213,0.4212,54.885773,9.810383,108.3,5.845,1.85,0.00,0.000000,0.000000,0.000000,0.000000
1390199896,0,0,0.0,0,0,12,0,0,0,-0.0292,1518.6255,6.8213,0.4212,54.885773,9.810383,108.3,5.845,1.85,0.00,0.000000,0.000000,0.000000,0.000000
1390199897,0,0,0.0,0,0,12,0,0,0,-0.0292,1518.6255,6.8213,0.4212,54.885773,9.810383,108.3,5.845,1.85,0.00,0.000000,0.000000,0.000000,0.000000
1390199897,0,0,0.0,0,0,12,0,0,0,-0.0292,1518.6255,6.8213,0.4212,54.885773,9.810383,108.3,5.845,1.85,0.00,0.000000,0.000000,0.000000,0.000000
1390199897,0,0,0.0,0,0,12,0,0,0,-0.0292,1518.6255,6.8213,0.4212,54.885773,9.810383,108.3,5.845,1.85,0.00,0.000000,0.000000,0.000000,0.000000
1390199897,0,0,0.0,0,0,12,0,0,0,-0.0292,1518.6255,6.8213,0.4212,54.885773,9.810383,108.3,5.845,1.85,0.00,0.000000,0.000000,0.000000,0.000000
1390199898,0,0,0.0,0,0,12,0,0,0,-0.0292,1518.6255,6.8213,0.4212,54.885773,9.810383,108.3,5.845,1.85,0.00,0.000000,0.000000,0.000000,0.000000
1390199898,0,0,0.0,0,0,12,0,0,0,-0.0292,1518.6255,6.8213,0.4212,54.885773,9.810383,108.3,5.845,1.85,0.00,0.000000,0.000000,0.000000,0.000000
1390199898,0,0,0.0,0,0,12,0,0,0,-0.0292,1518.6255,6.8213,0.4212,54.885773,9.810383,108.3,5.845,1.85,0.00,0.000000,0.000000,0.000000,0.000000
1390199898,0,0,0.0,0,0,12,0,0,0,-0.0292,1518.6255,6.8213,0.4212,54.885773,9.810383,108.3,5.845,1.85,0.00,0.000000,0.000000,0.000000,0.000000
1390199899,0,0,0.0,0,0,12,0,0,0,-0.0292,1518.6255,6.8213,0.4212,54.885773,9.810383,108.3,5.845,1.85,0.00,0.000000,0.000000,0.000000,0.000000
1390199899,0,0,0.0,0,0,12,0,0,0,-0.0292,1518.6255,6.8213,0.4212,54.885773,9.810383,108.3,5.845,1.85,0.00,0.000000,0.000000,0.000000,0.000000
1390199899,0,0,0.0,0,0,12,0,0,0,-0.0292,1518.6255,6.8213,0.4212,54.884514,9.813473,108.3,5.845,1.85,0.00,0.000000,0.000000,0.000000,0.000000
1390199899,0,0,0.0,0,0,12,0,0,0,-0.0292,1518.6255,6.8213,0.4212,54.884514,9.813473,108.3,5.845,1.85,0.00,0.000000,0.000000,0.000000,0.000000
1390199900,0,0,0.0,0,0,12,0,0,0,-0.0292,1518.6255,6.8213,0.4212,54.884514,9.813473,108.3,5.845,1.85,0.00,0.000000,0.000000,0.000000,0.000000
1390199900,0,0,0.0,0,0,12,0,0,0,-0.0292,1518.6255,6.8213,0.4212,54.884514,9.813473,108.3,5.845,1.85,0.00,0.000000,0.000000,0.000000,0.000000
1390199900,0,0,0.0,0,0,12,0,0,0,-0.0292,1518.6255,6.8213,0.4212,54.884514,9.813473,108.3,5.845,1.85,0.00,0.000000,0.000000,0.000000,0.000000
1390199900,0,0,0.0,0,0,12,0,0,0,-0.0292,1518.6255,6.8213,0.4212,54.884514,9.813473,108.3,5.845,1.85,0.00,0.000000,0.000000,0.000000,0.000000
1390199901,0,0,0.0,0,0,12,0,0,0,-0.0292,1518.6255,6.8213,0.4212,54.884514,9.813473,108.3,5.845,1.85,0.00,0.000000,0.000000,0.000000,0.000000
1390199901,4,0,0.0,0,0,12,0,0,0,-0.0292,1518.6255,6.8213,0.4212,54.884514,9.813473,108.3,5.845,1.85,0.00,0.000000,0.000000,0.000000,0.000000
1390199901,1,0,150.0,0,-35,8,0,222,72,-0.0292,1530.2921,6.8213,0.4212,54.884514,9.813503,108.3,5.845,1.85,0.00,54.884514,9.813473,54.895069,9.793790
1390199901,1,0,150.0,0,-35,4,0,404,84,-0.0292,1541.9587,6.8213,0.4212,54.884510,9.813534,108.3,5.845,1.85,0.00,54.884514,9.813473,54.895069,9.793790
1390199902,1,0,150.0,0,-35,0,0,589,96,-0.0292,1553.6254,6.8213,0.4212,54.884502,9.813562,108.3,5.845,1.85,0.00,54.884514,9.813473,54.895069,9.793790
1390199902,1,0,150.0,0,-35,-4,0,767,108,-0.0292,1565.2920,6.8213,0.4212,54.884491,9.813587,108.3,5.845,1.85,0.00,54.884514,9.813473,54.895069,9.793790
1390199902,1,0,150.0,0,-25,-8,0,870,120,-0.0292,1573.6254,6.8213,0.4212,54.884480,9.813610,108.3,5.845,1.85,0.00,54.884514,9.813473,54.895069,9.793790
1390199902,1,0,150.0,0,-16,-12,0,870,132,-0.0292,1578.9587,6.8213,0.4212,54.884464,9.813630,108.3,5.845,1.85,0.00,54.884514,9.813473,54.895069,9.793790
1390199903,1,0,150.0,0,-11,-8,0,713,144,-0.0292,1582.6254,6.8213,0.4212,54.884453,9.813649,108.3,5.845,1.85,0.00,54.884514,9.813473,54.895069,9.793790
1390199903,1,0,150.0,0,-7,-4,0,713,156,-0.0292,1584.9587,6.8213,0.4212,54.884438,9.813667,108.3,5.845,1.85,0.00,54.884514,9.813473,54.895069,9.793790
1390199903,1,0,150.0,0,-5,-8,0,713,168,-0.0292,1586.6254,6.8213,0.4212,54.884422,9.813684,108.3,5.845,1.85,0.00,54.884514,9.813473,54.895069,9.793790
1390199903,1,0,150.0,0,-3,-4,0,713,180,-0.0292,1587.6254,6.8213,0.4212,54.884407,9.813701,108.3,5.845,1.85,0.00,54.884514,9.813473,54.895069,9.793790
1390199904,1,0,150.0,0,-2,0,0,0,168,-0.0292,1588.2920,6.8213,0.4212,54.884392,9.813717,108.3,5.845,1.85,0.00,54.884514,9.813473,54.895069,9.793790
1390199904,1,0,150.0,0,-2,-4,0,0,156,-0.0292,1588.9586,6.8213,0.4212,54.884377,9.813733,108.3,5.845,1.85,0.00,54.884514,9.813473,54.895069,9.793790
1390199904,1,0,150.0,0,-1,0,0,0,144,-0.0292,1589.2920,6.8213,0.4212,54.884361,9.813748,108.3,5.845,1.85,0.00,54.884514,9.813473,54.895069,9.793790
1390199904,1,0,150.0,0,-1,-4,0,0,132,-0.0292,1589.6254,6.8213,0.4212,54.884346,9.813765,108.3,5.845,1.85,0.00,54.884514,9.813473,54.895069,9.793790
1390199905,1,0,150.0,0,0,0,0,0,120,-0.0292,1589.6254,6.8213,0.4212,54.884327,9.813781,108.3,5.845,1.85,0.00,54.884514,9.813473,54.895069,9.793790
1390199905,1,0,150.0,0,0,4,0,0,108,-0.0292,1589.6254,6.8213,0.4212,54.884312,9.813796,108.3,5.845,1.85,0.00,54.884514,9.813473,54.895069,9.793790
1390199905,1,0,150.0,0,0,0,0,0,96,-0.0292,1589.6254,6.8213,0.4212,54.884296,9.813812,108.3,5.845,1.85,0.00,54.884514,9.813473,54.895069,9.793790
1390199905,1,0,150.0,0,0,4,0,0,84,-0.0292,1589.6254,6.8213,0.4212,54.884281,9.813828,108.3,5.845,1.85,0.00,54.884514,9.813473,54.895069,9.793790
1390199906,1,0,150.0,0,0,0,0,0,72,-0.0292,1589.6254,6.8213,0.4212,54.884266,9.813844,108.3,5.845,1.85,0.00,54.884514,9.813473,54.895069,9.793790
1390199906,1,0,150.0,0,0,4,0,0,60,-0.0292,1589.6254,6.8213,0.4212,54.884251,9.813860,108.3,5.845,1.85,0.00,54.884514,9.813473,54.895069,9.793790
1390199906,1,0,150.0,0,0,0,0,0,48,-0.0292,1589.6254,6.8213,0.4212,54.884232,9.813875,108.3,5.845,1.85,0.00,54.884514,9.813473,54.895069,9.793790
1390199906,1,0,150.0,0,0,4,0,0,36,-0.0292,1589.6254,6.8213,0.4212,54.884216,9.813891,108.3,5.845,1.85,0.00,54.884514,9.813473,54.895069,9.793790
1390199907,1,0,150.0,0,0,0,0,0,24,-0.0292,1589.6254,6.8213,0.4212,54.884201,9.813908,108.3,5.845,1.85,0.00,54.884514,9.813473,54.895069,9.793790
1390199907,1,0,150.0,0,0,4,0,0,12,-0.0292,1589.6254,6.8213,0.4212,54.884182,9.813923,108.3,5.845,1.85,0.00,54.884514,9.813473,54.895069,9.793790
1390199907,1,0,150.0,0,0,0,0,0,0,-0.0292,1589.6254,6.8213,0.4212,54.884167,9.813939,108.3,5.845,1.85,0.00,54.884514,9.813473,54.895069,9.793790
1390199907,1,0,150.0,0,0,4,0,0,0,-0.0292,1589.6254,6.8213,0.4212,54.884151,9.813954,108.3,5.845,1.85,0.00,54.884514,9.813473,54.895069,9.793790
1390199908,1,0,210.0,0,-35,0,0,0,0,-0.0292,1601.2920,6.8213,0.4212,54.884132,9.813964,108.3,5.845,1.85,0.00,54.884514,9.813473,54.895069,9.793790
1390199908,1,0,210.0,0,-35,-4,0,0,0,-0.0292,1612.9586,6.8213,0.4212,54.884113,9.813968,108.3,5.845,1.85,0.00,54.884514,9.813473,54.895069,9.793790
1390199908,1,0,210.0,0,-35,-8,0,0,0,-0.0292,1624.6252,6.8213,0.4212,54.884094,9.813966,108.3,5.845,1.85,0.00,54.884514,9.813473,54.895069,9.793790
1390199908,1,0,210.0,0,-25,-12,0,0,0,-0.0292,1632.9586,6.8213,0.4212,54.884079,9.813959,108.3,5.845,1.85,0.00,54.884514,9.813473,54.895069,9.793790
1390199909,1,0,210.0,0,-17,-16,0,0,0,-0.0292,1638.6252,6.8213,0.4212,54.884060,9.813950,108.3,5.845,1.85,0.00,54.884514,9.813473,54.895069,9.793790
1390199909,1,0,210.0,0,-11,-12,0,0,0,-0.0292,1642.2919,6.8213,0.4212,54.884041,9.813937,108.3,5.845,1.85,0.00,54.884514,9.813473,54.895069,9.793790
1390199909,1,0,210.0,0,-8,-8,0,0,0,-0.0292,1644.9585,6.8213,0.4212,54.884026,9.813924,108.3,5.845,1.85,0.00,54.884514,9.813473,54.895069,9.793790
1390199909,1,0,210.0,0,-5,-4,0,0,0,-0.0292,1646.6251,6.8213,0.4212,54.884010,9.813910,108.3,5.845,1.85,0.00,54.884514,9.813473,54.895069,9.793790
1390199910,1,0,210.0,0,-3,0,0,0,0,-0.0292,1647.6251,6.8213,0.4212,54.883995,9.813896,108.3,5.845,1.85,0.00,54.884514,9.813473,54.895069,9.793790
1390199910,1,0,210.0,0,-2,-4,0,713,12,-0.0292,1648.2917,6.8213,0.4212,54.883980,9.813881,108.3,5.845,1.85,0.00,54.884514,9.813473,54.895069,9.793790
1390199910,1,0,210.0,0,-2,0,0,713,24,-0.0292,1648.9584,6.8213,0.4212,54.883961,9.813866,108.3,5.845,1.85,0.00,54.884514,9.813473,54.895069,9.793790
1390199910,1,0,210.0,0,-1,-4,0,713,36,-0.0292,1649.2917,6.8213,0.4212,54.883945,9.813850,108.3,5.845,1.85,0.00,54.884514,9.813473,54.895069,9.793790
1390199911,1,0,210.0,0,-1,0,0,713,48,-0.0292,1649.6251,6.8213,0.4212,54.883930,9.813834,108.3,5.845,1.85,0.00,54.884514,9.813473,54.895069,9.793790
1390199911,1,0,210.0,0,0,4,0,713,60,-0.0292,1649.6251,6.8213,0.4212,54.883911,9.813819,108.3,5.845,1.85,0.00,54.884514,9.813473,54.895069,9.793790
1390199911,1,0,210.0,0,0,0,0,713,72,-0.0292,1649.6251,6.8213,0.4212,54.883896,9.813804,108.3,5.845,1.85,0.00,54.884514,9.813473,54.895069,9.793790
1390199911,1,0,210.0,0,0,4,0,713,84,-0.0292,1649.6251,6.8213,0.4212,54.883881,9.813788,108.3,5.845,1.85,0.00,54.884514,9.813473,54.895069,9.793790
1390199912,1,0,210.0,0,0,0,0,713,96,-0.0292,1649.6251,6.8213,0.4212,54.883862,9.813773,108.3,5.845,1.85,0.00,54.884514,9.813473,54.895069,9.793790
1390199912,1,0,210.0,0,0,4,0,713,108,-0.0292,1649.6251,6.8213,0.4212,54.883846,9.813758,108.3,5.845,1.85,0.00,54.884514,9.813473,54.895069,9.793790
1390199912,1,0,210.0,0,0,0,0,713,120,-0.0292,1649.6251,6.8213,0.4212,54.883831,9.813743,108.3,5.845,1.85,0.00,54.884514,9.813473,54.895069,9.793790
1390199912,1,0,210.0,0,0,4,0,713,132,-0.0292,1649.6251,6.8213,0.4212,54.883812,9.813727,108.3,5.845,1.85,0.00,54.884514,9.813473,54.895069,9.793790
1390199913,1,0,210.0,0,0,0,0,713,144,-0.0292,1649.6251,6.8213,0.4212,54.883797,9.813711,108.3,5.845,1.85,0.00,54.884514,9.813473,54.895069,9.793790
1390199913,1,0,210.0,0,0,4,0,713,156,-0.0292,1649.6251,6.8213,0.4212,54.883781,9.813696,108.3,5.845,1.85,0.00,54.884514,9.813473,54.895069,9.793790
1390199913,1,0,210.0,0,0,0,0,713,168,-0.0292,1649.6251,6.8213,0.4212,54.883762,9.813681,108.3,5.845,1.85,0.00,54.884514,9.813473,54.895069,9.793790
1390199913,1,0,210.0,0,0,4,0,713,180,-0.0292,1649.6251,6.8213,0.4212,54.883747,9.813664,108.3,5.845,1.85,0.00,54.884514,9.813473,54.895069,9.793790
1390199914,1,0,210.0,0,0,0,0,713,192,-0.0292,1649.6251,6.8213,0.4212,54.883732,9.813649,108.3,5.845,1.85,0.00,54.884514,9.813473,54.895069,9.793790
1390199914,1,0,210.0,0,0,4,0,713,204,-0.0292,1649.6251,6.8213,0.4212,54.883713,9.813634,108.3,5.845,1.85,0.00,54.884514,9.813473,54.895069,9.793790
1390199914,1,0,210.0,0,0,0,0,713,216,-0.0292,1649.6251,6.8213,0.4212,54.883698,9.813619,108.3,5.845,1.85,0.00,54.884514,9.813473,54.895069,9.793790
1390199915,1,0,210.0,0,0,4,0,713,228,-0.0292,1649.6251,6.8213,0.4212,54.883682,9.813603,108.3,5.845,1.85,0.00,54.884514,9.813473,54.895069,9.793790
1390199915,1,0,210.0,0,0,0,0,713,240,-0.0292,1649.6251,6.8213,0.4212,54.883663,9.813588,108.3,5.845,1.85,0.00,54.884514,9.813473,54.895069,9.793790
1390199915,1,0,210.0,0,0,4,0,713,252,-0.0292,1649.6251,6.8213,0.4212,54.883648,9.813573,108.3,5.845,1.85,0.00,54.884514,9.813473,54.895069,9.793790
1390199915,1,0,210.0,0,0,0,0,713,264,-0.0292,1649.6251,6.8213,0.4212,54.883633,9.813558,108.3,5.845,1.85,0.00,54.884514,9.813473,54.895069,9.793790
1390199916,1,0,210.0,0,0,4,0,713,276,-0.0292,1649.6251,6.8213,0.4212,54.883614,9.813541,108.3,5.845,1.85,0.00,54.884514,9.813473,54.895069,9.793790
1390199916,1,0,210.0,0,0,0,0,713,288,-0.0292,1649.6251,6.8213,0.4212,54.883598,9.813526,108.3,5.845,1.85,0.00,54.884514,9.813473,54.895069,9.793790
1390199916,1,0,210.0,0,0,4,0,713,300,-0.0292,1649.6251,6.8213,0.4212,54.883583,9.813511,108.3,5.845,1.85,0.00,54.884514,9.813473,54.895069,9.793790
1390199916,1,0,210.0,0,0,0,0,713,312,-0.0292,1649.6251,6.8213,0.4212,54.883568,9.813495,108.3,5.845,1.85,0.00,54.884514,9.813473,54.895069,9.793790
1390199917,1,0,-55.0,0,-35,-4,0,713,324,-0.0292,1661.2917,6.8213,0.4212,54.883553,9.813475,108.3,5.845,1.85,0.00,54.884514,9.813473,54.895069,9.793790
1390199917,1,0,55.0,0,35,0,0,713,336,-0.0292,1649.6251,6.8213,0.4212,54.883537,9.813459,108.3,5.845,1.85,0.00,54.884514,9.813473,54.895069,9.793790
1390199917,1,0,55.0,0,35,4,0,713,348,-0.0292,1637.9585,6.8213,0.4212,54.883518,9.813450,108.3,5.845,1.85,0.00,54.884514,9.813473,54.895069,9.793790
1390199917,1,0,55.0,0,35,8,0,713,360,-0.0292,1626.2919,6.8213,0.4212,54.883499,9.813447,108.3,5.845,1.85,0.00,54.884514,9.813473,54.895069,9.793790
1390199918,1,0,55.0,0,35,12,0,0,348,-0.0292,1614.6252,6.8213,0.4212,54.883480,9.813450,108.3,5.845,1.85,0.00,54.884514,9.813473,54.895069,9.793790
1390199918,1,0,55.0,0,35,16,0,0,336,-0.0292,1602.9586,6.8213,0.4212,54.883465,9.813459,108.3,5.845,1.85,0.00,54.884514,9.813473,54.895069,9.793790
1390199918,1,0,55.0,0,35,20,0,713,348,-0.0292,1591.2920,6.8213,0.4212,54.883446,9.813475,108.3,5.845,1.85,0.00,54.884514,9.813473,54.895069,9.793790
1390199918,1,0,55.0,0,35,24,0,713,360,-0.0292,1579.6254,6.8213,0.4212,54.883430,9.813495,108.3,5.845,1.85,0.00,54.884514,9.813473,54.895069,9.793790
1390199919,1,0,55.0,0,35,28,0,713,372,-0.0292,1567.9587,6.8213,0.4212,54.883419,9.813519,108.3,5.845,1.85,0.00,54.884514,9.813473,54.895069,9.793790
1390199919,1,0,55.0,0,35,32,0,870,384,-0.0292,1556.2921,6.8213,0.4212,54.883411,9.813547,108.3,5.845,1.85,0.00,54.884514,9.813473,54.895069,9.793790
1390199919,1,0,55.0,0,35,36,0,806,396,-0.0292,1544.6255,6.8213,0.4212,54.883404,9.813578,108.3,5.845,1.85,0.00,54.884514,9.813473,54.895069,9.793790
1390199919,1,0,55.0,0,35,32,0,631,408,-0.0292,1532.9589,6.8213,0.4212,54.883404,9.813609,108.3,5.845,1.85,0.00,54.884514,9.813473,54.895069,9.793790
1390199920,1,0,55.0,0,35,36,0,446,420,-0.0292,1521.2922,6.8213,0.4212,54.883408,9.813640,108.3,5.845,1.85,0.00,54.884514,9.813473,54.895069,9.793790
1390199920,1,0,55.0,0,26,32,0,262,408,-0.0292,1512.6256,6.8213,0.4212,54.883415,9.813669,108.3,5.845,1.85,0.00,54.884514,9.813473,54.895069,9.793790
1390199920,1,0,55.0,0,18,28,0,137,396,-0.0292,1506.6256,6.8213,0.4212,54.883419,9.813698,108.3,5.845,1.85,0.00,54.884514,9.813473,54.895069,9.793790
1390199920,1,0,55.0,0,12,24,0,66,384,-0.0292,1502.6256,6.8213,0.4212,54.883427,9.813725,108.3,5.845,1.85,0.00,54.884514,9.813473,54.895069,9.793790
1390199921,1,0,55.0,0,8,20,0,30,372,-0.0292,1499.9590,6.8213,0.4212,54.883438,9.813752,108.3,5.845,1.85,0.00,54.884514,9.813473,54.895069,9.793790
1390199921,1,0,55.0,0,5,16,0,13,360,-0.0292,1498.2924,6.8213,0.4212,54.883446,9.813779,108.3,5.845,1.85,0.00,54.884514,9.813473,54.895069,9.793790
1390199921,1,0,55.0,0,3,12,0,6,348,-0.0292,1497.2924,6.8213,0.4212,54.883453,9.813805,108.3,5.845,1.85,0.00,54.884514,9.813473,54.895069,9.793790
1390199921,1,0,55.0,0,2,8,0,3,336,-0.0292,1496.6257,6.8213,0.4212,54.883465,9.813831,108.3,5.845,1.85,0.00,54.884514,9.813473,54.895069,9.793790
1390199922,1,0,55.0,0,2,4,0,1,324,-0.0292,1495.9591,6.8213,0.4212,54.883472,9.813857,108.3,5.845,1.85,0.00,54.884514,9.813473,54.895069,9.793790
1390199922,1,0,55.0,0,1,0,0,0,312,-0.0292,1495.6257,6.8213,0.4212,54.883484,9.813883,108.3,5.845,1.85,0.00,54.884514,9.813473,54.895069,9.793790
1390199922,1,0,55.0,0,1,4,0,0,300,-0.0292,1495.2924,6.8213,0.4212,54.883495,9.813909,108.3,5.845,1.85,0.00,54.884514,9.813473,54.895069,9.793790
1390199922,1,0,55.0,0,0,0,0,0,288,-0.0292,1495.2924,6.8213,0.4212,54.883507,9.813934,108.3,5.845,1.85,0.00,54.884514,9.813473,54.895069,9.793790
1390199923,1,0,55.0,0,0,4,0,0,276,-0.0292,1495.2924,6.8213,0.4212,54.883518,9.813960,108.3,5.845,1.85,0.00,54.884514,9.813473,54.895069,9.793790
1390199923,1,0,55.0,0,0,0,0,0,264,-0.0292,1495.2924,6.8213,0.4212,54.883530,9.813986,108.3,5.845,1.85,0.00,54.884514,9.813473,54.895069,9.793790
1390199923,1,0,55.0,0,0,4,0,0,252,-0.0292,1495.2924,6.8213,0.4212,54.883541,9.814012,108.3,5.845,1.85,0.00,54.884514,9.813473,54.895069,9.793790
1390199923,1,0,55.0,0,0,0,0,0,240,-0.0292,1495.2924,6.8213,0.4212,54.883549,9.814037,108.3,5.845,1.85,0.00,54.884514,9.813473,54.895069,9.793790
1390199924,1,0,55.0,0,0,4,0,0,228,-0.0292,1495.2924,6.8213,0.4212,54.883560,9.814063,108.3,5.845,1.85,0.00,54.884514,9.813473,54.895069,9.793790
1390199924,1,0,55.0,0,0,0,0,0,216,-0.0292,1495.2924,6.8213,0.4212,54.883568,9.814089,108.3,5.845,1.85,0.00,54.884514,9.813473,54.895069,9.793790
1390199924,1,0,55.0,0,0,4,0,0,204,-0.0292,1495.2924,6.8213,0.4212,54.883579,9.814115,108.3,5.845,1.85,0.00,54.884514,9.813473,54.895069,9.793790
1390199924,1,0,55.0,0,0,0,0,0,192,-0.0292,1495.2924,6.8213,0.4212,54.883591,9.814140,108.3,5.845,1.85,0.00,54.884514,9.813473,54.895069,9.793790
1390199925,1,0,55.0,0,0,4,0,0,180,-0.0292,1495.2924,6.8213,0.4212,54.883598,9.814166,108.3,5.845,1.85,0.00,54.884514,9.813473,54.895069,9.793790
1390199925,1,0,55.0,0,0,0,0,0,168,-0.0292,1495.2924,6.8213,0.4212,54.883610,9.814192,108.3,5.845,1.85,0.00,54.884514,9.813473,54.895069,9.793790
1390199925,1,0,55.0,0,0,4,0,0,156,-0.0292,1495.2924,6.8213,0.4212,54.883617,9.814218,108.3,5.845,1.85,0.00,54.884514,9.813473,54.895069,9.793790
1390199925,1,0,55.0,0,0,0,0,0,144,-0.0292,1495.2924,6.8213,0.4212,54.883629,9.814243,108.3,5.845,1.85,0.00,54.884514,9.813473,54.895069,9.793790
1390199926,1,0,55.0,0,0,4,0,0,132,-0.0292,1495.2924,6.8213,0.4212,54.883640,9.814269,108.3,5.845,1.85,0.00,54.884514,9.813473,54.895069,9.793790
1390199926,1,0,55.0,0,0,0,0,0,120,-0.0292,1495.2924,6.8213,0.4212,54.883648,9.814295,108.3,5.845,1.85,0.00,54.884514,9.813473,54.895069,9.793790
1390199926,1,0,55.0,0,0,4,0,0,108,-0.0292,1495.2924,6.8213,0.4212,54.883659,9.814321,108.3,5.845,1.85,0.00,54.884514,9.813473,54.895069,9.793790
1390199926,1,0,55.0,0,0,0,0,0,96,-0.0292,1495.2924,6.8213,0.4212,54.883667,9.814346,108.3,5.845,1.85,0.00,54.884514,9.813473,54.895069,9.793790
1390199927,1,0,55.0,0,0,4,0,0,84,-0.0292,1495.2924,6.8213,0.4212,54.883678,9.814372,108.3,5.845,1.85,0.00,54.884514,9.813473,54.895069,9.793790
1390199927,1,0,55.0,0,0,0,0,0,72,-0.0292,1495.2924,6.8213,0.4212,54.883690,9.814398,108.3,5.845,1.85,0.00,54.884514,9.813473,54.895069,9.793790
1390199927,1,0,55.0,0,0,4,0,0,60,-0.0292,1495.2924,6.8213,0.4212,54.883698,9.814424,108.3,5.845,1.85,0.00,54.884514,9.813473,54.895069,9.793790
1390199927,1,0,55.0,0,0,0,0,0,48,-0.0292,1495.2924,6.8213,0.4212,54.883709,9.814449,108.3,5.845,1.85,0.00,54.884514,9.813473,54.895069,9.793790
1390199928,1,0,55.0,0,0,4,0,0,36,-0.0292,1495.2924,6.8213,0.4212,54.883717,9.814475,108.3,5.845,1.85,0.00,54.884514,9.813473,54.895069,9.793790
1390199928,1,0,55.0,0,0,0,0,0,24,-0.0292,1495.2924,6.8213,0.4212,54.883728,9.814501,108.3,5.845,1.85,0.00,54.884514,9.813473,54.895069,9.793790
1390199928,1,0,55.0,0,0,4,0,0,12,-0.0292,1495.2924,6.8213,0.4212,54.883739,9.814527,108.3,5.845,1.85,0.00,54.884514,9.813473,54.895069,9.793790
1390199928,1,0,55.0,0,0,0,0,0,0,-0.0292,1495.2924,6.8213,0.4212,54.883751,9.814552,108.3,5.845,1.85,0.00,54.884514,9.813473,54.895069,9.793790
1390199929,1,0,55.0,0,0,4,0,0,0,-0.0292,1495.2924,6.8213,0.4212,54.883762,9.814578,108.3,5.845,1.85,0.00,54.884514,9.813473,54.895069,9.793790
1390199929,1,0,55.0,0,0,0,0,0,0,-0.0292,1495.2924,6.8213,0.4212,54.883770,9.814604,108.3,5.845,1.85,0.00,54.884514,9.813473,54.895069,9.793790
1390199929,1,0,55.0,0,0,4,0,0,0,-0.0292,1495.2924,6.8213,0.4212,54.883781,9.814630,108.3,5.845,1.85,0.00,54.884514,9.813473,54.895069,9.793790
1390199929,1,0,55.0,0,0,0,0,0,0,-0.0292,1495.2924,6.8213,0.4212,54.883789,9.814655,108.3,5.845,1.85,0.00,54.884514,9.813473,54.895069,9.793790
1390199930,1,0,55.0,0,0,4,0,0,0,-0.0292,1495.2924,6.8213,0.4212,54.883801,9.814681,108.3,5.845,1.85,0.00,54.884514,9.813473,54.895069,9.793790
1390199930,1,0,55.0,0,0,0,0,0,0,-0.0292,1495.2924,6.8213,0.4212,54.883812,9.814707,108.3,5.845,1.85,0.00,54.884514,9.813473,54.895069,9.793790
1390199930,1,0,55.0,0,0,4,0,0,0,-0.0292,1495.2924,6.8213,0.4212,54.883820,9.814733,108.3,5.845,1.85,0.00,54.884514,9.813473,54.895069,9.793790
1390199930,1,0,55.0,0,0,0,0,0,0,-0.0292,1495.2924,6.8213,0.4212,54.883831,9.814758,108.3,5.845,1.85,0.00,54.884514,9.813473,54.895069,9.793790
1390199931,1,0,55.0,0,0,4,0,0,0,-0.0292,1495.2924,6.8213,0.4212,54.883839,9.814784,108.3,5.845,1.85,0.00,54.884514,9.813473,54.895069,9.793790
1390199931,1,0,55.0,0,0,0,0,0,0,-0.0292,1495.2924,6.8213,0.4212,54.883850,9.814810,108.3,5.845,1.85,0.00,54.884514,9.813473,54.895069,9.793790
1390199931,1,0,55.0,0,0,4,0,0,0,-0.0292,1495.2924,6.8213,0.4212,54.883862,9.814836,108.3,5.845,1.85,0.00,54.884514,9.813473,54.895069,9.793790
1390199931,1,0,55.0,0,0,0,0,0,0,-0.0292,1495.2924,6.8213,0.4212,54.883869,9.814861,108.3,5.845,1.85,0.00,54.884514,9.813473,54.895069,9.793790
1390199932,1,0,55.0,0,0,4,0,0,0,-0.0292,1495.2924,6.8213,0.4212,54.883881,9.814887,108.3,5.845,1.85,0.00,54.884514,9.813473,54.895069,9.793790
1390199932,1,0,55.0,0,0,0,0,0,0,-0.0292,1495.2924,6.8213,0.4212,54.883888,9.814913,108.3,5.845,1.85,0.00,54.884514,9.813473,54.895069,9.793790
1390199932,1,0,55.0,0,0,4,0,0,0,-0.0292,1495.2924,6.8213,0.4212,54.883900,9.814939,108.3,5.845,1.85,0.00,54.884514,9.813473,54.895069,9.793790
1390199932,1,0,55.0,0,0,0,0,0,0,-0.0292,1495.2924,6.8213,0.4212,54.883911,9.814964,108.3,5.845,1.85,0.00,54.884514,9.813473,54.895069,9.793790
1390199933,1,0,55.0,0,0,4,0,0,0,-0.0292,1495.2924,6.8213,0.4212,54.883919,9.814990,108.3,5.845,1.85,0.00,54.884514,9.813473,54.895069,9.793790
1390199933,1,0,55.0,0,0,0,0,0,0,-0.0292,1495.2924,6.8213,0.4212,54.883930,9.815016,108.3,5.845,1.85,0.00,54.884514,9.813473,54.895069,9.793790
1390199933,1,0,55.0,0,0,4,0,0,0,-0.0292,1495.2924,6.8213,0.4212,54.883938,9.815042,108.3,5.845,1.85,0.00,54.884514,9.813473,54.895069,9.793790
1390199933,1,0,55.0,0,0,0,0,0,0,-0.0292,1495.2924,6.8213,0.4212,54.883949,9.815067,108.3,5.845,1.85,0.00,54.884514,9.813473,54.895069,9.793790
1390199934,1,0,55.0,0,0,4,0,0,0,-0.0292,1495.2924,6.8213,0.4212,54.883961,9.815093,108.3,5.845,1.85,0.00,54.884514,9.813473,54.895069,9.793790
1390199934,1,0,55.0,0,0,0,0,0,0,-0.0292,1495.2924,6.8213,0.4212,54.883972,9.815119,108.3,5.845,1.85,0.00,54.884514,9.813473,54.895069,9.793790
1390199934,1,0,55.0,0,0,4,0,0,0,-0.0292,1495.2924,6.8213,0.4212,54.883984,9.815145,108.3,5.845,1.85,0.00,54.884514,9.813473,54.895069,9.793790
1390199934,1,0,55.0,0,0,0,0,0,0,-0.0292,1495.2924,6.8213,0.4212,54.883991,9.815170,108.3,5.845,1.85,0.00,54.884514,9.813473,54.895069,9.793790
1390199935,1,0,55.0,0,0,4,0,0,0,-0.0292,1495.2924,6.8213,0.4212,54.884003,9.815196,108.3,5.845,1.85,0.00,54.884514,9.813473,54.895069,9.793790
1390199935,1,0,55.0,0,0,0,0,0,0,-0.0292,1495.2924,6.8213,0.4212,54.884010,9.815222,108.3,5.845,1.85,0.00,54.884514,9.813473,54.895069,9.793790
1390199935,1,0,55.0,0,0,4,0,0,0,-0.0292,1495.2924,6.8213,0.4212,54.884022,9.815248,108.3,5.845,1.85,0.00,54.884514,9.813473,54.895069,9.793790
1390199935,1,0,55.0,0,0,0,0,0,0,-0.0292,1495.2924,6.8213,0.4212,54.884033,9.815273,108.3,5.845,1.85,0.00,54.884514,9.813473,54.895069,9.793790
1390199936,1,0,55.0,0,0,4,0,0,0,-0.0292,1495.2924,6.8213,0.4212,54.884041,9.815299,108.3,5.845,1.85,0.00,54.884514,9.813473,54.895069,9.793790
1390199936,1,0,55.0,0,0,0,0,0,0,-0.0292,1495.2924,6.8213,0.4212,54.884052,9.815325,108.3,5.845,1.85,0.00,54.884514,9.813473,54.895069,9.793790
1390199936,1,0,55.0,0,0,4,0,0,0,-0.0292,1495.2924,6.8213,0.4212,54.884060,9.815351,108.3,5.845,1.85,0.00,54.884514,9.813473,54.895069,9.793790
1390199936,1,0,55.0,0,0,0,0,0,0,-0.0292,1495.2924,6.8213,0.4212,54.884071,9.815376,108.3,5.845,1.85,0.00,54.884514,9.813473,54.895069,9.793790
1390199937,1,0,55.0,0,0,4,0,0,0,-0.0292,1495.2924,6.8213,0.4212,54.884083,9.815402,108.3,5.845,1.85,0.00,54.884514,9.813473,54.895069,9.793790
1390199937,1,0,55.0,0,0,0,0,0,0,-0.0292,1495.2924,6.8213,0.4212,54.884090,9.815428,108.3,5.845,1.85,0.00,54.884514,9.813473,54.895069,9.793790
1390199937,1,0,-55.0,0,35,4,0,0,0,-0.0292,1483.6257,6.8213,0.4212,54.884106,9.815450,108.3,5.845,1.85,0.00,54.884514,9.813473,54.895069,9.793790
1390199937,1,0,-55.0,0,35,8,0,0,0,-0.0292,1471.9591,6.8213,0.4212,54.884121,9.815466,108.3,5.845,1.85,0.00,54.884514,9.813473,54.895069,9.793790
1390199938,1,0,-55.0,0,35,12,0,0,0,-0.0292,1460.2925,6.8213,0.4212,54.884140,9.815477,108.3,5.845,1.85,0.00,54.884514,9.813473,54.895069,9.793790
1390199938,1,0,-55.0,0,35,16,0,0,0,-0.0292,1448.6259,6.8213,0.4212,54.884159,9.815482,108.3,5.845,1.85,0.00,54.884514,9.813473,54.895069,9.793790
1390199938,1,0,-55.0,0,35,20,0,0,0,-0.0292,1436.9592,6.8213,0.4212,54.884178,9.815480,108.3,5.845,1.85,0.00,54.884514,9.813473,54.895069,9.793790
1390199938,1,0,-55.0,0,35,24,0,0,0,-0.0292,1425.2926,6.8213,0.4212,54.884193,9.815472,108.3,5.845,1.85,0.00,54.884514,9.813473,54.895069,9.793790
1390199939,1,0,-55.0,0,35,28,0,0,0,-0.0292,1413.6260,6.8213,0.4212,54.884212,9.815458,108.3,5.845,1.85,0.00,54.884514,9.813473,54.895069,9.793790
1390199939,1,0,-55.0,0,29,32,0,0,0,-0.0292,1403.9594,6.8213,0.4212,54.884228,9.815440,108.3,5.845,1.85,0.00,54.884514,9.813473,54.895069,9.793790
1390199939,1,0,-55.0,0,19,28,0,0,0,-0.0292,1397.6260,6.8213,0.4212,54.884239,9.815419,108.3,5.845,1.85,0.00,54.884514,9.813473,54.895069,9.793790
1390199939,1,0,-55.0,0,13,24,0,0,0,-0.0292,1393.2926,6.8213,0.4212,54.884251,9.815396,108.3,5.845,1.85,0.00,54.884514,9.813473,54.895069,9.793790
1390199940,1,0,-55.0,0,8,20,0,0,0,-0.0292,1390.6260,6.8213,0.4212,54.884262,9.815372,108.3,5.845,1.85,0.00,54.884514,9.813473,54.895069,9.793790
1390199940,1,0,-55.0,0,6,16,0,0,0,-0.0292,1388.6260,6.8213,0.4212,54.884274,9.815348,108.3,5.845,1.85,0.00,54.884514,9.813473,54.895069,9.793790
1390199940,1,0,-55.0,0,4,12,0,0,0,-0.0292,1387.2926,6.8213,0.4212,54.884281,9.815323,108.3,5.845,1.85,0.00,54.884514,9.813473,54.895069,9.793790
1390199940,1,0,-55.0,0,2,8,0,0,0,-0.0292,1386.6260,6.8213,0.4212,54.884293,9.815298,108.3,5.845,1.85,0.00,54.884514,9.813473,54.895069,9.793790
1390199941,1,0,-55.0,0,2,4,0,0,0,-0.0292,1385.9594,6.8213,0.4212,54.884304,9.815273,108.3,5.845,1.85,0.00,54.884514,9.813473,54.895069,9.793790
1390199941,1,0,-55.0,0,1,0,0,0,0,-0.0292,1385.6260,6.8213,0.4212,54.884315,9.815248,108.3,5.845,1.85,0.00,54.884514,9.813473,54.895069,9.793790
1390199941,1,0,-55.0,0,1,4,0,0,0,-0.0292,1385.2926,6.8213,0.4212,54.884327,9.815222,108.3,5.845,1.85,0.00,54.884514,9.813473,54.895069,9.793790
1390199942,1,0,-55.0,0,0,0,0,0,0,-0.0292,1385.2926,6.8213,0.4212,54.884335,9.815197,108.3,5.845,1.85,0.00,54.884514,9.813473,54.895069,9.793790
1390199942,1,0,-55.0,0,0,4,0,0,0,-0.0292,1385.2926,6.8213,0.4212,54.884346,9.815171,108.3,5.845,1.85,0.00,54.884514,9.813473,54.895069,9.793790
1390199942,1,0,-55.0,0,0,0,0,0,0,-0.0292,1385.2926,6.8213,0.4212,54.884354,9.815146,108.3,5.845,1.85,0.00,54.884514,9.813473,54.895069,9.793790
1390199942,1,0,-55.0,0,0,4,0,0,0,-0.0292,1385.2926,6.8213,0.4212,54.884365,9.815121,108.3,5.845,1.85,0.00,54.884514,9.813473,54.895069,9.793790
1390199943,1,0,-55.0,0,0,0,0,0,0,-0.0292,1385.2926,6.8213,0.4212,54.884377,9.815095,108.3,5.845,1.85,0.00,54.884514,9.813473,54.895069,9.793790
1390199943,1,0,-55.0,0,0,4,0,0,0,-0.0292,1385.2926,6.8213,0.4212,54.884384,9.815069,108.3,5.845,1.85,0.00,54.884514,9.813473,54.895069,9.793790
1390199943,1,0,-55.0,0,0,0,0,0,0,-0.0292,1385.2926,6.8213,0.4212,54.884396,9.815043,108.3,5.845,1.85,0.00,54.884514,9.813473,54.895069,9.793790
1390199943,1,0,-55.0,0,0,4,0,0,0,-0.0292,1385.2926,6.8213,0.4212,54.884403,9.815019,108.3,5.845,1.85,0.00,54.884514,9.813473,54.895069,9.793790
1390199944,1,0,-55.0,0,0,0,0,0,0,-0.0292,1385.2926,6.8213,0.4212,54.884415,9.814993,108.3,5.845,1.85,0.00,54.884514,9.813473,54.895069,9.793790
1390199944,1,0,-55.0,0,0,4,0,0,0,-0.0292,1385.2926,6.8213,0.4212,54.884426,9.814967,108.3,5.845,1.85,0.00,54.884514,9.813473,54.895069,9.793790
1390199944,1,0,-55.0,0,0,0,0,0,0,-0.0292,1385.2926,6.8213,0.4212,54.884434,9.814941,108.3,5.845,1.85,0.00,54.884514,9.813473,54.895069,9.793790
1390199944,1,0,-55.0,0,0,4,0,0,0,-0.0292,1385.2926,6.8213,0.4212,54.884445,9.814916,108.3,5.845,1.85,0.00,54.884514,9.813473,54.895069,9.793790
1390199945,1,0,-55.0,0,0,0,0,0,0,-0.0292,1385.2926,6.8213,0.4212,54.884453,9.814891,108.3,5.845,1.85,0.00,54.884514,9.813473,54.895069,9.793790
1390199945,1,0,-55.0,0,0,4,0,0,0,-0.0292,1385.2926,6.8213,0.4212,54.884464,9.814865,108.3,5.845,1.85,0.00,54.884514,9.813473,54.895069,9.793790
1390199945,1,0,-55.0,0,0,0,0,0,0,-0.0292,1385.2926,6.8213,0.4212,54.884476,9.814839,108.3,5.845,1.85,0.00,54.884514,9.813473,54.895069,9.793790
1390199945,1,0,-55.0,0,0,4,0,0,0,-0.0292,1385.2926,6.8213,0.4212,54.884483,9.814814,108.3,5.845,1.85,0.00,54.884514,9.813473,54.895069,9.793790
1390199946,1,0,-55.0,0,0,0,0,0,0,-0.0292,1385.2926,6.8213,0.4212,54.884495,9.814788,108.3,5.845,1.85,0.00,54.884514,9.813473,54.895069,9.793790
1390199946,1,0,-55.0,0,0,4,0,0,0,-0.0292,1385.2926,6.8213,0.4212,54.884502,9.814763,108.3,5.845,1.85,0.00,54.884514,9.813473,54.895069,9.793790
1390199946,1,0,-55.0,0,0,0,0,0,0,-0.0292,1385.2926,6.8213,0.4212,54.884514,9.814737,108.3,5.845,1.85,0.00,54.884514,9.813473,54.895069,9.793790
1390199946,1,0,-55.0,0,0,4,0,0,0,-0.0292,1385.2926,6.8213,0.4212,54.884525,9.814712,108.3,5.845,1.85,0.00,54.884514,9.813473,54.895069,9.793790
1390199947,1,0,-55.0,0,0,0,0,0,0,-0.0292,1385.2926,6.8213,0.4212,54.884533,9.814686,108.3,5.845,1.85,0.00,54.884514,9.813473,54.895069,9.793790
1390199947,1,0,-55.0,0,0,4,0,0,0,-0.0292,1385.2926,6.8213,0.4212,54.884544,9.814660,108.3,5.845,1.85,0.00,54.884514,9.813473,54.895069,9.793790
1390199947,1,0,-55.0,0,0,0,0,0,0,-0.0292,1385.2926,6.8213,0.4212,54.884552,9.814635,108.3,5.845,1.85,0.00,54.884514,9.813473,54.895069,9.793790
1390199947,1,0,-55.0,0,0,4,0,0,0,-0.0292,1385.2926,6.8213,0.4212,54.884563,9.814610,108.3,5.845,1.85,0.00,54.884514,9.813473,54.895069,9.793790
1390199948,1,0,-55.0,0,0,0,0,0,0,-0.0292,1385.2926,6.8213,0.4212,54.884575,9.814585,108.3,5.845,1.85,0.00,54.884514,9.813473,54.895069,9.793790
1390199948,1,0,-55.0,0,0,4,0,0,0,-0.0292,1385.2926,6.8213,0.4212,54.884586,9.814559,108.3,5.845,1.85,0.00,54.884514,9.813473,54.895069,9.793790
1390199948,1,0,-55.0,0,0,0,0,0,0,-0.0292,1385.2926,6.8213,0.4212,54.884598,9.814533,108.3,5.845,1.85,0.00,54.884514,9.813473,54.895069,9.793790
1390199948,1,0,-55.0,0,0,4,0,0,0,-0.0292,1385.2926,6.8213,0.4212,54.884605,9.814508,108.3,5.845,1.85,0.00,54.884514,9.813473,54.895069,9.793790
1390199949,1,0,-55.0,0,0,0,0,0,0,-0.0292,1385.2926,6.8213,0.4212,54.884617,9.814483,108.3,5.845,1.85,0.00,54.884514,9.813473,54.895069,9.793790
1390199949,1,0,-55.0,0,0,4,0,0,0,-0.0292,1385.2926,6.8213,0.4212,54.884624,9.814458,108.3,5.845,1.85,0.00,54.884514,9.813473,54.895069,9.793790
1390199949,1,0,-55.0,0,0,0,0,0,0,-0.0292,1385.2926,6.8213,0.4212,54.884636,9.814432,108.3,5.845,1.85,0.00,54.884514,9.813473,54.895069,9.793790
1390199949,1,0,-55.0,0,0,4,0,0,0,-0.0292,1385.2926,6.8213,0.4212,54.884647,9.814406,108.3,5.845,1.85,0.00,54.884514,9.813473,54.895069,9.793790
1390199950,1,0,-55.0,0,0,0,0,0,0,-0.0292,1385.2926,6.8213,0.4212,54.884655,9.814382,108.3,5.845,1.85,0.00,54.884514,9.813473,54.895069,9.793790
1390199950,1,0,-55.0,0,0,4,0,0,0,-0.0292,1385.2926,6.8213,0.4212,54.884666,9.814356,108.3,5.845,1.85,0.00,54.884514,9.813473,54.895069,9.793790
1390199950,1,0,-55.0,0,0,0,0,0,0,-0.0292,1385.2926,6.8213,0.4212,54.884674,9.814331,108.3,5.845,1.85,0.00,54.884514,9.813473,54.895069,9.793790
1390199950,1,0,-55.0,0,0,4,0,0,0,-0.0292,1385.2926,6.8213,0.4212,54.884686,9.814305,108.3,5.845,1.85,0.00,54.884514,9.813473,54.895069,9.793790
1390199951,1,0,-55.0,0,0,0,0,0,0,-0.0292,1385.2926,6.8213,0.4212,54.884697,9.814280,108.3,5.845,1.85,0.00,54.884514,9.813473,54.895069,9.793790
1390199951,1,0,-55.0,0,0,4,0,0,0,-0.0292,1385.2926,6.8213,0.4212,54.884705,9.814254,108.3,5.845,1.85,0.00,54.884514,9.813473,54.895069,9.793790
1390199951,1,0,-55.0,0,0,0,0,0,0,-0.0292,1385.2926,6.8213,0.4212,54.884716,9.814228,108.3,5.845,1.85,0.00,54.884514,9.813473,54.895069,9.793790
1390199951,1,0,-55.0,0,0,4,0,0,0,-0.0292,1385.2926,6.8213,0.4212,54.884724,9.814203,108.3,5.845,1.85,0.00,54.884514,9.813473,54.895069,9.793790
1390199952,1,0,-55.0,0,0,0,0,0,0,-0.0292,1385.2926,6.8213,0.4212,54.884735,9.814178,108.3,5.845,1.85,0.00,54.884514,9.813473,54.895069,9.793790
1390199952,1,0,-55.0,0,0,4,0,0,0,-0.0292,1385.2926,6.8213,0.4212,54.884747,9.814152,108.3,5.845,1.85,0.00,54.884514,9.813473,54.895069,9.793790
1390199952,1,0,-55.0,0,0,0,0,0,0,-0.0292,1385.2926,6.8213,0.4212,54.884754,9.814126,108.3,5.845,1.85,0.00,54.884514,9.813473,54.895069,9.793790
1390199952,1,0,-55.0,0,0,4,0,0,0,-0.0292,1385.2926,6.8213,0.4212,54.884766,9.814100,108.3,5.845,1.85,0.00,54.884514,9.813473,54.895069,9.793790
1390199953,1,0,-55.0,0,0,0,0,0,0,-0.0292,1385.2926,6.8213,0.4212,54.884773,9.814075,108.3,5.845,1.85,0.00,54.884514,9.813473,54.895069,9.793790
1390199953,1,0,-55.0,0,0,4,0,0,0,-0.0292,1385.2926,6.8213,0.4212,54.884785,9.814050,108.3,5.845,1.85,0.00,54.884514,9.813473,54.895069,9.793790
1390199953,1,0,-55.0,0,0,0,0,0,0,-0.0292,1385.2926,6.8213,0.4212,54.884796,9.814024,108.3,5.845,1.85,0.00,54.884514,9.813473,54.895069,9.793790
1390199953,1,0,-55.0,0,0,4,0,0,0,-0.0292,1385.2926,6.8213,0.4212,54.884808,9.813998,108.3,5.845,1.85,0.00,54.884514,9.813473,54.895069,9.793790
1390199954,1,0,-55.0,0,0,0,0,0,0,-0.0292,1385.2926,6.8213,0.4212,54.884819,9.813972,108.3,5.845,1.85,0.00,54.884514,9.813473,54.895069,9.793790
1390199954,1,0,-55.0,0,0,4,0,0,0,-0.0292,1385.2926,6.8213,0.4212,54.884827,9.813948,108.3,5.845,1.85,0.00,54.884514,9.813473,54.895069,9.793790
1390199954,1,0,-55.0,0,0,0,0,0,0,-0.0292,1385.2926,6.8213,0.4212,54.884838,9.813922,108.3,5.845,1.85,0.00,54.884514,9.813473,54.895069,9.793790
1390199954,1,0,-55.0,0,0,4,0,0,0,-0.0292,1385.2926,6.8213,0.4212,54.884846,9.813896,108.3,5.845,1.85,0.00,54.884514,9.813473,54.895069,9.793790
1390199955,1,0,-55.0,0,0,0,0,0,0,-0.0292,1385.2926,6.8213,0.4212,54.884857,9.813870,108.3,5.845,1.85,0.00,54.884514,9.813473,54.895069,9.793790
1390199955,1,0,-55.0,0,0,4,0,0,0,-0.0292,1385.2926,6.8213,0.4212,54.884869,9.813845,108.3,5.845,1.85,0.00,54.884514,9.813473,54.895069,9.793790
1390199955,1,0,-55.0,0,0,0,0,0,0,-0.0292,1385.2926,6.8213,0.4212,54.884876,9.813820,108.3,5.845,1.85,0.00,54.884514,9.813473,54.895069,9.793790
1390199955,1,0,-55.0,0,0,4,0,0,0,-0.0292,1385.2926,6.8213,0.4212,54.884888,9.813794,108.3,5.845,1.85,0.00,54.884514,9.813473,54.895069,9.793790
1390199956,1,0,-55.0,0,0,0,0,0,0,-0.0292,1385.2926,6.8213,0.4212,54.884895,9.813768,108.3,5.845,1.85,0.00,54.884514,9.813473,54.895069,9.793790
1390199956,1,0,-55.0,0,0,4,0,0,0,-0.0292,1385.2926,6.8213,0.4212,54.884907,9.813743,108.3,5.845,1.85,0.00,54.884514,9.813473,54.895069,9.793790
1390199956,1,0,-55.0,0,0,0,0,0,0,-0.0292,1385.2926,6.8213,0.4212,54.884918,9.813717,108.3,5.845,1.85,0.00,54.884514,9.813473,54.895069,9.793790
1390199956,1,0,-55.0,0,0,4,0,0,0,-0.0292,1385.2926,6.8213,0.4212,54.884926,9.813692,108.3,5.845,1.85,0.00,54.884514,9.813473,54.895069,9.793790
1390199957,1,0,-55.0,0,0,0,0,0,0,-0.0292,1385.2926,6.8213,0.4212,54.884937,9.813666,108.3,5.845,1.85,0.00,54.884514,9.813473,54.895069,9.793790
1390199957,1,0,-55.0,0,0,4,0,0,0,-0.0292,1385.2926,6.8213,0.4212,54.884945,9.813642,108.3,5.845,1.85,0.00,54.884514,9.813473,54.895069,9.793790
1390199957,1,0,-55.0,0,0,0,0,0,0,-0.0292,1385.2926,6.8213,0.4212,54.884956,9.813616,108.3,5.845,1.85,0.00,54.884514,9.813473,54.895069,9.793790
1390199957,1,0,-55.0,0,0,4,0,0,0,-0.0292,1385.2926,6.8213,0.4212,54.884968,9.813590,108.3,5.845,1.85,0.00,54.884514,9.813473,54.895069,9.793790
1390199958,1,0,-55.0,0,0,0,0,0,0,-0.0292,1385.2926,6.8213,0.4212,54.884975,9.813565,108.3,5.845,1.85,0.00,54.884514,9.813473,54.895069,9.793790
1390199958,1,0,-55.0,0,0,4,0,0,0,-0.0292,1385.2926,6.8213,0.4212,54.884987,9.813540,108.3,5.845,1.85,0.00,54.884514,9.813473,54.895069,9.793790
1390199958,1,0,-55.0,0,0,0,0,0,0,-0.0292,1385.2926,6.8213,0.4212,54.884995,9.813515,108.3,5.845,1.85,0.00,54.884514,9.813473,54.895069,9.793790
1390199958,1,0,-55.0,0,0,4,0,0,0,-0.0292,1385.2926,6.8213,0.4212,54.885006,9.813489,108.3,5.845,1.85,0.00,54.884514,9.813473,54.895069,9.793790
1390199959,1,0,-55.0,0,0,0,0,0,0,-0.0292,1385.2926,6.8213,0.4212,54.885017,9.813463,108.3,5.845,1.85,0.00,54.884514,9.813473,54.895069,9.793790
1390199959,1,0,-55.0,0,0,4,0,0,0,-0.0292,1385.2926,6.8213,0.4212,54.885029,9.813438,108.3,5.845,1.85,0.00,54.884514,9.813473,54.895069,9.793790
1390199959,1,0,-55.0,0,0,0,0,0,0,-0.0292,1385.2926,6.8213,0.4212,54.885040,9.813413,108.3,5.845,1.85,0.00,54.884514,9.813473,54.895069,9.793790
1390199959,1,0,-55.0,0,0,4,0,0,0,-0.0292,1385.2926,6.8213,0.4212,54.885048,9.813388,108.3,5.845,1.85,0.00,54.884514,9.813473,54.895069,9.793790
1390199960,1,0,-55.0,0,0,0,0,0,0,-0.0292,1385.2926,6.8213,0.4212,54.885059,9.813362,108.3,5.845,1.85,0.00,54.884514,9.813473,54.895069,9.793790
1390199960,1,0,-55.0,0,0,4,0,0,0,-0.0292,1385.2926,6.8213,0.4212,54.885067,9.813336,108.3,5.845,1.85,0.00,54.884514,9.813473,54.895069,9.793790
1390199960,1,0,-55.0,0,0,0,0,0,0,-0.0292,1385.2926,6.8213,0.4212,54.885078,9.813311,108.3,5.845,1.85,0.00,54.884514,9.813473,54.895069,9.793790
1390199960,1,0,-55.0,0,0,4,0,0,0,-0.0292,1385.2926,6.8213,0.4212,54.885090,9.813285,108.3,5.845,1.85,0.00,54.884514,9.813473,54.895069,9.793790
1390199961,1,0,-55.0,0,0,0,0,0,0,-0.0292,1385.2926,6.8213,0.4212,54.885098,9.813260,108.3,5.845,1.85,0.00,54.884514,9.813473,54.895069,9.793790
1390199961,1,0,-55.0,0,0,4,0,0,0,-0.0292,1385.2926,6.8213,0.4212,54.885109,9.813234,108.3,5.845,1.85,0.00,54.884514,9.813473,54.895069,9.793790
1390199961,1,0,-55.0,0,0,0,0,0,0,-0.0292,1385.2926,6.8213,0.4212,54.885117,9.813209,108.3,5.845,1.85,0.00,54.884514,9.813473,54.895069,9.793790
1390199961,1,0,-55.0,0,0,4,0,0,0,-0.0292,1385.2926,6.8213,0.4212,54.885128,9.813183,108.3,5.845,1.85,0.00,54.884514,9.813473,54.895069,9.793790
1390199962,1,0,-55.0,0,0,0,0,0,0,-0.0292,1385.2926,6.8213,0.4212,54.885139,9.813157,108.3,5.845,1.85,0.00,54.884514,9.813473,54.895069,9.793790
1390199962,1,0,-55.0,0,0,4,0,0,0,-0.0292,1385.2926,6.8213,0.4212,54.885147,9.813132,108.3,5.845,1.85,0.00,54.884514,9.813473,54.895069,9.793790
1390199962,1,0,-55.0,0,0,0,0,0,0,-0.0292,1385.2926,6.8213,0.4212,54.885159,9.813107,108.3,5.845,1.85,0.00,54.884514,9.813473,54.895069,9.793790
1390199962,1,0,-55.0,0,0,4,0,0,0,-0.0292,1385.2926,6.8213,0.4212,54.885166,9.813081,108.3,5.845,1.85,0.00,54.884514,9.813473,54.895069,9.793790
1390199963,1,0,-55.0,0,0,0,0,0,0,-0.0292,1385.2926,6.8213,0.4212,54.885178,9.813055,108.3,5.845,1.85,0.00,54.884514,9.813473,54.895069,9.793790
1390199963,1,0,-55.0,0,0,4,0,0,0,-0.0292,1385.2926,6.8213,0.4212,54.885189,9.813029,108.3,5.845,1.85,0.00,54.884514,9.813473,54.895069,9.793790
1390199963,1,0,-55.0,0,0,0,0,0,0,-0.0292,1385.2926,6.8213,0.4212,54.885197,9.813004,108.3,5.845,1.85,0.00,54.884514,9.813473,54.895069,9.793790
1390199963,1,0,-55.0,0,0,4,0,0,0,-0.0292,1385.2926,6.8213,0.4212,54.885208,9.812979,108.3,5.845,1.85,0.00,54.884514,9.813473,54.895069,9.793790
1390199964,1,0,-55.0,0,0,0,0,0,0,-0.0292,1385.2926,6.8213,0.4212,54.885216,9.812953,108.3,5.845,1.85,0.00,54.884514,9.813473,54.895069,9.793790
1390199964,1,0,-55.0,0,0,4,0,0,0,-0.0292,1385.2926,6.8213,0.4212,54.885227,9.812927,108.3,5.845,1.85,0.00,54.884514,9.813473,54.895069,9.793790
1390199964,1,0,-55.0,0,0,0,0,0,0,-0.0292,1385.2926,6.8213,0.4212,54.885239,9.812901,108.3,5.845,1.85,0.00,54.884514,9.813473,54.895069,9.793790
1390199964,1,0,-55.0,0,0,4,0,0,0,-0.0292,1385.2926,6.8213,0.4212,54.885250,9.812877,108.3,5.845,1.85,0.00,54.884514,9.813473,54.895069,9.793790
1390199965,1,0,-55.0,0,0,0,0,0,0,-0.0292,1385.2926,6.8213,0.4212,54.885262,9.812851,108.3,5.845,1.85,0.00,54.884514,9.813473,54.895069,9.793790
1390199965,1,0,-55.0,0,0,4,0,0,0,-0.0292,1385.2926,6.8213,0.4212,54.885269,9.812825,108.3,5.845,1.85,0.00,54.884514,9.813473,54.895069,9.793790
1390199965,1,0,-55.0,0,0,0,0,0,0,-0.0292,1385.2926,6.8213,0.4212,54.885281,9.812799,108.3,5.845,1.85,0.00,54.884514,9.813473,54.895069,9.793790
1390199965,1,0,-55.0,0,0,4,0,0,0,-0.0292,1385.2926,6.8213,0.4212,54.885288,9.812774,108.3,5.845,1.85,0.00,54.884514,9.813473,54.895069,9.793790
1390199966,1,0,-55.0,0,0,0,0,0,0,-0.0292,1385.2926,6.8213,0.4212,54.885300,9.812749,108.3,5.845,1.85,0.00,54.884514,9.813473,54.895069,9.793790
1390199966,1,0,-55.0,0,0,4,0,0,0,-0.0292,1385.2926,6.8213,0.4212,54.885311,9.812723,108.3,5.845,1.85,0.00,54.884514,9.813473,54.895069,9.793790
1390199966,1,0,-55.0,0,0,0,0,0,0,-0.0292,1385.2926,6.8213,0.4212,54.885319,9.812697,108.3,5.845,1.85,0.00,54.884514,9.813473,54.895069,9.793790
1390199966,1,0,-55.0,0,0,4,0,0,0,-0.0292,1385.2926,6.8213,0.4212,54.885330,9.812672,108.3,5.845,1.85,0.00,54.884514,9.813473,54.895069,9.793790
1390199967,1,0,-55.0,0,0,0,0,0,0,-0.0292,1385.2926,6.8213,0.4212,54.885338,9.812646,108.3,5.845,1.85,0.00,54.884514,9.813473,54.895069,9.793790
1390199967,1,0,-55.0,0,0,4,0,0,0,-0.0292,1385.2926,6.8213,0.4212,54.885349,9.812621,108.3,5.845,1.85,0.00,54.884514,9.813473,54.895069,9.793790
1390199967,1,0,-55.0,0,0,0,0,0,0,-0.0292,1385.2926,6.8213,0.4212,54.885361,9.812595,108.3,5.845,1.85,0.00,54.884514,9.813473,54.895069,9.793790
1390199967,1,0,-55.0,0,0,4,0,0,0,-0.0292,1385.2926,6.8213,0.4212,54.885368,9.812571,108.3,5.845,1.85,0.00,54.884514,9.813473,54.895069,9.793790
1390199968,1,0,-55.0,0,0,0,0,0,0,-0.0292,1385.2926,6.8213,0.4212,54.885380,9.812545,108.3,5.845,1.85,0.00,54.884514,9.813473,54.895069,9.793790
1390199968,1,0,-55.0,0,0,4,0,0,0,-0.0292,1385.2926,6.8213,0.4212,54.885387,9.812519,108.3,5.845,1.85,0.00,54.884514,9.813473,54.895069,9.793790
1390199968,1,0,-55.0,0,0,0,0,0,0,-0.0292,1385.2926,6.8213,0.4212,54.885399,9.812494,108.3,5.845,1.85,0.00,54.884514,9.813473,54.895069,9.793790
1390199968,1,0,-55.0,0,0,4,0,0,0,-0.0292,1385.2926,6.8213,0.4212,54.885410,9.812469,108.3,5.845,1.85,0.00,54.884514,9.813473,54.895069,9.793790
1390199969,1,0,-55.0,0,0,0,0,0,0,-0.0292,1385.2926,6.8213,0.4212,54.885418,9.812444,108.3,5.845,1.85,0.00,54.884514,9.813473,54.895069,9.793790
1390199969,1,0,-55.0,0,0,4,0,0,0,-0.0292,1385.2926,6.8213,0.4212,54.885429,9.812418,108.3,5.845,1.85,0.00,54.884514,9.813473,54.895069,9.793790
1390199969,1,0,-55.0,0,0,0,0,0,0,-0.0292,1385.2926,6.8213,0.4212,54.885437,9.812392,108.3,5.845,1.85,0.00,54.884514,9.813473,54.895069,9.793790
1390199969,1,0,-55.0,0,0,4,0,0,0,-0.0292,1385.2926,6.8213,0.4212,54.885448,9.812367,108.3,5.845,1.85,0.00,54.884514,9.813473,54.895069,9.793790
1390199970,1,0,-55.0,0,0,0,0,0,0,-0.0292,1385.2926,6.8213,0.4212,54.885460,9.812342,108.3,5.845,1.85,0.00,54.884514,9.813473,54.895069,9.793790
1390199970,1,0,-55.0,0,0,4,0,0,0,-0.0292,1385.2926,6.8213,0.4212,54.885468,9.812317,108.3,5.845,1.85,0.00,54.884514,9.813473,54.895069,9.793790
1390199970,1,0,-55.0,0,0,0,0,0,0,-0.0292,1385.2926,6.8213,0.4212,54.885479,9.812291,108.3,5.845,1.85,0.00,54.884514,9.813473,54.895069,9.793790
1390199971,1,0,-55.0,0,0,4,0,0,0,-0.0292,1385.2926,6.8213,0.4212,54.885487,9.812265,108.3,5.845,1.85,0.00,54.884514,9.813473,54.895069,9.793790
1390199971,1,0,-55.0,0,0,0,0,0,0,-0.0292,1385.2926,6.8213,0.4212,54.885498,9.812240,108.3,5.845,1.85,0.00,54.884514,9.813473,54.895069,9.793790
1390199971,1,0,-55.0,0,0,4,0,0,0,-0.0292,1385.2926,6.8213,0.4212,54.885509,9.812214,108.3,5.845,1.85,0.00,54.884514,9.813473,54.895069,9.793790
1390199971,1,0,-55.0,0,0,0,0,0,0,-0.0292,1385.2926,6.8213,0.4212,54.885521,9.812189,108.3,5.845,1.85,0.00,54.884514,9.813473,54.895069,9.793790
1390199972,1,0,-55.0,0,0,4,0,0,0,-0.0292,1385.2926,6.8213,0.4212,54.885532,9.812163,108.3,5.845,1.85,0.00,54.884514,9.813473,54.895069,9.793790
1390199972,1,0,-55.0,0,0,0,0,0,0,-0.0292,1385.2926,6.8213,0.4212,54.885540,9.812138,108.3,5.845,1.85,0.00,54.884514,9.813473,54.895069,9.793790
1390199972,1,0,-55.0,0,0,4,0,0,0,-0.0292,1385.2926,6.8213,0.4212,54.885551,9.812112,108.3,5.845,1.85,0.00,54.884514,9.813473,54.895069,9.793790
1390199972,1,0,-55.0,0,0,0,0,0,0,-0.0292,1385.2926,6.8213,0.4212,54.885559,9.812086,108.3,5.845,1.85,0.00,54.884514,9.813473,54.895069,9.793790
1390199973,1,0,-55.0,0,0,4,0,0,0,-0.0292,1385.2926,6.8213,0.4212,54.885571,9.812061,108.3,5.845,1.85,0.00,54.884514,9.813473,54.895069,9.793790
1390199973,1,0,-55.0,0,0,0,0,0,0,-0.0292,1385.2926,6.8213,0.4212,54.885582,9.812036,108.3,5.845,1.85,0.00,54.884514,9.813473,54.895069,9.793790
1390199973,1,0,-55.0,0,0,4,0,0,0,-0.0292,1385.2926,6.8213,0.4212,54.885590,9.812010,108.3,5.845,1.85,0.00,54.884514,9.813473,54.895069,9.793790
1390199973,1,0,-55.0,0,0,0,0,0,0,-0.0292,1385.2926,6.8213,0.4212,54.885601,9.811984,108.3,5.845,1.85,0.00,54.884514,9.813473,54.895069,9.793790
1390199974,1,0,-55.0,0,0,4,0,0,0,-0.0292,1385.2926,6.8213,0.4212,54.885609,9.811958,108.3,5.845,1.85,0.00,54.884514,9.813473,54.895069,9.793790
1390199974,1,0,-55.0,0,0,0,0,0,0,-0.0292,1385.2926,6.8213,0.4212,54.885620,9.811934,108.3,5.845,1.85,0.00,54.884514,9.813473,54.895069,9.793790
1390199974,1,0,-55.0,0,0,4,0,0,0,-0.0292,1385.2926,6.8213,0.4212,54.885632,9.811908,108.3,5.845,1.85,0.00,54.884514,9.813473,54.895069,9.793790
1390199974,1,0,-55.0,0,0,0,0,0,0,-0.0292,1385.2926,6.8213,0.4212,54.885639,9.811882,108.3,5.845,1.85,0.00,54.884514,9.813473,54.895069,9.793790
1390199975,1,0,-55.0,0,0,4,0,0,0,-0.0292,1385.2926,6.8213,0.4212,54.885651,9.811856,108.3,5.845,1.85,0.00,54.884514,9.813473,54.895069,9.793790
1390199975,1,0,-55.0,0,0,0,0,0,0,-0.0292,1385.2926,6.8213,0.4212,54.885658,9.811831,108.3,5.845,1.85,0.00,54.884514,9.813473,54.895069,9.793790
1390199975,1,0,-55.0,0,0,4,0,0,0,-0.0292,1385.2926,6.8213,0.4212,54.885670,9.811806,108.3,5.845,1.85,0.00,54.884514,9.813473,54.895069,9.793790
1390199975,1,0,-55.0,0,0,0,0,0,0,-0.0292,1385.2926,6.8213,0.4212,54.885681,9.811780,108.3,5.845,1.85,0.00,54.884514,9.813473,54.895069,9.793790
1390199976,1,0,-55.0,0,0,4,0,0,0,-0.0292,1385.2926,6.8213,0.4212,54.885689,9.811754,108.3,5.845,1.85,0.00,54.884514,9.813473,54.895069,9.793790
1390199976,1,0,-55.0,0,0,0,0,0,0,-0.0292,1385.2926,6.8213,0.4212,54.885700,9.811728,108.3,5.845,1.85,0.00,54.884514,9.813473,54.895069,9.793790
1390199976,1,0,-55.0,0,0,4,0,0,0,-0.0292,1385.2926,6.8213,0.4212,54.885708,9.811703,108.3,5.845,1.85,0.00,54.884514,9.813473,54.895069,9.793790
1390199976,1,0,-55.0,0,0,0,0,0,0,-0.0292,1385.2926,6.8213,0.4212,54.885719,9.811678,108.3,5.845,1.85,0.00,54.884514,9.813473,54.895069,9.793790
1390199977,1,0,-55.0,0,0,4,0,0,0,-0.0292,1385.2926,6.8213,0.4212,54.885731,9.811652,108.3,5.845,1.85,0.00,54.884514,9.813473,54.895069,9.793790
1390199977,1,0,-55.0,0,0,0,0,0,0,-0.0292,1385.2926,6.8213,0.4212,54.885742,9.811627,108.3,5.845,1.85,0.00,54.884514,9.813473,54.895069,9.793790
1390199977,1,0,-55.0,0,0,4,0,0,0,-0.0292,1385.2926,6.8213,0.4212,54.885754,9.811602,108.3,5.845,1.85,0.00,54.884514,9.813473,54.895069,9.793790
1390199977,1,0,-55.0,0,0,0,0,0,0,-0.0292,1385.2926,6.8213,0.4212,54.885761,9.811576,108.3,5.845,1.85,0.00,54.884514,9.813473,54.895069,9.793790
1390199978,1,0,-55.0,0,0,4,0,0,0,-0.0292,1385.2926,6.8213,0.4212,54.885773,9.811551,108.3,5.845,1.85,0.00,54.884514,9.813473,54.895069,9.793790
1390199978,1,0,-55.0,0,0,0,0,0,0,-0.0292,1385.2926,6.8213,0.4212,54.885780,9.811525,108.3,5.845,1.85,0.00,54.884514,9.813473,54.895069,9.793790
