MCU_timestamp,Navigation_System,Manual_Control,Guidance_Heading,Manual_Ctrl_Rudder,Rudder_Desired_Angle,Rudder_Feedback,Manual_Ctrl_Sail,Sail_Desired_Pos,Sail_Feedback,Rate,Heading,Pitch,Roll,Latitude,Longitude,COG,SOG,Wind_Speed,Wind_Angle,Point_Start_Lat,Point_Start_Lon,Point_End_Lat,Point_End_Lon
1389970891,0,0,0.0,0,0,0,0,0,0,-0.0292,170.2922,6.8213,0.4212,54.891384,9.784833,108.3,5.845,1.85,335.95,0.000000,0.000000,0.000000,0.000000
1389970892,0,0,0.0,0,0,0,0,0,0,-0.0292,170.2922,6.8213,0.4212,54.891384,9.784833,108.3,5.845,1.85,335.95,0.000000,0.000000,0.000000,0.000000
1389970892,0,0,0.0,0,0,0,0,0,0,-0.0292,170.2922,6.8213,0.4212,54.891384,9.784833,108.3,5.845,1.85,335.95,0.000000,0.000000,0.000000,0.000000
1389970892,0,0,0.0,0,0,0,0,0,0,-0.0292,170.2922,6.8213,0.4212,54.891384,9.784833,108.3,5.845,1.85,335.95,0.000000,0.000000,0.000000,0.000000
1389970892,0,0,0.0,0,0,0,0,0,0,-0.0292,170.2922,6.8213,0.4212,54.891384,9.784833,108.3,5.845,1.85,335.95,0.000000,0.000000,0.000000,0.000000
1389970893,0,0,0.0,0,0,0,0,0,0,-0.0292,170.2922,6.8213,0.4212,54.891384,9.784833,108.3,5.845,1.85,335.95,0.000000,0.000000,0.000000,0.000000
1389970893,0,0,0.0,0,0,0,0,0,0,-0.0292,170.2922,6.8213,0.4212,54.888290,9.775579,108.3,5.845,1.85,335.95,0.000000,0.000000,0.000000,0.000000
1389970893,0,0,0.0,0,0,0,0,0,0,-0.0292,170.2922,6.8213,0.4212,54.888290,9.775579,108.3,5.845,1.85,335.95,0.000000,0.000000,0.000000,0.000000
1389970893,0,0,0.0,0,0,0,0,0,0,-0.0292,170.2922,6.8213,0.4212,54.888290,9.775579,108.3,5.845,1.85,335.95,0.000000,0.000000,0.000000,0.000000
1389970894,0,0,0.0,0,0,0,0,0,0,-0.0292,170.2922,6.8213,0.4212,54.888290,9.775579,108.3,5.845,1.85,335.95,0.000000,0.000000,0.000000,0.000000
1389970894,0,0,0.0,0,0,0,0,0,0,-0.0292,170.2922,6.8213,0.4212,54.888290,9.775579,108.3,5.845,1.85,335.95,0.000000,0.000000,0.000000,0.000000
1389970894,0,0,0.0,0,0,0,0,0,0,-0.0292,170.2922,6.8213,0.4212,54.888290,9.775579,108.3,5.845,1.85,335.95,0.000000,0.000000,0.000000,0.000000
1389970894,0,0,0.0,0,0,0,0,0,0,-0.0292,170.2922,6.8213,0.4212,54.888290,9.775579,108.3,5.845,1.85,335.95,0.000000,0.000000,0.000000,0.000000
1389970895,0,0,0.0,0,0,0,0,0,0,-0.0292,170.2922,6.8213,0.4212,54.888290,9.775579,108.3,5.845,1.85,335.95,0.000000,0.000000,0.000000,0.000000
1389970895,0,0,0.0,0,0,0,0,0,0,-0.0292,170.2922,6.8213,0.4212,54.888290,9.775579,108.3,5.845,1.85,335.95,0.000000,0.000000,0.000000,0.000000
1389970895,0,0,0.0,0,0,0,0,0,0,-0.0292,170.2922,6.8213,0.4212,54.888290,9.775579,108.3,5.845,1.85,335.95,0.000000,0.000000,0.000000,0.000000
1389970895,0,0,0.0,0,0,0,0,0,0,-0.0292,170.2922,6.8213,0.4212,54.888290,9.775579,108.3,5.845,1.85,335.95,0.000000,0.000000,0.000000,0.000000
1389970896,4,0,0.0,0,0,0,0,0,0,-0.0292,170.2922,6.8213,0.4212,54.888290,9.775579,108.3,5.845,1.85,335.95,0.000000,0.000000,0.000000,0.000000
1389970896,1,0,417.2,0,35,4,0,713,700,-0.0292,158.6255,6.8213,0.4212,54.888271,9.775591,108.3,5.845,1.85,335.95,54.888290,9.775579,54.895069,9.793790
1389970896,1,0,417.2,0,-11,0,0,0,650,-0.0292,162.2922,6.8213,0.4212,54.888256,9.775600,108.3,5.845,1.85,335.95,54.888290,9.775579,54.895069,9.793790
1389970896,1,0,417.1,0,-8,-4,0,0,600,-0.0292,164.9588,6.8213,0.4212,54.888241,9.775609,108.3,5.845,1.85,335.95,54.888290,9.775579,54.895069,9.793790
1389970897,1,0,417.0,0,-5,-8,0,0,550,-0.0292,166.6255,6.8213,0.4212,54.888222,9.775617,108.3,5.845,1.85,335.95,54.888290,9.775579,54.895069,9.793790
1389970897,1,0,416.9,0,-3,-4,0,713,600,-0.0292,167.6255,6.8213,0.4212,54.888203,9.775623,108.3,5.845,1.85,335.95,54.888290,9.775579,54.895069,9.793790
1389970897,1,0,416.8,0,-2,0,0,713,650,-0.0292,168.2922,6.8213,0.4212,54.888187,9.775629,108.3,5.845,1.85,335.95,54.888290,9.775579,54.895069,9.793790
1389970897,1,0,416.8,0,-2,-4,0,713,700,-0.0292,168.9588,6.8213,0.4212,54.888168,9.775635,108.3,5.845,1.85,335.95,54.888290,9.775579,54.895069,9.793790
1389970898,1,0,416.7,0,-1,0,0,713,750,-0.0292,169.2922,6.8213,0.4212,54.888149,9.775640,108.3,5.845,1.85,335.95,54.888290,9.775579,54.895069,9.793790
1389970898,1,0,416.6,0,-1,-4,0,713,700,-0.0292,169.6255,6.8213,0.4212,54.888134,9.775646,108.3,5.845,1.85,335.95,54.888290,9.775579,54.895069,9.793790
1389970898,1,0,416.6,0,0,0,0,713,750,-0.0292,169.6255,6.8213,0.4212,54.888115,9.775652,108.3,5.845,1.85,335.95,54.888290,9.775579,54.895069,9.793790
1389970898,1,0,416.5,0,0,4,0,713,700,-0.0292,169.6255,6.8213,0.4212,54.888096,9.775658,108.3,5.845,1.85,335.95,54.888290,9.775579,54.895069,9.793790
1389970899,1,0,416.4,0,0,0,0,713,750,-0.0292,169.6255,6.8213,0.4212,54.888077,9.775662,108.3,5.845,1.85,335.95,54.888290,9.775579,54.895069,9.793790
1389970899,1,0,416.3,0,0,4,0,713,700,-0.0292,169.6255,6.8213,0.4212,54.888062,9.775668,108.3,5.845,1.85,335.95,54.888290,9.775579,54.895069,9.793790
1389970899,1,0,416.2,0,0,0,0,713,750,-0.0292,169.6255,6.8213,0.4212,54.888042,9.775674,108.3,5.845,1.85,335.95,54.888290,9.775579,54.895069,9.793790
1389970899,1,0,416.2,0,0,4,0,713,700,-0.0292,169.6255,6.8213,0.4212,54.888023,9.775680,108.3,5.845,1.85,335.95,54.888290,9.775579,54.895069,9.793790
1389970900,1,0,416.1,0,0,0,0,713,750,-0.0292,169.6255,6.8213,0.4212,54.888004,9.775685,108.3,5.845,1.85,335.95,54.888290,9.775579,54.895069,9.793790
1389970900,1,0,416.0,0,0,4,0,713,700,-0.0292,169.6255,6.8213,0.4212,54.887989,9.775691,108.3,5.845,1.85,335.95,54.888290,9.775579,54.895069,9.793790
1389970900,1,0,415.9,0,0,0,0,713,750,-0.0292,169.6255,6.8213,0.4212,54.887970,9.775697,108.3,5.845,1.85,335.95,54.888290,9.775579,54.895069,9.793790
1389970900,1,0,415.9,0,0,4,0,713,700,-0.0292,169.6255,6.8213,0.4212,54.887951,9.775702,108.3,5.845,1.85,335.95,54.888290,9.775579,54.895069,9.793790
1389970901,1,0,415.8,0,0,0,0,713,750,-0.0292,169.6255,6.8213,0.4212,54.887932,9.775707,108.3,5.845,1.85,335.95,54.888290,9.775579,54.895069,9.793790
1389970901,1,0,415.7,0,0,4,0,713,700,-0.0292,169.6255,6.8213,0.4212,54.887917,9.775713,108.3,5.845,1.85,335.95,54.888290,9.775579,54.895069,9.793790
1389970901,1,0,415.6,0,0,0,0,713,750,-0.0292,169.6255,6.8213,0.4212,54.887897,9.775719,108.3,5.845,1.85,335.95,54.888290,9.775579,54.895069,9.793790
1389970901,1,0,415.6,0,0,4,0,713,700,-0.0292,169.6255,6.8213,0.4212,54.887878,9.775724,108.3,5.845,1.85,335.95,54.888290,9.775579,54.895069,9.793790
1389970902,1,0,415.5,0,0,0,0,713,750,-0.0292,169.6255,6.8213,0.4212,54.887863,9.775730,108.3,5.845,1.85,335.95,54.888290,9.775579,54.895069,9.793790
1389970902,1,0,415.4,0,0,4,0,713,700,-0.0292,169.6255,6.8213,0.4212,54.887844,9.775736,108.3,5.845,1.85,335.95,54.888290,9.775579,54.895069,9.793790
1389970902,1,0,415.3,0,0,0,0,713,750,-0.0292,169.6255,6.8213,0.4212,54.887825,9.775742,108.3,5.845,1.85,335.95,54.888290,9.775579,54.895069,9.793790
1389970902,1,0,415.3,0,0,4,0,713,700,-0.0292,169.6255,6.8213,0.4212,54.887806,9.775747,108.3,5.845,1.85,335.95,54.888290,9.775579,54.895069,9.793790
1389970903,1,0,415.2,0,0,0,0,713,750,-0.0292,169.6255,6.8213,0.4212,54.887791,9.775753,108.3,5.845,1.85,335.95,54.888290,9.775579,54.895069,9.793790
1389970903,1,0,415.1,0,0,4,0,713,700,-0.0292,169.6255,6.8213,0.4212,54.887772,9.775759,108.3,5.845,1.85,335.95,54.888290,9.775579,54.895069,9.793790
1389970903,1,0,415.0,0,0,0,0,713,750,-0.0292,169.6255,6.8213,0.4212,54.887753,9.775764,108.3,5.845,1.85,335.95,54.888290,9.775579,54.895069,9.793790
1389970903,1,0,415.0,0,0,4,0,713,700,-0.0292,169.6255,6.8213,0.4212,54.887733,9.775770,108.3,5.845,1.85,335.95,54.888290,9.775579,54.895069,9.793790
1389970904,1,0,414.9,0,0,0,0,713,750,-0.0292,169.6255,6.8213,0.4212,54.887718,9.775776,108.3,5.845,1.85,335.95,54.888290,9.775579,54.895069,9.793790
1389970904,1,0,414.8,0,0,4,0,713,700,-0.0292,169.6255,6.8213,0.4212,54.887699,9.775782,108.3,5.845,1.85,335.95,54.888290,9.775579,54.895069,9.793790
1389970904,1,0,414.7,0,0,0,0,713,750,-0.0292,169.6255,6.8213,0.4212,54.887680,9.775787,108.3,5.845,1.85,335.95,54.888290,9.775579,54.895069,9.793790
1389970904,1,0,414.7,0,0,4,0,713,700,-0.0292,169.6255,6.8213,0.4212,54.887661,9.775792,108.3,5.845,1.85,335.95,54.888290,9.775579,54.895069,9.793790
1389970905,1,0,414.6,0,0,0,0,713,750,-0.0292,169.6255,6.8213,0.4212,54.887646,9.775798,108.3,5.845,1.85,335.95,54.888290,9.775579,54.895069,9.793790
1389970905,1,0,414.5,0,0,4,0,713,700,-0.0292,169.6255,6.8213,0.4212,54.887627,9.775804,108.3,5.845,1.85,335.95,54.888290,9.775579,54.895069,9.793790
1389970905,1,0,414.4,0,0,0,0,713,750,-0.0292,169.6255,6.8213,0.4212,54.887608,9.775809,108.3,5.845,1.85,335.95,54.888290,9.775579,54.895069,9.793790
1389970905,1,0,414.4,0,0,4,0,713,700,-0.0292,169.6255,6.8213,0.4212,54.887589,9.775815,108.3,5.845,1.85,335.95,54.888290,9.775579,54.895069,9.793790
1389970906,1,0,414.3,0,0,0,0,713,750,-0.0292,169.6255,6.8213,0.4212,54.887573,9.775821,108.3,5.845,1.85,335.95,54.888290,9.775579,54.895069,9.793790
1389970906,1,0,414.2,0,0,4,0,713,700,-0.0292,169.6255,6.8213,0.4212,54.887554,9.775826,108.3,5.845,1.85,335.95,54.888290,9.775579,54.895069,9.793790
1389970906,1,0,414.1,0,-20,0,0,713,750,-0.0292,176.2922,6.8213,0.4212,54.887535,9.775829,108.3,5.845,1.85,335.95,54.888290,9.775579,54.895069,9.793790
1389970906,1,0,414.1,0,-14,-4,0,713,700,-0.0292,180.9588,6.8213,0.4212,54.887516,9.775828,108.3,5.845,1.85,335.95,54.888290,9.775579,54.895069,9.793790
1389970907,1,0,414.0,0,-9,-8,0,713,750,-0.0292,183.9588,6.8213,0.4212,54.887501,9.775826,108.3,5.845,1.85,335.95,54.888290,9.775579,54.895069,9.793790
1389970907,1,0,413.9,0,-6,-4,0,713,700,-0.0292,185.9588,6.8213,0.4212,54.887482,9.775823,108.3,5.845,1.85,335.95,54.888290,9.775579,54.895069,9.793790
1389970907,1,0,413.9,0,-4,0,0,713,750,-0.0292,187.2922,6.8213,0.4212,54.887463,9.775819,108.3,5.845,1.85,335.95,54.888290,9.775579,54.895069,9.793790
1389970907,1,0,413.8,0,-3,-4,0,713,700,-0.0292,188.2922,6.8213,0.4212,54.887447,9.775815,108.3,5.845,1.85,335.95,54.888290,9.775579,54.895069,9.793790
1389970908,1,0,413.8,0,-2,0,0,713,750,-0.0292,188.9588,6.8213,0.4212,54.887428,9.775810,108.3,5.845,1.85,335.95,54.888290,9.775579,54.895069,9.793790
1389970908,1,0,413.7,0,-1,-4,0,713,700,-0.0292,189.2922,6.8213,0.4212,54.887409,9.775805,108.3,5.845,1.85,335.95,54.888290,9.775579,54.895069,9.793790
1389970908,1,0,413.6,0,-1,0,0,713,750,-0.0292,189.6255,6.8213,0.4212,54.887390,9.775801,108.3,5.845,1.85,335.95,54.888290,9.775579,54.895069,9.793790
1389970908,1,0,413.6,0,0,4,0,713,700,-0.0292,189.6255,6.8213,0.4212,54.887375,9.775795,108.3,5.845,1.85,335.95,54.888290,9.775579,54.895069,9.793790
1389970909,1,0,413.5,0,0,0,0,713,750,-0.0292,189.6255,6.8213,0.4212,54.887356,9.775789,108.3,5.845,1.85,335.95,54.888290,9.775579,54.895069,9.793790
1389970909,1,0,413.5,0,0,4,0,713,700,-0.0292,189.6255,6.8213,0.4212,54.887337,9.775784,108.3,5.845,1.85,335.95,54.888290,9.775579,54.895069,9.793790
1389970909,1,0,413.4,0,0,0,0,713,750,-0.0292,189.6255,6.8213,0.4212,54.887318,9.775779,108.3,5.845,1.85,335.95,54.888290,9.775579,54.895069,9.793790
1389970909,1,0,413.4,0,0,4,0,713,700,-0.0292,189.6255,6.8213,0.4212,54.887302,9.775774,108.3,5.845,1.85,335.95,54.888290,9.775579,54.895069,9.793790
1389970910,1,0,413.3,0,0,0,0,713,750,-0.0292,189.6255,6.8213,0.4212,54.887283,9.775769,108.3,5.845,1.85,335.95,54.888290,9.775579,54.895069,9.793790
1389970910,1,0,413.3,0,0,4,0,713,700,-0.0292,189.6255,6.8213,0.4212,54.887264,9.775764,108.3,5.845,1.85,335.95,54.888290,9.775579,54.895069,9.793790
1389970910,1,0,413.2,0,0,0,0,713,750,-0.0292,189.6255,6.8213,0.4212,54.887249,9.775760,108.3,5.845,1.85,335.95,54.888290,9.775579,54.895069,9.793790
1389970911,1,0,413.1,0,0,4,0,713,700,-0.0292,189.6255,6.8213,0.4212,54.887230,9.775754,108.3,5.845,1.85,335.95,54.888290,9.775579,54.895069,9.793790
1389970911,1,0,413.1,0,0,0,0,713,750,-0.0292,189.6255,6.8213,0.4212,54.887211,9.775748,108.3,5.845,1.85,335.95,54.888290,9.775579,54.895069,9.793790
1389970911,1,0,413.0,0,0,4,0,713,700,-0.0292,189.6255,6.8213,0.4212,54.887192,9.775743,108.3,5.845,1.85,335.95,54.888290,9.775579,54.895069,9.793790
1389970911,1,0,413.0,0,0,0,0,713,750,-0.0292,189.6255,6.8213,0.4212,54.887177,9.775737,108.3,5.845,1.85,335.95,54.888290,9.775579,54.895069,9.793790
1389970912,1,0,412.9,0,0,4,0,713,700,-0.0292,189.6255,6.8213,0.4212,54.887157,9.775732,108.3,5.845,1.85,335.95,54.888290,9.775579,54.895069,9.793790
1389970912,1,0,412.9,0,0,0,0,713,750,-0.0292,189.6255,6.8213,0.4212,54.887138,9.775727,108.3,5.845,1.85,335.95,54.888290,9.775579,54.895069,9.793790
1389970912,1,0,412.8,0,0,4,0,713,700,-0.0292,189.6255,6.8213,0.4212,54.887119,9.775723,108.3,5.845,1.85,335.95,54.888290,9.775579,54.895069,9.793790
1389970912,1,0,412.7,0,0,0,0,713,750,-0.0292,189.6255,6.8213,0.4212,54.887104,9.775718,108.3,5.845,1.85,335.95,54.888290,9.775579,54.895069,9.793790
1389970913,1,0,412.7,0,0,4,0,713,700,-0.0292,189.6255,6.8213,0.4212,54.887085,9.775712,108.3,5.845,1.85,335.95,54.888290,9.775579,54.895069,9.793790
1389970913,1,0,412.6,0,0,0,0,713,750,-0.0292,189.6255,6.8213,0.4212,54.887066,9.775706,108.3,5.845,1.85,335.95,54.888290,9.775579,54.895069,9.793790
1389970913,1,0,412.6,0,0,4,0,713,700,-0.0292,189.6255,6.8213,0.4212,54.887047,9.775701,108.3,5.845,1.85,335.95,54.888290,9.775579,54.895069,9.793790
1389970913,1,0,412.5,0,0,0,0,713,750,-0.0292,189.6255,6.8213,0.4212,54.887032,9.775695,108.3,5.845,1.85,335.95,54.888290,9.775579,54.895069,9.793790
1389970914,1,0,412.5,0,0,4,0,713,700,-0.0292,189.6255,6.8213,0.4212,54.887012,9.775690,108.3,5.845,1.85,335.95,54.888290,9.775579,54.895069,9.793790
1389970914,1,0,412.4,0,0,0,0,713,750,-0.0292,189.6255,6.8213,0.4212,54.886993,9.775685,108.3,5.845,1.85,335.95,54.888290,9.775579,54.895069,9.793790
1389970914,1,0,412.4,0,0,4,0,713,700,-0.0292,189.6255,6.8213,0.4212,54.886978,9.775681,108.3,5.845,1.85,335.95,54.888290,9.775579,54.895069,9.793790
1389970914,1,0,412.3,0,0,0,0,713,750,-0.0292,189.6255,6.8213,0.4212,54.886959,9.775676,108.3,5.845,1.85,335.95,54.888290,9.775579,54.895069,9.793790
1389970915,1,0,412.3,0,0,4,0,713,700,-0.0292,189.6255,6.8213,0.4212,54.886940,9.775670,108.3,5.845,1.85,335.95,54.888290,9.775579,54.895069,9.793790
1389970915,1,0,412.2,0,0,0,0,713,750,-0.0292,189.6255,6.8213,0.4212,54.886921,9.775664,108.3,5.845,1.85,335.95,54.888290,9.775579,54.895069,9.793790
1389970915,1,0,412.2,0,0,4,0,713,700,-0.0292,189.6255,6.8213,0.4212,54.886906,9.775659,108.3,5.845,1.85,335.95,54.888290,9.775579,54.895069,9.793790
1389970915,1,0,412.1,0,0,0,0,713,750,-0.0292,189.6255,6.8213,0.4212,54.886887,9.775653,108.3,5.845,1.85,335.95,54.888290,9.775579,54.895069,9.793790
1389970916,1,0,412.1,0,0,4,0,713,700,-0.0292,189.6255,6.8213,0.4212,54.886868,9.775648,108.3,5.845,1.85,335.95,54.888290,9.775579,54.895069,9.793790
1389970916,1,0,412.0,0,0,0,0,713,750,-0.0292,189.6255,6.8213,0.4212,54.886848,9.775643,108.3,5.845,1.85,335.95,54.888290,9.775579,54.895069,9.793790
1389970916,1,0,411.9,0,0,4,0,713,700,-0.0292,189.6255,6.8213,0.4212,54.886833,9.775639,108.3,5.845,1.85,335.95,54.888290,9.775579,54.895069,9.793790
1389970916,1,0,411.9,0,0,0,0,713,750,-0.0292,189.6255,6.8213,0.4212,54.886814,9.775634,108.3,5.845,1.85,335.95,54.888290,9.775579,54.895069,9.793790
1389970917,1,0,411.8,0,0,4,0,713,700,-0.0292,189.6255,6.8213,0.4212,54.886795,9.775629,108.3,5.845,1.85,335.95,54.888290,9.775579,54.895069,9.793790
1389970917,1,0,411.8,0,0,0,0,713,750,-0.0292,189.6255,6.8213,0.4212,54.886776,9.775623,108.3,5.845,1.85,335.95,54.888290,9.775579,54.895069,9.793790
1389970917,1,0,411.7,0,0,4,0,713,700,-0.0292,189.6255,6.8213,0.4212,54.886761,9.775618,108.3,5.845,1.85,335.95,54.888290,9.775579,54.895069,9.793790
1389970917,1,0,411.7,0,0,0,0,713,750,-0.0292,189.6255,6.8213,0.4212,54.886742,9.775612,108.3,5.845,1.85,335.95,54.888290,9.775579,54.895069,9.793790
1389970918,1,0,411.6,0,0,4,0,713,700,-0.0292,189.6255,6.8213,0.4212,54.886723,9.775607,108.3,5.845,1.85,335.95,54.888290,9.775579,54.895069,9.793790
1389970918,1,0,411.6,0,0,0,0,713,750,-0.0292,189.6255,6.8213,0.4212,54.886703,9.775602,108.3,5.845,1.85,335.95,54.888290,9.775579,54.895069,9.793790
1389970918,1,0,411.5,0,0,4,0,713,700,-0.0292,189.6255,6.8213,0.4212,54.886688,9.775598,108.3,5.845,1.85,335.95,54.888290,9.775579,54.895069,9.793790
1389970918,1,0,411.5,0,0,0,0,713,750,-0.0292,189.6255,6.8213,0.4212,54.886669,9.775593,108.3,5.845,1.85,335.95,54.888290,9.775579,54.895069,9.793790
1389970919,1,0,411.4,0,0,4,0,713,700,-0.0292,189.6255,6.8213,0.4212,54.886650,9.775588,108.3,5.845,1.85,335.95,54.888290,9.775579,54.895069,9.793790
1389970919,1,0,411.4,0,0,0,0,713,750,-0.0292,189.6255,6.8213,0.4212,54.886635,9.775582,108.3,5.845,1.85,335.95,54.888290,9.775579,54.895069,9.793790
1389970919,1,0,411.3,0,0,4,0,713,700,-0.0292,189.6255,6.8213,0.4212,54.886616,9.775577,108.3,5.845,1.85,335.95,54.888290,9.775579,54.895069,9.793790
1389970919,1,0,411.3,0,0,0,0,713,750,-0.0292,189.6255,6.8213,0.4212,54.886597,9.775571,108.3,5.845,1.85,335.95,54.888290,9.775579,54.895069,9.793790
1389970920,1,0,411.2,0,0,4,0,713,700,-0.0292,189.6255,6.8213,0.4212,54.886578,9.775565,108.3,5.845,1.85,335.95,54.888290,9.775579,54.895069,9.793790
1389970920,1,0,411.2,0,0,0,0,713,750,-0.0292,189.6255,6.8213,0.4212,54.886562,9.775560,108.3,5.845,1.85,335.95,54.888290,9.775579,54.895069,9.793790
1389970920,1,0,411.1,0,0,4,0,713,700,-0.0292,189.6255,6.8213,0.4212,54.886543,9.775556,108.3,5.845,1.85,335.95,54.888290,9.775579,54.895069,9.793790
1389970920,1,0,411.1,0,0,0,0,713,750,-0.0292,189.6255,6.8213,0.4212,54.886524,9.775551,108.3,5.845,1.85,335.95,54.888290,9.775579,54.895069,9.793790
1389970921,1,0,411.0,0,0,4,0,713,700,-0.0292,189.6255,6.8213,0.4212,54.886505,9.775546,108.3,5.845,1.85,335.95,54.888290,9.775579,54.895069,9.793790
1389970921,1,0,410.9,0,0,0,0,713,750,-0.0292,189.6255,6.8213,0.4212,54.886490,9.775540,108.3,5.845,1.85,335.95,54.888290,9.775579,54.895069,9.793790
1389970921,1,0,390.9,0,0,4,0,713,700,-0.0292,189.6255,6.8213,0.4212,54.886471,9.775535,108.3,5.845,1.85,335.95,54.888290,9.775579,54.895069,9.793790
1389970921,1,0,280.9,0,0,0,0,713,750,-0.0292,189.6255,6.8213,0.4212,54.886452,9.775529,108.3,5.845,1.85,335.95,54.888290,9.775579,54.895069,9.793790
1389970922,1,0,280.9,0,0,4,0,713,700,-0.0292,189.6255,6.8213,0.4212,54.886433,9.775523,108.3,5.845,1.85,335.95,54.888290,9.775579,54.895069,9.793790
1389970922,1,0,280.9,0,0,0,0,713,750,-0.0292,189.6255,6.8213,0.4212,54.886417,9.775518,108.3,5.845,1.85,335.95,54.888290,9.775579,54.895069,9.793790
1389970922,1,0,280.9,0,0,4,0,713,700,-0.0292,189.6255,6.8213,0.4212,54.886398,9.775514,108.3,5.845,1.85,335.95,54.888290,9.775579,54.895069,9.793790
1389970922,1,0,280.9,0,0,0,0,713,750,-0.0292,189.6255,6.8213,0.4212,54.886379,9.775509,108.3,5.845,1.85,335.95,54.888290,9.775579,54.895069,9.793790
1389970923,1,0,280.9,0,0,4,0,713,700,-0.0292,189.6255,6.8213,0.4212,54.886364,9.775504,108.3,5.845,1.85,335.95,54.888290,9.775579,54.895069,9.793790
1389970923,1,0,280.9,0,0,0,0,713,750,-0.0292,189.6255,6.8213,0.4212,54.886345,9.775498,108.3,5.845,1.85,335.95,54.888290,9.775579,54.895069,9.793790
1389970923,1,0,280.9,0,0,4,0,713,700,-0.0292,189.6255,6.8213,0.4212,54.886326,9.775493,108.3,5.845,1.85,335.95,54.888290,9.775579,54.895069,9.793790
1389970923,1,0,280.9,0,0,0,0,713,750,-0.0292,189.6255,6.8213,0.4212,54.886307,9.775487,108.3,5.845,1.85,335.95,54.888290,9.775579,54.895069,9.793790
1389970924,1,0,280.9,0,0,4,0,713,700,-0.0292,189.6255,6.8213,0.4212,54.886292,9.775481,108.3,5.845,1.85,335.95,54.888290,9.775579,54.895069,9.793790
1389970924,1,0,280.9,0,0,0,0,713,750,-0.0292,189.6255,6.8213,0.4212,54.886272,9.775476,108.3,5.845,1.85,335.95,54.888290,9.775579,54.895069,9.793790
1389970924,1,0,280.9,0,0,4,0,713,700,-0.0292,189.6255,6.8213,0.4212,54.886253,9.775472,108.3,5.845,1.85,335.95,54.888290,9.775579,54.895069,9.793790
1389970924,1,0,280.9,0,0,0,0,713,750,-0.0292,189.6255,6.8213,0.4212,54.886234,9.775467,108.3,5.845,1.85,335.95,54.888290,9.775579,54.895069,9.793790
1389970925,1,0,280.9,0,0,4,0,713,700,-0.0292,189.6255,6.8213,0.4212,54.886219,9.775462,108.3,5.845,1.85,335.95,54.888290,9.775579,54.895069,9.793790
1389970925,1,0,280.9,0,0,0,0,713,750,-0.0292,189.6255,6.8213,0.4212,54.886200,9.775457,108.3,5.845,1.85,335.95,54.888290,9.775579,54.895069,9.793790
1389970925,1,0,280.9,0,0,4,0,713,700,-0.0292,189.6255,6.8213,0.4212,54.886181,9.775452,108.3,5.845,1.85,335.95,54.888290,9.775579,54.895069,9.793790
1389970925,1,0,280.9,0,0,0,0,713,750,-0.0292,189.6255,6.8213,0.4212,54.886162,9.775446,108.3,5.845,1.85,335.95,54.888290,9.775579,54.895069,9.793790
1389970926,1,0,280.9,0,0,4,0,713,700,-0.0292,189.6255,6.8213,0.4212,54.886147,9.775440,108.3,5.845,1.85,335.95,54.888290,9.775579,54.895069,9.793790
1389970926,1,0,280.9,0,0,0,0,713,750,-0.0292,189.6255,6.8213,0.4212,54.886127,9.775435,108.3,5.845,1.85,335.95,54.888290,9.775579,54.895069,9.793790
1389970926,1,0,280.9,0,0,4,0,713,700,-0.0292,189.6255,6.8213,0.4212,54.886108,9.775431,108.3,5.845,1.85,335.95,54.888290,9.775579,54.895069,9.793790
1389970926,1,0,280.9,0,0,0,0,713,750,-0.0292,189.6255,6.8213,0.4212,54.886093,9.775426,108.3,5.845,1.85,335.95,54.888290,9.775579,54.895069,9.793790
1389970927,1,0,280.9,0,0,4,0,713,700,-0.0292,189.6255,6.8213,0.4212,54.886074,9.775421,108.3,5.845,1.85,335.95,54.888290,9.775579,54.895069,9.793790
1389970927,1,0,280.9,0,0,0,0,713,750,-0.0292,189.6255,6.8213,0.4212,54.886055,9.775416,108.3,5.845,1.85,335.95,54.888290,9.775579,54.895069,9.793790
1389970927,1,0,280.9,0,0,4,0,713,700,-0.0292,189.6255,6.8213,0.4212,54.886036,9.775411,108.3,5.845,1.85,335.95,54.888290,9.775579,54.895069,9.793790
1389970927,1,0,280.9,0,0,0,0,713,750,-0.0292,189.6255,6.8213,0.4212,54.886021,9.775405,108.3,5.845,1.85,335.95,54.888290,9.775579,54.895069,9.793790
1389970928,1,0,280.9,0,0,4,0,713,700,-0.0292,189.6255,6.8213,0.4212,54.886002,9.775399,108.3,5.845,1.85,335.95,54.888290,9.775579,54.895069,9.793790
1389970928,1,0,280.9,0,0,0,0,713,750,-0.0292,189.6255,6.8213,0.4212,54.885983,9.775393,108.3,5.845,1.85,335.95,54.888290,9.775579,54.895069,9.793790
1389970928,1,0,280.9,0,0,4,0,713,700,-0.0292,189.6255,6.8213,0.4212,54.885963,9.775389,108.3,5.845,1.85,335.95,54.888290,9.775579,54.895069,9.793790
1389970928,1,0,280.9,0,0,0,0,713,750,-0.0292,189.6255,6.8213,0.4212,54.885948,9.775384,108.3,5.845,1.85,335.95,54.888290,9.775579,54.895069,9.793790
1389970929,1,0,280.9,0,0,4,0,713,700,-0.0292,189.6255,6.8213,0.4212,54.885929,9.775379,108.3,5.845,1.85,335.95,54.888290,9.775579,54.895069,9.793790
1389970929,1,0,280.9,0,0,0,0,713,750,-0.0292,189.6255,6.8213,0.4212,54.885910,9.775374,108.3,5.845,1.85,335.95,54.888290,9.775579,54.895069,9.793790
1389970929,1,0,280.9,0,0,4,0,713,700,-0.0292,189.6255,6.8213,0.4212,54.885891,9.775369,108.3,5.845,1.85,335.95,54.888290,9.775579,54.895069,9.793790
1389970929,1,0,280.9,0,0,0,0,713,750,-0.0292,189.6255,6.8213,0.4212,54.885876,9.775363,108.3,5.845,1.85,335.95,54.888290,9.775579,54.895069,9.793790
1389970930,1,0,280.9,0,0,4,0,713,700,-0.0292,189.6255,6.8213,0.4212,54.885857,9.775357,108.3,5.845,1.85,335.95,54.888290,9.775579,54.895069,9.793790
1389970930,1,0,280.9,0,0,0,0,713,750,-0.0292,189.6255,6.8213,0.4212,54.885838,9.775352,108.3,5.845,1.85,335.95,54.888290,9.775579,54.895069,9.793790
1389970930,1,0,280.9,0,0,4,0,713,700,-0.0292,189.6255,6.8213,0.4212,54.885822,9.775347,108.3,5.845,1.85,335.95,54.888290,9.775579,54.895069,9.793790
1389970930,1,0,280.9,0,0,0,0,713,750,-0.0292,189.6255,6.8213,0.4212,54.885803,9.775342,108.3,5.845,1.85,335.95,54.888290,9.775579,54.895069,9.793790
1389970931,1,0,280.9,0,0,4,0,713,700,-0.0292,189.6255,6.8213,0.4212,54.885784,9.775337,108.3,5.845,1.85,335.95,54.888290,9.775579,54.895069,9.793790
1389970931,1,0,280.9,0,0,0,0,713,750,-0.0292,189.6255,6.8213,0.4212,54.885765,9.775332,108.3,5.845,1.85,335.95,54.888290,9.775579,54.895069,9.793790
1389970931,1,0,280.9,0,0,4,0,713,700,-0.0292,189.6255,6.8213,0.4212,54.885750,9.775327,108.3,5.845,1.85,335.95,54.888290,9.775579,54.895069,9.793790
1389970931,1,0,280.9,0,0,0,0,713,750,-0.0292,189.6255,6.8213,0.4212,54.885731,9.775321,108.3,5.845,1.85,335.95,54.888290,9.775579,54.895069,9.793790
1389970932,1,0,280.9,0,0,4,0,713,700,-0.0292,189.6255,6.8213,0.4212,54.885712,9.775315,108.3,5.845,1.85,335.95,54.888290,9.775579,54.895069,9.793790
1389970932,1,0,280.9,0,0,0,0,713,750,-0.0292,189.6255,6.8213,0.4212,54.885693,9.775310,108.3,5.845,1.85,335.95,54.888290,9.775579,54.895069,9.793790
1389970932,1,0,280.9,0,0,4,0,713,700,-0.0292,189.6255,6.8213,0.4212,54.885677,9.775305,108.3,5.845,1.85,335.95,54.888290,9.775579,54.895069,9.793790
1389970932,1,0,280.9,0,0,0,0,713,750,-0.0292,189.6255,6.8213,0.4212,54.885658,9.775300,108.3,5.845,1.85,335.95,54.888290,9.775579,54.895069,9.793790
1389970933,1,0,280.9,0,0,4,0,713,700,-0.0292,189.6255,6.8213,0.4212,54.885639,9.775295,108.3,5.845,1.85,335.95,54.888290,9.775579,54.895069,9.793790
1389970933,1,0,280.9,0,0,0,0,713,750,-0.0292,189.6255,6.8213,0.4212,54.885620,9.775290,108.3,5.845,1.85,335.95,54.888290,9.775579,54.895069,9.793790
1389970933,1,0,280.9,0,0,4,0,713,700,-0.0292,189.6255,6.8213,0.4212,54.885605,9.775286,108.3,5.845,1.85,335.95,54.888290,9.775579,54.895069,9.793790
1389970933,1,0,280.9,0,0,0,0,713,750,-0.0292,189.6255,6.8213,0.4212,54.885586,9.775280,108.3,5.845,1.85,335.95,54.888290,9.775579,54.895069,9.793790
1389970934,1,0,280.9,0,0,4,0,713,700,-0.0292,189.6255,6.8213,0.4212,54.885567,9.775274,108.3,5.845,1.85,335.95,54.888290,9.775579,54.895069,9.793790
1389970934,1,0,280.9,0,0,0,0,713,750,-0.0292,189.6255,6.8213,0.4212,54.885551,9.775269,108.3,5.845,1.85,335.95,54.888290,9.775579,54.895069,9.793790
1389970934,1,0,280.9,0,0,4,0,713,700,-0.0292,189.6255,6.8213,0.4212,54.885532,9.775264,108.3,5.845,1.85,335.95,54.888290,9.775579,54.895069,9.793790
1389970934,1,0,280.9,0,0,0,0,713,750,-0.0292,189.6255,6.8213,0.4212,54.885513,9.775259,108.3,5.845,1.85,335.95,54.888290,9.775579,54.895069,9.793790
1389970935,1,0,280.9,0,0,4,0,713,700,-0.0292,189.6255,6.8213,0.4212,54.885494,9.775254,108.3,5.845,1.85,335.95,54.888290,9.775579,54.895069,9.793790
1389970935,1,0,280.9,0,0,0,0,713,750,-0.0292,189.6255,6.8213,0.4212,54.885479,9.775249,108.3,5.845,1.85,335.95,54.888290,9.775579,54.895069,9.793790
1389970935,1,0,280.9,0,0,4,0,713,700,-0.0292,189.6255,6.8213,0.4212,54.885460,9.775245,108.3,5.845,1.85,335.95,54.888290,9.775579,54.895069,9.793790
1389970936,1,0,280.9,0,0,0,0,713,750,-0.0292,189.6255,6.8213,0.4212,54.885441,9.775239,108.3,5.845,1.85,335.95,54.888290,9.775579,54.895069,9.793790
1389970936,1,0,280.9,0,0,4,0,713,700,-0.0292,189.6255,6.8213,0.4212,54.885422,9.775233,108.3,5.845,1.85,335.95,54.888290,9.775579,54.895069,9.793790
1389970936,1,0,280.9,0,0,0,0,713,750,-0.0292,189.6255,6.8213,0.4212,54.885406,9.775228,108.3,5.845,1.85,335.95,54.888290,9.775579,54.895069,9.793790
1389970936,1,0,280.9,0,0,4,0,713,700,-0.0292,189.6255,6.8213,0.4212,54.885387,9.775222,108.3,5.845,1.85,335.95,54.888290,9.775579,54.895069,9.793790
1389970937,1,0,280.9,0,0,0,0,713,750,-0.0292,189.6255,6.8213,0.4212,54.885368,9.775217,108.3,5.845,1.85,335.95,54.888290,9.775579,54.895069,9.793790
1389970937,1,0,280.9,0,0,4,0,713,700,-0.0292,189.6255,6.8213,0.4212,54.885349,9.775212,108.3,5.845,1.85,335.95,54.888290,9.775579,54.895069,9.793790
1389970937,1,0,280.9,0,0,0,0,713,750,-0.0292,189.6255,6.8213,0.4212,54.885334,9.775208,108.3,5.845,1.85,335.95,54.888290,9.775579,54.895069,9.793790
1389970937,1,0,280.9,0,0,4,0,713,700,-0.0292,189.6255,6.8213,0.4212,54.885315,9.775203,108.3,5.845,1.85,335.95,54.888290,9.775579,54.895069,9.793790
1389970938,1,0,280.9,0,0,0,0,713,750,-0.0292,189.6255,6.8213,0.4212,54.885296,9.775197,108.3,5.845,1.85,335.95,54.888290,9.775579,54.895069,9.793790
1389970938,1,0,280.9,0,0,4,0,713,700,-0.0292,189.6255,6.8213,0.4212,54.885277,9.775191,108.3,5.845,1.85,335.95,54.888290,9.775579,54.895069,9.793790
1389970938,1,0,280.9,0,0,0,0,713,750,-0.0292,189.6255,6.8213,0.4212,54.885262,9.775186,108.3,5.845,1.85,335.95,54.888290,9.775579,54.895069,9.793790
1389970938,1,0,280.9,0,0,4,0,713,700,-0.0292,189.6255,6.8213,0.4212,54.885242,9.775180,108.3,5.845,1.85,335.95,54.888290,9.775579,54.895069,9.793790
1389970939,1,0,280.9,0,0,0,0,713,750,-0.0292,189.6255,6.8213,0.4212,54.885223,9.775175,108.3,5.845,1.85,335.95,54.888290,9.775579,54.895069,9.793790
1389970939,1,0,280.9,0,0,4,0,713,700,-0.0292,189.6255,6.8213,0.4212,54.885208,9.775170,108.3,5.845,1.85,335.95,54.888290,9.775579,54.895069,9.793790
1389970939,1,0,280.9,0,0,0,0,713,750,-0.0292,189.6255,6.8213,0.4212,54.885189,9.775166,108.3,5.845,1.85,335.95,54.888290,9.775579,54.895069,9.793790
1389970939,1,0,280.9,0,0,4,0,713,700,-0.0292,189.6255,6.8213,0.4212,54.885170,9.775161,108.3,5.845,1.85,335.95,54.888290,9.775579,54.895069,9.793790
1389970940,1,0,280.9,0,0,0,0,713,750,-0.0292,189.6255,6.8213,0.4212,54.885151,9.775155,108.3,5.845,1.85,335.95,54.888290,9.775579,54.895069,9.793790
1389970940,1,0,280.9,0,0,4,0,713,700,-0.0292,189.6255,6.8213,0.4212,54.885136,9.775149,108.3,5.845,1.85,335.95,54.888290,9.775579,54.895069,9.793790
1389970940,1,0,280.9,0,0,0,0,713,750,-0.0292,189.6255,6.8213,0.4212,54.885117,9.775144,108.3,5.845,1.85,335.95,54.888290,9.775579,54.895069,9.793790
1389970940,1,0,280.9,0,0,4,0,713,700,-0.0292,189.6255,6.8213,0.4212,54.885098,9.775138,108.3,5.845,1.85,335.95,54.888290,9.775579,54.895069,9.793790
1389970941,1,0,280.9,0,0,0,0,713,750,-0.0292,189.6255,6.8213,0.4212,54.885078,9.775133,108.3,5.845,1.85,335.95,54.888290,9.775579,54.895069,9.793790
1389970941,1,0,280.9,0,0,4,0,713,700,-0.0292,189.6255,6.8213,0.4212,54.885063,9.775128,108.3,5.845,1.85,335.95,54.888290,9.775579,54.895069,9.793790
1389970941,1,0,280.9,0,0,0,0,713,750,-0.0292,189.6255,6.8213,0.4212,54.885044,9.775124,108.3,5.845,1.85,335.95,54.888290,9.775579,54.895069,9.793790
1389970941,1,0,280.9,0,0,4,0,713,700,-0.0292,189.6255,6.8213,0.4212,54.885025,9.775119,108.3,5.845,1.85,335.95,54.888290,9.775579,54.895069,9.793790
1389970942,1,0,280.9,0,0,0,0,713,750,-0.0292,189.6255,6.8213,0.4212,54.885006,9.775113,108.3,5.845,1.85,335.95,54.888290,9.775579,54.895069,9.793790
1389970942,1,0,280.9,0,0,4,0,713,700,-0.0292,189.6255,6.8213,0.4212,54.884991,9.775107,108.3,5.845,1.85,335.95,54.888290,9.775579,54.895069,9.793790
1389970942,1,0,280.9,0,0,0,0,713,750,-0.0292,189.6255,6.8213,0.4212,54.884972,9.775102,108.3,5.845,1.85,335.95,54.888290,9.775579,54.895069,9.793790
1389970942,1,0,280.9,0,0,4,0,713,700,-0.0292,189.6255,6.8213,0.4212,54.884953,9.775096,108.3,5.845,1.85,335.95,54.888290,9.775579,54.895069,9.793790
1389970943,1,0,280.9,0,0,0,0,713,750,-0.0292,189.6255,6.8213,0.4212,54.884937,9.775091,108.3,5.845,1.85,335.95,54.888290,9.775579,54.895069,9.793790
1389970943,1,0,280.9,0,0,4,0,713,700,-0.0292,189.6255,6.8213,0.4212,54.884918,9.775086,108.3,5.845,1.85,335.95,54.888290,9.775579,54.895069,9.793790
1389970943,1,0,280.9,0,0,0,0,713,750,-0.0292,189.6255,6.8213,0.4212,54.884899,9.775082,108.3,5.845,1.85,335.95,54.888290,9.775579,54.895069,9.793790
1389970943,1,0,280.9,0,0,4,0,713,700,-0.0292,189.6255,6.8213,0.4212,54.884880,9.775077,108.3,5.845,1.85,335.95,54.888290,9.775579,54.895069,9.793790
1389970944,1,0,280.9,0,0,0,0,713,750,-0.0292,189.6255,6.8213,0.4212,54.884865,9.775072,108.3,5.845,1.85,335.95,54.888290,9.775579,54.895069,9.793790
1389970944,1,0,280.9,0,0,4,0,713,700,-0.0292,189.6255,6.8213,0.4212,54.884846,9.775066,108.3,5.845,1.85,335.95,54.888290,9.775579,54.895069,9.793790
1389970944,1,0,280.9,0,0,0,0,713,750,-0.0292,189.6255,6.8213,0.4212,54.884827,9.775061,108.3,5.845,1.85,335.95,54.888290,9.775579,54.895069,9.793790
1389970944,1,0,280.9,0,0,4,0,713,700,-0.0292,189.6255,6.8213,0.4212,54.884808,9.775055,108.3,5.845,1.85,335.95,54.888290,9.775579,54.895069,9.793790
1389970945,1,0,280.9,0,0,0,0,713,750,-0.0292,189.6255,6.8213,0.4212,54.884792,9.775050,108.3,5.845,1.85,335.95,54.888290,9.775579,54.895069,9.793790
1389970945,1,0,280.9,0,0,4,0,713,700,-0.0292,189.6255,6.8213,0.4212,54.884773,9.775045,108.3,5.845,1.85,335.95,54.888290,9.775579,54.895069,9.793790
1389970945,1,0,280.9,0,0,0,0,713,750,-0.0292,189.6255,6.8213,0.4212,54.884754,9.775041,108.3,5.845,1.85,335.95,54.888290,9.775579,54.895069,9.793790
1389970945,1,0,280.9,0,0,4,0,713,700,-0.0292,189.6255,6.8213,0.4212,54.884735,9.775036,108.3,5.845,1.85,335.95,54.888290,9.775579,54.895069,9.793790
1389970946,1,0,280.9,0,0,0,0,713,750,-0.0292,189.6255,6.8213,0.4212,54.884720,9.775031,108.3,5.845,1.85,335.95,54.888290,9.775579,54.895069,9.793790
1389970946,1,0,280.9,0,0,4,0,713,700,-0.0292,189.6255,6.8213,0.4212,54.884701,9.775025,108.3,5.845,1.85,335.95,54.888290,9.775579,54.895069,9.793790
1389970946,1,0,280.9,0,0,0,0,713,750,-0.0292,189.6255,6.8213,0.4212,54.884682,9.775020,108.3,5.845,1.85,335.95,54.888290,9.775579,54.895069,9.793790
1389970946,1,0,280.9,0,0,4,0,713,700,-0.0292,189.6255,6.8213,0.4212,54.884666,9.775014,108.3,5.845,1.85,335.95,54.888290,9.775579,54.895069,9.793790
1389970947,1,0,280.9,0,0,0,0,713,750,-0.0292,189.6255,6.8213,0.4212,54.884647,9.775008,108.3,5.845,1.85,335.95,54.888290,9.775579,54.895069,9.793790
1389970947,1,0,280.9,0,0,4,0,713,700,-0.0292,189.6255,6.8213,0.4212,54.884628,9.775003,108.3,5.845,1.85,335.95,54.888290,9.775579,54.895069,9.793790
1389970947,1,0,280.9,0,0,0,0,713,750,-0.0292,189.6255,6.8213,0.4212,54.884609,9.774999,108.3,5.845,1.85,335.95,54.888290,9.775579,54.895069,9.793790
1389970947,1,0,280.9,0,0,4,0,713,700,-0.0292,189.6255,6.8213,0.4212,54.884594,9.774994,108.3,5.845,1.85,335.95,54.888290,9.775579,54.895069,9.793790
1389970948,1,0,280.9,0,0,0,0,713,750,-0.0292,189.6255,6.8213,0.4212,54.884575,9.774989,108.3,5.845,1.85,335.95,54.888290,9.775579,54.895069,9.793790
1389970948,1,0,280.9,0,0,4,0,713,700,-0.0292,189.6255,6.8213,0.4212,54.884556,9.774983,108.3,5.845,1.85,335.95,54.888290,9.775579,54.895069,9.793790
1389970948,1,0,280.9,0,0,0,0,713,750,-0.0292,189.6255,6.8213,0.4212,54.884537,9.774978,108.3,5.845,1.85,335.95,54.888290,9.775579,54.895069,9.793790
1389970948,1,0,280.9,0,0,4,0,713,700,-0.0292,189.6255,6.8213,0.4212,54.884521,9.774972,108.3,5.845,1.85,335.95,54.888290,9.775579,54.895069,9.793790
1389970949,1,0,280.9,0,0,0,0,713,750,-0.0292,189.6255,6.8213,0.4212,54.884502,9.774966,108.3,5.845,1.85,335.95,54.888290,9.775579,54.895069,9.793790
1389970949,1,0,280.9,0,0,4,0,713,700,-0.0292,189.6255,6.8213,0.4212,54.884483,9.774961,108.3,5.845,1.85,335.95,54.888290,9.775579,54.895069,9.793790
1389970949,1,0,280.9,0,0,0,0,713,750,-0.0292,189.6255,6.8213,0.4212,54.884464,9.774957,108.3,5.845,1.85,335.95,54.888290,9.775579,54.895069,9.793790
1389970949,1,0,280.9,0,0,4,0,713,700,-0.0292,189.6255,6.8213,0.4212,54.884449,9.774952,108.3,5.845,1.85,335.95,54.888290,9.775579,54.895069,9.793790
1389970950,1,0,280.9,0,0,0,0,713,750,-0.0292,189.6255,6.8213,0.4212,54.884430,9.774947,108.3,5.845,1.85,335.95,54.888290,9.775579,54.895069,9.793790
