MCU_timestamp,Navigation_System,Manual_Control,Guidance_Heading,Manual_Ctrl_Rudder,Rudder_Desired_Angle,Rudder_Feedback,Manual_Ctrl_Sail,Sail_Desired_Pos,Sail_Feedback,Rate,Heading,Pitch,Roll,Latitude,Longitude,COG,SOG,Wind_Speed,Wind_Angle,Point_Start_Lat,Point_Start_Lon,Point_End_Lat,Point_End_Lon
1386834673,0,0,0.0,0,0,0,0,0,0,-0.0292,77.7585,6.8213,0.4212,54.895069,9.795382,108.3,5.845,1.85,335.95,0.000000,0.000000,0.000000,0.000000
1386834673,0,0,0.0,0,0,0,0,0,0,-0.0292,77.7585,6.8213,0.4212,54.895069,9.795382,108.3,5.845,1.85,335.95,0.000000,0.000000,0.000000,0.000000
1386834673,0,0,0.0,0,0,0,0,0,0,-0.0292,77.7585,6.8213,0.4212,54.895069,9.795382,108.3,5.845,1.85,335.95,0.000000,0.000000,0.000000,0.000000
1386834673,0,0,0.0,0,0,0,0,0,0,-0.0292,77.7585,6.8213,0.4212,54.895069,9.795382,108.3,5.845,1.85,335.95,0.000000,0.000000,0.000000,0.000000
1386834674,0,0,0.0,0,0,0,0,0,0,-0.0292,77.7585,6.8213,0.4212,54.895069,9.795382,108.3,5.845,1.85,335.95,0.000000,0.000000,0.000000,0.000000
1386834674,0,0,0.0,0,0,0,0,0,0,-0.0292,77.7585,6.8213,0.4212,54.895069,9.795382,108.3,5.845,1.85,335.95,0.000000,0.000000,0.000000,0.000000
1386834674,0,0,0.0,0,0,0,0,0,0,-0.0292,77.7585,6.8213,0.4212,54.895069,9.795382,108.3,5.845,1.85,335.95,0.000000,0.000000,0.000000,0.000000
1386834674,0,0,0.0,0,0,0,0,0,0,-0.0292,77.7585,6.8213,0.4212,54.895069,9.795382,108.3,5.845,1.85,335.95,0.000000,0.000000,0.000000,0.000000
1386834675,0,0,0.0,0,0,0,0,0,0,-0.0292,77.7585,6.8213,0.4212,54.895069,9.795382,108.3,5.845,1.85,335.95,0.000000,0.000000,0.000000,0.000000
1386834675,0,0,0.0,0,0,0,0,0,0,-0.0292,77.7585,6.8213,0.4212,54.895069,9.795382,108.3,5.845,1.85,335.95,0.000000,0.000000,0.000000,0.000000
1386834675,0,0,0.0,0,0,0,0,0,0,-0.0292,77.7585,6.8213,0.4212,54.895069,9.795382,108.3,5.845,1.85,335.95,0.000000,0.000000,0.000000,0.000000
1386834675,0,0,0.0,0,0,0,0,0,0,-0.0292,77.7585,6.8213,0.4212,54.895069,9.795382,108.3,5.845,1.85,335.95,0.000000,0.000000,0.000000,0.000000
1386834676,0,0,0.0,0,0,0,0,0,0,-0.0292,77.7585,6.8213,0.4212,54.895069,9.795382,108.3,5.845,1.85,335.95,0.000000,0.000000,0.000000,0.000000
1386834676,0,0,0.0,0,0,0,0,0,0,-0.0292,77.7585,6.8213,0.4212,54.895069,9.795382,108.3,5.845,1.85,335.95,0.000000,0.000000,0.000000,0.000000
1386834676,0,0,0.0,0,0,0,0,0,0,-0.0292,77.7585,6.8213,0.4212,54.895069,9.795382,108.3,5.845,1.85,335.95,0.000000,0.000000,0.000000,0.000000
1386834676,0,0,0.0,0,0,0,0,0,0,-0.0292,77.7585,6.8213,0.4212,54.895069,9.795382,108.3,5.845,1.85,335.95,0.000000,0.000000,0.000000,0.000000
1386834677,0,0,0.0,0,0,0,0,0,0,-0.0292,77.7585,6.8213,0.4212,54.895069,9.795382,108.3,5.845,1.85,335.95,0.000000,0.000000,0.000000,0.000000
1386834677,0,0,0.0,0,0,0,0,0,0,-0.0292,77.7585,6.8213,0.4212,54.895069,9.795382,108.3,5.845,1.85,335.95,0.000000,0.000000,0.000000,0.000000
1386834677,0,0,0.0,0,0,0,0,0,0,-0.0292,77.7585,6.8213,0.4212,54.895069,9.795382,108.3,5.845,1.85,335.95,0.000000,0.000000,0.000000,0.000000
1386834677,0,0,0.0,0,0,0,0,0,0,-0.0292,77.7585,6.8213,0.4212,54.895069,9.795382,108.3,5.845,1.85,335.95,0.000000,0.000000,0.000000,0.000000
1386834678,0,0,0.0,0,0,0,0,0,0,-0.0292,77.7585,6.8213,0.4212,54.895069,9.795382,108.3,5.845,1.85,335.95,0.000000,0.000000,0.000000,0.000000
1386834678,0,0,0.0,0,0,0,0,0,0,-0.0292,77.7585,6.8213,0.4212,54.895069,9.795382,108.3,5.845,1.85,335.95,0.000000,0.000000,0.000000,0.000000
1386834678,0,0,0.0,0,0,0,0,0,0,-0.0292,77.7585,6.8213,0.4212,54.895069,9.795382,108.3,5.845,1.85,335.95,0.000000,0.000000,0.000000,0.000000
1386834678,4,0,0.0,0,0,0,0,0,0,-0.0292,77.7585,6.8213,0.4212,54.895069,9.795382,108.3,5.845,1.85,335.95,0.000000,0.000000,0.000000,0.000000
1386834679,1,0,280.9,0,35,4,0,337,350,-0.0292,68.4251,6.8213,0.4212,54.895073,9.795410,108.3,5.845,1.85,335.95,54.895069,9.795382,54.895069,9.793790
1386834679,1,0,280.9,0,35,8,0,252,325,-0.0292,59.0918,6.8213,0.4212,54.895081,9.795437,108.3,5.845,1.85,335.95,54.895069,9.795382,54.895069,9.793790
1386834679,1,0,280.9,0,35,12,0,167,300,-0.0292,49.7585,6.8213,0.4212,54.895092,9.795461,108.3,5.845,1.85,335.95,54.895069,9.795382,54.895069,9.793790
1386834679,1,0,280.9,0,35,16,0,88,275,-0.0292,40.4251,6.8213,0.4212,54.895107,9.795481,108.3,5.845,1.85,335.95,54.895069,9.795382,54.895069,9.793790
1386834680,1,0,280.9,0,35,20,0,25,250,-0.0292,31.0918,6.8213,0.4212,54.895123,9.795497,108.3,5.845,1.85,335.95,54.895069,9.795382,54.895069,9.793790
1386834680,1,0,280.9,0,35,24,0,0,225,-0.0292,21.7585,6.8213,0.4212,54.895138,9.795508,108.3,5.845,1.85,335.95,54.895069,9.795382,54.895069,9.793790
1386834680,1,0,280.9,0,35,28,0,0,200,-0.0292,12.4251,6.8213,0.4212,54.895157,9.795515,108.3,5.845,1.85,335.95,54.895069,9.795382,54.895069,9.793790
1386834681,1,0,280.9,0,35,32,0,0,175,-0.0292,3.0918,6.8213,0.4212,54.895176,9.795517,108.3,5.845,1.85,335.95,54.895069,9.795382,54.895069,9.793790
1386834681,1,0,280.9,0,35,36,0,0,150,-0.0292,-6.2415,6.8213,0.4212,54.895195,9.795513,108.3,5.845,1.85,335.95,54.895069,9.795382,54.895069,9.793790
1386834681,1,0,280.9,0,35,32,0,0,125,-0.0292,-15.5749,6.8213,0.4212,54.895210,9.795505,108.3,5.845,1.85,335.95,54.895069,9.795382,54.895069,9.793790
1386834681,1,0,280.9,0,35,36,0,0,100,-0.0292,-24.9082,6.8213,0.4212,54.895229,9.795491,108.3,5.845,1.85,335.95,54.895069,9.795382,54.895069,9.793790
1386834682,1,0,260.8,0,35,32,0,0,75,-0.0292,-34.2415,6.8213,0.4212,54.895245,9.795474,108.3,5.845,1.85,335.95,54.895069,9.795382,54.895069,9.793790
1386834682,1,0,259.8,0,35,36,0,0,50,-0.0292,-43.5749,6.8213,0.4212,54.895256,9.795452,108.3,5.845,1.85,335.95,54.895069,9.795382,54.895069,9.793790
1386834682,1,0,259.0,0,35,32,0,0,25,-0.0292,-52.9082,6.8213,0.4212,54.895267,9.795427,108.3,5.845,1.85,335.95,54.895069,9.795382,54.895069,9.793790
1386834682,1,0,258.2,0,35,36,0,0,0,-0.0292,-62.2415,6.8213,0.4212,54.895275,9.795400,108.3,5.845,1.85,335.95,54.895069,9.795382,54.895069,9.793790
1386834683,1,0,257.5,0,35,32,0,0,25,-0.0292,-71.5749,6.8213,0.4212,54.895279,9.795370,108.3,5.845,1.85,335.95,54.895069,9.795382,54.895069,9.793790
1386834683,1,0,257.1,0,31,28,0,0,0,-0.0292,-79.8415,6.8213,0.4212,54.895283,9.795340,108.3,5.845,1.85,335.95,54.895069,9.795382,54.895069,9.793790
1386834683,1,0,256.6,0,24,24,0,0,25,-0.0292,-86.2415,6.8213,0.4212,54.895287,9.795308,108.3,5.845,1.85,335.95,54.895069,9.795382,54.895069,9.793790
1386834683,1,0,256.1,0,18,20,0,15,0,-0.0292,-91.0415,6.8213,0.4212,54.895287,9.795277,108.3,5.845,1.85,335.95,54.895069,9.795382,54.895069,9.793790
1386834684,1,0,255.8,0,13,16,0,39,25,-0.0292,-94.5082,6.8213,0.4212,54.895287,9.795246,108.3,5.845,1.85,335.95,54.895069,9.795382,54.895069,9.793790
1386834684,1,0,545.9,0,35,20,0,62,50,-0.0292,-103.8415,6.8213,0.4212,54.900917,9.789840,108.3,5.845,1.85,335.95,54.895069,9.795382,54.895069,9.793790
1386834684,1,0,515.9,0,35,24,0,137,75,-0.0292,-113.1749,6.8213,0.4212,54.900909,9.789811,108.3,5.845,1.85,335.95,54.895069,9.795382,54.895069,9.793790
1386834684,1,0,515.9,0,35,28,0,221,100,-0.0292,-122.5082,6.8213,0.4212,54.900898,9.789784,108.3,5.845,1.85,335.95,54.895069,9.795382,54.895069,9.793790
1386834685,1,0,488.5,0,35,32,0,306,125,-0.0292,-131.8416,6.8213,0.4212,54.900883,9.789762,108.3,5.845,1.85,335.95,54.895069,9.795382,54.895069,9.793790
1386834685,1,0,515.9,0,35,36,0,390,150,-0.0292,-141.1749,6.8213,0.4212,54.900867,9.789742,108.3,5.845,1.85,335.95,54.895069,9.795382,54.895069,9.793790
1386834685,1,0,605.9,0,-27,32,0,470,175,-0.0292,-133.9749,6.8213,0.4212,54.900856,9.789720,108.3,5.845,1.85,335.95,54.895069,9.795382,54.895069,9.793790
1386834685,1,0,605.9,0,-20,28,0,409,200,-0.0292,-128.6416,6.8213,0.4212,54.900845,9.789695,108.3,5.845,1.85,335.95,54.895069,9.795382,54.895069,9.793790
1386834686,0,0,605.9,0,-20,28,0,409,200,-0.0292,-128.6416,6.8213,0.4212,54.900845,9.789695,108.3,5.845,1.85,335.95,54.895069,9.795382,54.895069,9.793790
1386834686,0,0,605.9,0,-20,28,0,409,200,-0.0292,-128.6416,6.8213,0.4212,54.900845,9.789695,108.3,5.845,1.85,335.95,54.895069,9.795382,54.895069,9.793790
1386834686,0,0,605.9,0,-20,28,0,409,200,-0.0292,-128.6416,6.8213,0.4212,54.900845,9.789695,108.3,5.845,1.85,335.95,54.895069,9.795382,54.895069,9.793790
1386834686,0,0,605.9,0,-20,28,0,409,200,-0.0292,-128.6416,6.8213,0.4212,54.900845,9.789695,108.3,5.845,1.85,335.95,54.895069,9.795382,54.895069,9.793790
1386834687,0,0,605.9,0,-20,28,0,409,200,-0.0292,-128.6416,6.8213,0.4212,54.900845,9.789695,108.3,5.845,1.85,335.95,54.895069,9.795382,54.895069,9.793790
1386834687,4,0,605.9,0,-20,28,0,409,200,-0.0292,-128.6416,6.8213,0.4212,54.900845,9.789695,108.3,5.845,1.85,335.95,54.895069,9.795382,54.895069,9.793790
1386834687,1,0,425.9,0,35,32,0,362,225,-0.0292,-137.9749,6.8213,0.4212,54.900833,9.789674,108.3,5.845,1.85,335.95,54.900845,9.789695,54.895069,9.793790
1386834687,1,0,515.9,0,35,36,0,443,250,-0.0292,-147.3082,6.8213,0.4212,54.900818,9.789657,108.3,5.845,1.85,335.95,54.900845,9.789695,54.895069,9.793790
1386834688,1,0,515.9,0,35,32,0,519,275,-0.0292,-156.6415,6.8213,0.4212,54.900803,9.789644,108.3,5.845,1.85,335.95,54.900845,9.789695,54.895069,9.793790
1386834688,1,0,515.9,0,35,36,0,578,300,-0.0292,-165.9749,6.8213,0.4212,54.900784,9.789637,108.3,5.845,1.85,335.95,54.900845,9.789695,54.895069,9.793790
1386834688,1,0,515.9,0,35,32,0,409,325,-0.0292,-175.3082,6.8213,0.4212,54.900764,9.789634,108.3,5.845,1.85,335.95,54.900845,9.789695,54.895069,9.793790
1386834688,1,0,515.9,0,29,28,0,409,350,-0.0292,-183.0415,6.8213,0.4212,54.900745,9.789635,108.3,5.845,1.85,335.95,54.900845,9.789695,54.895069,9.793790
1386834689,1,0,515.9,0,21,24,0,409,375,-0.0292,-188.6415,6.8213,0.4212,54.900730,9.789639,108.3,5.845,1.85,335.95,54.900845,9.789695,54.895069,9.793790
1386834689,1,0,515.9,0,15,20,0,409,400,-0.0292,-192.6415,6.8213,0.4212,54.900711,9.789646,108.3,5.845,1.85,335.95,54.900845,9.789695,54.895069,9.793790
1386834689,1,0,515.9,0,11,16,0,409,425,-0.0292,-195.5749,6.8213,0.4212,54.900692,9.789655,108.3,5.845,1.85,335.95,54.900845,9.789695,54.895069,9.793790
1386834689,1,0,515.9,0,8,12,0,0,400,-0.0292,-197.7082,6.8213,0.4212,54.900677,9.789664,108.3,5.845,1.85,335.95,54.900845,9.789695,54.895069,9.793790
1386834690,1,0,515.9,0,6,8,0,0,375,-0.0292,-199.3082,6.8213,0.4212,54.900658,9.789675,108.3,5.845,1.85,335.95,54.900845,9.789695,54.895069,9.793790
1386834690,1,0,515.9,0,5,4,0,0,350,-0.0292,-200.6415,6.8213,0.4212,54.900639,9.789685,108.3,5.845,1.85,335.95,54.900845,9.789695,54.895069,9.793790
1386834690,1,0,515.9,0,3,0,0,0,325,-0.0292,-201.4415,6.8213,0.4212,54.900623,9.789697,108.3,5.845,1.85,335.95,54.900845,9.789695,54.895069,9.793790
1386834690,1,0,335.9,0,-35,-4,0,0,300,-0.0292,-192.1082,6.8213,0.4212,54.900608,9.789703,108.3,5.845,1.85,335.95,54.900845,9.789695,54.895069,9.793790
1386834691,1,0,335.9,0,-35,-8,0,0,275,-0.0292,-182.7749,6.8213,0.4212,54.900589,9.789705,108.3,5.845,1.85,335.95,54.900845,9.789695,54.895069,9.793790
1386834691,1,0,335.9,0,-35,-12,0,0,250,-0.0292,-173.4416,6.8213,0.4212,54.900570,9.789702,108.3,5.845,1.85,335.95,54.900845,9.789695,54.895069,9.793790
1386834691,1,0,335.9,0,-35,-16,0,0,225,-0.0292,-164.1082,6.8213,0.4212,54.900555,9.789694,108.3,5.845,1.85,335.95,54.900845,9.789695,54.895069,9.793790
1386834691,1,0,515.9,0,35,-12,0,0,200,-0.0292,-173.4416,6.8213,0.4212,54.900536,9.789690,108.3,5.845,1.85,335.95,54.900845,9.789695,54.895069,9.793790
1386834692,1,0,515.9,0,31,-8,0,0,175,-0.0292,-181.7082,6.8213,0.4212,54.900517,9.789691,108.3,5.845,1.85,335.95,54.900845,9.789695,54.895069,9.793790
1386834692,1,0,515.9,0,22,-4,0,0,150,-0.0292,-187.5749,6.8213,0.4212,54.900497,9.789695,108.3,5.845,1.85,335.95,54.900845,9.789695,54.895069,9.793790
1386834692,1,0,425.9,0,35,0,0,0,125,-0.0292,-196.9082,6.8213,0.4212,54.900482,9.789704,108.3,5.845,1.85,335.95,54.900845,9.789695,54.895069,9.793790
1386834692,1,0,335.9,0,-35,-4,0,0,100,-0.0292,-187.5749,6.8213,0.4212,54.900463,9.789709,108.3,5.845,1.85,335.95,54.900845,9.789695,54.895069,9.793790
1386834693,1,0,335.9,0,-35,-8,0,0,75,-0.0292,-178.2416,6.8213,0.4212,54.900444,9.789708,108.3,5.845,1.85,335.95,54.900845,9.789695,54.895069,9.793790
1386834693,1,0,335.9,0,-35,-12,0,0,50,-0.0292,-168.9082,6.8213,0.4212,54.900425,9.789702,108.3,5.845,1.85,335.95,54.900845,9.789695,54.895069,9.793790
1386834693,1,0,335.9,0,-35,-16,0,0,25,-0.0292,-159.5749,6.8213,0.4212,54.900410,9.789692,108.3,5.845,1.85,335.95,54.900845,9.789695,54.895069,9.793790
1386834693,1,0,515.9,0,35,-12,0,0,0,-0.0292,-168.9082,6.8213,0.4212,54.900391,9.789686,108.3,5.845,1.85,335.95,54.900845,9.789695,54.895069,9.793790
1386834694,1,0,515.9,0,35,-8,0,0,25,-0.0292,-178.2416,6.8213,0.4212,54.900372,9.789685,108.3,5.845,1.85,335.95,54.900845,9.789695,54.895069,9.793790
1386834694,1,0,515.9,0,26,-4,0,0,0,-0.0292,-185.1749,6.8213,0.4212,54.900352,9.789688,108.3,5.845,1.85,335.95,54.900845,9.789695,54.895069,9.793790
1386834694,1,0,515.9,0,19,0,0,0,25,-0.0292,-190.2416,6.8213,0.4212,54.900337,9.789694,108.3,5.845,1.85,335.95,54.900845,9.789695,54.895069,9.793790
1386834694,1,0,515.9,0,14,4,0,0,0,-0.0292,-193.9749,6.8213,0.4212,54.900318,9.789701,108.3,5.845,1.85,335.95,54.900845,9.789695,54.895069,9.793790
1386834695,1,0,335.9,0,-35,0,0,0,25,-0.0292,-184.6416,6.8213,0.4212,54.900299,9.789704,108.3,5.845,1.85,335.95,54.900845,9.789695,54.895069,9.793790
1386834695,1,0,335.9,0,-35,-4,0,0,0,-0.0292,-175.3082,6.8213,0.4212,54.900280,9.789702,108.3,5.845,1.85,335.95,54.900845,9.789695,54.895069,9.793790
1386834695,1,0,335.9,0,-35,-8,0,0,25,-0.0292,-165.9749,6.8213,0.4212,54.900265,9.789695,108.3,5.845,1.85,335.95,54.900845,9.789695,54.895069,9.793790
1386834695,1,0,425.9,0,35,-4,0,0,0,-0.0292,-175.3082,6.8213,0.4212,54.900246,9.789692,108.3,5.845,1.85,335.95,54.900845,9.789695,54.895069,9.793790
1386834696,1,0,515.9,0,29,0,0,0,25,-0.0292,-183.0416,6.8213,0.4212,54.900227,9.789694,108.3,5.845,1.85,335.95,54.900845,9.789695,54.895069,9.793790
1386834696,1,0,515.9,0,21,4,0,0,0,-0.0292,-188.6416,6.8213,0.4212,54.900211,9.789699,108.3,5.845,1.85,335.95,54.900845,9.789695,54.895069,9.793790
1386834696,1,0,335.9,0,-35,0,0,0,25,-0.0292,-179.3083,6.8213,0.4212,54.900192,9.789699,108.3,5.845,1.85,335.95,54.900845,9.789695,54.895069,9.793790
1386834696,1,0,335.9,0,-35,-4,0,0,0,-0.0292,-169.9749,6.8213,0.4212,54.900173,9.789693,108.3,5.845,1.85,335.95,54.900845,9.789695,54.895069,9.793790
1386834697,1,0,515.9,0,34,0,0,0,25,-0.0292,-179.0416,6.8213,0.4212,54.900154,9.789692,108.3,5.845,1.85,335.95,54.900845,9.789695,54.895069,9.793790
1386834697,1,0,515.9,0,25,4,0,0,0,-0.0292,-185.7083,6.8213,0.4212,54.900139,9.789695,108.3,5.845,1.85,335.95,54.900845,9.789695,54.895069,9.793790
1386834697,1,0,425.9,0,35,8,0,0,25,-0.0292,-195.0416,6.8213,0.4212,54.900120,9.789702,108.3,5.845,1.85,335.95,54.900845,9.789695,54.895069,9.793790
1386834697,1,0,335.9,0,-35,4,0,0,0,-0.0292,-185.7083,6.8213,0.4212,54.900101,9.789705,108.3,5.845,1.85,335.95,54.900845,9.789695,54.895069,9.793790
1386834698,1,0,335.9,0,-35,0,0,0,25,-0.0292,-176.3749,6.8213,0.4212,54.900082,9.789703,108.3,5.845,1.85,335.95,54.900845,9.789695,54.895069,9.793790
1386834698,1,0,335.9,0,-35,-4,0,0,0,-0.0292,-167.0416,6.8213,0.4212,54.900066,9.789697,108.3,5.845,1.85,335.95,54.900845,9.789695,54.895069,9.793790
1386834698,1,0,335.9,0,-35,-8,0,0,25,-0.0292,-157.7083,6.8213,0.4212,54.900047,9.789685,108.3,5.845,1.85,335.95,54.900845,9.789695,54.895069,9.793790
1386834698,1,0,515.9,0,35,-4,0,0,0,-0.0292,-167.0416,6.8213,0.4212,54.900028,9.789678,108.3,5.845,1.85,335.95,54.900845,9.789695,54.895069,9.793790
1386834699,1,0,515.9,0,35,0,0,0,25,-0.0292,-176.3749,6.8213,0.4212,54.900009,9.789676,108.3,5.845,1.85,335.95,54.900845,9.789695,54.895069,9.793790
1386834699,1,0,515.9,0,28,4,0,0,0,-0.0292,-183.8416,6.8213,0.4212,54.899994,9.789678,108.3,5.845,1.85,335.95,54.900845,9.789695,54.895069,9.793790
1386834699,1,0,515.9,0,20,8,0,0,25,-0.0292,-189.1749,6.8213,0.4212,54.899975,9.789682,108.3,5.845,1.85,335.95,54.900845,9.789695,54.895069,9.793790
1386834699,1,0,515.9,0,15,12,0,0,0,-0.0292,-193.1749,6.8213,0.4212,54.899956,9.789689,108.3,5.845,1.85,335.95,54.900845,9.789695,54.895069,9.793790
1386834700,1,0,515.9,0,11,8,0,0,25,-0.0292,-196.1083,6.8213,0.4212,54.899940,9.789698,108.3,5.845,1.85,335.95,54.900845,9.789695,54.895069,9.793790
1386834700,1,0,335.9,0,-35,4,0,0,0,-0.0292,-186.7749,6.8213,0.4212,54.899921,9.789701,108.3,5.845,1.85,335.95,54.900845,9.789695,54.895069,9.793790
1386834700,1,0,335.9,0,-35,0,0,0,25,-0.0292,-177.4416,6.8213,0.4212,54.899902,9.789701,108.3,5.845,1.85,335.95,54.900845,9.789695,54.895069,9.793790
1386834700,1,0,335.9,0,-35,-4,0,0,0,-0.0292,-168.1083,6.8213,0.4212,54.899883,9.789694,108.3,5.845,1.85,335.95,54.900845,9.789695,54.895069,9.793790
1386834701,1,0,515.9,0,35,0,0,0,25,-0.0292,-177.4416,6.8213,0.4212,54.899868,9.789693,108.3,5.845,1.85,335.95,54.900845,9.789695,54.895069,9.793790
1386834701,1,0,515.9,0,27,4,0,0,0,-0.0292,-184.6416,6.8213,0.4212,54.899849,9.789696,108.3,5.845,1.85,335.95,54.900845,9.789695,54.895069,9.793790
1386834701,1,0,335.9,0,-35,0,0,0,25,-0.0292,-175.3083,6.8213,0.4212,54.899830,9.789693,108.3,5.845,1.85,335.95,54.900845,9.789695,54.895069,9.793790
1386834701,1,0,515.9,0,29,4,0,0,0,-0.0292,-183.0416,6.8213,0.4212,54.899811,9.789695,108.3,5.845,1.85,335.95,54.900845,9.789695,54.895069,9.793790
1386834702,1,0,425.9,0,35,8,0,0,25,-0.0292,-192.3749,6.8213,0.4212,54.899796,9.789701,108.3,5.845,1.85,335.95,54.900845,9.789695,54.895069,9.793790
1386834702,1,0,335.9,0,-35,4,0,0,0,-0.0292,-183.0416,6.8213,0.4212,54.899776,9.789703,108.3,5.845,1.85,335.95,54.900845,9.789695,54.895069,9.793790
1386834702,1,0,335.9,0,-35,0,0,0,25,-0.0292,-173.7083,6.8213,0.4212,54.899757,9.789701,108.3,5.845,1.85,335.95,54.900845,9.789695,54.895069,9.793790
1386834702,1,0,335.9,0,-35,-4,0,0,0,-0.0292,-164.3750,6.8213,0.4212,54.899742,9.789692,108.3,5.845,1.85,335.95,54.900845,9.789695,54.895069,9.793790
1386834703,1,0,515.9,0,35,0,0,0,25,-0.0292,-173.7083,6.8213,0.4212,54.899723,9.789688,108.3,5.845,1.85,335.95,54.900845,9.789695,54.895069,9.793790
1386834703,1,0,515.9,0,30,4,0,0,0,-0.0292,-181.7083,6.8213,0.4212,54.899704,9.789689,108.3,5.845,1.85,335.95,54.900845,9.789695,54.895069,9.793790
1386834703,1,0,515.9,0,22,8,0,0,25,-0.0292,-187.5750,6.8213,0.4212,54.899685,9.789693,108.3,5.845,1.85,335.95,54.900845,9.789695,54.895069,9.793790
1386834703,1,0,515.9,0,16,12,0,0,0,-0.0292,-191.8416,6.8213,0.4212,54.899670,9.789700,108.3,5.845,1.85,335.95,54.900845,9.789695,54.895069,9.793790
1386834704,1,0,335.9,0,-35,8,0,0,25,-0.0292,-182.5083,6.8213,0.4212,54.899651,9.789701,108.3,5.845,1.85,335.95,54.900845,9.789695,54.895069,9.793790
1386834704,1,0,335.9,0,-35,4,0,0,0,-0.0292,-173.1750,6.8213,0.4212,54.899632,9.789698,108.3,5.845,1.85,335.95,54.900845,9.789695,54.895069,9.793790
1386834704,1,0,335.9,0,-35,0,0,0,25,-0.0292,-163.8416,6.8213,0.4212,54.899612,9.789689,108.3,5.845,1.85,335.95,54.900845,9.789695,54.895069,9.793790
1386834704,1,0,515.9,0,35,4,0,0,0,-0.0292,-173.1750,6.8213,0.4212,54.899597,9.789685,108.3,5.845,1.85,335.95,54.900845,9.789695,54.895069,9.793790
1386834705,1,0,515.9,0,31,8,0,0,25,-0.0292,-181.4416,6.8213,0.4212,54.899578,9.789686,108.3,5.845,1.85,335.95,54.900845,9.789695,54.895069,9.793790
1386834705,1,0,515.9,0,23,12,0,0,0,-0.0292,-187.5750,6.8213,0.4212,54.899559,9.789690,108.3,5.845,1.85,335.95,54.900845,9.789695,54.895069,9.793790
1386834705,1,0,515.9,0,16,16,0,0,25,-0.0292,-191.8416,6.8213,0.4212,54.899540,9.789697,108.3,5.845,1.85,335.95,54.900845,9.789695,54.895069,9.793790
1386834705,1,0,335.9,0,-35,12,0,0,0,-0.0292,-182.5083,6.8213,0.4212,54.899525,9.789698,108.3,5.845,1.85,335.95,54.900845,9.789695,54.895069,9.793790
1386834706,1,0,335.9,0,-35,8,0,0,25,-0.0292,-173.1750,6.8213,0.4212,54.899506,9.789694,108.3,5.845,1.85,335.95,54.900845,9.789695,54.895069,9.793790
1386834706,1,0,515.9,0,31,12,0,0,0,-0.0292,-181.4416,6.8213,0.4212,54.899487,9.789695,108.3,5.845,1.85,335.95,54.900845,9.789695,54.895069,9.793790
1386834706,1,0,425.9,0,35,16,0,0,25,-0.0292,-190.7749,6.8213,0.4212,54.899467,9.789701,108.3,5.845,1.85,335.95,54.900845,9.789695,54.895069,9.793790
1386834706,1,0,335.9,0,-35,12,0,0,0,-0.0292,-181.4416,6.8213,0.4212,54.899452,9.789701,108.3,5.845,1.85,335.95,54.900845,9.789695,54.895069,9.793790
1386834707,1,0,335.9,0,-35,8,0,0,25,-0.0292,-172.1083,6.8213,0.4212,54.899433,9.789698,108.3,5.845,1.85,335.95,54.900845,9.789695,54.895069,9.793790
1386834707,1,0,335.9,0,-35,4,0,0,0,-0.0292,-162.7750,6.8213,0.4212,54.899414,9.789688,108.3,5.845,1.85,335.95,54.900845,9.789695,54.895069,9.793790
1386834707,1,0,515.9,0,35,8,0,0,25,-0.0292,-172.1083,6.8213,0.4212,54.899399,9.789683,108.3,5.845,1.85,335.95,54.900845,9.789695,54.895069,9.793790
1386834707,1,0,515.9,0,32,12,0,0,0,-0.0292,-180.6416,6.8213,0.4212,54.899380,9.789683,108.3,5.845,1.85,335.95,54.900845,9.789695,54.895069,9.793790
1386834708,1,0,515.9,0,23,16,0,0,25,-0.0292,-186.7750,6.8213,0.4212,54.899361,9.789687,108.3,5.845,1.85,335.95,54.900845,9.789695,54.895069,9.793790
1386834708,1,0,515.9,0,17,20,0,0,0,-0.0292,-191.3083,6.8213,0.4212,54.899342,9.789693,108.3,5.845,1.85,335.95,54.900845,9.789695,54.895069,9.793790
1386834708,1,0,515.9,0,13,16,0,0,25,-0.0292,-194.7750,6.8213,0.4212,54.899326,9.789701,108.3,5.845,1.85,335.95,54.900845,9.789695,54.895069,9.793790
1386834708,1,0,335.9,0,-35,12,0,0,0,-0.0292,-185.4416,6.8213,0.4212,54.899307,9.789703,108.3,5.845,1.85,335.95,54.900845,9.789695,54.895069,9.793790
1386834709,1,0,335.9,0,-35,8,0,0,25,-0.0292,-176.1083,6.8213,0.4212,54.899288,9.789701,108.3,5.845,1.85,335.95,54.900845,9.789695,54.895069,9.793790
1386834709,1,0,335.9,0,-35,4,0,0,0,-0.0292,-166.7750,6.8213,0.4212,54.899269,9.789695,108.3,5.845,1.85,335.95,54.900845,9.789695,54.895069,9.793790
1386834709,1,0,425.9,0,35,8,0,0,25,-0.0292,-176.1083,6.8213,0.4212,54.899254,9.789693,108.3,5.845,1.85,335.95,54.900845,9.789695,54.895069,9.793790
1386834709,1,0,515.9,0,28,12,0,0,0,-0.0292,-183.5750,6.8213,0.4212,54.899235,9.789695,108.3,5.845,1.85,335.95,54.900845,9.789695,54.895069,9.793790
1386834710,1,0,425.9,0,35,16,0,0,25,-0.0292,-192.9083,6.8213,0.4212,54.899216,9.789701,108.3,5.845,1.85,335.95,54.900845,9.789695,54.895069,9.793790
1386834710,1,0,335.9,0,-35,12,0,0,0,-0.0292,-183.5750,6.8213,0.4212,54.899197,9.789703,108.3,5.845,1.85,335.95,54.900845,9.789695,54.895069,9.793790
1386834710,1,0,335.9,0,-35,8,0,0,25,-0.0292,-174.2416,6.8213,0.4212,54.899181,9.789701,108.3,5.845,1.85,335.95,54.900845,9.789695,54.895069,9.793790
1386834710,1,0,335.9,0,-35,4,0,0,0,-0.0292,-164.9083,6.8213,0.4212,54.899162,9.789693,108.3,5.845,1.85,335.95,54.900845,9.789695,54.895069,9.793790
1386834711,1,0,515.9,0,35,8,0,0,25,-0.0292,-174.2416,6.8213,0.4212,54.899143,9.789690,108.3,5.845,1.85,335.95,54.900845,9.789695,54.895069,9.793790
1386834711,1,0,515.9,0,30,12,0,0,0,-0.0292,-182.2416,6.8213,0.4212,54.899124,9.789691,108.3,5.845,1.85,335.95,54.900845,9.789695,54.895069,9.793790
1386834711,1,0,515.9,0,22,16,0,0,25,-0.0292,-188.1083,6.8213,0.4212,54.899109,9.789696,108.3,5.845,1.85,335.95,54.900845,9.789695,54.895069,9.793790
1386834711,1,0,335.9,0,-35,12,0,0,0,-0.0292,-178.7750,6.8213,0.4212,54.899090,9.789695,108.3,5.845,1.85,335.95,54.900845,9.789695,54.895069,9.793790
1386834712,1,0,425.9,0,35,16,0,0,25,-0.0292,-188.1083,6.8213,0.4212,54.899071,9.789700,108.3,5.845,1.85,335.95,54.900845,9.789695,54.895069,9.793790
1386834712,1,0,335.9,0,-35,12,0,0,0,-0.0292,-178.7750,6.8213,0.4212,54.899055,9.789699,108.3,5.845,1.85,335.95,54.900845,9.789695,54.895069,9.793790
1386834712,1,0,335.9,0,-35,8,0,0,25,-0.0292,-169.4417,6.8213,0.4212,54.899036,9.789693,108.3,5.845,1.85,335.95,54.900845,9.789695,54.895069,9.793790
1386834712,1,0,515.9,0,35,12,0,0,0,-0.0292,-178.7750,6.8213,0.4212,54.899017,9.789692,108.3,5.845,1.85,335.95,54.900845,9.789695,54.895069,9.793790
1386834713,1,0,515.9,0,25,16,0,0,25,-0.0292,-185.4417,6.8213,0.4212,54.898998,9.789695,108.3,5.845,1.85,335.95,54.900845,9.789695,54.895069,9.793790
1386834713,1,0,425.9,0,35,20,0,0,0,-0.0292,-194.7750,6.8213,0.4212,54.898983,9.789702,108.3,5.845,1.85,335.95,54.900845,9.789695,54.895069,9.793790
1386834713,1,0,335.9,0,-35,16,0,0,25,-0.0292,-185.4417,6.8213,0.4212,54.898964,9.789705,108.3,5.845,1.85,335.95,54.900845,9.789695,54.895069,9.793790
1386834713,1,0,335.9,0,-35,12,0,0,0,-0.0292,-176.1083,6.8213,0.4212,54.898945,9.789703,108.3,5.845,1.85,335.95,54.900845,9.789695,54.895069,9.793790
1386834714,1,0,335.9,0,-35,8,0,0,25,-0.0292,-166.7750,6.8213,0.4212,54.898930,9.789697,108.3,5.845,1.85,335.95,54.900845,9.789695,54.895069,9.793790
1386834714,1,0,335.9,0,-35,4,0,0,0,-0.0292,-157.4417,6.8213,0.4212,54.898914,9.789684,108.3,5.845,1.85,335.95,54.900845,9.789695,54.895069,9.793790
1386834714,1,0,515.9,0,35,8,0,0,25,-0.0292,-166.7750,6.8213,0.4212,54.898895,9.789677,108.3,5.845,1.85,335.95,54.900845,9.789695,54.895069,9.793790
1386834714,1,0,515.9,0,35,12,0,0,0,-0.0292,-176.1083,6.8213,0.4212,54.898876,9.789674,108.3,5.845,1.85,335.95,54.900845,9.789695,54.895069,9.793790
1386834715,1,0,515.9,0,28,16,0,0,25,-0.0292,-183.5750,6.8213,0.4212,54.898861,9.789676,108.3,5.845,1.85,335.95,54.900845,9.789695,54.895069,9.793790
1386834715,1,0,515.9,0,20,20,0,0,0,-0.0292,-188.9083,6.8213,0.4212,54.898842,9.789680,108.3,5.845,1.85,335.95,54.900845,9.789695,54.895069,9.793790
1386834715,1,0,515.9,0,15,16,0,0,25,-0.0292,-192.9083,6.8213,0.4212,54.898823,9.789687,108.3,5.845,1.85,335.95,54.900845,9.789695,54.895069,9.793790
1386834715,1,0,515.9,0,11,12,0,0,0,-0.0292,-195.8416,6.8213,0.4212,54.898808,9.789696,108.3,5.845,1.85,335.95,54.900845,9.789695,54.895069,9.793790
1386834716,1,0,335.9,0,-35,8,0,0,25,-0.0292,-186.5083,6.8213,0.4212,54.898788,9.789700,108.3,5.845,1.85,335.95,54.900845,9.789695,54.895069,9.793790
1386834716,1,0,335.9,0,-35,4,0,0,0,-0.0292,-177.1750,6.8213,0.4212,54.898769,9.789699,108.3,5.845,1.85,335.95,54.900845,9.789695,54.895069,9.793790
1386834716,1,0,335.9,0,-35,0,0,0,25,-0.0292,-167.8417,6.8213,0.4212,54.898750,9.789692,108.3,5.845,1.85,335.95,54.900845,9.789695,54.895069,9.793790
1386834716,1,0,515.9,0,35,4,0,0,0,-0.0292,-177.1750,6.8213,0.4212,54.898731,9.789690,108.3,5.845,1.85,335.95,54.900845,9.789695,54.895069,9.793790
1386834717,1,0,515.9,0,27,8,0,0,25,-0.0292,-184.3750,6.8213,0.4212,54.898716,9.789692,108.3,5.845,1.85,335.95,54.900845,9.789695,54.895069,9.793790
1386834717,1,0,515.9,0,20,12,0,0,0,-0.0292,-189.7083,6.8213,0.4212,54.898697,9.789697,108.3,5.845,1.85,335.95,54.900845,9.789695,54.895069,9.793790
1386834717,1,0,335.9,0,-35,8,0,0,25,-0.0292,-180.3750,6.8213,0.4212,54.898678,9.789697,108.3,5.845,1.85,335.95,54.900845,9.789695,54.895069,9.793790
1386834717,1,0,335.9,0,-35,4,0,0,0,-0.0292,-171.0417,6.8213,0.4212,54.898663,9.789692,108.3,5.845,1.85,335.95,54.900845,9.789695,54.895069,9.793790
1386834718,1,0,515.9,0,33,8,0,0,25,-0.0292,-179.8417,6.8213,0.4212,54.898643,9.789692,108.3,5.845,1.85,335.95,54.900845,9.789695,54.895069,9.793790
1386834718,1,0,515.9,0,24,12,0,0,0,-0.0292,-186.2417,6.8213,0.4212,54.898624,9.789695,108.3,5.845,1.85,335.95,54.900845,9.789695,54.895069,9.793790
1386834718,1,0,425.9,0,35,16,0,0,25,-0.0292,-195.5750,6.8213,0.4212,54.898609,9.789703,108.3,5.845,1.85,335.95,54.900845,9.789695,54.895069,9.793790
1386834718,1,0,335.9,0,-35,12,0,0,0,-0.0292,-186.2417,6.8213,0.4212,54.898594,9.789707,108.3,5.845,1.85,335.95,54.900845,9.789695,54.895069,9.793790
1386834719,1,0,335.9,0,-35,8,0,0,25,-0.0292,-176.9083,6.8213,0.4212,54.898575,9.789706,108.3,5.845,1.85,335.95,54.900845,9.789695,54.895069,9.793790
1386834719,1,0,335.9,0,-35,4,0,0,0,-0.0292,-167.5750,6.8213,0.4212,54.898556,9.789700,108.3,5.845,1.85,335.95,54.900845,9.789695,54.895069,9.793790
1386834719,1,0,335.9,0,-35,0,0,0,25,-0.0292,-158.2417,6.8213,0.4212,54.898540,9.789688,108.3,5.845,1.85,335.95,54.900845,9.789695,54.895069,9.793790
1386834719,1,0,515.9,0,35,4,0,0,0,-0.0292,-167.5750,6.8213,0.4212,54.898521,9.789681,108.3,5.845,1.85,335.95,54.900845,9.789695,54.895069,9.793790
1386834720,1,0,515.9,0,35,8,0,0,25,-0.0292,-176.9083,6.8213,0.4212,54.898502,9.789680,108.3,5.845,1.85,335.95,54.900845,9.789695,54.895069,9.793790
1386834720,1,0,515.9,0,27,12,0,0,0,-0.0292,-184.1083,6.8213,0.4212,54.898483,9.789681,108.3,5.845,1.85,335.95,54.900845,9.789695,54.895069,9.793790
1386834720,1,0,515.9,0,20,16,0,0,25,-0.0292,-189.4417,6.8213,0.4212,54.898468,9.789686,108.3,5.845,1.85,335.95,54.900845,9.789695,54.895069,9.793790
1386834720,1,0,515.9,0,15,12,0,0,0,-0.0292,-193.4417,6.8213,0.4212,54.898449,9.789693,108.3,5.845,1.85,335.95,54.900845,9.789695,54.895069,9.793790
1386834721,1,0,515.9,0,11,8,0,0,25,-0.0292,-196.3750,6.8213,0.4212,54.898430,9.789701,108.3,5.845,1.85,335.95,54.900845,9.789695,54.895069,9.793790
1386834721,1,0,335.9,0,-35,4,0,0,0,-0.0292,-187.0417,6.8213,0.4212,54.898411,9.789705,108.3,5.845,1.85,335.95,54.900845,9.789695,54.895069,9.793790
1386834721,1,0,335.9,0,-35,0,0,0,25,-0.0292,-177.7083,6.8213,0.4212,54.898396,9.789704,108.3,5.845,1.85,335.95,54.900845,9.789695,54.895069,9.793790
1386834721,1,0,335.9,0,-35,-4,0,0,0,-0.0292,-168.3750,6.8213,0.4212,54.898376,9.789699,108.3,5.845,1.85,335.95,54.900845,9.789695,54.895069,9.793790
1386834722,1,0,335.9,0,-35,-8,0,0,25,-0.0292,-159.0417,6.8213,0.4212,54.898361,9.789687,108.3,5.845,1.85,335.95,54.900845,9.789695,54.895069,9.793790
1386834722,1,0,515.9,0,35,-4,0,0,0,-0.0292,-168.3750,6.8213,0.4212,54.898346,9.789680,108.3,5.845,1.85,335.95,54.900845,9.789695,54.895069,9.793790
1386834722,1,0,515.9,0,35,0,0,0,25,-0.0292,-177.7083,6.8213,0.4212,54.898327,9.789679,108.3,5.845,1.85,335.95,54.900845,9.789695,54.895069,9.793790
1386834722,1,0,515.9,0,26,4,0,0,0,-0.0292,-184.6417,6.8213,0.4212,54.898308,9.789680,108.3,5.845,1.85,335.95,54.900845,9.789695,54.895069,9.793790
1386834723,1,0,515.9,0,19,8,0,0,25,-0.0292,-189.7083,6.8213,0.4212,54.898293,9.789685,108.3,5.845,1.85,335.95,54.900845,9.789695,54.895069,9.793790
1386834723,1,0,515.9,0,14,12,0,0,0,-0.0292,-193.4417,6.8213,0.4212,54.898273,9.789692,108.3,5.845,1.85,335.95,54.900845,9.789695,54.895069,9.793790
1386834723,1,0,515.9,0,11,8,0,0,25,-0.0292,-196.3750,6.8213,0.4212,54.898254,9.789701,108.3,5.845,1.85,335.95,54.900845,9.789695,54.895069,9.793790
1386834723,1,0,335.9,0,-35,4,0,0,0,-0.0292,-187.0417,6.8213,0.4212,54.898235,9.789704,108.3,5.845,1.85,335.95,54.900845,9.789695,54.895069,9.793790
1386834724,1,0,335.9,0,-35,0,0,0,25,-0.0292,-177.7083,6.8213,0.4212,54.898220,9.789703,108.3,5.845,1.85,335.95,54.900845,9.789695,54.895069,9.793790
1386834724,1,0,335.9,0,-35,-4,0,0,0,-0.0292,-168.3750,6.8213,0.4212,54.898201,9.789698,108.3,5.845,1.85,335.95,54.900845,9.789695,54.895069,9.793790
1386834724,1,0,335.9,0,-35,-8,0,0,25,-0.0292,-159.0417,6.8213,0.4212,54.898182,9.789686,108.3,5.845,1.85,335.95,54.900845,9.789695,54.895069,9.793790
1386834724,1,0,515.9,0,35,-4,0,0,0,-0.0292,-168.3750,6.8213,0.4212,54.898163,9.789680,108.3,5.845,1.85,335.95,54.900845,9.789695,54.895069,9.793790
1386834725,1,0,515.9,0,35,0,0,0,25,-0.0292,-177.7083,6.8213,0.4212,54.898148,9.789678,108.3,5.845,1.85,335.95,54.900845,9.789695,54.895069,9.793790
1386834725,1,0,515.9,0,26,4,0,0,0,-0.0292,-184.6417,6.8213,0.4212,54.898129,9.789680,108.3,5.845,1.85,335.95,54.900845,9.789695,54.895069,9.793790
1386834725,1,0,515.9,0,19,8,0,0,25,-0.0292,-189.7083,6.8213,0.4212,54.898109,9.789684,108.3,5.845,1.85,335.95,54.900845,9.789695,54.895069,9.793790
1386834725,1,0,515.9,0,14,12,0,0,0,-0.0292,-193.4417,6.8213,0.4212,54.898094,9.789691,108.3,5.845,1.85,335.95,54.900845,9.789695,54.895069,9.793790
1386834726,1,0,515.9,0,11,8,0,0,25,-0.0292,-196.3750,6.8213,0.4212,54.898075,9.789700,108.3,5.845,1.85,335.95,54.900845,9.789695,54.895069,9.793790
1386834726,1,0,335.9,0,-35,4,0,0,0,-0.0292,-187.0417,6.8213,0.4212,54.898056,9.789703,108.3,5.845,1.85,335.95,54.900845,9.789695,54.895069,9.793790
1386834726,1,0,335.9,0,-35,0,0,0,25,-0.0292,-177.7084,6.8213,0.4212,54.898037,9.789702,108.3,5.845,1.85,335.95,54.900845,9.789695,54.895069,9.793790
1386834726,1,0,335.9,0,-35,-4,0,0,0,-0.0292,-168.3750,6.8213,0.4212,54.898022,9.789697,108.3,5.845,1.85,335.95,54.900845,9.789695,54.895069,9.793790
1386834727,1,0,335.9,0,-35,-8,0,0,25,-0.0292,-159.0417,6.8213,0.4212,54.898003,9.789685,108.3,5.845,1.85,335.95,54.900845,9.789695,54.895069,9.793790
1386834727,1,0,515.9,0,35,-4,0,0,0,-0.0292,-168.3750,6.8213,0.4212,54.897984,9.789679,108.3,5.845,1.85,335.95,54.900845,9.789695,54.895069,9.793790
1386834727,1,0,515.9,0,35,0,0,0,25,-0.0292,-177.7084,6.8213,0.4212,54.897964,9.789677,108.3,5.845,1.85,335.95,54.900845,9.789695,54.895069,9.793790
1386834728,1,0,515.9,0,26,4,0,0,0,-0.0292,-184.6417,6.8213,0.4212,54.897949,9.789679,108.3,5.845,1.85,335.95,54.900845,9.789695,54.895069,9.793790
1386834728,1,0,515.9,0,19,8,0,0,25,-0.0292,-189.7084,6.8213,0.4212,54.897930,9.789683,108.3,5.845,1.85,335.95,54.900845,9.789695,54.895069,9.793790
1386834728,1,0,515.9,0,14,12,0,0,0,-0.0292,-193.4417,6.8213,0.4212,54.897911,9.789690,108.3,5.845,1.85,335.95,54.900845,9.789695,54.895069,9.793790
1386834728,1,0,515.9,0,11,8,0,0,25,-0.0292,-196.3750,6.8213,0.4212,54.897896,9.789699,108.3,5.845,1.85,335.95,54.900845,9.789695,54.895069,9.793790
1386834729,1,0,335.9,0,-35,4,0,0,0,-0.0292,-187.0417,6.8213,0.4212,54.897881,9.789702,108.3,5.845,1.85,335.95,54.900845,9.789695,54.895069,9.793790
1386834729,1,0,335.9,0,-35,0,0,0,25,-0.0292,-177.7084,6.8213,0.4212,54.897861,9.789701,108.3,5.845,1.85,335.95,54.900845,9.789695,54.895069,9.793790
1386834729,1,0,335.9,0,-35,-4,0,0,0,-0.0292,-168.3750,6.8213,0.4212,54.897842,9.789696,108.3,5.845,1.85,335.95,54.900845,9.789695,54.895069,9.793790
1386834729,1,0,335.9,0,-35,-8,0,0,25,-0.0292,-159.0417,6.8213,0.4212,54.897827,9.789684,108.3,5.845,1.85,335.95,54.900845,9.789695,54.895069,9.793790
1386834730,1,0,515.9,0,35,-4,0,0,0,-0.0292,-168.3750,6.8213,0.4212,54.897808,9.789678,108.3,5.845,1.85,335.95,54.900845,9.789695,54.895069,9.793790
1386834730,1,0,515.9,0,35,0,0,0,25,-0.0292,-177.7084,6.8213,0.4212,54.897789,9.789676,108.3,5.845,1.85,335.95,54.900845,9.789695,54.895069,9.793790
1386834730,1,0,515.9,0,26,4,0,0,0,-0.0292,-184.6417,6.8213,0.4212,54.897770,9.789678,108.3,5.845,1.85,335.95,54.900845,9.789695,54.895069,9.793790
1386834730,1,0,515.9,0,19,8,0,0,25,-0.0292,-189.7084,6.8213,0.4212,54.897755,9.789682,108.3,5.845,1.85,335.95,54.900845,9.789695,54.895069,9.793790
1386834731,1,0,515.9,0,14,12,0,0,0,-0.0292,-193.4417,6.8213,0.4212,54.897736,9.789689,108.3,5.845,1.85,335.95,54.900845,9.789695,54.895069,9.793790
1386834731,1,0,515.9,0,11,8,0,0,25,-0.0292,-196.3750,6.8213,0.4212,54.897717,9.789698,108.3,5.845,1.85,335.95,54.900845,9.789695,54.895069,9.793790
1386834731,1,0,335.9,0,-35,4,0,0,0,-0.0292,-187.0417,6.8213,0.4212,54.897697,9.789701,108.3,5.845,1.85,335.95,54.900845,9.789695,54.895069,9.793790
1386834731,1,0,335.9,0,-35,0,0,0,25,-0.0292,-177.7084,6.8213,0.4212,54.897682,9.789701,108.3,5.845,1.85,335.95,54.900845,9.789695,54.895069,9.793790
1386834732,1,0,335.9,0,-35,-4,0,0,0,-0.0292,-168.3751,6.8213,0.4212,54.897663,9.789695,108.3,5.845,1.85,335.95,54.900845,9.789695,54.895069,9.793790
1386834732,1,0,425.9,0,35,0,0,0,25,-0.0292,-177.7084,6.8213,0.4212,54.897644,9.789694,108.3,5.845,1.85,335.95,54.900845,9.789695,54.895069,9.793790
1386834732,1,0,515.9,0,26,4,0,0,0,-0.0292,-184.6417,6.8213,0.4212,54.897629,9.789697,108.3,5.845,1.85,335.95,54.900845,9.789695,54.895069,9.793790
1386834732,1,0,335.9,0,-35,0,0,0,25,-0.0292,-175.3084,6.8213,0.4212,54.897610,9.789694,108.3,5.845,1.85,335.95,54.900845,9.789695,54.895069,9.793790
1386834733,1,0,515.9,0,29,4,0,0,0,-0.0292,-183.0417,6.8213,0.4212,54.897591,9.789696,108.3,5.845,1.85,335.95,54.900845,9.789695,54.895069,9.793790
1386834733,1,0,335.9,0,-35,0,0,0,25,-0.0292,-173.7084,6.8213,0.4212,54.897572,9.789692,108.3,5.845,1.85,335.95,54.900845,9.789695,54.895069,9.793790
1386834733,1,0,515.9,0,30,4,0,0,0,-0.0292,-181.7084,6.8213,0.4212,54.897556,9.789693,108.3,5.845,1.85,335.95,54.900845,9.789695,54.895069,9.793790
1386834733,1,0,515.9,0,22,8,0,0,25,-0.0292,-187.5751,6.8213,0.4212,54.897537,9.789697,108.3,5.845,1.85,335.95,54.900845,9.789695,54.895069,9.793790
1386834734,1,0,335.9,0,-35,4,0,0,0,-0.0292,-178.2417,6.8213,0.4212,54.897518,9.789696,108.3,5.845,1.85,335.95,54.900845,9.789695,54.895069,9.793790
1386834734,1,0,335.9,0,-35,0,0,0,25,-0.0292,-168.9084,6.8213,0.4212,54.897499,9.789690,108.3,5.845,1.85,335.95,54.900845,9.789695,54.895069,9.793790
1386834734,1,0,515.9,0,35,4,0,0,0,-0.0292,-178.2417,6.8213,0.4212,54.897484,9.789689,108.3,5.845,1.85,335.95,54.900845,9.789695,54.895069,9.793790
1386834734,1,0,515.9,0,26,8,0,0,25,-0.0292,-185.1751,6.8213,0.4212,54.897465,9.789692,108.3,5.845,1.85,335.95,54.900845,9.789695,54.895069,9.793790
1386834735,1,0,515.9,0,19,12,0,0,0,-0.0292,-190.2417,6.8213,0.4212,54.897446,9.789698,108.3,5.845,1.85,335.95,54.900845,9.789695,54.895069,9.793790
1386834735,1,0,335.9,0,-35,8,0,0,25,-0.0292,-180.9084,6.8213,0.4212,54.897427,9.789699,108.3,5.845,1.85,335.95,54.900845,9.789695,54.895069,9.793790
1386834735,1,0,335.9,0,-35,4,0,0,0,-0.0292,-171.5751,6.8213,0.4212,54.897411,9.789694,108.3,5.845,1.85,335.95,54.900845,9.789695,54.895069,9.793790
1386834735,1,0,515.9,0,32,8,0,0,25,-0.0292,-180.1084,6.8213,0.4212,54.897392,9.789694,108.3,5.845,1.85,335.95,54.900845,9.789695,54.895069,9.793790
1386834736,1,0,515.9,0,24,12,0,0,0,-0.0292,-186.5084,6.8213,0.4212,54.897373,9.789698,108.3,5.845,1.85,335.95,54.900845,9.789695,54.895069,9.793790
1386834736,1,0,335.9,0,-35,8,0,0,25,-0.0292,-177.1751,6.8213,0.4212,54.897358,9.789696,108.3,5.845,1.85,335.95,54.900845,9.789695,54.895069,9.793790
1386834736,1,0,335.9,0,-35,4,0,0,0,-0.0292,-167.8418,6.8213,0.4212,54.897339,9.789689,108.3,5.845,1.85,335.95,54.900845,9.789695,54.895069,9.793790
1386834736,1,0,515.9,0,35,8,0,0,25,-0.0292,-177.1751,6.8213,0.4212,54.897320,9.789687,108.3,5.845,1.85,335.95,54.900845,9.789695,54.895069,9.793790
1386834737,1,0,515.9,0,27,12,0,0,0,-0.0292,-184.3751,6.8213,0.4212,54.897301,9.789689,108.3,5.845,1.85,335.95,54.900845,9.789695,54.895069,9.793790
1386834737,1,0,515.9,0,20,16,0,0,25,-0.0292,-189.7084,6.8213,0.4212,54.897285,9.789694,108.3,5.845,1.85,335.95,54.900845,9.789695,54.895069,9.793790
1386834737,1,0,515.9,0,14,12,0,0,0,-0.0292,-193.4418,6.8213,0.4212,54.897266,9.789701,108.3,5.845,1.85,335.95,54.900845,9.789695,54.895069,9.793790
1386834737,1,0,335.9,0,-35,8,0,0,25,-0.0292,-184.1084,6.8213,0.4212,54.897247,9.789704,108.3,5.845,1.85,335.95,54.900845,9.789695,54.895069,9.793790
1386834738,1,0,335.9,0,-35,4,0,0,0,-0.0292,-174.7751,6.8213,0.4212,54.897228,9.789701,108.3,5.845,1.85,335.95,54.900845,9.789695,54.895069,9.793790
1386834738,1,0,335.9,0,-35,0,0,0,25,-0.0292,-165.4418,6.8213,0.4212,54.897213,9.789694,108.3,5.845,1.85,335.95,54.900845,9.789695,54.895069,9.793790
1386834738,1,0,515.9,0,35,4,0,0,0,-0.0292,-174.7751,6.8213,0.4212,54.897194,9.789691,108.3,5.845,1.85,335.95,54.900845,9.789695,54.895069,9.793790
1386834738,1,0,515.9,0,29,8,0,0,25,-0.0292,-182.5084,6.8213,0.4212,54.897175,9.789692,108.3,5.845,1.85,335.95,54.900845,9.789695,54.895069,9.793790
1386834739,1,0,515.9,0,22,12,0,0,0,-0.0292,-188.3751,6.8213,0.4212,54.897156,9.789697,108.3,5.845,1.85,335.95,54.900845,9.789695,54.895069,9.793790
1386834739,1,0,335.9,0,-35,8,0,0,25,-0.0292,-179.0418,6.8213,0.4212,54.897141,9.789696,108.3,5.845,1.85,335.95,54.900845,9.789695,54.895069,9.793790
1386834739,1,0,335.9,0,-35,4,0,0,0,-0.0292,-169.7085,6.8213,0.4212,54.897121,9.789690,108.3,5.845,1.85,335.95,54.900845,9.789695,54.895069,9.793790
1386834739,1,0,515.9,0,34,8,0,0,25,-0.0292,-178.7751,6.8213,0.4212,54.897102,9.789689,108.3,5.845,1.85,335.95,54.900845,9.789695,54.895069,9.793790
1386834740,1,0,515.9,0,25,12,0,0,0,-0.0292,-185.4418,6.8213,0.4212,54.897087,9.789692,108.3,5.845,1.85,335.95,54.900845,9.789695,54.895069,9.793790
1386834740,1,0,515.9,0,19,16,0,0,25,-0.0292,-190.5085,6.8213,0.4212,54.897068,9.789698,108.3,5.845,1.85,335.95,54.900845,9.789695,54.895069,9.793790
1386834740,1,0,335.9,0,-35,12,0,0,0,-0.0292,-181.1751,6.8213,0.4212,54.897049,9.789699,108.3,5.845,1.85,335.95,54.900845,9.789695,54.895069,9.793790
1386834740,1,0,335.9,0,-35,8,0,0,25,-0.0292,-171.8418,6.8213,0.4212,54.897030,9.789694,108.3,5.845,1.85,335.95,54.900845,9.789695,54.895069,9.793790
1386834741,1,0,515.9,0,32,12,0,0,0,-0.0292,-180.3751,6.8213,0.4212,54.897015,9.789694,108.3,5.845,1.85,335.95,54.900845,9.789695,54.895069,9.793790
1386834741,1,0,515.9,0,24,16,0,0,25,-0.0292,-186.7751,6.8213,0.4212,54.896996,9.789698,108.3,5.845,1.85,335.95,54.900845,9.789695,54.895069,9.793790
1386834741,1,0,335.9,0,-35,12,0,0,0,-0.0292,-177.4418,6.8213,0.4212,54.896976,9.789697,108.3,5.845,1.85,335.95,54.900845,9.789695,54.895069,9.793790
1386834741,1,0,335.9,0,-35,8,0,0,25,-0.0292,-168.1085,6.8213,0.4212,54.896957,9.789690,108.3,5.845,1.85,335.95,54.900845,9.789695,54.895069,9.793790
1386834742,1,0,515.9,0,35,12,0,0,0,-0.0292,-177.4418,6.8213,0.4212,54.896942,9.789688,108.3,5.845,1.85,335.95,54.900845,9.789695,54.895069,9.793790
1386834742,1,0,515.9,0,27,16,0,0,25,-0.0292,-184.6418,6.8213,0.4212,54.896923,9.789690,108.3,5.845,1.85,335.95,54.900845,9.789695,54.895069,9.793790
1386834742,1,0,515.9,0,19,20,0,0,0,-0.0292,-189.7085,6.8213,0.4212,54.896904,9.789695,108.3,5.845,1.85,335.95,54.900845,9.789695,54.895069,9.793790
1386834742,1,0,425.9,0,35,24,0,0,25,-0.0292,-199.0418,6.8213,0.4212,54.896889,9.789705,108.3,5.845,1.85,335.95,54.900845,9.789695,54.895069,9.793790
1386834743,1,0,335.9,0,-35,20,0,0,0,-0.0292,-189.7085,6.8213,0.4212,54.896873,9.789711,108.3,5.845,1.85,335.95,54.900845,9.789695,54.895069,9.793790
1386834743,1,0,335.9,0,-35,16,0,0,25,-0.0292,-180.3751,6.8213,0.4212,54.896854,9.789712,108.3,5.845,1.85,335.95,54.900845,9.789695,54.895069,9.793790
1386834743,1,0,335.9,0,-35,12,0,0,0,-0.0292,-171.0418,6.8213,0.4212,54.896835,9.789707,108.3,5.845,1.85,335.95,54.900845,9.789695,54.895069,9.793790
1386834743,1,0,335.9,0,-35,8,0,0,25,-0.0292,-161.7085,6.8213,0.4212,54.896820,9.789698,108.3,5.845,1.85,335.95,54.900845,9.789695,54.895069,9.793790
1386834744,1,0,335.9,0,-35,4,0,0,0,-0.0292,-152.3752,6.8213,0.4212,54.896801,9.789683,108.3,5.845,1.85,335.95,54.900845,9.789695,54.895069,9.793790
1386834744,1,0,515.9,0,35,8,0,0,25,-0.0292,-161.7085,6.8213,0.4212,54.896782,9.789673,108.3,5.845,1.85,335.95,54.900845,9.789695,54.895069,9.793790
1386834744,1,0,515.9,0,35,12,0,0,0,-0.0292,-171.0418,6.8213,0.4212,54.896767,9.789668,108.3,5.845,1.85,335.95,54.900845,9.789695,54.895069,9.793790
1386834744,1,0,515.9,0,33,16,0,0,25,-0.0292,-179.8418,6.8213,0.4212,54.896748,9.789668,108.3,5.845,1.85,335.95,54.900845,9.789695,54.895069,9.793790
1386834745,1,0,515.9,0,24,20,0,0,0,-0.0292,-186.2418,6.8213,0.4212,54.896729,9.789672,108.3,5.845,1.85,335.95,54.900845,9.789695,54.895069,9.793790
1386834745,1,0,515.9,0,18,16,0,0,25,-0.0292,-191.0418,6.8213,0.4212,54.896709,9.789679,108.3,5.845,1.85,335.95,54.900845,9.789695,54.895069,9.793790
1386834745,1,0,515.9,0,13,12,0,0,0,-0.0292,-194.5085,6.8213,0.4212,54.896694,9.789686,108.3,5.845,1.85,335.95,54.900845,9.789695,54.895069,9.793790
1386834745,1,0,515.9,0,10,8,0,0,25,-0.0292,-197.1751,6.8213,0.4212,54.896675,9.789695,108.3,5.845,1.85,335.95,54.900845,9.789695,54.895069,9.793790
1386834746,1,0,485.9,0,35,12,0,0,0,-0.0292,-206.5085,6.8213,0.4212,54.896660,9.789709,108.3,5.845,1.85,335.95,54.900845,9.789695,54.895069,9.793790
1386834746,1,0,485.9,0,28,16,0,0,25,-0.0292,-213.9751,6.8213,0.4212,54.896645,9.789727,108.3,5.845,1.85,335.95,54.900845,9.789695,54.895069,9.793790
1386834746,1,0,485.9,0,20,20,0,0,0,-0.0292,-219.3085,6.8213,0.4212,54.896629,9.789746,108.3,5.845,1.85,335.95,54.900845,9.789695,54.895069,9.793790
1386834746,1,0,485.9,0,15,16,0,0,25,-0.0292,-223.3085,6.8213,0.4212,54.896614,9.789768,108.3,5.845,1.85,335.95,54.900845,9.789695,54.895069,9.793790
1386834747,1,0,485.9,0,11,12,0,0,0,-0.0292,-226.2418,6.8213,0.4212,54.896603,9.789790,108.3,5.845,1.85,335.95,54.900845,9.789695,54.895069,9.793790
1386834747,1,0,485.9,0,8,8,0,0,25,-0.0292,-228.3751,6.8213,0.4212,54.896591,9.789814,108.3,5.845,1.85,335.95,54.900845,9.789695,54.895069,9.793790
1386834747,1,0,485.9,0,6,4,0,409,50,-0.0292,-229.9751,6.8213,0.4212,54.896580,9.789838,108.3,5.845,1.85,335.95,54.900845,9.789695,54.895069,9.793790
1386834747,1,0,485.9,0,4,8,0,409,75,-0.0292,-231.0418,6.8213,0.4212,54.896568,9.789863,108.3,5.845,1.85,335.95,54.900845,9.789695,54.895069,9.793790
1386834748,1,0,485.9,0,3,4,0,409,100,-0.0292,-231.8418,6.8213,0.4212,54.896561,9.789887,108.3,5.845,1.85,335.95,54.900845,9.789695,54.895069,9.793790
1386834748,1,0,485.9,0,2,0,0,409,125,-0.0292,-232.3751,6.8213,0.4212,54.896549,9.789912,108.3,5.845,1.85,335.95,54.900845,9.789695,54.895069,9.793790
1386834748,1,0,485.9,0,2,4,0,409,150,-0.0292,-232.9085,6.8213,0.4212,54.896538,9.789937,108.3,5.845,1.85,335.95,54.900845,9.789695,54.895069,9.793790
1386834748,1,0,485.9,0,1,0,0,409,175,-0.0292,-233.1751,6.8213,0.4212,54.896526,9.789962,108.3,5.845,1.85,335.95,54.900845,9.789695,54.895069,9.793790
1386834749,1,0,485.9,0,1,4,0,409,200,-0.0292,-233.4418,6.8213,0.4212,54.896515,9.789988,108.3,5.845,1.85,335.95,54.900845,9.789695,54.895069,9.793790
1386834749,1,0,485.9,0,1,0,0,409,225,-0.0292,-233.7085,6.8213,0.4212,54.896507,9.790012,108.3,5.845,1.85,335.95,54.900845,9.789695,54.895069,9.793790
1386834749,1,0,485.9,0,0,4,0,409,250,-0.0292,-233.7085,6.8213,0.4212,54.896496,9.790038,108.3,5.845,1.85,335.95,54.900845,9.789695,54.895069,9.793790
1386834749,1,0,485.9,0,0,0,0,409,275,-0.0292,-233.7085,6.8213,0.4212,54.896484,9.790063,108.3,5.845,1.85,335.95,54.900845,9.789695,54.895069,9.793790
1386834750,1,0,485.9,0,0,4,0,409,300,-0.0292,-233.7085,6.8213,0.4212,54.896473,9.790088,108.3,5.845,1.85,335.95,54.900845,9.789695,54.895069,9.793790
1386834750,1,0,485.9,0,0,0,0,409,325,-0.0292,-233.7085,6.8213,0.4212,54.896461,9.790113,108.3,5.845,1.85,335.95,54.900845,9.789695,54.895069,9.793790
1386834750,1,0,485.9,0,0,4,0,409,350,-0.0292,-233.7085,6.8213,0.4212,54.896450,9.790138,108.3,5.845,1.85,335.95,54.900845,9.789695,54.895069,9.793790
1386834750,1,0,483.2,0,3,0,0,409,375,-0.0292,-234.5085,6.8213,0.4212,54.896439,9.790164,108.3,5.845,1.85,335.95,54.900845,9.789695,54.895069,9.793790
1386834751,1,0,483.1,0,2,4,0,409,400,-0.0292,-235.0418,6.8213,0.4212,54.896431,9.790190,108.3,5.845,1.85,335.95,54.900845,9.789695,54.895069,9.793790
1386834751,1,0,483.2,0,2,0,0,409,425,-0.0292,-235.5751,6.8213,0.4212,54.896420,9.790215,108.3,5.845,1.85,335.95,54.900845,9.789695,54.895069,9.793790
1386834751,1,0,483.1,0,1,4,0,409,400,-0.0292,-235.8418,6.8213,0.4212,54.896412,9.790241,108.3,5.845,1.85,335.95,54.900845,9.789695,54.895069,9.793790
1386834751,1,0,483.2,0,1,0,0,409,425,-0.0292,-236.1085,6.8213,0.4212,54.896400,9.790267,108.3,5.845,1.85,335.95,54.900845,9.789695,54.895069,9.793790
1386834752,1,0,483.1,0,1,4,0,409,400,-0.0292,-236.3751,6.8213,0.4212,54.896389,9.790294,108.3,5.845,1.85,335.95,54.900845,9.789695,54.895069,9.793790
1386834752,1,0,483.1,0,1,0,0,409,425,-0.0292,-236.6418,6.8213,0.4212,54.896381,9.790319,108.3,5.845,1.85,335.95,54.900845,9.789695,54.895069,9.793790
1386834752,1,0,483.2,0,0,4,0,409,400,-0.0292,-236.6418,6.8213,0.4212,54.896370,9.790345,108.3,5.845,1.85,335.95,54.900845,9.789695,54.895069,9.793790
1386834752,1,0,483.1,0,0,0,0,409,425,-0.0292,-236.6418,6.8213,0.4212,54.896362,9.790372,108.3,5.845,1.85,335.95,54.900845,9.789695,54.895069,9.793790
1386834753,1,0,483.2,0,0,4,0,409,400,-0.0292,-236.6418,6.8213,0.4212,54.896355,9.790398,108.3,5.845,1.85,335.95,54.900845,9.789695,54.895069,9.793790
1386834753,1,0,483.2,0,0,0,0,409,425,-0.0292,-236.6418,6.8213,0.4212,54.896343,9.790424,108.3,5.845,1.85,335.95,54.900845,9.789695,54.895069,9.793790
1386834753,1,0,483.2,0,0,4,0,409,400,-0.0292,-236.6418,6.8213,0.4212,54.896336,9.790450,108.3,5.845,1.85,335.95,54.900845,9.789695,54.895069,9.793790
1386834753,1,0,483.2,0,0,0,0,409,425,-0.0292,-236.6418,6.8213,0.4212,54.896324,9.790476,108.3,5.845,1.85,335.95,54.900845,9.789695,54.895069,9.793790
1386834754,1,0,483.2,0,0,4,0,409,400,-0.0292,-236.6418,6.8213,0.4212,54.896313,9.790503,108.3,5.845,1.85,335.95,54.900845,9.789695,54.895069,9.793790
1386834754,1,0,483.2,0,0,0,0,409,425,-0.0292,-236.6418,6.8213,0.4212,54.896301,9.790528,108.3,5.845,1.85,335.95,54.900845,9.789695,54.895069,9.793790
1386834754,1,0,483.1,0,0,4,0,409,400,-0.0292,-236.6418,6.8213,0.4212,54.896290,9.790555,108.3,5.845,1.85,335.95,54.900845,9.789695,54.895069,9.793790
1386834754,1,0,483.1,0,0,0,0,409,425,-0.0292,-236.6418,6.8213,0.4212,54.896282,9.790581,108.3,5.845,1.85,335.95,54.900845,9.789695,54.895069,9.793790
1386834755,1,0,483.2,0,0,4,0,409,400,-0.0292,-236.6418,6.8213,0.4212,54.896271,9.790606,108.3,5.845,1.85,335.95,54.900845,9.789695,54.895069,9.793790
1386834755,1,0,483.1,0,0,0,0,409,425,-0.0292,-236.6418,6.8213,0.4212,54.896263,9.790633,108.3,5.845,1.85,335.95,54.900845,9.789695,54.895069,9.793790
1386834755,1,0,483.2,0,0,4,0,409,400,-0.0292,-236.6418,6.8213,0.4212,54.896252,9.790659,108.3,5.845,1.85,335.95,54.900845,9.789695,54.895069,9.793790
1386834755,1,0,483.1,0,0,0,0,409,425,-0.0292,-236.6418,6.8213,0.4212,54.896240,9.790686,108.3,5.845,1.85,335.95,54.900845,9.789695,54.895069,9.793790
1386834756,1,0,483.1,0,0,4,0,409,400,-0.0292,-236.6418,6.8213,0.4212,54.896233,9.790711,108.3,5.845,1.85,335.95,54.900845,9.789695,54.895069,9.793790
1386834756,1,0,483.2,0,0,0,0,409,425,-0.0292,-236.6418,6.8213,0.4212,54.896221,9.790737,108.3,5.845,1.85,335.95,54.900845,9.789695,54.895069,9.793790
1386834756,1,0,483.1,0,0,4,0,409,400,-0.0292,-236.6418,6.8213,0.4212,54.896214,9.790764,108.3,5.845,1.85,335.95,54.900845,9.789695,54.895069,9.793790
1386834756,1,0,483.2,0,0,0,0,409,425,-0.0292,-236.6418,6.8213,0.4212,54.896202,9.790790,108.3,5.845,1.85,335.95,54.900845,9.789695,54.895069,9.793790
1386834757,1,0,483.1,0,0,4,0,409,400,-0.0292,-236.6418,6.8213,0.4212,54.896191,9.790815,108.3,5.845,1.85,335.95,54.900845,9.789695,54.895069,9.793790
1386834757,1,0,483.1,0,0,0,0,409,425,-0.0292,-236.6418,6.8213,0.4212,54.896183,9.790841,108.3,5.845,1.85,335.95,54.900845,9.789695,54.895069,9.793790
1386834757,1,0,483.1,0,0,4,0,409,400,-0.0292,-236.6418,6.8213,0.4212,54.896172,9.790867,108.3,5.845,1.85,335.95,54.900845,9.789695,54.895069,9.793790
1386834757,1,0,483.1,0,0,0,0,409,425,-0.0292,-236.6418,6.8213,0.4212,54.896164,9.790894,108.3,5.845,1.85,335.95,54.900845,9.789695,54.895069,9.793790
1386834758,1,0,483.2,0,0,4,0,409,400,-0.0292,-236.6418,6.8213,0.4212,54.896152,9.790919,108.3,5.845,1.85,335.95,54.900845,9.789695,54.895069,9.793790
1386834758,1,0,483.1,0,0,0,0,409,425,-0.0292,-236.6418,6.8213,0.4212,54.896141,9.790945,108.3,5.845,1.85,335.95,54.900845,9.789695,54.895069,9.793790
1386834758,1,0,483.1,0,0,4,0,409,400,-0.0292,-236.6418,6.8213,0.4212,54.896133,9.790972,108.3,5.845,1.85,335.95,54.900845,9.789695,54.895069,9.793790
1386834758,1,0,483.1,0,0,0,0,409,425,-0.0292,-236.6418,6.8213,0.4212,54.896122,9.790998,108.3,5.845,1.85,335.95,54.900845,9.789695,54.895069,9.793790
1386834759,1,0,483.1,0,0,4,0,409,400,-0.0292,-236.6418,6.8213,0.4212,54.896114,9.791024,108.3,5.845,1.85,335.95,54.900845,9.789695,54.895069,9.793790
1386834759,1,0,483.2,0,0,0,0,409,425,-0.0292,-236.6418,6.8213,0.4212,54.896103,9.791050,108.3,5.845,1.85,335.95,54.900845,9.789695,54.895069,9.793790
1386834759,1,0,483.1,0,0,4,0,409,400,-0.0292,-236.6418,6.8213,0.4212,54.896091,9.791076,108.3,5.845,1.85,335.95,54.900845,9.789695,54.895069,9.793790
1386834759,1,0,483.1,0,0,0,0,409,425,-0.0292,-236.6418,6.8213,0.4212,54.896080,9.791102,108.3,5.845,1.85,335.95,54.900845,9.789695,54.895069,9.793790
1386834760,1,0,483.0,0,0,4,0,409,400,-0.0292,-236.6418,6.8213,0.4212,54.896069,9.791128,108.3,5.845,1.85,335.95,54.900845,9.789695,54.895069,9.793790
1386834760,1,0,483.0,0,0,0,0,409,425,-0.0292,-236.6418,6.8213,0.4212,54.896061,9.791155,108.3,5.845,1.85,335.95,54.900845,9.789695,54.895069,9.793790
1386834760,1,0,483.0,0,0,4,0,409,400,-0.0292,-236.6418,6.8213,0.4212,54.896049,9.791181,108.3,5.845,1.85,335.95,54.900845,9.789695,54.895069,9.793790
1386834760,1,0,483.0,0,0,0,0,409,425,-0.0292,-236.6418,6.8213,0.4212,54.896042,9.791206,108.3,5.845,1.85,335.95,54.900845,9.789695,54.895069,9.793790
1386834761,1,0,483.1,0,0,4,0,409,400,-0.0292,-236.6418,6.8213,0.4212,54.896030,9.791233,108.3,5.845,1.85,335.95,54.900845,9.789695,54.895069,9.793790
1386834761,1,0,483.0,0,0,0,0,409,425,-0.0292,-236.6418,6.8213,0.4212,54.896019,9.791259,108.3,5.845,1.85,335.95,54.900845,9.789695,54.895069,9.793790
1386834761,1,0,483.0,0,0,4,0,409,400,-0.0292,-236.6418,6.8213,0.4212,54.896011,9.791286,108.3,5.845,1.85,335.95,54.900845,9.789695,54.895069,9.793790
1386834761,1,0,483.0,0,0,0,0,409,425,-0.0292,-236.6418,6.8213,0.4212,54.896000,9.791311,108.3,5.845,1.85,335.95,54.900845,9.789695,54.895069,9.793790
1386834762,1,0,483.0,0,0,4,0,409,400,-0.0292,-236.6418,6.8213,0.4212,54.895992,9.791337,108.3,5.845,1.85,335.95,54.900845,9.789695,54.895069,9.793790
1386834762,1,0,483.0,0,0,0,0,409,425,-0.0292,-236.6418,6.8213,0.4212,54.895981,9.791364,108.3,5.845,1.85,335.95,54.900845,9.789695,54.895069,9.793790
1386834762,1,0,483.0,0,0,4,0,409,400,-0.0292,-236.6418,6.8213,0.4212,54.895969,9.791389,108.3,5.845,1.85,335.95,54.900845,9.789695,54.895069,9.793790
1386834762,1,0,483.0,0,0,0,0,409,425,-0.0292,-236.6418,6.8213,0.4212,54.895962,9.791415,108.3,5.845,1.85,335.95,54.900845,9.789695,54.895069,9.793790
1386834763,1,0,483.0,0,0,4,0,409,400,-0.0292,-236.6418,6.8213,0.4212,54.895950,9.791441,108.3,5.845,1.85,335.95,54.900845,9.789695,54.895069,9.793790
1386834763,1,0,483.0,0,0,0,0,409,425,-0.0292,-236.6418,6.8213,0.4212,54.895943,9.791467,108.3,5.845,1.85,335.95,54.900845,9.789695,54.895069,9.793790
1386834763,1,0,483.0,0,0,4,0,409,400,-0.0292,-236.6418,6.8213,0.4212,54.895931,9.791493,108.3,5.845,1.85,335.95,54.900845,9.789695,54.895069,9.793790
1386834763,1,0,483.0,0,0,0,0,409,425,-0.0292,-236.6418,6.8213,0.4212,54.895920,9.791519,108.3,5.845,1.85,335.95,54.900845,9.789695,54.895069,9.793790
1386834764,1,0,482.9,0,0,4,0,409,400,-0.0292,-236.6418,6.8213,0.4212,54.895912,9.791545,108.3,5.845,1.85,335.95,54.900845,9.789695,54.895069,9.793790
1386834764,1,0,483.0,0,0,0,0,409,425,-0.0292,-236.6418,6.8213,0.4212,54.895901,9.791571,108.3,5.845,1.85,335.95,54.900845,9.789695,54.895069,9.793790
1386834764,1,0,482.9,0,0,4,0,409,400,-0.0292,-236.6418,6.8213,0.4212,54.895893,9.791596,108.3,5.845,1.85,335.95,54.900845,9.789695,54.895069,9.793790
1386834764,1,0,483.0,0,0,0,0,409,425,-0.0292,-236.6418,6.8213,0.4212,54.895882,9.791623,108.3,5.845,1.85,335.95,54.900845,9.789695,54.895069,9.793790
1386834765,1,0,482.9,0,0,4,0,409,400,-0.0292,-236.6418,6.8213,0.4212,54.895870,9.791649,108.3,5.845,1.85,335.95,54.900845,9.789695,54.895069,9.793790
1386834765,1,0,482.9,0,0,0,0,409,425,-0.0292,-236.6418,6.8213,0.4212,54.895859,9.791675,108.3,5.845,1.85,335.95,54.900845,9.789695,54.895069,9.793790
1386834765,1,0,482.8,0,1,4,0,409,400,-0.0292,-236.9085,6.8213,0.4212,54.895847,9.791701,108.3,5.845,1.85,335.95,54.900845,9.789695,54.895069,9.793790
1386834765,1,0,482.8,0,0,0,0,409,425,-0.0292,-236.9085,6.8213,0.4212,54.895840,9.791727,108.3,5.845,1.85,335.95,54.900845,9.789695,54.895069,9.793790
1386834766,1,0,482.8,0,0,4,0,409,400,-0.0292,-236.9085,6.8213,0.4212,54.895828,9.791754,108.3,5.845,1.85,335.95,54.900845,9.789695,54.895069,9.793790
1386834766,1,0,482.8,0,0,0,0,409,425,-0.0292,-236.9085,6.8213,0.4212,54.895821,9.791780,108.3,5.845,1.85,335.95,54.900845,9.789695,54.895069,9.793790
1386834766,1,0,482.9,0,0,4,0,409,400,-0.0292,-236.9085,6.8213,0.4212,54.895809,9.791805,108.3,5.845,1.85,335.95,54.900845,9.789695,54.895069,9.793790
1386834767,1,0,482.8,0,0,0,0,409,425,-0.0292,-236.9085,6.8213,0.4212,54.895798,9.791832,108.3,5.845,1.85,335.95,54.900845,9.789695,54.895069,9.793790
1386834767,1,0,482.7,0,0,4,0,409,400,-0.0292,-236.9085,6.8213,0.4212,54.895790,9.791858,108.3,5.845,1.85,335.95,54.900845,9.789695,54.895069,9.793790
1386834767,1,0,482.8,0,0,0,0,409,425,-0.0292,-236.9085,6.8213,0.4212,54.895779,9.791884,108.3,5.845,1.85,335.95,54.900845,9.789695,54.895069,9.793790
1386834767,1,0,482.8,0,0,4,0,409,400,-0.0292,-236.9085,6.8213,0.4212,54.895771,9.791911,108.3,5.845,1.85,335.95,54.900845,9.789695,54.895069,9.793790
1386834768,1,0,482.8,0,0,0,0,409,425,-0.0292,-236.9085,6.8213,0.4212,54.895760,9.791937,108.3,5.845,1.85,335.95,54.900845,9.789695,54.895069,9.793790
1386834768,1,0,482.8,0,0,4,0,409,400,-0.0292,-236.9085,6.8213,0.4212,54.895748,9.791964,108.3,5.845,1.85,335.95,54.900845,9.789695,54.895069,9.793790
1386834768,1,0,482.7,0,0,0,0,409,425,-0.0292,-236.9085,6.8213,0.4212,54.895741,9.791989,108.3,5.845,1.85,335.95,54.900845,9.789695,54.895069,9.793790
1386834768,1,0,482.8,0,0,4,0,409,400,-0.0292,-236.9085,6.8213,0.4212,54.895729,9.792015,108.3,5.845,1.85,335.95,54.900845,9.789695,54.895069,9.793790
1386834769,1,0,482.7,0,0,0,0,409,425,-0.0292,-236.9085,6.8213,0.4212,54.895721,9.792042,108.3,5.845,1.85,335.95,54.900845,9.789695,54.895069,9.793790
1386834769,1,0,482.8,0,0,4,0,409,400,-0.0292,-236.9085,6.8213,0.4212,54.895710,9.792068,108.3,5.845,1.85,335.95,54.900845,9.789695,54.895069,9.793790
1386834769,1,0,482.7,0,0,0,0,409,425,-0.0292,-236.9085,6.8213,0.4212,54.895699,9.792094,108.3,5.845,1.85,335.95,54.900845,9.789695,54.895069,9.793790
1386834769,1,0,482.7,0,0,4,0,409,400,-0.0292,-236.9085,6.8213,0.4212,54.895691,9.792120,108.3,5.845,1.85,335.95,54.900845,9.789695,54.895069,9.793790
1386834770,1,0,482.8,0,0,0,0,409,425,-0.0292,-236.9085,6.8213,0.4212,54.895679,9.792146,108.3,5.845,1.85,335.95,54.900845,9.789695,54.895069,9.793790
1386834770,1,0,482.7,0,0,4,0,409,400,-0.0292,-236.9085,6.8213,0.4212,54.895672,9.792172,108.3,5.845,1.85,335.95,54.900845,9.789695,54.895069,9.793790
1386834770,1,0,482.8,0,0,0,0,409,425,-0.0292,-236.9085,6.8213,0.4212,54.895660,9.792198,108.3,5.845,1.85,335.95,54.900845,9.789695,54.895069,9.793790
1386834770,1,0,482.7,0,0,4,0,409,400,-0.0292,-236.9085,6.8213,0.4212,54.895649,9.792225,108.3,5.845,1.85,335.95,54.900845,9.789695,54.895069,9.793790
1386834771,1,0,482.6,0,0,0,0,409,425,-0.0292,-236.9085,6.8213,0.4212,54.895641,9.792251,108.3,5.845,1.85,335.95,54.900845,9.789695,54.895069,9.793790
1386834771,1,0,482.7,0,0,4,0,409,400,-0.0292,-236.9085,6.8213,0.4212,54.895630,9.792276,108.3,5.845,1.85,335.95,54.900845,9.789695,54.895069,9.793790
1386834771,1,0,482.6,0,0,0,0,409,425,-0.0292,-236.9085,6.8213,0.4212,54.895622,9.792303,108.3,5.845,1.85,335.95,54.900845,9.789695,54.895069,9.793790
1386834771,1,0,482.7,0,0,4,0,409,400,-0.0292,-236.9085,6.8213,0.4212,54.895611,9.792329,108.3,5.845,1.85,335.95,54.900845,9.789695,54.895069,9.793790
1386834772,1,0,482.6,0,0,0,0,409,425,-0.0292,-236.9085,6.8213,0.4212,54.895599,9.792356,108.3,5.845,1.85,335.95,54.900845,9.789695,54.895069,9.793790
1386834772,1,0,482.6,0,1,4,0,409,400,-0.0292,-237.1751,6.8213,0.4212,54.895592,9.792382,108.3,5.845,1.85,335.95,54.900845,9.789695,54.895069,9.793790
1386834772,1,0,482.7,0,0,0,0,409,425,-0.0292,-237.1751,6.8213,0.4212,54.895580,9.792408,108.3,5.845,1.85,335.95,54.900845,9.789695,54.895069,9.793790
1386834772,1,0,482.6,0,0,4,0,409,400,-0.0292,-237.1751,6.8213,0.4212,54.895573,9.792435,108.3,5.845,1.85,335.95,54.900845,9.789695,54.895069,9.793790
1386834773,1,0,482.7,0,0,0,0,409,425,-0.0292,-237.1751,6.8213,0.4212,54.895561,9.792460,108.3,5.845,1.85,335.95,54.900845,9.789695,54.895069,9.793790
1386834773,1,0,482.6,0,0,4,0,409,400,-0.0292,-237.1751,6.8213,0.4212,54.895550,9.792486,108.3,5.845,1.85,335.95,54.900845,9.789695,54.895069,9.793790
1386834773,1,0,482.5,0,0,0,0,409,425,-0.0292,-237.1751,6.8213,0.4212,54.895538,9.792513,108.3,5.845,1.85,335.95,54.900845,9.789695,54.895069,9.793790
1386834773,1,0,482.4,0,0,4,0,409,400,-0.0292,-237.1751,6.8213,0.4212,54.895527,9.792539,108.3,5.845,1.85,335.95,54.900845,9.789695,54.895069,9.793790
