MCU_timestamp,Navigation_System,Manual_Control,Guidance_Heading,Manual_Ctrl_Rudder,Rudder_Desired_Angle,Rudder_Feedback,Manual_Ctrl_Sail,Sail_Desired_Pos,Sail_Feedback,Rate,Heading,Pitch,Roll,Latitude,Longitude,COG,SOG,Wind_Speed,Wind_Angle,Point_Start_Lat,Point_Start_Lon,Point_End_Lat,Point_End_Lon
1386882835,0,0,0.0,0,0,20,0,0,0,-0.0292,95.6255,6.8213,0.4212,54.896885,9.784269,108.3,5.845,1.85,335.95,0.000000,0.000000,0.000000,0.000000
1386882835,0,0,0.0,0,0,20,0,0,0,-0.0292,95.6255,6.8213,0.4212,54.896885,9.784269,108.3,5.845,1.85,335.95,0.000000,0.000000,0.000000,0.000000
1386882835,0,0,0.0,0,0,20,0,0,0,-0.0292,95.6255,6.8213,0.4212,54.896885,9.784269,108.3,5.845,1.85,335.95,0.000000,0.000000,0.000000,0.000000
1386882836,0,0,0.0,0,0,20,0,0,0,-0.0292,95.6255,6.8213,0.4212,54.896885,9.784269,108.3,5.845,1.85,335.95,0.000000,0.000000,0.000000,0.000000
1386882836,0,0,0.0,0,0,20,0,0,0,-0.0292,95.6255,6.8213,0.4212,54.896885,9.784269,108.3,5.845,1.85,335.95,0.000000,0.000000,0.000000,0.000000
1386882836,0,0,0.0,0,0,20,0,0,0,-0.0292,95.6255,6.8213,0.4212,54.896885,9.784269,108.3,5.845,1.85,335.95,0.000000,0.000000,0.000000,0.000000
1386882836,0,0,0.0,0,0,20,0,0,0,-0.0292,95.6255,6.8213,0.4212,54.896885,9.784269,108.3,5.845,1.85,335.95,0.000000,0.000000,0.000000,0.000000
1386882837,0,0,0.0,0,0,20,0,0,0,-0.0292,95.6255,6.8213,0.4212,54.896885,9.784269,108.3,5.845,1.85,335.95,0.000000,0.000000,0.000000,0.000000
1386882837,0,0,0.0,0,0,20,0,0,0,-0.0292,95.6255,6.8213,0.4212,54.896885,9.784269,108.3,5.845,1.85,335.95,0.000000,0.000000,0.000000,0.000000
1386882837,0,0,0.0,0,0,20,0,0,0,-0.0292,95.6255,6.8213,0.4212,54.896885,9.784269,108.3,5.845,1.85,335.95,0.000000,0.000000,0.000000,0.000000
1386882837,0,0,0.0,0,0,20,0,0,0,-0.0292,95.6255,6.8213,0.4212,54.896885,9.784269,108.3,5.845,1.85,335.95,0.000000,0.000000,0.000000,0.000000
1386882838,0,0,0.0,0,0,20,0,0,0,-0.0292,95.6255,6.8213,0.4212,54.896885,9.784269,108.3,5.845,1.85,335.95,0.000000,0.000000,0.000000,0.000000
1386882838,0,0,0.0,0,0,20,0,0,0,-0.0292,95.6255,6.8213,0.4212,54.896885,9.784269,108.3,5.845,1.85,335.95,0.000000,0.000000,0.000000,0.000000
1386882838,0,0,0.0,0,0,20,0,0,0,-0.0292,95.6255,6.8213,0.4212,54.896885,9.784269,108.3,5.845,1.85,335.95,0.000000,0.000000,0.000000,0.000000
1386882838,0,0,0.0,0,0,20,0,0,0,-0.0292,95.6255,6.8213,0.4212,54.896885,9.784269,108.3,5.845,1.85,335.95,0.000000,0.000000,0.000000,0.000000
1386882839,0,0,0.0,0,0,20,0,0,0,-0.0292,95.6255,6.8213,0.4212,54.896885,9.784269,108.3,5.845,1.85,335.95,0.000000,0.000000,0.000000,0.000000
1386882839,0,0,0.0,0,0,20,0,0,0,-0.0292,95.6255,6.8213,0.4212,54.896885,9.784269,108.3,5.845,1.85,335.95,0.000000,0.000000,0.000000,0.000000
1386882839,0,0,0.0,0,0,20,0,0,0,-0.0292,95.6255,6.8213,0.4212,54.896885,9.784269,108.3,5.845,1.85,335.95,0.000000,0.000000,0.000000,0.000000
1386882839,0,0,0.0,0,0,20,0,0,0,-0.0292,95.6255,6.8213,0.4212,54.896885,9.784269,108.3,5.845,1.85,335.95,0.000000,0.000000,0.000000,0.000000
1386882840,0,0,0.0,0,0,20,0,0,0,-0.0292,95.6255,6.8213,0.4212,54.896885,9.784269,108.3,5.845,1.85,335.95,0.000000,0.000000,0.000000,0.000000
1386882840,0,0,0.0,0,0,20,0,0,0,-0.0292,95.6255,6.8213,0.4212,54.896885,9.784269,108.3,5.845,1.85,335.95,0.000000,0.000000,0.000000,0.000000
1386882840,0,0,0.0,0,0,20,0,0,0,-0.0292,95.6255,6.8213,0.4212,54.896885,9.784269,108.3,5.845,1.85,335.95,0.000000,0.000000,0.000000,0.000000
1386882840,0,0,0.0,0,0,20,0,0,0,-0.0292,95.6255,6.8213,0.4212,54.896885,9.784269,108.3,5.845,1.85,335.95,0.000000,0.000000,0.000000,0.000000
1386882841,0,0,0.0,0,0,20,0,0,0,-0.0292,95.6255,6.8213,0.4212,54.896885,9.784269,108.3,5.845,1.85,335.95,0.000000,0.000000,0.000000,0.000000
1386882841,0,0,0.0,0,0,20,0,0,0,-0.0292,95.6255,6.8213,0.4212,54.896885,9.784269,108.3,5.845,1.85,335.95,0.000000,0.000000,0.000000,0.000000
1386882841,0,0,0.0,0,0,20,0,0,0,-0.0292,95.6255,6.8213,0.4212,54.896885,9.784269,108.3,5.845,1.85,335.95,0.000000,0.000000,0.000000,0.000000
1386882841,0,0,0.0,0,0,20,0,0,0,-0.0292,95.6255,6.8213,0.4212,54.896885,9.784269,108.3,5.845,1.85,335.95,0.000000,0.000000,0.000000,0.000000
1386882842,0,0,0.0,0,0,20,0,0,0,-0.0292,95.6255,6.8213,0.4212,54.896885,9.784269,108.3,5.845,1.85,335.95,0.000000,0.000000,0.000000,0.000000
1386882842,0,0,0.0,0,0,20,0,0,0,-0.0292,95.6255,6.8213,0.4212,54.896885,9.784269,108.3,5.845,1.85,335.95,0.000000,0.000000,0.000000,0.000000
1386882842,0,0,0.0,0,0,20,0,0,0,-0.0292,95.6255,6.8213,0.4212,54.896885,9.784269,108.3,5.845,1.85,335.95,0.000000,0.000000,0.000000,0.000000
1386882842,0,0,0.0,0,0,20,0,0,0,-0.0292,95.6255,6.8213,0.4212,54.896885,9.784269,108.3,5.845,1.85,335.95,0.000000,0.000000,0.000000,0.000000
1386882843,0,0,0.0,0,0,20,0,0,0,-0.0292,95.6255,6.8213,0.4212,54.896885,9.784269,108.3,5.845,1.85,335.95,0.000000,0.000000,0.000000,0.000000
1386882843,0,0,0.0,0,0,20,0,0,0,-0.0292,95.6255,6.8213,0.4212,54.896885,9.784269,108.3,5.845,1.85,335.95,0.000000,0.000000,0.000000,0.000000
1386882843,0,0,0.0,0,0,20,0,0,0,-0.0292,95.6255,6.8213,0.4212,54.896885,9.784269,108.3,5.845,1.85,335.95,0.000000,0.000000,0.000000,0.000000
1386882843,0,0,0.0,0,0,20,0,0,0,-0.0292,95.6255,6.8213,0.4212,54.896885,9.784269,108.3,5.845,1.85,335.95,0.000000,0.000000,0.000000,0.000000
1386882844,0,0,0.0,0,0,20,0,0,0,-0.0292,95.6255,6.8213,0.4212,54.896885,9.784269,108.3,5.845,1.85,335.95,0.000000,0.000000,0.000000,0.000000
1386882844,0,0,0.0,0,0,20,0,0,0,-0.0292,95.6255,6.8213,0.4212,54.896885,9.784269,108.3,5.845,1.85,335.95,0.000000,0.000000,0.000000,0.000000
1386882844,0,0,0.0,0,0,20,0,0,0,-0.0292,95.6255,6.8213,0.4212,54.896885,9.784269,108.3,5.845,1.85,335.95,0.000000,0.000000,0.000000,0.000000
1386882844,0,0,0.0,0,0,20,0,0,0,-0.0292,95.6255,6.8213,0.4212,54.896885,9.784269,108.3,5.845,1.85,335.95,0.000000,0.000000,0.000000,0.000000
1386882845,0,0,0.0,0,0,20,0,0,0,-0.0292,95.6255,6.8213,0.4212,54.896885,9.784269,108.3,5.845,1.85,335.95,0.000000,0.000000,0.000000,0.000000
1386882845,0,0,0.0,0,0,20,0,0,0,-0.0292,95.6255,6.8213,0.4212,54.896885,9.784269,108.3,5.845,1.85,335.95,0.000000,0.000000,0.000000,0.000000
1386882845,0,0,0.0,0,0,20,0,0,0,-0.0292,95.6255,6.8213,0.4212,54.896885,9.784269,108.3,5.845,1.85,335.95,0.000000,0.000000,0.000000,0.000000
1386882845,0,0,0.0,0,0,20,0,0,0,-0.0292,95.6255,6.8213,0.4212,54.896885,9.784269,108.3,5.845,1.85,335.95,0.000000,0.000000,0.000000,0.000000
1386882846,0,0,0.0,0,0,20,0,0,0,-0.0292,95.6255,6.8213,0.4212,54.896885,9.784269,108.3,5.845,1.85,335.95,0.000000,0.000000,0.000000,0.000000
1386882846,0,0,0.0,0,0,20,0,0,0,-0.0292,95.6255,6.8213,0.4212,54.896885,9.784269,108.3,5.845,1.85,335.95,0.000000,0.000000,0.000000,0.000000
1386882846,0,0,0.0,0,0,20,0,0,0,-0.0292,95.6255,6.8213,0.4212,54.896885,9.784269,108.3,5.845,1.85,335.95,0.000000,0.000000,0.000000,0.000000
1386882846,0,0,0.0,0,0,20,0,0,0,-0.0292,95.6255,6.8213,0.4212,54.896885,9.784269,108.3,5.845,1.85,335.95,0.000000,0.000000,0.000000,0.000000
1386882847,0,0,0.0,0,0,20,0,0,0,-0.0292,95.6255,6.8213,0.4212,54.896885,9.784269,108.3,5.845,1.85,335.95,0.000000,0.000000,0.000000,0.000000
1386882847,4,0,0.0,0,0,20,0,0,0,-0.0292,95.6255,6.8213,0.4212,54.896885,9.784269,108.3,5.845,1.85,335.95,0.000000,0.000000,0.000000,0.000000
1386882847,1,0,468.2,0,-13,16,0,491,25,-0.0292,99.0922,6.8213,0.4212,54.896885,9.784301,108.3,5.845,1.85,335.95,54.896885,9.784269,54.895069,9.793790
1386882847,1,0,468.3,0,-9,12,0,500,50,-0.0292,101.4922,6.8213,0.4212,54.896881,9.784331,108.3,5.845,1.85,335.95,54.896885,9.784269,54.895069,9.793790
1386882848,1,0,468.3,0,-7,8,0,500,75,-0.0292,103.3588,6.8213,0.4212,54.896877,9.784362,108.3,5.845,1.85,335.95,54.896885,9.784269,54.895069,9.793790
1386882848,1,0,468.3,0,-5,4,0,500,100,-0.0292,104.6922,6.8213,0.4212,54.896873,9.784391,108.3,5.845,1.85,335.95,54.896885,9.784269,54.895069,9.793790
1386882848,1,0,468.4,0,-4,0,0,500,125,-0.0292,105.7588,6.8213,0.4212,54.896870,9.784422,108.3,5.845,1.85,335.95,54.896885,9.784269,54.895069,9.793790
1386882848,1,0,468.4,0,-3,-4,0,500,150,-0.0292,106.5588,6.8213,0.4212,54.896862,9.784451,108.3,5.845,1.85,335.95,54.896885,9.784269,54.895069,9.793790
1386882849,1,0,468.4,0,-2,0,0,500,175,-0.0292,107.0922,6.8213,0.4212,54.896858,9.784481,108.3,5.845,1.85,335.95,54.896885,9.784269,54.895069,9.793790
1386882849,1,0,468.4,0,-1,-4,0,500,200,-0.0292,107.3588,6.8213,0.4212,54.896854,9.784512,108.3,5.845,1.85,335.95,54.896885,9.784269,54.895069,9.793790
1386882849,1,0,468.4,0,-1,0,0,500,225,-0.0292,107.6255,6.8213,0.4212,54.896851,9.784541,108.3,5.845,1.85,335.95,54.896885,9.784269,54.895069,9.793790
1386882849,1,0,468.4,0,-1,-4,0,500,250,-0.0292,107.8922,6.8213,0.4212,54.896843,9.784571,108.3,5.845,1.85,335.95,54.896885,9.784269,54.895069,9.793790
1386882850,1,0,468.4,0,-1,0,0,500,275,-0.0292,108.1588,6.8213,0.4212,54.896835,9.784601,108.3,5.845,1.85,335.95,54.896885,9.784269,54.895069,9.793790
1386882850,1,0,468.4,0,0,4,0,500,300,-0.0292,108.1588,6.8213,0.4212,54.896832,9.784631,108.3,5.845,1.85,335.95,54.896885,9.784269,54.895069,9.793790
1386882850,1,0,468.4,0,0,0,0,500,325,-0.0292,108.1588,6.8213,0.4212,54.896828,9.784660,108.3,5.845,1.85,335.95,54.896885,9.784269,54.895069,9.793790
1386882850,1,0,468.4,0,0,4,0,500,350,-0.0292,108.1588,6.8213,0.4212,54.896824,9.784690,108.3,5.845,1.85,335.95,54.896885,9.784269,54.895069,9.793790
1386882851,1,0,468.4,0,0,0,0,500,375,-0.0292,108.1588,6.8213,0.4212,54.896816,9.784719,108.3,5.845,1.85,335.95,54.896885,9.784269,54.895069,9.793790
1386882851,1,0,468.4,0,0,4,0,500,400,-0.0292,108.1588,6.8213,0.4212,54.896809,9.784749,108.3,5.845,1.85,335.95,54.896885,9.784269,54.895069,9.793790
1386882851,1,0,468.4,0,0,0,0,500,425,-0.0292,108.1588,6.8213,0.4212,54.896805,9.784779,108.3,5.845,1.85,335.95,54.896885,9.784269,54.895069,9.793790
1386882851,1,0,468.4,0,0,4,0,500,450,-0.0292,108.1588,6.8213,0.4212,54.896801,9.784808,108.3,5.845,1.85,335.95,54.896885,9.784269,54.895069,9.793790
1386882852,1,0,468.4,0,0,0,0,500,475,-0.0292,108.1588,6.8213,0.4212,54.896793,9.784838,108.3,5.845,1.85,335.95,54.896885,9.784269,54.895069,9.793790
1386882852,1,0,468.4,0,0,4,0,500,500,-0.0292,108.1588,6.8213,0.4212,54.896786,9.784867,108.3,5.845,1.85,335.95,54.896885,9.784269,54.895069,9.793790
1386882852,1,0,468.4,0,0,0,0,500,525,-0.0292,108.1588,6.8213,0.4212,54.896782,9.784897,108.3,5.845,1.85,335.95,54.896885,9.784269,54.895069,9.793790
1386882852,1,0,468.4,0,0,4,0,500,500,-0.0292,108.1588,6.8213,0.4212,54.896778,9.784926,108.3,5.845,1.85,335.95,54.896885,9.784269,54.895069,9.793790
1386882853,1,0,468.4,0,0,0,0,500,525,-0.0292,108.1588,6.8213,0.4212,54.896774,9.784956,108.3,5.845,1.85,335.95,54.896885,9.784269,54.895069,9.793790
1386882853,1,0,468.4,0,0,4,0,500,500,-0.0292,108.1588,6.8213,0.4212,54.896767,9.784986,108.3,5.845,1.85,335.95,54.896885,9.784269,54.895069,9.793790
1386882853,1,0,468.4,0,0,0,0,500,525,-0.0292,108.1588,6.8213,0.4212,54.896759,9.785016,108.3,5.845,1.85,335.95,54.896885,9.784269,54.895069,9.793790
1386882853,1,0,468.4,0,0,4,0,500,500,-0.0292,108.1588,6.8213,0.4212,54.896755,9.785046,108.3,5.845,1.85,335.95,54.896885,9.784269,54.895069,9.793790
1386882854,1,0,468.4,0,0,0,0,500,525,-0.0292,108.1588,6.8213,0.4212,54.896751,9.785075,108.3,5.845,1.85,335.95,54.896885,9.784269,54.895069,9.793790
1386882854,1,0,468.4,0,0,4,0,500,500,-0.0292,108.1588,6.8213,0.4212,54.896744,9.785105,108.3,5.845,1.85,335.95,54.896885,9.784269,54.895069,9.793790
1386882854,1,0,468.4,0,0,0,0,500,525,-0.0292,108.1588,6.8213,0.4212,54.896736,9.785134,108.3,5.845,1.85,335.95,54.896885,9.784269,54.895069,9.793790
1386882854,1,0,468.4,0,0,4,0,500,500,-0.0292,108.1588,6.8213,0.4212,54.896732,9.785164,108.3,5.845,1.85,335.95,54.896885,9.784269,54.895069,9.793790
1386882855,1,0,468.4,0,0,0,0,500,525,-0.0292,108.1588,6.8213,0.4212,54.896729,9.785193,108.3,5.845,1.85,335.95,54.896885,9.784269,54.895069,9.793790
1386882855,1,0,468.4,0,0,4,0,500,500,-0.0292,108.1588,6.8213,0.4212,54.896725,9.785223,108.3,5.845,1.85,335.95,54.896885,9.784269,54.895069,9.793790
1386882855,1,0,468.5,0,0,0,0,500,525,-0.0292,108.1588,6.8213,0.4212,54.896717,9.785253,108.3,5.845,1.85,335.95,54.896885,9.784269,54.895069,9.793790
1386882855,1,0,468.4,0,0,4,0,500,500,-0.0292,108.1588,6.8213,0.4212,54.896709,9.785282,108.3,5.845,1.85,335.95,54.896885,9.784269,54.895069,9.793790
1386882856,1,0,468.4,0,0,0,0,500,525,-0.0292,108.1588,6.8213,0.4212,54.896706,9.785312,108.3,5.845,1.85,335.95,54.896885,9.784269,54.895069,9.793790
1386882856,1,0,468.4,0,0,4,0,500,500,-0.0292,108.1588,6.8213,0.4212,54.896702,9.785341,108.3,5.845,1.85,335.95,54.896885,9.784269,54.895069,9.793790
1386882856,1,0,468.5,0,0,0,0,500,525,-0.0292,108.1588,6.8213,0.4212,54.896694,9.785372,108.3,5.845,1.85,335.95,54.896885,9.784269,54.895069,9.793790
1386882856,1,0,468.5,0,0,4,0,500,500,-0.0292,108.1588,6.8213,0.4212,54.896687,9.785401,108.3,5.845,1.85,335.95,54.896885,9.784269,54.895069,9.793790
1386882857,1,0,468.4,0,0,0,0,500,525,-0.0292,108.1588,6.8213,0.4212,54.896683,9.785431,108.3,5.845,1.85,335.95,54.896885,9.784269,54.895069,9.793790
1386882857,1,0,468.4,0,0,4,0,500,500,-0.0292,108.1588,6.8213,0.4212,54.896679,9.785460,108.3,5.845,1.85,335.95,54.896885,9.784269,54.895069,9.793790
1386882857,1,0,485.9,0,-18,0,0,500,525,-0.0292,112.9588,6.8213,0.4212,54.888531,9.799811,108.3,5.845,1.85,335.95,54.896885,9.784269,54.895069,9.793790
1386882857,1,0,485.9,0,-13,-4,0,409,500,-0.0292,116.4255,6.8213,0.4212,54.888519,9.799839,108.3,5.845,1.85,335.95,54.896885,9.784269,54.895069,9.793790
1386882858,1,0,485.9,0,-10,-8,0,409,475,-0.0292,119.0922,6.8213,0.4212,54.888512,9.799866,108.3,5.845,1.85,335.95,54.896885,9.784269,54.895069,9.793790
1386882858,1,0,485.9,0,-7,-4,0,0,450,-0.0292,120.9588,6.8213,0.4212,54.888500,9.799892,108.3,5.845,1.85,335.95,54.896885,9.784269,54.895069,9.793790
1386882858,1,0,485.9,0,-5,-8,0,0,425,-0.0292,122.2922,6.8213,0.4212,54.888493,9.799919,108.3,5.845,1.85,335.95,54.896885,9.784269,54.895069,9.793790
1386882858,1,0,485.9,0,-4,-4,0,0,400,-0.0292,123.3588,6.8213,0.4212,54.888485,9.799945,108.3,5.845,1.85,335.95,54.896885,9.784269,54.895069,9.793790
1386882859,1,0,485.9,0,-3,0,0,0,375,-0.0292,124.1589,6.8213,0.4212,54.888474,9.799971,108.3,5.845,1.85,335.95,54.896885,9.784269,54.895069,9.793790
1386882859,1,0,485.9,0,-2,-4,0,0,350,-0.0292,124.6922,6.8213,0.4212,54.888466,9.799996,108.3,5.845,1.85,335.95,54.896885,9.784269,54.895069,9.793790
1386882859,1,0,485.9,0,-1,0,0,0,325,-0.0292,124.9589,6.8213,0.4212,54.888454,9.800022,108.3,5.845,1.85,335.95,54.896885,9.784269,54.895069,9.793790
1386882859,1,0,485.9,0,-1,-4,0,0,300,-0.0292,125.2255,6.8213,0.4212,54.888443,9.800048,108.3,5.845,1.85,335.95,54.896885,9.784269,54.895069,9.793790
1386882860,1,0,485.9,0,-1,0,0,0,275,-0.0292,125.4922,6.8213,0.4212,54.888432,9.800073,108.3,5.845,1.85,335.95,54.896885,9.784269,54.895069,9.793790
1386882860,1,0,485.9,0,0,4,0,0,250,-0.0292,125.4922,6.8213,0.4212,54.888420,9.800098,108.3,5.845,1.85,335.95,54.896885,9.784269,54.895069,9.793790
1386882860,1,0,485.9,0,0,0,0,0,225,-0.0292,125.4922,6.8213,0.4212,54.888409,9.800123,108.3,5.845,1.85,335.95,54.896885,9.784269,54.895069,9.793790
1386882860,1,0,485.9,0,0,4,0,0,200,-0.0292,125.4922,6.8213,0.4212,54.888397,9.800149,108.3,5.845,1.85,335.95,54.896885,9.784269,54.895069,9.793790
1386882861,1,0,485.9,0,0,0,0,0,175,-0.0292,125.4922,6.8213,0.4212,54.888390,9.800175,108.3,5.845,1.85,335.95,54.896885,9.784269,54.895069,9.793790
1386882861,1,0,485.9,0,0,4,0,0,150,-0.0292,125.4922,6.8213,0.4212,54.888378,9.800200,108.3,5.845,1.85,335.95,54.896885,9.784269,54.895069,9.793790
1386882861,1,0,485.9,0,0,0,0,0,125,-0.0292,125.4922,6.8213,0.4212,54.888371,9.800226,108.3,5.845,1.85,335.95,54.896885,9.784269,54.895069,9.793790
1386882861,1,0,485.9,0,0,4,0,0,100,-0.0292,125.4922,6.8213,0.4212,54.888359,9.800251,108.3,5.845,1.85,335.95,54.896885,9.784269,54.895069,9.793790
1386882862,1,0,485.9,0,0,0,0,0,75,-0.0292,125.4922,6.8213,0.4212,54.888348,9.800277,108.3,5.845,1.85,335.95,54.896885,9.784269,54.895069,9.793790
1386882862,1,0,485.9,0,0,4,0,0,50,-0.0292,125.4922,6.8213,0.4212,54.888340,9.800302,108.3,5.845,1.85,335.95,54.896885,9.784269,54.895069,9.793790
1386882862,1,0,485.9,0,0,0,0,0,25,-0.0292,125.4922,6.8213,0.4212,54.888329,9.800327,108.3,5.845,1.85,335.95,54.896885,9.784269,54.895069,9.793790
1386882862,1,0,485.9,0,0,4,0,0,0,-0.0292,125.4922,6.8213,0.4212,54.888321,9.800353,108.3,5.845,1.85,335.95,54.896885,9.784269,54.895069,9.793790
1386882863,1,0,485.9,0,0,0,0,0,25,-0.0292,125.4922,6.8213,0.4212,54.888309,9.800378,108.3,5.845,1.85,335.95,54.896885,9.784269,54.895069,9.793790
1386882863,1,0,545.9,0,-35,-4,0,0,0,-0.0292,134.8255,6.8213,0.4212,54.888294,9.800400,108.3,5.845,1.85,335.95,54.896885,9.784269,54.895069,9.793790
1386882863,1,0,545.9,0,-35,-8,0,0,25,-0.0292,144.1589,6.8213,0.4212,54.888279,9.800418,108.3,5.845,1.85,335.95,54.896885,9.784269,54.895069,9.793790
1386882863,1,0,545.9,0,-35,-12,0,0,0,-0.0292,153.4922,6.8213,0.4212,54.888264,9.800432,108.3,5.845,1.85,335.95,54.896885,9.784269,54.895069,9.793790
1386882864,1,0,545.9,0,-32,-16,0,0,25,-0.0292,162.0255,6.8213,0.4212,54.888245,9.800443,108.3,5.845,1.85,335.95,54.896885,9.784269,54.895069,9.793790
1386882864,1,0,545.9,0,-24,-20,0,0,0,-0.0292,168.4255,6.8213,0.4212,54.888226,9.800448,108.3,5.845,1.85,335.95,54.896885,9.784269,54.895069,9.793790
1386882864,1,0,545.9,0,-18,-16,0,0,25,-0.0292,173.2255,6.8213,0.4212,54.888210,9.800452,108.3,5.845,1.85,335.95,54.896885,9.784269,54.895069,9.793790
1386882864,1,0,545.9,0,-13,-12,0,0,0,-0.0292,176.6922,6.8213,0.4212,54.888191,9.800454,108.3,5.845,1.85,335.95,54.896885,9.784269,54.895069,9.793790
1386882865,1,0,545.9,0,-9,-8,0,0,25,-0.0292,179.0922,6.8213,0.4212,54.888172,9.800455,108.3,5.845,1.85,335.95,54.896885,9.784269,54.895069,9.793790
1386882865,1,0,545.9,0,-7,-4,0,409,50,-0.0292,180.9588,6.8213,0.4212,54.888153,9.800454,108.3,5.845,1.85,335.95,54.896885,9.784269,54.895069,9.793790
1386882865,1,0,545.9,0,-5,-8,0,409,75,-0.0292,182.2922,6.8213,0.4212,54.888138,9.800453,108.3,5.845,1.85,335.95,54.896885,9.784269,54.895069,9.793790
1386882865,1,0,545.9,0,-4,-4,0,409,100,-0.0292,183.3588,6.8213,0.4212,54.888119,9.800451,108.3,5.845,1.85,335.95,54.896885,9.784269,54.895069,9.793790
1386882866,1,0,545.9,0,-3,0,0,409,125,-0.0292,184.1588,6.8213,0.4212,54.888100,9.800449,108.3,5.845,1.85,335.95,54.896885,9.784269,54.895069,9.793790
1386882866,1,0,545.9,0,-2,-4,0,409,150,-0.0292,184.6922,6.8213,0.4212,54.888081,9.800447,108.3,5.845,1.85,335.95,54.896885,9.784269,54.895069,9.793790
1386882866,1,0,545.9,0,-1,0,0,409,175,-0.0292,184.9588,6.8213,0.4212,54.888065,9.800444,108.3,5.845,1.85,335.95,54.896885,9.784269,54.895069,9.793790
1386882866,1,0,545.9,0,-1,-4,0,409,200,-0.0292,185.2255,6.8213,0.4212,54.888046,9.800441,108.3,5.845,1.85,335.95,54.896885,9.784269,54.895069,9.793790
1386882867,1,0,545.9,0,-1,0,0,409,225,-0.0292,185.4922,6.8213,0.4212,54.888027,9.800438,108.3,5.845,1.85,335.95,54.896885,9.784269,54.895069,9.793790
1386882867,1,0,545.9,0,0,4,0,409,250,-0.0292,185.4922,6.8213,0.4212,54.888012,9.800434,108.3,5.845,1.85,335.95,54.896885,9.784269,54.895069,9.793790
1386882867,1,0,545.9,0,0,0,0,409,275,-0.0292,185.4922,6.8213,0.4212,54.887993,9.800430,108.3,5.845,1.85,335.95,54.896885,9.784269,54.895069,9.793790
1386882867,1,0,545.9,0,0,4,0,409,300,-0.0292,185.4922,6.8213,0.4212,54.887974,9.800427,108.3,5.845,1.85,335.95,54.896885,9.784269,54.895069,9.793790
1386882868,1,0,545.9,0,0,0,0,409,325,-0.0292,185.4922,6.8213,0.4212,54.887955,9.800425,108.3,5.845,1.85,335.95,54.896885,9.784269,54.895069,9.793790
1386882868,1,0,280.9,0,-35,-4,0,409,350,-0.0292,194.8255,6.8213,0.4212,54.887939,9.800417,108.3,5.845,1.85,335.95,54.896885,9.784269,54.895069,9.793790
1386882868,1,0,545.9,0,9,0,0,409,375,-0.0292,192.4255,6.8213,0.4212,54.887920,9.800410,108.3,5.845,1.85,335.95,54.896885,9.784269,54.895069,9.793790
1386882868,1,0,545.9,0,6,4,0,0,350,-0.0292,190.8255,6.8213,0.4212,54.887901,9.800405,108.3,5.845,1.85,335.95,54.896885,9.784269,54.895069,9.793790
1386882869,1,0,545.9,0,5,8,0,0,325,-0.0292,189.4922,6.8213,0.4212,54.887882,9.800399,108.3,5.845,1.85,335.95,54.896885,9.784269,54.895069,9.793790
1386882869,1,0,545.9,0,4,4,0,0,300,-0.0292,188.4255,6.8213,0.4212,54.887867,9.800394,108.3,5.845,1.85,335.95,54.896885,9.784269,54.895069,9.793790
1386882869,1,0,545.9,0,2,0,0,0,275,-0.0292,187.8922,6.8213,0.4212,54.887848,9.800389,108.3,5.845,1.85,335.95,54.896885,9.784269,54.895069,9.793790
1386882869,1,0,545.9,0,2,4,0,0,250,-0.0292,187.3588,6.8213,0.4212,54.887829,9.800385,108.3,5.845,1.85,335.95,54.896885,9.784269,54.895069,9.793790
1386882870,1,0,545.9,0,1,0,0,0,225,-0.0292,187.0922,6.8213,0.4212,54.887810,9.800382,108.3,5.845,1.85,335.95,54.896885,9.784269,54.895069,9.793790
1386882870,1,0,545.9,0,1,4,0,0,200,-0.0292,186.8255,6.8213,0.4212,54.887794,9.800378,108.3,5.845,1.85,335.95,54.896885,9.784269,54.895069,9.793790
1386882870,1,0,545.9,0,1,0,0,0,175,-0.0292,186.5588,6.8213,0.4212,54.887775,9.800374,108.3,5.845,1.85,335.95,54.896885,9.784269,54.895069,9.793790
1386882870,1,0,545.9,0,1,4,0,0,150,-0.0292,186.2922,6.8213,0.4212,54.887756,9.800371,108.3,5.845,1.85,335.95,54.896885,9.784269,54.895069,9.793790
1386882871,1,0,545.9,0,0,0,0,0,125,-0.0292,186.2922,6.8213,0.4212,54.887737,9.800367,108.3,5.845,1.85,335.95,54.896885,9.784269,54.895069,9.793790
1386882871,1,0,545.9,0,0,4,0,0,100,-0.0292,186.2922,6.8213,0.4212,54.887722,9.800364,108.3,5.845,1.85,335.95,54.896885,9.784269,54.895069,9.793790
1386882871,1,0,545.9,0,0,0,0,0,75,-0.0292,186.2922,6.8213,0.4212,54.887703,9.800360,108.3,5.845,1.85,335.95,54.896885,9.784269,54.895069,9.793790
1386882871,1,0,545.9,0,0,4,0,0,50,-0.0292,186.2922,6.8213,0.4212,54.887684,9.800356,108.3,5.845,1.85,335.95,54.896885,9.784269,54.895069,9.793790
1386882872,1,0,545.9,0,0,0,0,0,25,-0.0292,186.2922,6.8213,0.4212,54.887669,9.800352,108.3,5.845,1.85,335.95,54.896885,9.784269,54.895069,9.793790
1386882872,1,0,545.9,0,0,4,0,0,0,-0.0292,186.2922,6.8213,0.4212,54.887650,9.800348,108.3,5.845,1.85,335.95,54.896885,9.784269,54.895069,9.793790
1386882872,1,0,545.9,0,0,0,0,0,25,-0.0292,186.2922,6.8213,0.4212,54.887630,9.800344,108.3,5.845,1.85,335.95,54.896885,9.784269,54.895069,9.793790
1386882872,1,0,485.9,0,35,4,0,0,0,-0.0292,176.9588,6.8213,0.4212,54.887611,9.800346,108.3,5.845,1.85,335.95,54.896885,9.784269,54.895069,9.793790
1386882873,1,0,485.9,0,35,8,0,0,25,-0.0292,167.6255,6.8213,0.4212,54.887596,9.800354,108.3,5.845,1.85,335.95,54.896885,9.784269,54.895069,9.793790
1386882873,1,0,485.9,0,35,12,0,0,0,-0.0292,158.2922,6.8213,0.4212,54.887577,9.800365,108.3,5.845,1.85,335.95,54.896885,9.784269,54.895069,9.793790
1386882873,1,0,485.9,0,32,16,0,0,25,-0.0292,149.7589,6.8213,0.4212,54.887562,9.800381,108.3,5.845,1.85,335.95,54.896885,9.784269,54.895069,9.793790
1386882873,1,0,485.9,0,24,20,0,0,0,-0.0292,143.3589,6.8213,0.4212,54.887550,9.800400,108.3,5.845,1.85,335.95,54.896885,9.784269,54.895069,9.793790
1386882874,1,0,485.9,0,17,16,0,0,25,-0.0292,138.8255,6.8213,0.4212,54.887535,9.800420,108.3,5.845,1.85,335.95,54.896885,9.784269,54.895069,9.793790
1386882874,1,0,485.9,0,13,12,0,0,0,-0.0292,135.3589,6.8213,0.4212,54.887524,9.800442,108.3,5.845,1.85,335.95,54.896885,9.784269,54.895069,9.793790
1386882874,1,0,485.9,0,9,8,0,0,25,-0.0292,132.9589,6.8213,0.4212,54.887508,9.800465,108.3,5.845,1.85,335.95,54.896885,9.784269,54.895069,9.793790
1386882875,1,0,485.9,0,7,4,0,409,50,-0.0292,131.0922,6.8213,0.4212,54.887497,9.800488,108.3,5.845,1.85,335.95,54.896885,9.784269,54.895069,9.793790
1386882875,1,0,485.9,0,5,8,0,409,75,-0.0292,129.7589,6.8213,0.4212,54.887486,9.800512,108.3,5.845,1.85,335.95,54.896885,9.784269,54.895069,9.793790
1386882875,1,0,485.9,0,4,4,0,409,100,-0.0292,128.6922,6.8213,0.4212,54.887474,9.800537,108.3,5.845,1.85,335.95,54.896885,9.784269,54.895069,9.793790
1386882875,1,0,485.9,0,3,0,0,409,125,-0.0292,127.8922,6.8213,0.4212,54.887463,9.800562,108.3,5.845,1.85,335.95,54.896885,9.784269,54.895069,9.793790
1386882876,1,0,485.9,0,2,4,0,409,150,-0.0292,127.3589,6.8213,0.4212,54.887451,9.800587,108.3,5.845,1.85,335.95,54.896885,9.784269,54.895069,9.793790
1386882876,1,0,485.9,0,1,0,0,409,175,-0.0292,127.0922,6.8213,0.4212,54.887440,9.800611,108.3,5.845,1.85,335.95,54.896885,9.784269,54.895069,9.793790
1386882876,1,0,485.9,0,1,4,0,409,200,-0.0292,126.8255,6.8213,0.4212,54.887432,9.800636,108.3,5.845,1.85,335.95,54.896885,9.784269,54.895069,9.793790
1386882876,1,0,485.9,0,1,0,0,409,225,-0.0292,126.5589,6.8213,0.4212,54.887421,9.800662,108.3,5.845,1.85,335.95,54.896885,9.784269,54.895069,9.793790
1386882877,1,0,485.9,0,1,4,0,409,250,-0.0292,126.2922,6.8213,0.4212,54.887409,9.800687,108.3,5.845,1.85,335.95,54.896885,9.784269,54.895069,9.793790
1386882877,1,0,485.9,0,0,0,0,409,275,-0.0292,126.2922,6.8213,0.4212,54.887398,9.800713,108.3,5.845,1.85,335.95,54.896885,9.784269,54.895069,9.793790
1386882877,1,0,485.9,0,0,4,0,409,300,-0.0292,126.2922,6.8213,0.4212,54.887386,9.800737,108.3,5.845,1.85,335.95,54.896885,9.784269,54.895069,9.793790
1386882877,1,0,485.9,0,0,0,0,409,325,-0.0292,126.2922,6.8213,0.4212,54.887375,9.800762,108.3,5.845,1.85,335.95,54.896885,9.784269,54.895069,9.793790
1386882878,1,0,390.9,0,35,4,0,409,350,-0.0292,116.9588,6.8213,0.4212,54.887363,9.800790,108.3,5.845,1.85,335.95,54.896885,9.784269,54.895069,9.793790
1386882878,1,0,390.9,0,35,8,0,409,375,-0.0292,107.6255,6.8213,0.4212,54.887360,9.800819,108.3,5.845,1.85,335.95,54.896885,9.784269,54.895069,9.793790
1386882878,1,0,390.9,0,35,12,0,500,400,-0.0292,98.2922,6.8213,0.4212,54.887356,9.800850,108.3,5.845,1.85,335.95,54.896885,9.784269,54.895069,9.793790
1386882878,1,0,390.9,0,35,16,0,500,425,-0.0292,88.9588,6.8213,0.4212,54.887356,9.800881,108.3,5.845,1.85,335.95,54.896885,9.784269,54.895069,9.793790
1386882879,1,0,390.9,0,35,20,0,435,450,-0.0292,79.6255,6.8213,0.4212,54.887360,9.800912,108.3,5.845,1.85,335.95,54.896885,9.784269,54.895069,9.793790
1386882879,1,0,390.9,0,35,24,0,354,425,-0.0292,70.2922,6.8213,0.4212,54.887367,9.800941,108.3,5.845,1.85,335.95,54.896885,9.784269,54.895069,9.793790
1386882879,1,0,390.9,0,35,28,0,269,400,-0.0292,60.9588,6.8213,0.4212,54.887379,9.800968,108.3,5.845,1.85,335.95,54.896885,9.784269,54.895069,9.793790
1386882879,1,0,390.9,0,30,32,0,183,375,-0.0292,52.9588,6.8213,0.4212,54.887390,9.800993,108.3,5.845,1.85,335.95,54.896885,9.784269,54.895069,9.793790
1386882880,1,0,390.9,0,22,28,0,113,350,-0.0292,47.0922,6.8213,0.4212,54.887405,9.801016,108.3,5.845,1.85,335.95,54.896885,9.784269,54.895069,9.793790
1386882880,1,0,390.9,0,16,24,0,67,325,-0.0292,42.8255,6.8213,0.4212,54.887417,9.801037,108.3,5.845,1.85,335.95,54.896885,9.784269,54.895069,9.793790
1386882880,1,0,390.9,0,12,20,0,39,300,-0.0292,39.6255,6.8213,0.4212,54.887432,9.801056,108.3,5.845,1.85,335.95,54.896885,9.784269,54.895069,9.793790
1386882880,1,0,390.9,0,9,16,0,21,275,-0.0292,37.2255,6.8213,0.4212,54.887447,9.801075,108.3,5.845,1.85,335.95,54.896885,9.784269,54.895069,9.793790
1386882881,1,0,390.9,0,6,12,0,11,250,-0.0292,35.6255,6.8213,0.4212,54.887459,9.801094,108.3,5.845,1.85,335.95,54.896885,9.784269,54.895069,9.793790
1386882881,1,0,390.9,0,5,8,0,6,225,-0.0292,34.2922,6.8213,0.4212,54.887474,9.801111,108.3,5.845,1.85,335.95,54.896885,9.784269,54.895069,9.793790
1386882881,1,0,390.9,0,3,4,0,3,200,-0.0292,33.4922,6.8213,0.4212,54.887489,9.801128,108.3,5.845,1.85,335.95,54.896885,9.784269,54.895069,9.793790
1386882881,1,0,390.9,0,3,0,0,1,175,-0.0292,32.6922,6.8213,0.4212,54.887505,9.801145,108.3,5.845,1.85,335.95,54.896885,9.784269,54.895069,9.793790
1386882882,1,0,390.9,0,2,4,0,0,150,-0.0292,32.1588,6.8213,0.4212,54.887520,9.801162,108.3,5.845,1.85,335.95,54.896885,9.784269,54.895069,9.793790
1386882882,1,0,390.9,0,1,0,0,0,125,-0.0292,31.8922,6.8213,0.4212,54.887531,9.801178,108.3,5.845,1.85,335.95,54.896885,9.784269,54.895069,9.793790
1386882882,1,0,390.9,0,1,4,0,0,100,-0.0292,31.6255,6.8213,0.4212,54.887547,9.801194,108.3,5.845,1.85,335.95,54.896885,9.784269,54.895069,9.793790
1386882882,1,0,390.9,0,1,0,0,0,75,-0.0292,31.3588,6.8213,0.4212,54.887562,9.801210,108.3,5.845,1.85,335.95,54.896885,9.784269,54.895069,9.793790
1386882883,1,0,390.9,0,0,4,0,0,50,-0.0292,31.3588,6.8213,0.4212,54.887577,9.801227,108.3,5.845,1.85,335.95,54.896885,9.784269,54.895069,9.793790
1386882883,1,0,390.9,0,0,0,0,0,25,-0.0292,31.3588,6.8213,0.4212,54.887592,9.801243,108.3,5.845,1.85,335.95,54.896885,9.784269,54.895069,9.793790
1386882883,1,0,390.9,0,0,4,0,0,0,-0.0292,31.3588,6.8213,0.4212,54.887604,9.801259,108.3,5.845,1.85,335.95,54.896885,9.784269,54.895069,9.793790
1386882883,1,0,390.9,0,0,0,0,0,25,-0.0292,31.3588,6.8213,0.4212,54.887619,9.801275,108.3,5.845,1.85,335.95,54.896885,9.784269,54.895069,9.793790
1386882884,1,0,390.9,0,0,4,0,0,0,-0.0292,31.3588,6.8213,0.4212,54.887634,9.801291,108.3,5.845,1.85,335.95,54.896885,9.784269,54.895069,9.793790
1386882884,1,0,390.9,0,0,0,0,0,25,-0.0292,31.3588,6.8213,0.4212,54.887650,9.801308,108.3,5.845,1.85,335.95,54.896885,9.784269,54.895069,9.793790
1386882884,1,0,390.9,0,0,4,0,0,0,-0.0292,31.3588,6.8213,0.4212,54.887665,9.801324,108.3,5.845,1.85,335.95,54.896885,9.784269,54.895069,9.793790
1386882884,1,0,390.9,0,0,0,0,0,25,-0.0292,31.3588,6.8213,0.4212,54.887684,9.801340,108.3,5.845,1.85,335.95,54.896885,9.784269,54.895069,9.793790
1386882885,1,0,390.9,0,0,4,0,0,0,-0.0292,31.3588,6.8213,0.4212,54.887699,9.801356,108.3,5.845,1.85,335.95,54.896885,9.784269,54.895069,9.793790
1386882885,1,0,390.9,0,0,0,0,0,25,-0.0292,31.3588,6.8213,0.4212,54.887714,9.801373,108.3,5.845,1.85,335.95,54.896885,9.784269,54.895069,9.793790
1386882885,1,0,390.9,0,0,4,0,0,0,-0.0292,31.3588,6.8213,0.4212,54.887733,9.801389,108.3,5.845,1.85,335.95,54.896885,9.784269,54.895069,9.793790
1386882885,1,0,390.9,0,0,0,0,0,25,-0.0292,31.3588,6.8213,0.4212,54.887749,9.801405,108.3,5.845,1.85,335.95,54.896885,9.784269,54.895069,9.793790
1386882886,1,0,390.9,0,0,4,0,0,0,-0.0292,31.3588,6.8213,0.4212,54.887764,9.801421,108.3,5.845,1.85,335.95,54.896885,9.784269,54.895069,9.793790
1386882886,1,0,390.9,0,0,0,0,0,25,-0.0292,31.3588,6.8213,0.4212,54.887783,9.801437,108.3,5.845,1.85,335.95,54.896885,9.784269,54.895069,9.793790
1386882886,1,0,390.9,0,0,4,0,0,0,-0.0292,31.3588,6.8213,0.4212,54.887798,9.801454,108.3,5.845,1.85,335.95,54.896885,9.784269,54.895069,9.793790
1386882886,1,0,390.9,0,0,0,0,0,25,-0.0292,31.3588,6.8213,0.4212,54.887814,9.801470,108.3,5.845,1.85,335.95,54.896885,9.784269,54.895069,9.793790
1386882887,1,0,390.9,0,0,4,0,0,0,-0.0292,31.3588,6.8213,0.4212,54.887833,9.801486,108.3,5.845,1.85,335.95,54.896885,9.784269,54.895069,9.793790
1386882887,1,0,390.9,0,0,0,0,0,25,-0.0292,31.3588,6.8213,0.4212,54.887848,9.801502,108.3,5.845,1.85,335.95,54.896885,9.784269,54.895069,9.793790
1386882887,1,0,390.9,0,0,4,0,0,0,-0.0292,31.3588,6.8213,0.4212,54.887863,9.801518,108.3,5.845,1.85,335.95,54.896885,9.784269,54.895069,9.793790
1386882887,1,0,390.9,0,0,0,0,0,25,-0.0292,31.3588,6.8213,0.4212,54.887875,9.801535,108.3,5.845,1.85,335.95,54.896885,9.784269,54.895069,9.793790
1386882888,1,0,390.9,0,0,4,0,0,0,-0.0292,31.3588,6.8213,0.4212,54.887890,9.801551,108.3,5.845,1.85,335.95,54.896885,9.784269,54.895069,9.793790
1386882888,1,0,390.9,0,0,0,0,0,25,-0.0292,31.3588,6.8213,0.4212,54.887905,9.801567,108.3,5.845,1.85,335.95,54.896885,9.784269,54.895069,9.793790
1386882888,1,0,390.9,0,0,4,0,0,0,-0.0292,31.3588,6.8213,0.4212,54.887920,9.801583,108.3,5.845,1.85,335.95,54.896885,9.784269,54.895069,9.793790
1386882888,1,0,390.9,0,0,0,0,0,25,-0.0292,31.3588,6.8213,0.4212,54.887936,9.801600,108.3,5.845,1.85,335.95,54.896885,9.784269,54.895069,9.793790
1386882889,1,0,390.9,0,0,4,0,0,0,-0.0292,31.3588,6.8213,0.4212,54.887955,9.801616,108.3,5.845,1.85,335.95,54.896885,9.784269,54.895069,9.793790
1386882889,1,0,390.9,0,0,0,0,0,25,-0.0292,31.3588,6.8213,0.4212,54.887970,9.801632,108.3,5.845,1.85,335.95,54.896885,9.784269,54.895069,9.793790
1386882889,1,0,390.9,0,0,4,0,0,0,-0.0292,31.3588,6.8213,0.4212,54.887985,9.801649,108.3,5.845,1.85,335.95,54.896885,9.784269,54.895069,9.793790
1386882889,1,0,390.9,0,0,0,0,0,25,-0.0292,31.3588,6.8213,0.4212,54.888004,9.801665,108.3,5.845,1.85,335.95,54.896885,9.784269,54.895069,9.793790
1386882890,1,0,390.9,0,0,4,0,0,0,-0.0292,31.3588,6.8213,0.4212,54.888020,9.801682,108.3,5.845,1.85,335.95,54.896885,9.784269,54.895069,9.793790
1386882890,1,0,390.9,0,0,0,0,0,25,-0.0292,31.3588,6.8213,0.4212,54.888035,9.801698,108.3,5.845,1.85,335.95,54.896885,9.784269,54.895069,9.793790
1386882890,1,0,390.9,0,0,4,0,0,0,-0.0292,31.3588,6.8213,0.4212,54.888054,9.801714,108.3,5.845,1.85,335.95,54.896885,9.784269,54.895069,9.793790
1386882890,1,0,390.9,0,0,0,0,0,25,-0.0292,31.3588,6.8213,0.4212,54.888069,9.801730,108.3,5.845,1.85,335.95,54.896885,9.784269,54.895069,9.793790
1386882891,1,0,390.9,0,0,4,0,0,0,-0.0292,31.3588,6.8213,0.4212,54.888084,9.801746,108.3,5.845,1.85,335.95,54.896885,9.784269,54.895069,9.793790
1386882891,1,0,390.9,0,0,0,0,0,25,-0.0292,31.3588,6.8213,0.4212,54.888096,9.801763,108.3,5.845,1.85,335.95,54.896885,9.784269,54.895069,9.793790
1386882891,1,0,390.9,0,0,4,0,0,0,-0.0292,31.3588,6.8213,0.4212,54.888111,9.801779,108.3,5.845,1.85,335.95,54.896885,9.784269,54.895069,9.793790
1386882891,1,0,390.9,0,0,0,0,0,25,-0.0292,31.3588,6.8213,0.4212,54.888126,9.801795,108.3,5.845,1.85,335.95,54.896885,9.784269,54.895069,9.793790
1386882892,1,0,390.9,0,0,4,0,0,0,-0.0292,31.3588,6.8213,0.4212,54.888142,9.801811,108.3,5.845,1.85,335.95,54.896885,9.784269,54.895069,9.793790
1386882892,1,0,390.9,0,0,0,0,0,25,-0.0292,31.3588,6.8213,0.4212,54.888157,9.801827,108.3,5.845,1.85,335.95,54.896885,9.784269,54.895069,9.793790
1386882892,1,0,390.9,0,0,4,0,0,0,-0.0292,31.3588,6.8213,0.4212,54.888176,9.801844,108.3,5.845,1.85,335.95,54.896885,9.784269,54.895069,9.793790
1386882892,1,0,390.9,0,0,0,0,0,25,-0.0292,31.3588,6.8213,0.4212,54.888191,9.801860,108.3,5.845,1.85,335.95,54.896885,9.784269,54.895069,9.793790
1386882893,1,0,390.9,0,0,4,0,0,0,-0.0292,31.3588,6.8213,0.4212,54.888206,9.801876,108.3,5.845,1.85,335.95,54.896885,9.784269,54.895069,9.793790
1386882893,1,0,390.9,0,0,0,0,0,25,-0.0292,31.3588,6.8213,0.4212,54.888226,9.801892,108.3,5.845,1.85,335.95,54.896885,9.784269,54.895069,9.793790
1386882893,1,0,390.9,0,0,4,0,0,0,-0.0292,31.3588,6.8213,0.4212,54.888241,9.801908,108.3,5.845,1.85,335.95,54.896885,9.784269,54.895069,9.793790
1386882893,1,0,390.9,0,0,0,0,0,25,-0.0292,31.3588,6.8213,0.4212,54.888256,9.801925,108.3,5.845,1.85,335.95,54.896885,9.784269,54.895069,9.793790
1386882894,1,0,390.9,0,0,4,0,0,0,-0.0292,31.3588,6.8213,0.4212,54.888275,9.801941,108.3,5.845,1.85,335.95,54.896885,9.784269,54.895069,9.793790
1386882894,1,0,390.9,0,0,0,0,0,25,-0.0292,31.3588,6.8213,0.4212,54.888290,9.801957,108.3,5.845,1.85,335.95,54.896885,9.784269,54.895069,9.793790
1386882894,1,0,390.9,0,0,4,0,0,0,-0.0292,31.3588,6.8213,0.4212,54.888306,9.801973,108.3,5.845,1.85,335.95,54.896885,9.784269,54.895069,9.793790
1386882894,1,0,390.9,0,0,0,0,0,25,-0.0292,31.3588,6.8213,0.4212,54.888317,9.801990,108.3,5.845,1.85,335.95,54.896885,9.784269,54.895069,9.793790
1386882895,1,0,390.9,0,0,4,0,0,0,-0.0292,31.3588,6.8213,0.4212,54.888332,9.802006,108.3,5.845,1.85,335.95,54.896885,9.784269,54.895069,9.793790
1386882895,1,0,390.9,0,0,0,0,0,25,-0.0292,31.3588,6.8213,0.4212,54.888348,9.802022,108.3,5.845,1.85,335.95,54.896885,9.784269,54.895069,9.793790
1386882895,1,0,390.9,0,0,4,0,0,0,-0.0292,31.3588,6.8213,0.4212,54.888363,9.802038,108.3,5.845,1.85,335.95,54.896885,9.784269,54.895069,9.793790
1386882895,1,0,390.9,0,0,0,0,0,25,-0.0292,31.3588,6.8213,0.4212,54.888378,9.802054,108.3,5.845,1.85,335.95,54.896885,9.784269,54.895069,9.793790
1386882896,1,0,390.9,0,0,4,0,0,0,-0.0292,31.3588,6.8213,0.4212,54.888397,9.802071,108.3,5.845,1.85,335.95,54.896885,9.784269,54.895069,9.793790
1386882896,1,0,390.9,0,0,0,0,0,25,-0.0292,31.3588,6.8213,0.4212,54.888412,9.802087,108.3,5.845,1.85,335.95,54.896885,9.784269,54.895069,9.793790
1386882896,1,0,390.9,0,0,4,0,0,0,-0.0292,31.3588,6.8213,0.4212,54.888428,9.802103,108.3,5.845,1.85,335.95,54.896885,9.784269,54.895069,9.793790
1386882896,1,0,390.9,0,0,0,0,0,25,-0.0292,31.3588,6.8213,0.4212,54.888447,9.802120,108.3,5.845,1.85,335.95,54.896885,9.784269,54.895069,9.793790
1386882897,1,0,390.9,0,0,4,0,0,0,-0.0292,31.3588,6.8213,0.4212,54.888462,9.802136,108.3,5.845,1.85,335.95,54.896885,9.784269,54.895069,9.793790
1386882897,1,0,390.9,0,0,0,0,0,25,-0.0292,31.3588,6.8213,0.4212,54.888477,9.802153,108.3,5.845,1.85,335.95,54.896885,9.784269,54.895069,9.793790
1386882897,1,0,390.9,0,0,4,0,0,0,-0.0292,31.3588,6.8213,0.4212,54.888496,9.802169,108.3,5.845,1.85,335.95,54.896885,9.784269,54.895069,9.793790
1386882897,1,0,390.9,0,0,0,0,0,25,-0.0292,31.3588,6.8213,0.4212,54.888512,9.802185,108.3,5.845,1.85,335.95,54.896885,9.784269,54.895069,9.793790
1386882898,1,0,390.9,0,0,4,0,0,0,-0.0292,31.3588,6.8213,0.4212,54.888527,9.802201,108.3,5.845,1.85,335.95,54.896885,9.784269,54.895069,9.793790
1386882898,1,0,390.9,0,0,0,0,0,25,-0.0292,31.3588,6.8213,0.4212,54.888538,9.802217,108.3,5.845,1.85,335.95,54.896885,9.784269,54.895069,9.793790
1386882898,1,0,390.9,0,0,4,0,0,0,-0.0292,31.3588,6.8213,0.4212,54.888554,9.802234,108.3,5.845,1.85,335.95,54.896885,9.784269,54.895069,9.793790
1386882898,1,0,390.9,0,0,0,0,0,25,-0.0292,31.3588,6.8213,0.4212,54.888569,9.802250,108.3,5.845,1.85,335.95,54.896885,9.784269,54.895069,9.793790
1386882899,1,0,390.9,0,0,4,0,0,0,-0.0292,31.3588,6.8213,0.4212,54.888584,9.802266,108.3,5.845,1.85,335.95,54.896885,9.784269,54.895069,9.793790
1386882899,1,0,390.9,0,0,0,0,0,25,-0.0292,31.3588,6.8213,0.4212,54.888599,9.802282,108.3,5.845,1.85,335.95,54.896885,9.784269,54.895069,9.793790
1386882899,1,0,390.9,0,0,4,0,0,0,-0.0292,31.3588,6.8213,0.4212,54.888618,9.802299,108.3,5.845,1.85,335.95,54.896885,9.784269,54.895069,9.793790
1386882899,1,0,390.9,0,0,0,0,0,25,-0.0292,31.3588,6.8213,0.4212,54.888634,9.802315,108.3,5.845,1.85,335.95,54.896885,9.784269,54.895069,9.793790
1386882900,1,0,390.9,0,0,4,0,0,0,-0.0292,31.3588,6.8213,0.4212,54.888649,9.802331,108.3,5.845,1.85,335.95,54.896885,9.784269,54.895069,9.793790
1386882900,1,0,390.9,0,0,0,0,0,25,-0.0292,31.3588,6.8213,0.4212,54.888668,9.802347,108.3,5.845,1.85,335.95,54.896885,9.784269,54.895069,9.793790
1386882900,1,0,390.9,0,0,4,0,0,0,-0.0292,31.3588,6.8213,0.4212,54.888683,9.802363,108.3,5.845,1.85,335.95,54.896885,9.784269,54.895069,9.793790
1386882900,1,0,390.9,0,0,0,0,0,25,-0.0292,31.3588,6.8213,0.4212,54.888699,9.802380,108.3,5.845,1.85,335.95,54.896885,9.784269,54.895069,9.793790
1386882901,1,0,390.9,0,0,4,0,0,0,-0.0292,31.3588,6.8213,0.4212,54.888718,9.802396,108.3,5.845,1.85,335.95,54.896885,9.784269,54.895069,9.793790
1386882901,1,0,390.9,0,0,0,0,0,25,-0.0292,31.3588,6.8213,0.4212,54.888733,9.802412,108.3,5.845,1.85,335.95,54.896885,9.784269,54.895069,9.793790
1386882901,1,0,390.9,0,0,4,0,0,0,-0.0292,31.3588,6.8213,0.4212,54.888748,9.802428,108.3,5.845,1.85,335.95,54.896885,9.784269,54.895069,9.793790
1386882901,1,0,390.9,0,0,0,0,0,25,-0.0292,31.3588,6.8213,0.4212,54.888760,9.802444,108.3,5.845,1.85,335.95,54.896885,9.784269,54.895069,9.793790
1386882902,1,0,390.9,0,0,4,0,0,0,-0.0292,31.3588,6.8213,0.4212,54.888775,9.802461,108.3,5.845,1.85,335.95,54.896885,9.784269,54.895069,9.793790
1386882902,1,0,390.9,0,0,0,0,0,25,-0.0292,31.3588,6.8213,0.4212,54.888790,9.802477,108.3,5.845,1.85,335.95,54.896885,9.784269,54.895069,9.793790
1386882902,1,0,390.9,0,0,4,0,0,0,-0.0292,31.3588,6.8213,0.4212,54.888805,9.802493,108.3,5.845,1.85,335.95,54.896885,9.784269,54.895069,9.793790
1386882902,0,0,390.9,0,0,4,0,0,0,-0.0292,31.3588,6.8213,0.4212,54.888805,9.802493,108.3,5.845,1.85,335.95,54.896885,9.784269,54.895069,9.793790
1386882903,0,0,390.9,0,0,4,0,0,0,-0.0292,31.3588,6.8213,0.4212,54.888805,9.802493,108.3,5.845,1.85,335.95,54.896885,9.784269,54.895069,9.793790
1386882903,0,0,390.9,0,0,4,0,0,0,-0.0292,31.3588,6.8213,0.4212,54.888805,9.802493,108.3,5.845,1.85,335.95,54.896885,9.784269,54.895069,9.793790
1386882903,0,0,390.9,0,0,4,0,0,0,-0.0292,31.3588,6.8213,0.4212,54.888805,9.802493,108.3,5.845,1.85,335.95,54.896885,9.784269,54.895069,9.793790
1386882903,0,0,390.9,0,0,4,0,0,0,-0.0292,31.3588,6.8213,0.4212,54.888805,9.802493,108.3,5.845,1.85,335.95,54.896885,9.784269,54.895069,9.793790
1386882904,0,0,390.9,0,0,4,0,0,0,-0.0292,31.3588,6.8213,0.4212,54.888805,9.802493,108.3,5.845,1.85,335.95,54.896885,9.784269,54.895069,9.793790
1386882904,0,0,390.9,0,0,4,0,0,0,-0.0292,31.3588,6.8213,0.4212,54.888805,9.802493,108.3,5.845,1.85,335.95,54.896885,9.784269,54.895069,9.793790
1386882904,0,0,390.9,0,0,4,0,0,0,-0.0292,31.3588,6.8213,0.4212,54.888805,9.802493,108.3,5.845,1.85,335.95,54.896885,9.784269,54.895069,9.793790
1386882904,0,0,390.9,0,0,4,0,0,0,-0.0292,31.3588,6.8213,0.4212,54.888805,9.802493,108.3,5.845,1.85,335.95,54.896885,9.784269,54.895069,9.793790
1386882905,0,0,390.9,0,0,4,0,0,0,-0.0292,31.3588,6.8213,0.4212,54.888805,9.802493,108.3,5.845,1.85,335.95,54.896885,9.784269,54.895069,9.793790
1386882905,0,0,390.9,0,0,4,0,0,0,-0.0292,31.3588,6.8213,0.4212,54.888805,9.802493,108.3,5.845,1.85,335.95,54.896885,9.784269,54.895069,9.793790
1386882905,0,0,390.9,0,0,4,0,0,0,-0.0292,31.3588,6.8213,0.4212,54.888805,9.802493,108.3,5.845,1.85,335.95,54.896885,9.784269,54.895069,9.793790
1386882905,0,0,390.9,0,0,4,0,0,0,-0.0292,31.3588,6.8213,0.4212,54.888805,9.802493,108.3,5.845,1.85,335.95,54.896885,9.784269,54.895069,9.793790
1386882906,0,0,390.9,0,0,4,0,0,0,-0.0292,31.3588,6.8213,0.4212,54.888805,9.802493,108.3,5.845,1.85,335.95,54.896885,9.784269,54.895069,9.793790
1386882906,4,0,390.9,0,0,4,0,0,0,-0.0292,31.3588,6.8213,0.4212,54.888805,9.802493,108.3,5.845,1.85,335.95,54.896885,9.784269,54.895069,9.793790
1386882906,1,0,390.9,0,0,0,0,0,25,-0.0292,31.3588,6.8213,0.4212,54.888821,9.802509,108.3,5.845,1.85,335.95,54.888805,9.802493,54.895069,9.793790
1386882906,1,0,390.9,0,0,4,0,0,0,-0.0292,31.3588,6.8213,0.4212,54.888840,9.802526,108.3,5.845,1.85,335.95,54.888805,9.802493,54.895069,9.793790
1386882907,1,0,390.9,0,0,0,0,0,25,-0.0292,31.3588,6.8213,0.4212,54.888855,9.802542,108.3,5.845,1.85,335.95,54.888805,9.802493,54.895069,9.793790
1386882907,1,0,390.9,0,0,4,0,0,0,-0.0292,31.3588,6.8213,0.4212,54.888870,9.802558,108.3,5.845,1.85,335.95,54.888805,9.802493,54.895069,9.793790
1386882907,1,0,390.9,0,0,0,0,0,25,-0.0292,31.3588,6.8213,0.4212,54.888889,9.802574,108.3,5.845,1.85,335.95,54.888805,9.802493,54.895069,9.793790
1386882907,1,0,390.9,0,0,4,0,0,0,-0.0292,31.3588,6.8213,0.4212,54.888905,9.802590,108.3,5.845,1.85,335.95,54.888805,9.802493,54.895069,9.793790
1386882908,1,0,390.9,0,0,0,0,0,25,-0.0292,31.3588,6.8213,0.4212,54.888920,9.802607,108.3,5.845,1.85,335.95,54.888805,9.802493,54.895069,9.793790
1386882908,1,0,390.9,0,0,4,0,0,0,-0.0292,31.3588,6.8213,0.4212,54.888939,9.802623,108.3,5.845,1.85,335.95,54.888805,9.802493,54.895069,9.793790
1386882908,1,0,390.9,0,0,0,0,0,25,-0.0292,31.3588,6.8213,0.4212,54.888954,9.802639,108.3,5.845,1.85,335.95,54.888805,9.802493,54.895069,9.793790
1386882908,1,0,390.9,0,0,4,0,0,0,-0.0292,31.3588,6.8213,0.4212,54.888969,9.802655,108.3,5.845,1.85,335.95,54.888805,9.802493,54.895069,9.793790
1386882909,1,0,390.9,0,0,0,0,0,25,-0.0292,31.3588,6.8213,0.4212,54.888988,9.802671,108.3,5.845,1.85,335.95,54.888805,9.802493,54.895069,9.793790
1386882909,1,0,390.9,0,0,4,0,0,0,-0.0292,31.3588,6.8213,0.4212,54.889004,9.802688,108.3,5.845,1.85,335.95,54.888805,9.802493,54.895069,9.793790
1386882909,1,0,390.9,0,0,0,0,0,25,-0.0292,31.3588,6.8213,0.4212,54.889019,9.802704,108.3,5.845,1.85,335.95,54.888805,9.802493,54.895069,9.793790
1386882909,1,0,390.9,0,0,4,0,0,0,-0.0292,31.3588,6.8213,0.4212,54.889030,9.802721,108.3,5.845,1.85,335.95,54.888805,9.802493,54.895069,9.793790
1386882910,1,0,390.9,0,0,0,0,0,25,-0.0292,31.3588,6.8213,0.4212,54.889046,9.802737,108.3,5.845,1.85,335.95,54.888805,9.802493,54.895069,9.793790
1386882910,1,0,390.9,0,0,4,0,0,0,-0.0292,31.3588,6.8213,0.4212,54.889061,9.802753,108.3,5.845,1.85,335.95,54.888805,9.802493,54.895069,9.793790
1386882910,1,0,390.9,0,0,0,0,0,25,-0.0292,31.3588,6.8213,0.4212,54.889076,9.802770,108.3,5.845,1.85,335.95,54.888805,9.802493,54.895069,9.793790
1386882911,1,0,390.9,0,0,4,0,0,0,-0.0292,31.3588,6.8213,0.4212,54.889091,9.802786,108.3,5.845,1.85,335.95,54.888805,9.802493,54.895069,9.793790
1386882911,1,0,390.9,0,0,0,0,0,25,-0.0292,31.3588,6.8213,0.4212,54.889111,9.802802,108.3,5.845,1.85,335.95,54.888805,9.802493,54.895069,9.793790
1386882911,1,0,390.9,0,0,4,0,0,0,-0.0292,31.3588,6.8213,0.4212,54.889126,9.802818,108.3,5.845,1.85,335.95,54.888805,9.802493,54.895069,9.793790
1386882911,1,0,390.9,0,0,0,0,0,25,-0.0292,31.3588,6.8213,0.4212,54.889141,9.802835,108.3,5.845,1.85,335.95,54.888805,9.802493,54.895069,9.793790
1386882912,1,0,390.9,0,0,4,0,0,0,-0.0292,31.3588,6.8213,0.4212,54.889160,9.802851,108.3,5.845,1.85,335.95,54.888805,9.802493,54.895069,9.793790
1386882912,1,0,390.9,0,0,0,0,0,25,-0.0292,31.3588,6.8213,0.4212,54.889175,9.802867,108.3,5.845,1.85,335.95,54.888805,9.802493,54.895069,9.793790
1386882912,1,0,390.9,0,0,4,0,0,0,-0.0292,31.3588,6.8213,0.4212,54.889191,9.802883,108.3,5.845,1.85,335.95,54.888805,9.802493,54.895069,9.793790
1386882912,1,0,390.9,0,0,0,0,0,25,-0.0292,31.3588,6.8213,0.4212,54.889210,9.802899,108.3,5.845,1.85,335.95,54.888805,9.802493,54.895069,9.793790
1386882913,1,0,390.9,0,0,4,0,0,0,-0.0292,31.3588,6.8213,0.4212,54.889225,9.802916,108.3,5.845,1.85,335.95,54.888805,9.802493,54.895069,9.793790
1386882913,1,0,390.9,0,0,0,0,0,25,-0.0292,31.3588,6.8213,0.4212,54.889240,9.802932,108.3,5.845,1.85,335.95,54.888805,9.802493,54.895069,9.793790
1386882913,1,0,485.9,0,-35,-4,0,0,0,-0.0292,40.6922,6.8213,0.4212,54.889252,9.802952,108.3,5.845,1.85,335.95,54.888805,9.802493,54.895069,9.793790
1386882913,1,0,485.9,0,-35,-8,0,27,25,-0.0292,50.0255,6.8213,0.4212,54.889263,9.802976,108.3,5.845,1.85,335.95,54.888805,9.802493,54.895069,9.793790
1386882914,1,0,485.9,0,-35,-12,0,90,50,-0.0292,59.3588,6.8213,0.4212,54.889275,9.803002,108.3,5.845,1.85,335.95,54.888805,9.802493,54.895069,9.793790
1386882914,1,0,485.9,0,-35,-16,0,169,75,-0.0292,68.6922,6.8213,0.4212,54.889282,9.803032,108.3,5.845,1.85,335.95,54.888805,9.802493,54.895069,9.793790
1386882914,1,0,485.9,0,-35,-20,0,254,100,-0.0292,78.0255,6.8213,0.4212,54.889286,9.803062,108.3,5.845,1.85,335.95,54.888805,9.802493,54.895069,9.793790
1386882914,1,0,485.9,0,-35,-24,0,339,125,-0.0292,87.3588,6.8213,0.4212,54.889290,9.803094,108.3,5.845,1.85,335.95,54.888805,9.802493,54.895069,9.793790
1386882915,1,0,485.9,0,-35,-28,0,422,150,-0.0292,96.6922,6.8213,0.4212,54.889286,9.803124,108.3,5.845,1.85,335.95,54.888805,9.802493,54.895069,9.793790
1386882915,1,0,485.9,0,-29,-32,0,499,175,-0.0292,104.4255,6.8213,0.4212,54.889282,9.803155,108.3,5.845,1.85,335.95,54.888805,9.802493,54.895069,9.793790
1386882915,1,0,485.9,0,-22,-28,0,500,200,-0.0292,110.2922,6.8213,0.4212,54.889278,9.803185,108.3,5.845,1.85,335.95,54.888805,9.802493,54.895069,9.793790
1386882915,1,0,485.9,0,-16,-24,0,500,225,-0.0292,114.5588,6.8213,0.4212,54.889271,9.803212,108.3,5.845,1.85,335.95,54.888805,9.802493,54.895069,9.793790
1386882916,1,0,485.9,0,-11,-20,0,409,250,-0.0292,117.4922,6.8213,0.4212,54.889263,9.803240,108.3,5.845,1.85,335.95,54.888805,9.802493,54.895069,9.793790
1386882916,1,0,485.9,0,-8,-16,0,409,275,-0.0292,119.6255,6.8213,0.4212,54.889256,9.803267,108.3,5.845,1.85,335.95,54.888805,9.802493,54.895069,9.793790
1386882916,1,0,485.9,0,-6,-12,0,0,250,-0.0292,121.2255,6.8213,0.4212,54.889248,9.803293,108.3,5.845,1.85,335.95,54.888805,9.802493,54.895069,9.793790
1386882916,1,0,485.9,0,-5,-8,0,0,225,-0.0292,122.5588,6.8213,0.4212,54.889236,9.803320,108.3,5.845,1.85,335.95,54.888805,9.802493,54.895069,9.793790
1386882917,1,0,485.9,0,-3,-4,0,0,200,-0.0292,123.3588,6.8213,0.4212,54.889229,9.803346,108.3,5.845,1.85,335.95,54.888805,9.802493,54.895069,9.793790
1386882917,1,0,485.9,0,-3,0,0,0,175,-0.0292,124.1589,6.8213,0.4212,54.889217,9.803372,108.3,5.845,1.85,335.95,54.888805,9.802493,54.895069,9.793790
1386882917,1,0,485.9,0,-2,-4,0,0,150,-0.0292,124.6922,6.8213,0.4212,54.889206,9.803398,108.3,5.845,1.85,335.95,54.888805,9.802493,54.895069,9.793790
1386882917,1,0,485.9,0,-1,0,0,0,125,-0.0292,124.9589,6.8213,0.4212,54.889194,9.803423,108.3,5.845,1.85,335.95,54.888805,9.802493,54.895069,9.793790
1386882918,1,0,485.9,0,-1,-4,0,0,100,-0.0292,125.2255,6.8213,0.4212,54.889183,9.803449,108.3,5.845,1.85,335.95,54.888805,9.802493,54.895069,9.793790
1386882918,1,0,485.9,0,-1,0,0,0,75,-0.0292,125.4922,6.8213,0.4212,54.889172,9.803473,108.3,5.845,1.85,335.95,54.888805,9.802493,54.895069,9.793790
1386882918,1,0,485.9,0,0,4,0,0,50,-0.0292,125.4922,6.8213,0.4212,54.889160,9.803499,108.3,5.845,1.85,335.95,54.888805,9.802493,54.895069,9.793790
1386882918,1,0,485.9,0,0,0,0,0,25,-0.0292,125.4922,6.8213,0.4212,54.889153,9.803525,108.3,5.845,1.85,335.95,54.888805,9.802493,54.895069,9.793790
1386882919,1,0,485.9,0,0,4,0,0,0,-0.0292,125.4922,6.8213,0.4212,54.889141,9.803550,108.3,5.845,1.85,335.95,54.888805,9.802493,54.895069,9.793790
1386882919,1,0,485.9,0,0,0,0,0,25,-0.0292,125.4922,6.8213,0.4212,54.889133,9.803576,108.3,5.845,1.85,335.95,54.888805,9.802493,54.895069,9.793790
1386882919,1,0,545.9,0,-35,-4,0,0,0,-0.0292,134.8255,6.8213,0.4212,54.889122,9.803597,108.3,5.845,1.85,335.95,54.888805,9.802493,54.895069,9.793790
1386882919,1,0,545.9,0,-35,-8,0,0,25,-0.0292,144.1589,6.8213,0.4212,54.889107,9.803616,108.3,5.845,1.85,335.95,54.888805,9.802493,54.895069,9.793790
1386882920,1,0,545.9,0,-35,-12,0,0,0,-0.0292,153.4922,6.8213,0.4212,54.889091,9.803629,108.3,5.845,1.85,335.95,54.888805,9.802493,54.895069,9.793790
1386882920,1,0,545.9,0,-32,-16,0,0,25,-0.0292,162.0255,6.8213,0.4212,54.889076,9.803638,108.3,5.845,1.85,335.95,54.888805,9.802493,54.895069,9.793790
1386882920,1,0,545.9,0,-24,-20,0,0,0,-0.0292,168.4255,6.8213,0.4212,54.889057,9.803645,108.3,5.845,1.85,335.95,54.888805,9.802493,54.895069,9.793790
1386882920,1,0,545.9,0,-18,-16,0,0,25,-0.0292,173.2255,6.8213,0.4212,54.889038,9.803649,108.3,5.845,1.85,335.95,54.888805,9.802493,54.895069,9.793790
1386882921,1,0,545.9,0,-13,-12,0,0,0,-0.0292,176.6922,6.8213,0.4212,54.889023,9.803650,108.3,5.845,1.85,335.95,54.888805,9.802493,54.895069,9.793790
1386882921,1,0,545.9,0,-9,-8,0,0,25,-0.0292,179.0922,6.8213,0.4212,54.889004,9.803650,108.3,5.845,1.85,335.95,54.888805,9.802493,54.895069,9.793790
1386882921,1,0,545.9,0,-7,-4,0,409,50,-0.0292,180.9588,6.8213,0.4212,54.888985,9.803649,108.3,5.845,1.85,335.95,54.888805,9.802493,54.895069,9.793790
1386882921,1,0,545.9,0,-5,-8,0,409,75,-0.0292,182.2922,6.8213,0.4212,54.888966,9.803647,108.3,5.845,1.85,335.95,54.888805,9.802493,54.895069,9.793790
1386882922,1,0,545.9,0,-4,-4,0,409,100,-0.0292,183.3588,6.8213,0.4212,54.888950,9.803646,108.3,5.845,1.85,335.95,54.888805,9.802493,54.895069,9.793790
1386882922,1,0,545.9,0,-3,0,0,409,125,-0.0292,184.1588,6.8213,0.4212,54.888931,9.803644,108.3,5.845,1.85,335.95,54.888805,9.802493,54.895069,9.793790
1386882922,1,0,545.9,0,-2,-4,0,409,150,-0.0292,184.6922,6.8213,0.4212,54.888912,9.803642,108.3,5.845,1.85,335.95,54.888805,9.802493,54.895069,9.793790
1386882922,1,0,545.9,0,-1,0,0,409,175,-0.0292,184.9588,6.8213,0.4212,54.888893,9.803640,108.3,5.845,1.85,335.95,54.888805,9.802493,54.895069,9.793790
1386882923,1,0,545.9,0,-1,-4,0,409,200,-0.0292,185.2255,6.8213,0.4212,54.888878,9.803638,108.3,5.845,1.85,335.95,54.888805,9.802493,54.895069,9.793790
1386882923,1,0,545.9,0,-1,0,0,409,225,-0.0292,185.4922,6.8213,0.4212,54.888859,9.803635,108.3,5.845,1.85,335.95,54.888805,9.802493,54.895069,9.793790
1386882923,1,0,545.9,0,0,4,0,409,250,-0.0292,185.4922,6.8213,0.4212,54.888840,9.803632,108.3,5.845,1.85,335.95,54.888805,9.802493,54.895069,9.793790
1386882923,1,0,545.9,0,0,0,0,409,275,-0.0292,185.4922,6.8213,0.4212,54.888824,9.803629,108.3,5.845,1.85,335.95,54.888805,9.802493,54.895069,9.793790
1386882924,1,0,545.9,0,0,4,0,409,300,-0.0292,185.4922,6.8213,0.4212,54.888805,9.803626,108.3,5.845,1.85,335.95,54.888805,9.802493,54.895069,9.793790
1386882924,1,0,545.9,0,0,0,0,409,325,-0.0292,185.4922,6.8213,0.4212,54.888786,9.803623,108.3,5.845,1.85,335.95,54.888805,9.802493,54.895069,9.793790
1386882924,1,0,280.9,0,-35,-4,0,409,350,-0.0292,194.8255,6.8213,0.4212,54.888767,9.803616,108.3,5.845,1.85,335.95,54.888805,9.802493,54.895069,9.793790
1386882924,1,0,280.9,0,-35,-8,0,409,375,-0.0292,204.1588,6.8213,0.4212,54.888752,9.803602,108.3,5.845,1.85,335.95,54.888805,9.802493,54.895069,9.793790
1386882925,1,0,280.9,0,-35,-12,0,500,400,-0.0292,213.4922,6.8213,0.4212,54.888737,9.803585,108.3,5.845,1.85,335.95,54.888805,9.802493,54.895069,9.793790
1386882925,1,0,280.9,0,-35,-16,0,500,425,-0.0292,222.8255,6.8213,0.4212,54.888725,9.803564,108.3,5.845,1.85,335.95,54.888805,9.802493,54.895069,9.793790
1386882925,1,0,280.9,0,-35,-20,0,436,450,-0.0292,232.1588,6.8213,0.4212,54.888714,9.803539,108.3,5.845,1.85,335.95,54.888805,9.802493,54.895069,9.793790
1386882925,1,0,280.9,0,-35,-24,0,355,425,-0.0292,241.4921,6.8213,0.4212,54.888706,9.803512,108.3,5.845,1.85,335.95,54.888805,9.802493,54.895069,9.793790
1386882926,1,0,280.9,0,-35,-28,0,270,400,-0.0292,250.8255,6.8213,0.4212,54.888699,9.803482,108.3,5.845,1.85,335.95,54.888805,9.802493,54.895069,9.793790
1386882926,1,0,280.9,0,-30,-32,0,184,375,-0.0292,258.8255,6.8213,0.4212,54.888699,9.803452,108.3,5.845,1.85,335.95,54.888805,9.802493,54.895069,9.793790
1386882926,1,0,280.9,0,-22,-28,0,114,350,-0.0292,264.6921,6.8213,0.4212,54.888699,9.803420,108.3,5.845,1.85,335.95,54.888805,9.802493,54.895069,9.793790
1386882926,1,0,280.9,0,-16,-24,0,68,325,-0.0292,268.9588,6.8213,0.4212,54.888699,9.803389,108.3,5.845,1.85,335.95,54.888805,9.802493,54.895069,9.793790
1386882927,1,0,280.9,0,-12,-20,0,39,300,-0.0292,272.1588,6.8213,0.4212,54.888702,9.803358,108.3,5.845,1.85,335.95,54.888805,9.802493,54.895069,9.793790
1386882927,1,0,280.9,0,-9,-16,0,22,275,-0.0292,274.5588,6.8213,0.4212,54.888702,9.803327,108.3,5.845,1.85,335.95,54.888805,9.802493,54.895069,9.793790
1386882927,1,0,280.9,0,-6,-12,0,12,250,-0.0292,276.1588,6.8213,0.4212,54.888702,9.803295,108.3,5.845,1.85,335.95,54.888805,9.802493,54.895069,9.793790
1386882927,1,0,280.9,0,-5,-8,0,6,225,-0.0292,277.4922,6.8213,0.4212,54.888702,9.803265,108.3,5.845,1.85,335.95,54.888805,9.802493,54.895069,9.793790
1386882928,1,0,280.9,0,-3,-4,0,3,200,-0.0292,278.2921,6.8213,0.4212,54.888702,9.803233,108.3,5.845,1.85,335.95,54.888805,9.802493,54.895069,9.793790
1386882928,1,0,280.9,0,-3,0,0,2,175,-0.0292,279.0921,6.8213,0.4212,54.888702,9.803203,108.3,5.845,1.85,335.95,54.888805,9.802493,54.895069,9.793790
1386882928,1,0,280.9,0,-2,-4,0,1,150,-0.0292,279.6255,6.8213,0.4212,54.888702,9.803172,108.3,5.845,1.85,335.95,54.888805,9.802493,54.895069,9.793790
1386882928,1,0,280.9,0,-1,0,0,0,125,-0.0292,279.8921,6.8213,0.4212,54.888702,9.803142,108.3,5.845,1.85,335.95,54.888805,9.802493,54.895069,9.793790
1386882929,1,0,280.9,0,-1,-4,0,0,100,-0.0292,280.1588,6.8213,0.4212,54.888702,9.803110,108.3,5.845,1.85,335.95,54.888805,9.802493,54.895069,9.793790
1386882929,1,0,280.9,0,-1,0,0,0,75,-0.0292,280.4254,6.8213,0.4212,54.888702,9.803080,108.3,5.845,1.85,335.95,54.888805,9.802493,54.895069,9.793790
1386882929,1,0,280.9,0,-1,-4,0,0,50,-0.0292,280.6921,6.8213,0.4212,54.888702,9.803049,108.3,5.845,1.85,335.95,54.888805,9.802493,54.895069,9.793790
1386882929,1,0,280.9,0,0,0,0,0,25,-0.0292,280.6921,6.8213,0.4212,54.888702,9.803018,108.3,5.845,1.85,335.95,54.888805,9.802493,54.895069,9.793790
1386882930,1,0,280.9,0,0,4,0,0,0,-0.0292,280.6921,6.8213,0.4212,54.888702,9.802987,108.3,5.845,1.85,335.95,54.888805,9.802493,54.895069,9.793790
1386882930,1,0,280.9,0,0,0,0,0,25,-0.0292,280.6921,6.8213,0.4212,54.888702,9.802957,108.3,5.845,1.85,335.95,54.888805,9.802493,54.895069,9.793790
1386882930,1,0,280.9,0,0,4,0,0,0,-0.0292,280.6921,6.8213,0.4212,54.888702,9.802926,108.3,5.845,1.85,335.95,54.888805,9.802493,54.895069,9.793790
1386882930,1,0,280.9,0,0,0,0,0,25,-0.0292,280.6921,6.8213,0.4212,54.888702,9.802895,108.3,5.845,1.85,335.95,54.888805,9.802493,54.895069,9.793790
1386882931,1,0,280.9,0,0,4,0,0,0,-0.0292,280.6921,6.8213,0.4212,54.888702,9.802864,108.3,5.845,1.85,335.95,54.888805,9.802493,54.895069,9.793790
1386882931,1,0,280.9,0,0,0,0,0,25,-0.0292,280.6921,6.8213,0.4212,54.888702,9.802834,108.3,5.845,1.85,335.95,54.888805,9.802493,54.895069,9.793790
1386882931,1,0,280.9,0,0,4,0,0,0,-0.0292,280.6921,6.8213,0.4212,54.888702,9.802802,108.3,5.845,1.85,335.95,54.888805,9.802493,54.895069,9.793790
1386882931,1,0,280.9,0,0,0,0,0,25,-0.0292,280.6921,6.8213,0.4212,54.888702,9.802772,108.3,5.845,1.85,335.95,54.888805,9.802493,54.895069,9.793790
1386882932,1,0,280.9,0,0,4,0,0,0,-0.0292,280.6921,6.8213,0.4212,54.888702,9.802741,108.3,5.845,1.85,335.95,54.888805,9.802493,54.895069,9.793790
1386882932,1,0,280.9,0,0,0,0,0,25,-0.0292,280.6921,6.8213,0.4212,54.888702,9.802711,108.3,5.845,1.85,335.95,54.888805,9.802493,54.895069,9.793790
1386882932,1,0,280.9,0,0,4,0,0,0,-0.0292,280.6921,6.8213,0.4212,54.888702,9.802679,108.3,5.845,1.85,335.95,54.888805,9.802493,54.895069,9.793790
1386882932,1,0,280.9,0,0,0,0,0,25,-0.0292,280.6921,6.8213,0.4212,54.888702,9.802649,108.3,5.845,1.85,335.95,54.888805,9.802493,54.895069,9.793790
1386882933,1,0,280.9,0,0,4,0,0,0,-0.0292,280.6921,6.8213,0.4212,54.888702,9.802618,108.3,5.845,1.85,335.95,54.888805,9.802493,54.895069,9.793790
1386882933,1,0,280.9,0,0,0,0,0,25,-0.0292,280.6921,6.8213,0.4212,54.888702,9.802588,108.3,5.845,1.85,335.95,54.888805,9.802493,54.895069,9.793790
1386882933,1,0,280.9,0,0,4,0,0,0,-0.0292,280.6921,6.8213,0.4212,54.888702,9.802557,108.3,5.845,1.85,335.95,54.888805,9.802493,54.895069,9.793790
1386882933,1,0,280.9,0,0,0,0,0,25,-0.0292,280.6921,6.8213,0.4212,54.888702,9.802526,108.3,5.845,1.85,335.95,54.888805,9.802493,54.895069,9.793790
1386882934,1,0,280.9,0,0,4,0,0,0,-0.0292,280.6921,6.8213,0.4212,54.888702,9.802496,108.3,5.845,1.85,335.95,54.888805,9.802493,54.895069,9.793790
1386882934,1,0,280.9,0,0,0,0,0,25,-0.0292,280.6921,6.8213,0.4212,54.888702,9.802464,108.3,5.845,1.85,335.95,54.888805,9.802493,54.895069,9.793790
1386882934,1,0,280.9,0,0,4,0,0,0,-0.0292,280.6921,6.8213,0.4212,54.888702,9.802434,108.3,5.845,1.85,335.95,54.888805,9.802493,54.895069,9.793790
1386882934,1,0,280.9,0,0,0,0,0,25,-0.0292,280.6921,6.8213,0.4212,54.888702,9.802403,108.3,5.845,1.85,335.95,54.888805,9.802493,54.895069,9.793790
1386882935,1,0,280.9,0,0,4,0,0,0,-0.0292,280.6921,6.8213,0.4212,54.888702,9.802373,108.3,5.845,1.85,335.95,54.888805,9.802493,54.895069,9.793790
1386882935,1,0,280.9,0,0,0,0,0,25,-0.0292,280.6921,6.8213,0.4212,54.888702,9.802342,108.3,5.845,1.85,335.95,54.888805,9.802493,54.895069,9.793790
1386882935,1,0,280.9,0,0,4,0,0,0,-0.0292,280.6921,6.8213,0.4212,54.888702,9.802312,108.3,5.845,1.85,335.95,54.888805,9.802493,54.895069,9.793790
1386882935,1,0,280.9,0,0,0,0,0,25,-0.0292,280.6921,6.8213,0.4212,54.888702,9.802281,108.3,5.845,1.85,335.95,54.888805,9.802493,54.895069,9.793790
1386882936,1,0,280.9,0,0,4,0,0,0,-0.0292,280.6921,6.8213,0.4212,54.888702,9.802250,108.3,5.845,1.85,335.95,54.888805,9.802493,54.895069,9.793790
1386882936,1,0,280.9,0,0,0,0,0,25,-0.0292,280.6921,6.8213,0.4212,54.888702,9.802219,108.3,5.845,1.85,335.95,54.888805,9.802493,54.895069,9.793790
1386882936,1,0,280.9,0,0,4,0,0,0,-0.0292,280.6921,6.8213,0.4212,54.888702,9.802189,108.3,5.845,1.85,335.95,54.888805,9.802493,54.895069,9.793790
1386882936,1,0,280.9,0,0,0,0,0,25,-0.0292,280.6921,6.8213,0.4212,54.888702,9.802158,108.3,5.845,1.85,335.95,54.888805,9.802493,54.895069,9.793790
1386882937,1,0,280.9,0,0,4,0,0,0,-0.0292,280.6921,6.8213,0.4212,54.888702,9.802128,108.3,5.845,1.85,335.95,54.888805,9.802493,54.895069,9.793790
1386882937,1,0,280.9,0,0,0,0,0,25,-0.0292,280.6921,6.8213,0.4212,54.888702,9.802097,108.3,5.845,1.85,335.95,54.888805,9.802493,54.895069,9.793790
