MCU_timestamp,Navigation_System,Manual_Control,Guidance_Heading,Manual_Ctrl_Rudder,Rudder_Desired_Angle,Rudder_Feedback,Manual_Ctrl_Sail,Sail_Desired_Pos,Sail_Feedback,Rate,Heading,Pitch,Roll,Latitude,Longitude,COG,SOG,Wind_Speed,Wind_Angle,Point_Start_Lat,Point_Start_Lon,Point_End_Lat,Point_End_Lon
1386772511,0,0,0.0,0,0,4,0,0,0,-0.0292,225.2246,6.8213,0.4212,54.890678,9.805291,108.3,5.845,1.85,335.95,0.000000,0.000000,0.000000,0.000000
1386772511,0,0,0.0,0,0,4,0,0,0,-0.0292,225.2246,6.8213,0.4212,54.890678,9.805291,108.3,5.845,1.85,335.95,0.000000,0.000000,0.000000,0.000000
1386772511,0,0,0.0,0,0,4,0,0,0,-0.0292,225.2246,6.8213,0.4212,54.890678,9.805291,108.3,5.845,1.85,335.95,0.000000,0.000000,0.000000,0.000000
1386772511,0,0,0.0,0,0,4,0,0,0,-0.0292,225.2246,6.8213,0.4212,54.890678,9.805291,108.3,5.845,1.85,335.95,0.000000,0.000000,0.000000,0.000000
1386772512,0,0,0.0,0,0,4,0,0,0,-0.0292,225.2246,6.8213,0.4212,54.890678,9.805291,108.3,5.845,1.85,335.95,0.000000,0.000000,0.000000,0.000000
1386772512,0,0,0.0,0,0,4,0,0,0,-0.0292,225.2246,6.8213,0.4212,54.890678,9.805291,108.3,5.845,1.85,335.95,0.000000,0.000000,0.000000,0.000000
1386772512,0,0,0.0,0,0,4,0,0,0,-0.0292,225.2246,6.8213,0.4212,54.890678,9.805291,108.3,5.845,1.85,335.95,0.000000,0.000000,0.000000,0.000000
1386772512,0,0,0.0,0,0,4,0,0,0,-0.0292,225.2246,6.8213,0.4212,54.890678,9.805291,108.3,5.845,1.85,335.95,0.000000,0.000000,0.000000,0.000000
1386772513,0,0,0.0,0,0,4,0,0,0,-0.0292,225.2246,6.8213,0.4212,54.890678,9.805291,108.3,5.845,1.85,335.95,0.000000,0.000000,0.000000,0.000000
1386772513,4,0,0.0,0,0,4,0,0,0,-0.0292,225.2246,6.8213,0.4212,54.890678,9.805291,108.3,5.845,1.85,335.95,0.000000,0.000000,0.000000,0.000000
1386772513,1,0,485.9,0,35,8,0,451,475,-0.0292,215.8913,6.8213,0.4212,54.890663,9.805273,108.3,5.845,1.85,335.95,54.890678,9.805291,54.895069,9.793790
1386772513,1,0,485.9,0,35,12,0,477,500,-0.0292,206.5579,6.8213,0.4212,54.890648,9.805260,108.3,5.845,1.85,335.95,54.890678,9.805291,54.895069,9.793790
1386772514,1,0,485.9,0,35,16,0,493,475,-0.0292,197.2246,6.8213,0.4212,54.890629,9.805250,108.3,5.845,1.85,335.95,54.890678,9.805291,54.895069,9.793790
1386772514,1,0,485.9,0,35,20,0,291,450,-0.0292,187.8913,6.8213,0.4212,54.890610,9.805245,108.3,5.845,1.85,335.95,54.890678,9.805291,54.895069,9.793790
1386772514,1,0,485.9,0,35,24,0,291,425,-0.0292,178.5579,6.8213,0.4212,54.890591,9.805246,108.3,5.845,1.85,335.95,54.890678,9.805291,54.895069,9.793790
1386772515,1,0,485.9,0,35,28,0,291,400,-0.0292,169.2246,6.8213,0.4212,54.890575,9.805252,108.3,5.845,1.85,335.95,54.890678,9.805291,54.895069,9.793790
1386772515,1,0,485.9,0,35,32,0,291,375,-0.0292,159.8913,6.8213,0.4212,54.890556,9.805263,108.3,5.845,1.85,335.95,54.890678,9.805291,54.895069,9.793790
1386772515,1,0,485.9,0,34,36,0,496,400,-0.0292,150.8246,6.8213,0.4212,54.890541,9.805278,108.3,5.845,1.85,335.95,54.890678,9.805291,54.895069,9.793790
1386772515,1,0,485.9,0,25,32,0,496,425,-0.0292,144.1579,6.8213,0.4212,54.890530,9.805296,108.3,5.845,1.85,335.95,54.890678,9.805291,54.895069,9.793790
1386772516,1,0,485.9,0,18,28,0,291,400,-0.0292,139.3579,6.8213,0.4212,54.890514,9.805316,108.3,5.845,1.85,335.95,54.890678,9.805291,54.895069,9.793790
1386772516,1,0,485.9,0,13,24,0,291,375,-0.0292,135.8913,6.8213,0.4212,54.890503,9.805338,108.3,5.845,1.85,335.95,54.890678,9.805291,54.895069,9.793790
1386772516,1,0,485.9,0,10,20,0,291,350,-0.0292,133.2246,6.8213,0.4212,54.890491,9.805361,108.3,5.845,1.85,335.95,54.890678,9.805291,54.895069,9.793790
1386772516,1,0,545.9,0,-35,16,0,291,325,-0.0292,142.5579,6.8213,0.4212,54.890480,9.805380,108.3,5.845,1.85,335.95,54.890678,9.805291,54.895069,9.793790
1386772517,1,0,545.9,0,-35,12,0,291,300,-0.0292,151.8913,6.8213,0.4212,54.890465,9.805394,108.3,5.845,1.85,335.95,54.890678,9.805291,54.895069,9.793790
1386772517,1,0,545.9,0,-34,8,0,496,325,-0.0292,160.9579,6.8213,0.4212,54.890450,9.805405,108.3,5.845,1.85,335.95,54.890678,9.805291,54.895069,9.793790
1386772517,1,0,545.9,0,-25,4,0,496,350,-0.0292,167.6246,6.8213,0.4212,54.890430,9.805412,108.3,5.845,1.85,335.95,54.890678,9.805291,54.895069,9.793790
1386772517,1,0,545.9,0,-18,0,0,291,325,-0.0292,172.4246,6.8213,0.4212,54.890411,9.805416,108.3,5.845,1.85,335.95,54.890678,9.805291,54.895069,9.793790
1386772518,1,0,545.9,0,-14,-4,0,291,300,-0.0292,176.1579,6.8213,0.4212,54.890392,9.805418,108.3,5.845,1.85,335.95,54.890678,9.805291,54.895069,9.793790
1386772518,1,0,280.9,0,-35,-8,0,291,275,-0.0292,185.4913,6.8213,0.4212,54.890377,9.805415,108.3,5.845,1.85,335.95,54.890678,9.805291,54.895069,9.793790
1386772518,1,0,280.9,0,-35,-12,0,291,300,-0.0292,194.8246,6.8213,0.4212,54.890358,9.805407,108.3,5.845,1.85,335.95,54.890678,9.805291,54.895069,9.793790
1386772518,1,0,280.9,0,-35,-16,0,291,275,-0.0292,204.1579,6.8213,0.4212,54.890343,9.805393,108.3,5.845,1.85,335.95,54.890678,9.805291,54.895069,9.793790
1386772519,1,0,280.9,0,-35,-20,0,495,300,-0.0292,213.4913,6.8213,0.4212,54.890327,9.805376,108.3,5.845,1.85,335.95,54.890678,9.805291,54.895069,9.793790
1386772519,1,0,280.9,0,-35,-24,0,482,325,-0.0292,222.8246,6.8213,0.4212,54.890312,9.805355,108.3,5.845,1.85,335.95,54.890678,9.805291,54.895069,9.793790
1386772519,1,0,280.9,0,-35,-28,0,458,350,-0.0292,232.1579,6.8213,0.4212,54.890301,9.805330,108.3,5.845,1.85,335.95,54.890678,9.805291,54.895069,9.793790
1386772519,1,0,280.9,0,-35,-32,0,429,375,-0.0292,241.4912,6.8213,0.4212,54.890289,9.805303,108.3,5.845,1.85,335.95,54.890678,9.805291,54.895069,9.793790
1386772520,0,0,280.9,0,-35,-32,0,429,375,-0.0292,241.4912,6.8213,0.4212,54.890289,9.805303,108.3,5.845,1.85,335.95,54.890678,9.805291,54.895069,9.793790
1386772520,0,0,280.9,0,-35,-32,0,429,375,-0.0292,241.4912,6.8213,0.4212,54.890289,9.805303,108.3,5.845,1.85,335.95,54.890678,9.805291,54.895069,9.793790
1386772520,0,0,280.9,0,-35,-32,0,429,375,-0.0292,241.4912,6.8213,0.4212,54.890289,9.805303,108.3,5.845,1.85,335.95,54.890678,9.805291,54.895069,9.793790
1386772520,0,0,280.9,0,-35,-32,0,429,375,-0.0292,241.4912,6.8213,0.4212,54.890289,9.805303,108.3,5.845,1.85,335.95,54.890678,9.805291,54.895069,9.793790
1386772521,0,0,280.9,0,-35,-32,0,429,375,-0.0292,241.4912,6.8213,0.4212,54.890289,9.805303,108.3,5.845,1.85,335.95,54.890678,9.805291,54.895069,9.793790
1386772521,0,0,280.9,0,-35,-32,0,429,375,-0.0292,241.4912,6.8213,0.4212,54.890289,9.805303,108.3,5.845,1.85,335.95,54.890678,9.805291,54.895069,9.793790
1386772521,0,0,280.9,0,-35,-32,0,429,375,-0.0292,241.4912,6.8213,0.4212,54.890289,9.805303,108.3,5.845,1.85,335.95,54.890678,9.805291,54.895069,9.793790
1386772521,0,0,280.9,0,-35,-32,0,429,375,-0.0292,241.4912,6.8213,0.4212,54.890289,9.805303,108.3,5.845,1.85,335.95,54.890678,9.805291,54.895069,9.793790
1386772522,0,0,280.9,0,-35,-32,0,429,375,-0.0292,241.4912,6.8213,0.4212,54.890289,9.805303,108.3,5.845,1.85,335.95,54.890678,9.805291,54.895069,9.793790
1386772522,0,0,280.9,0,-35,-32,0,429,375,-0.0292,241.4912,6.8213,0.4212,54.890289,9.805303,108.3,5.845,1.85,335.95,54.890678,9.805291,54.895069,9.793790
1386772522,0,0,280.9,0,-35,-32,0,429,375,-0.0292,241.4912,6.8213,0.4212,54.890289,9.805303,108.3,5.845,1.85,335.95,54.890678,9.805291,54.895069,9.793790
1386772522,0,0,280.9,0,-35,-32,0,429,375,-0.0292,241.4912,6.8213,0.4212,54.890289,9.805303,108.3,5.845,1.85,335.95,54.890678,9.805291,54.895069,9.793790
1386772523,0,0,280.9,0,-35,-32,0,429,375,-0.0292,241.4912,6.8213,0.4212,54.890289,9.805303,108.3,5.845,1.85,335.95,54.890678,9.805291,54.895069,9.793790
1386772523,0,0,280.9,0,-35,-32,0,429,375,-0.0292,241.4912,6.8213,0.4212,54.890289,9.805303,108.3,5.845,1.85,335.95,54.890678,9.805291,54.895069,9.793790
1386772523,0,0,280.9,0,-35,-32,0,429,375,-0.0292,241.4912,6.8213,0.4212,54.890289,9.805303,108.3,5.845,1.85,335.95,54.890678,9.805291,54.895069,9.793790
1386772523,0,0,280.9,0,-35,-32,0,429,375,-0.0292,241.4912,6.8213,0.4212,54.890289,9.805303,108.3,5.845,1.85,335.95,54.890678,9.805291,54.895069,9.793790
1386772524,0,0,280.9,0,-35,-32,0,429,375,-0.0292,241.4912,6.8213,0.4212,54.890289,9.805303,108.3,5.845,1.85,335.95,54.890678,9.805291,54.895069,9.793790
1386772524,0,0,280.9,0,-35,-32,0,429,375,-0.0292,241.4912,6.8213,0.4212,54.890289,9.805303,108.3,5.845,1.85,335.95,54.890678,9.805291,54.895069,9.793790
1386772524,0,0,280.9,0,-35,-32,0,429,375,-0.0292,241.4912,6.8213,0.4212,54.890289,9.805303,108.3,5.845,1.85,335.95,54.890678,9.805291,54.895069,9.793790
1386772524,0,0,280.9,0,-35,-32,0,429,375,-0.0292,241.4912,6.8213,0.4212,54.890289,9.805303,108.3,5.845,1.85,335.95,54.890678,9.805291,54.895069,9.793790
1386772525,0,0,280.9,0,-35,-32,0,429,375,-0.0292,241.4912,6.8213,0.4212,54.890289,9.805303,108.3,5.845,1.85,335.95,54.890678,9.805291,54.895069,9.793790
1386772525,0,0,280.9,0,-35,-32,0,429,375,-0.0292,241.4912,6.8213,0.4212,54.890289,9.805303,108.3,5.845,1.85,335.95,54.890678,9.805291,54.895069,9.793790
1386772525,0,0,280.9,0,-35,-32,0,429,375,-0.0292,241.4912,6.8213,0.4212,54.890289,9.805303,108.3,5.845,1.85,335.95,54.890678,9.805291,54.895069,9.793790
1386772525,0,0,280.9,0,-35,-32,0,429,375,-0.0292,241.4912,6.8213,0.4212,54.890289,9.805303,108.3,5.845,1.85,335.95,54.890678,9.805291,54.895069,9.793790
1386772526,0,0,280.9,0,-35,-32,0,429,375,-0.0292,241.4912,6.8213,0.4212,54.890289,9.805303,108.3,5.845,1.85,335.95,54.890678,9.805291,54.895069,9.793790
1386772526,0,0,280.9,0,-35,-32,0,429,375,-0.0292,241.4912,6.8213,0.4212,54.890289,9.805303,108.3,5.845,1.85,335.95,54.890678,9.805291,54.895069,9.793790
1386772526,0,0,280.9,0,-35,-32,0,429,375,-0.0292,241.4912,6.8213,0.4212,54.890289,9.805303,108.3,5.845,1.85,335.95,54.890678,9.805291,54.895069,9.793790
1386772526,0,0,280.9,0,-35,-32,0,429,375,-0.0292,241.4912,6.8213,0.4212,54.890289,9.805303,108.3,5.845,1.85,335.95,54.890678,9.805291,54.895069,9.793790
1386772527,0,0,280.9,0,-35,-32,0,429,375,-0.0292,241.4912,6.8213,0.4212,54.890289,9.805303,108.3,5.845,1.85,335.95,54.890678,9.805291,54.895069,9.793790
1386772527,0,0,280.9,0,-35,-32,0,429,375,-0.0292,241.4912,6.8213,0.4212,54.890289,9.805303,108.3,5.845,1.85,335.95,54.890678,9.805291,54.895069,9.793790
