MCU_timestamp,Navigation_System,Manual_Control,Guidance_Heading,Manual_Ctrl_Rudder,Rudder_Desired_Angle,Rudder_Feedback,Manual_Ctrl_Sail,Sail_Desired_Pos,Sail_Feedback,Rate,Heading,Pitch,Roll,Latitude,Longitude,COG,SOG,Wind_Speed,Wind_Angle,Point_Start_Lat,Point_Start_Lon,Point_End_Lat,Point_End_Lon
1386863660,0,0,0.0,0,0,0,0,0,0,-0.0292,-23.5744,6.8213,0.4212,54.897236,9.796108,108.3,5.845,1.85,335.95,0.000000,0.000000,0.000000,0.000000
1386863660,0,0,0.0,0,0,0,0,0,0,-0.0292,-23.5744,6.8213,0.4212,54.897236,9.796108,108.3,5.845,1.85,335.95,0.000000,0.000000,0.000000,0.000000
1386863660,0,0,0.0,0,0,0,0,0,0,-0.0292,-23.5744,6.8213,0.4212,54.897236,9.796108,108.3,5.845,1.85,335.95,0.000000,0.000000,0.000000,0.000000
1386863661,0,0,0.0,0,0,0,0,0,0,-0.0292,-23.5744,6.8213,0.4212,54.897236,9.796108,108.3,5.845,1.85,335.95,0.000000,0.000000,0.000000,0.000000
1386863661,0,0,0.0,0,0,0,0,0,0,-0.0292,-23.5744,6.8213,0.4212,54.897236,9.796108,108.3,5.845,1.85,335.95,0.000000,0.000000,0.000000,0.000000
1386863661,0,0,0.0,0,0,0,0,0,0,-0.0292,-23.5744,6.8213,0.4212,54.897236,9.796108,108.3,5.845,1.85,335.95,0.000000,0.000000,0.000000,0.000000
1386863661,0,0,0.0,0,0,0,0,0,0,-0.0292,-23.5744,6.8213,0.4212,54.897236,9.796108,108.3,5.845,1.85,335.95,0.000000,0.000000,0.000000,0.000000
1386863662,0,0,0.0,0,0,0,0,0,0,-0.0292,-23.5744,6.8213,0.4212,54.897236,9.796108,108.3,5.845,1.85,335.95,0.000000,0.000000,0.000000,0.000000
1386863662,0,0,0.0,0,0,0,0,0,0,-0.0292,-23.5744,6.8213,0.4212,54.897236,9.796108,108.3,5.845,1.85,335.95,0.000000,0.000000,0.000000,0.000000
1386863662,0,0,0.0,0,0,0,0,0,0,-0.0292,-23.5744,6.8213,0.4212,54.897236,9.796108,108.3,5.845,1.85,335.95,0.000000,0.000000,0.000000,0.000000
1386863662,0,0,0.0,0,0,0,0,0,0,-0.0292,-23.5744,6.8213,0.4212,54.897236,9.796108,108.3,5.845,1.85,335.95,0.000000,0.000000,0.000000,0.000000
1386863663,0,0,0.0,0,0,0,0,0,0,-0.0292,-23.5744,6.8213,0.4212,54.897236,9.796108,108.3,5.845,1.85,335.95,0.000000,0.000000,0.000000,0.000000
1386863663,0,0,0.0,0,0,0,0,0,0,-0.0292,-23.5744,6.8213,0.4212,54.897236,9.796108,108.3,5.845,1.85,335.95,0.000000,0.000000,0.000000,0.000000
1386863663,0,0,0.0,0,0,0,0,0,0,-0.0292,-23.5744,6.8213,0.4212,54.897236,9.796108,108.3,5.845,1.85,335.95,0.000000,0.000000,0.000000,0.000000
1386863663,0,0,0.0,0,0,0,0,0,0,-0.0292,-23.5744,6.8213,0.4212,54.897236,9.796108,108.3,5.845,1.85,335.95,0.000000,0.000000,0.000000,0.000000
1386863664,0,0,0.0,0,0,0,0,0,0,-0.0292,-23.5744,6.8213,0.4212,54.897236,9.796108,108.3,5.845,1.85,335.95,0.000000,0.000000,0.000000,0.000000
1386863664,0,0,0.0,0,0,0,0,0,0,-0.0292,-23.5744,6.8213,0.4212,54.897236,9.796108,108.3,5.845,1.85,335.95,0.000000,0.000000,0.000000,0.000000
1386863664,0,0,0.0,0,0,0,0,0,0,-0.0292,-23.5744,6.8213,0.4212,54.897236,9.796108,108.3,5.845,1.85,335.95,0.000000,0.000000,0.000000,0.000000
1386863664,0,0,0.0,0,0,0,0,0,0,-0.0292,-23.5744,6.8213,0.4212,54.897236,9.796108,108.3,5.845,1.85,335.95,0.000000,0.000000,0.000000,0.000000
1386863665,0,0,0.0,0,0,0,0,0,0,-0.0292,-23.5744,6.8213,0.4212,54.897236,9.796108,108.3,5.845,1.85,335.95,0.000000,0.000000,0.000000,0.000000
1386863665,0,0,0.0,0,0,0,0,0,0,-0.0292,-23.5744,6.8213,0.4212,54.897236,9.796108,108.3,5.845,1.85,335.95,0.000000,0.000000,0.000000,0.000000
1386863665,0,0,0.0,0,0,0,0,0,0,-0.0292,-23.5744,6.8213,0.4212,54.897236,9.796108,108.3,5.845,1.85,335.95,0.000000,0.000000,0.000000,0.000000
1386863665,0,0,0.0,0,0,0,0,0,0,-0.0292,-23.5744,6.8213,0.4212,54.897236,9.796108,108.3,5.845,1.85,335.95,0.000000,0.000000,0.000000,0.000000
1386863666,0,0,0.0,0,0,0,0,0,0,-0.0292,-23.5744,6.8213,0.4212,54.897236,9.796108,108.3,5.845,1.85,335.95,0.000000,0.000000,0.000000,0.000000
1386863666,0,0,0.0,0,0,0,0,0,0,-0.0292,-23.5744,6.8213,0.4212,54.897236,9.796108,108.3,5.845,1.85,335.95,0.000000,0.000000,0.000000,0.000000
1386863666,0,0,0.0,0,0,0,0,0,0,-0.0292,-23.5744,6.8213,0.4212,54.897236,9.796108,108.3,5.845,1.85,335.95,0.000000,0.000000,0.000000,0.000000
1386863666,0,0,0.0,0,0,0,0,0,0,-0.0292,-23.5744,6.8213,0.4212,54.897236,9.796108,108.3,5.845,1.85,335.95,0.000000,0.000000,0.000000,0.000000
1386863667,0,0,0.0,0,0,0,0,0,0,-0.0292,-23.5744,6.8213,0.4212,54.897236,9.796108,108.3,5.845,1.85,335.95,0.000000,0.000000,0.000000,0.000000
1386863667,0,0,0.0,0,0,0,0,0,0,-0.0292,-23.5744,6.8213,0.4212,54.897236,9.796108,108.3,5.845,1.85,335.95,0.000000,0.000000,0.000000,0.000000
1386863667,0,0,0.0,0,0,0,0,0,0,-0.0292,-23.5744,6.8213,0.4212,54.897236,9.796108,108.3,5.845,1.85,335.95,0.000000,0.000000,0.000000,0.000000
1386863667,0,0,0.0,0,0,0,0,0,0,-0.0292,-23.5744,6.8213,0.4212,54.897236,9.796108,108.3,5.845,1.85,335.95,0.000000,0.000000,0.000000,0.000000
1386863668,0,0,0.0,0,0,0,0,0,0,-0.0292,-23.5744,6.8213,0.4212,54.897236,9.796108,108.3,5.845,1.85,335.95,0.000000,0.000000,0.000000,0.000000
1386863668,0,0,0.0,0,0,0,0,0,0,-0.0292,-23.5744,6.8213,0.4212,54.897236,9.796108,108.3,5.845,1.85,335.95,0.000000,0.000000,0.000000,0.000000
1386863668,0,0,0.0,0,0,0,0,0,0,-0.0292,-23.5744,6.8213,0.4212,54.897236,9.796108,108.3,5.845,1.85,335.95,0.000000,0.000000,0.000000,0.000000
1386863668,0,0,0.0,0,0,0,0,0,0,-0.0292,-23.5744,6.8213,0.4212,54.897236,9.796108,108.3,5.845,1.85,335.95,0.000000,0.000000,0.000000,0.000000
1386863669,0,0,0.0,0,0,0,0,0,0,-0.0292,-23.5744,6.8213,0.4212,54.897236,9.796108,108.3,5.845,1.85,335.95,0.000000,0.000000,0.000000,0.000000
1386863669,0,0,0.0,0,0,0,0,0,0,-0.0292,-23.5744,6.8213,0.4212,54.897236,9.796108,108.3,5.845,1.85,335.95,0.000000,0.000000,0.000000,0.000000
1386863669,0,0,0.0,0,0,0,0,0,0,-0.0292,-23.5744,6.8213,0.4212,54.897236,9.796108,108.3,5.845,1.85,335.95,0.000000,0.000000,0.000000,0.000000
1386863669,0,0,0.0,0,0,0,0,0,0,-0.0292,-23.5744,6.8213,0.4212,54.897236,9.796108,108.3,5.845,1.85,335.95,0.000000,0.000000,0.000000,0.000000
1386863670,0,0,0.0,0,0,0,0,0,0,-0.0292,-23.5744,6.8213,0.4212,54.897236,9.796108,108.3,5.845,1.85,335.95,0.000000,0.000000,0.000000,0.000000
1386863670,0,0,0.0,0,0,0,0,0,0,-0.0292,-23.5744,6.8213,0.4212,54.897236,9.796108,108.3,5.845,1.85,335.95,0.000000,0.000000,0.000000,0.000000
1386863670,0,0,0.0,0,0,0,0,0,0,-0.0292,-23.5744,6.8213,0.4212,54.897236,9.796108,108.3,5.845,1.85,335.95,0.000000,0.000000,0.000000,0.000000
1386863670,0,0,0.0,0,0,0,0,0,0,-0.0292,-23.5744,6.8213,0.4212,54.897236,9.796108,108.3,5.845,1.85,335.95,0.000000,0.000000,0.000000,0.000000
1386863671,0,0,0.0,0,0,0,0,0,0,-0.0292,-23.5744,6.8213,0.4212,54.897236,9.796108,108.3,5.845,1.85,335.95,0.000000,0.000000,0.000000,0.000000
1386863671,0,0,0.0,0,0,0,0,0,0,-0.0292,-23.5744,6.8213,0.4212,54.897236,9.796108,108.3,5.845,1.85,335.95,0.000000,0.000000,0.000000,0.000000
1386863671,0,0,0.0,0,0,0,0,0,0,-0.0292,-23.5744,6.8213,0.4212,54.897236,9.796108,108.3,5.845,1.85,335.95,0.000000,0.000000,0.000000,0.000000
1386863671,0,0,0.0,0,0,0,0,0,0,-0.0292,-23.5744,6.8213,0.4212,54.897236,9.796108,108.3,5.845,1.85,335.95,0.000000,0.000000,0.000000,0.000000
1386863672,0,0,0.0,0,0,0,0,0,0,-0.0292,-23.5744,6.8213,0.4212,54.897236,9.796108,108.3,5.845,1.85,335.95,0.000000,0.000000,0.000000,0.000000
1386863672,0,0,0.0,0,0,0,0,0,0,-0.0292,-23.5744,6.8213,0.4212,54.897236,9.796108,108.3,5.845,1.85,335.95,0.000000,0.000000,0.000000,0.000000
1386863672,0,0,0.0,0,0,0,0,0,0,-0.0292,-23.5744,6.8213,0.4212,54.897236,9.796108,108.3,5.845,1.85,335.95,0.000000,0.000000,0.000000,0.000000
1386863672,0,0,0.0,0,0,0,0,0,0,-0.0292,-23.5744,6.8213,0.4212,54.897236,9.796108,108.3,5.845,1.85,335.95,0.000000,0.000000,0.000000,0.000000
1386863673,0,0,0.0,0,0,0,0,0,0,-0.0292,-23.5744,6.8213,0.4212,54.897236,9.796108,108.3,5.845,1.85,335.95,0.000000,0.000000,0.000000,0.000000
1386863673,0,0,0.0,0,0,0,0,0,0,-0.0292,-23.5744,6.8213,0.4212,54.897236,9.796108,108.3,5.845,1.85,335.95,0.000000,0.000000,0.000000,0.000000
1386863673,0,0,0.0,0,0,0,0,0,0,-0.0292,-23.5744,6.8213,0.4212,54.897236,9.796108,108.3,5.845,1.85,335.95,0.000000,0.000000,0.000000,0.000000
1386863673,0,0,0.0,0,0,0,0,0,0,-0.0292,-23.5744,6.8213,0.4212,54.897236,9.796108,108.3,5.845,1.85,335.95,0.000000,0.000000,0.000000,0.000000
1386863674,0,0,0.0,0,0,0,0,0,0,-0.0292,-23.5744,6.8213,0.4212,54.897236,9.796108,108.3,5.845,1.85,335.95,0.000000,0.000000,0.000000,0.000000
1386863674,0,0,0.0,0,0,0,0,0,0,-0.0292,-23.5744,6.8213,0.4212,54.897236,9.796108,108.3,5.845,1.85,335.95,0.000000,0.000000,0.000000,0.000000
1386863674,0,0,0.0,0,0,0,0,0,0,-0.0292,-23.5744,6.8213,0.4212,54.897236,9.796108,108.3,5.845,1.85,335.95,0.000000,0.000000,0.000000,0.000000
1386863674,0,0,0.0,0,0,0,0,0,0,-0.0292,-23.5744,6.8213,0.4212,54.897236,9.796108,108.3,5.845,1.85,335.95,0.000000,0.000000,0.000000,0.000000
1386863675,0,0,0.0,0,0,0,0,0,0,-0.0292,-23.5744,6.8213,0.4212,54.897236,9.796108,108.3,5.845,1.85,335.95,0.000000,0.000000,0.000000,0.000000
1386863675,0,0,0.0,0,0,0,0,0,0,-0.0292,-23.5744,6.8213,0.4212,54.897236,9.796108,108.3,5.845,1.85,335.95,0.000000,0.000000,0.000000,0.000000
1386863675,0,0,0.0,0,0,0,0,0,0,-0.0292,-23.5744,6.8213,0.4212,54.897236,9.796108,108.3,5.845,1.85,335.95,0.000000,0.000000,0.000000,0.000000
1386863675,0,0,0.0,0,0,0,0,0,0,-0.0292,-23.5744,6.8213,0.4212,54.897236,9.796108,108.3,5.845,1.85,335.95,0.000000,0.000000,0.000000,0.000000
1386863676,0,0,0.0,0,0,0,0,0,0,-0.0292,-23.5744,6.8213,0.4212,54.897236,9.796108,108.3,5.845,1.85,335.95,0.000000,0.000000,0.000000,0.000000
1386863676,0,0,0.0,0,0,0,0,0,0,-0.0292,-23.5744,6.8213,0.4212,54.897236,9.796108,108.3,5.845,1.85,335.95,0.000000,0.000000,0.000000,0.000000
1386863676,0,0,0.0,0,0,0,0,0,0,-0.0292,-23.5744,6.8213,0.4212,54.897236,9.796108,108.3,5.845,1.85,335.95,0.000000,0.000000,0.000000,0.000000
1386863677,0,0,0.0,0,0,0,0,0,0,-0.0292,-23.5744,6.8213,0.4212,54.897236,9.796108,108.3,5.845,1.85,335.95,0.000000,0.000000,0.000000,0.000000
1386863677,0,0,0.0,0,0,0,0,0,0,-0.0292,-23.5744,6.8213,0.4212,54.897236,9.796108,108.3,5.845,1.85,335.95,0.000000,0.000000,0.000000,0.000000
1386863677,0,0,0.0,0,0,0,0,0,0,-0.0292,-23.5744,6.8213,0.4212,54.897236,9.796108,108.3,5.845,1.85,335.95,0.000000,0.000000,0.000000,0.000000
1386863677,0,0,0.0,0,0,0,0,0,0,-0.0292,-23.5744,6.8213,0.4212,54.897236,9.796108,108.3,5.845,1.85,335.95,0.000000,0.000000,0.000000,0.000000
1386863678,0,0,0.0,0,0,0,0,0,0,-0.0292,-23.5744,6.8213,0.4212,54.897236,9.796108,108.3,5.845,1.85,335.95,0.000000,0.000000,0.000000,0.000000
1386863678,4,0,0.0,0,0,0,0,0,0,-0.0292,-23.5744,6.8213,0.4212,54.897236,9.796108,108.3,5.845,1.85,335.95,0.000000,0.000000,0.000000,0.000000
1386863678,1,0,485.9,0,-35,-4,0,0,0,-0.0292,-14.2411,6.8213,0.4212,54.897251,9.796101,108.3,5.845,1.85,335.95,54.897236,9.796108,54.895069,9.793790
1386863678,1,0,485.9,0,-35,-8,0,0,25,-0.0292,-4.9078,6.8213,0.4212,54.897270,9.796099,108.3,5.845,1.85,335.95,54.897236,9.796108,54.895069,9.793790
1386863679,1,0,485.9,0,-35,-12,0,0,0,-0.0292,4.4256,6.8213,0.4212,54.897289,9.796102,108.3,5.845,1.85,335.95,54.897236,9.796108,54.895069,9.793790
1386863679,1,0,485.9,0,-35,-16,0,0,25,-0.0292,13.7589,6.8213,0.4212,54.897305,9.796109,108.3,5.845,1.85,335.95,54.897236,9.796108,54.895069,9.793790
1386863679,1,0,485.9,0,-35,-20,0,0,0,-0.0292,23.0922,6.8213,0.4212,54.897324,9.796121,108.3,5.845,1.85,335.95,54.897236,9.796108,54.895069,9.793790
1386863679,1,0,485.9,0,-35,-24,0,0,25,-0.0292,32.4256,6.8213,0.4212,54.897339,9.796137,108.3,5.845,1.85,335.95,54.897236,9.796108,54.895069,9.793790
1386863680,1,0,485.9,0,-35,-28,0,0,0,-0.0292,41.7589,6.8213,0.4212,54.897350,9.796158,108.3,5.845,1.85,335.95,54.897236,9.796108,54.895069,9.793790
1386863680,1,0,485.9,0,-35,-32,0,32,25,-0.0292,51.0922,6.8213,0.4212,54.897362,9.796182,108.3,5.845,1.85,335.95,54.897236,9.796108,54.895069,9.793790
1386863680,1,0,485.9,0,-35,-36,0,98,50,-0.0292,60.4255,6.8213,0.4212,54.897369,9.796209,108.3,5.845,1.85,335.95,54.897236,9.796108,54.895069,9.793790
1386863680,1,0,485.9,0,-35,-32,0,179,75,-0.0292,69.7589,6.8213,0.4212,54.897377,9.796239,108.3,5.845,1.85,335.95,54.897236,9.796108,54.895069,9.793790
1386863681,1,0,485.9,0,-35,-36,0,264,100,-0.0292,79.0922,6.8213,0.4212,54.897381,9.796269,108.3,5.845,1.85,335.95,54.897236,9.796108,54.895069,9.793790
1386863681,1,0,485.9,0,-35,-32,0,349,125,-0.0292,88.4256,6.8213,0.4212,54.897381,9.796301,108.3,5.845,1.85,335.95,54.897236,9.796108,54.895069,9.793790
1386863681,1,0,485.9,0,-35,-36,0,431,150,-0.0292,97.7589,6.8213,0.4212,54.897377,9.796332,108.3,5.845,1.85,335.95,54.897236,9.796108,54.895069,9.793790
1386863681,1,0,485.9,0,-28,-32,0,508,175,-0.0292,105.2256,6.8213,0.4212,54.897373,9.796362,108.3,5.845,1.85,335.95,54.897236,9.796108,54.895069,9.793790
1386863682,1,0,485.9,0,-21,-28,0,565,200,-0.0292,110.8256,6.8213,0.4212,54.897369,9.796391,108.3,5.845,1.85,335.95,54.897236,9.796108,54.895069,9.793790
1386863682,1,0,485.9,0,-15,-24,0,578,225,-0.0292,114.8256,6.8213,0.4212,54.897362,9.796419,108.3,5.845,1.85,335.95,54.897236,9.796108,54.895069,9.793790
1386863682,1,0,485.9,0,-11,-20,0,409,250,-0.0292,117.7589,6.8213,0.4212,54.897350,9.796447,108.3,5.845,1.85,335.95,54.897236,9.796108,54.895069,9.793790
1386863682,1,0,485.9,0,-8,-16,0,409,275,-0.0292,119.8922,6.8213,0.4212,54.897343,9.796474,108.3,5.845,1.85,335.95,54.897236,9.796108,54.895069,9.793790
1386863683,1,0,485.9,0,-6,-12,0,409,300,-0.0292,121.4922,6.8213,0.4212,54.897331,9.796500,108.3,5.845,1.85,335.95,54.897236,9.796108,54.895069,9.793790
1386863683,1,0,485.9,0,-4,-8,0,409,325,-0.0292,122.5589,6.8213,0.4212,54.897324,9.796526,108.3,5.845,1.85,335.95,54.897236,9.796108,54.895069,9.793790
1386863683,1,0,485.9,0,-3,-4,0,0,300,-0.0292,123.3589,6.8213,0.4212,54.897316,9.796553,108.3,5.845,1.85,335.95,54.897236,9.796108,54.895069,9.793790
1386863683,1,0,485.9,0,-3,0,0,0,275,-0.0292,124.1589,6.8213,0.4212,54.897305,9.796578,108.3,5.845,1.85,335.95,54.897236,9.796108,54.895069,9.793790
1386863684,1,0,485.9,0,-2,-4,0,0,250,-0.0292,124.6922,6.8213,0.4212,54.897297,9.796603,108.3,5.845,1.85,335.95,54.897236,9.796108,54.895069,9.793790
1386863684,1,0,485.9,0,-1,0,0,0,225,-0.0292,124.9589,6.8213,0.4212,54.897285,9.796629,108.3,5.845,1.85,335.95,54.897236,9.796108,54.895069,9.793790
1386863684,1,0,485.9,0,-1,-4,0,0,200,-0.0292,125.2256,6.8213,0.4212,54.897274,9.796654,108.3,5.845,1.85,335.95,54.897236,9.796108,54.895069,9.793790
1386863684,1,0,485.9,0,-1,0,0,0,175,-0.0292,125.4922,6.8213,0.4212,54.897263,9.796679,108.3,5.845,1.85,335.95,54.897236,9.796108,54.895069,9.793790
1386863685,1,0,485.9,0,0,4,0,0,150,-0.0292,125.4922,6.8213,0.4212,54.897251,9.796705,108.3,5.845,1.85,335.95,54.897236,9.796108,54.895069,9.793790
1386863685,1,0,485.9,0,0,0,0,0,125,-0.0292,125.4922,6.8213,0.4212,54.897243,9.796730,108.3,5.845,1.85,335.95,54.897236,9.796108,54.895069,9.793790
1386863685,1,0,485.9,0,0,4,0,0,100,-0.0292,125.4922,6.8213,0.4212,54.897232,9.796756,108.3,5.845,1.85,335.95,54.897236,9.796108,54.895069,9.793790
1386863685,1,0,485.9,0,0,0,0,0,75,-0.0292,125.4922,6.8213,0.4212,54.897224,9.796781,108.3,5.845,1.85,335.95,54.897236,9.796108,54.895069,9.793790
1386863686,1,0,485.9,0,0,4,0,0,50,-0.0292,125.4922,6.8213,0.4212,54.897213,9.796806,108.3,5.845,1.85,335.95,54.897236,9.796108,54.895069,9.793790
1386863686,1,0,485.9,0,0,0,0,0,25,-0.0292,125.4922,6.8213,0.4212,54.897202,9.796832,108.3,5.845,1.85,335.95,54.897236,9.796108,54.895069,9.793790
1386863686,1,0,485.9,0,0,4,0,0,0,-0.0292,125.4922,6.8213,0.4212,54.897194,9.796858,108.3,5.845,1.85,335.95,54.897236,9.796108,54.895069,9.793790
1386863686,1,0,485.9,0,0,0,0,0,25,-0.0292,125.4922,6.8213,0.4212,54.897182,9.796884,108.3,5.845,1.85,335.95,54.897236,9.796108,54.895069,9.793790
1386863687,1,0,303.4,0,-35,-4,0,0,0,-0.0292,134.8256,6.8213,0.4212,54.897171,9.796906,108.3,5.845,1.85,335.95,54.897236,9.796108,54.895069,9.793790
1386863687,1,0,303.5,0,-35,-8,0,0,25,-0.0292,144.1589,6.8213,0.4212,54.897156,9.796924,108.3,5.845,1.85,335.95,54.897236,9.796108,54.895069,9.793790
1386863687,1,0,335.9,0,35,-4,0,0,0,-0.0292,134.8256,6.8213,0.4212,54.897144,9.796946,108.3,5.845,1.85,335.95,54.897236,9.796108,54.895069,9.793790
1386863687,1,0,335.9,0,35,0,0,0,25,-0.0292,125.4922,6.8213,0.4212,54.897133,9.796971,108.3,5.845,1.85,335.95,54.897236,9.796108,54.895069,9.793790
1386863688,1,0,335.9,0,35,4,0,0,0,-0.0292,116.1589,6.8213,0.4212,54.897125,9.796999,108.3,5.845,1.85,335.95,54.897236,9.796108,54.895069,9.793790
1386863688,1,0,335.9,0,35,8,0,0,25,-0.0292,106.8256,6.8213,0.4212,54.897121,9.797029,108.3,5.845,1.85,335.95,54.897236,9.796108,54.895069,9.793790
1386863688,1,0,335.9,0,35,12,0,0,0,-0.0292,97.4922,6.8213,0.4212,54.897118,9.797061,108.3,5.845,1.85,335.95,54.897236,9.796108,54.895069,9.793790
1386863688,1,0,335.9,0,35,16,0,0,25,-0.0292,88.1589,6.8213,0.4212,54.897118,9.797092,108.3,5.845,1.85,335.95,54.897236,9.796108,54.895069,9.793790
1386863689,1,0,335.9,0,35,20,0,0,0,-0.0292,78.8255,6.8213,0.4212,54.897121,9.797123,108.3,5.845,1.85,335.95,54.897236,9.796108,54.895069,9.793790
1386863689,1,0,304.4,0,35,24,0,0,25,-0.0292,69.4922,6.8213,0.4212,54.897129,9.797153,108.3,5.845,1.85,335.95,54.897236,9.796108,54.895069,9.793790
1386863689,1,0,335.9,0,35,28,0,0,0,-0.0292,60.1589,6.8213,0.4212,54.897141,9.797179,108.3,5.845,1.85,335.95,54.897236,9.796108,54.895069,9.793790
1386863689,0,0,335.9,0,35,28,0,0,0,-0.0292,60.1589,6.8213,0.4212,54.897141,9.797179,108.3,5.845,1.85,335.95,54.897236,9.796108,54.895069,9.793790
1386863690,0,0,335.9,0,35,28,0,0,0,-0.0292,60.1589,6.8213,0.4212,54.897141,9.797179,108.3,5.845,1.85,335.95,54.897236,9.796108,54.895069,9.793790
1386863690,0,0,335.9,0,35,28,0,0,0,-0.0292,60.1589,6.8213,0.4212,54.897141,9.797179,108.3,5.845,1.85,335.95,54.897236,9.796108,54.895069,9.793790
1386863690,0,0,335.9,0,35,28,0,0,0,-0.0292,60.1589,6.8213,0.4212,54.897141,9.797179,108.3,5.845,1.85,335.95,54.897236,9.796108,54.895069,9.793790
1386863690,0,0,335.9,0,35,28,0,0,0,-0.0292,60.1589,6.8213,0.4212,54.897141,9.797179,108.3,5.845,1.85,335.95,54.897236,9.796108,54.895069,9.793790
1386863691,0,0,335.9,0,35,28,0,0,0,-0.0292,60.1589,6.8213,0.4212,54.897141,9.797179,108.3,5.845,1.85,335.95,54.897236,9.796108,54.895069,9.793790
1386863691,0,0,335.9,0,35,28,0,0,0,-0.0292,60.1589,6.8213,0.4212,54.897141,9.797179,108.3,5.845,1.85,335.95,54.897236,9.796108,54.895069,9.793790
1386863691,0,0,335.9,0,35,28,0,0,0,-0.0292,60.1589,6.8213,0.4212,54.897141,9.797179,108.3,5.845,1.85,335.95,54.897236,9.796108,54.895069,9.793790
1386863691,0,0,335.9,0,35,28,0,0,0,-0.0292,60.1589,6.8213,0.4212,54.897141,9.797179,108.3,5.845,1.85,335.95,54.897236,9.796108,54.895069,9.793790
1386863692,0,0,335.9,0,35,28,0,0,0,-0.0292,60.1589,6.8213,0.4212,54.897141,9.797179,108.3,5.845,1.85,335.95,54.897236,9.796108,54.895069,9.793790
1386863692,0,0,335.9,0,35,28,0,0,0,-0.0292,60.1589,6.8213,0.4212,54.897141,9.797179,108.3,5.845,1.85,335.95,54.897236,9.796108,54.895069,9.793790
