MCU_timestamp,Navigation_System,Manual_Control,Guidance_Heading,Manual_Ctrl_Rudder,Rudder_Desired_Angle,Rudder_Feedback,Manual_Ctrl_Sail,Sail_Desired_Pos,Sail_Feedback,Rate,Heading,Pitch,Roll,Latitude,Longitude,COG,SOG,Wind_Speed,Wind_Angle,Point_Start_Lat,Point_Start_Lon,Point_End_Lat,Point_End_Lon
1386888217,1,0,485.9,0,0,4,0,713,575,-0.0292,126.2903,6.8213,0.4212,54.883011,9.784700,108.3,5.845,1.85,335.95,54.883022,9.784676,0.000000,0.000000
1386888217,1,0,485.9,0,0,0,0,713,600,-0.0292,126.2903,6.8213,0.4212,54.882999,9.784726,108.3,5.845,1.85,335.95,54.883022,9.784676,0.000000,0.000000
1386888218,1,0,485.9,0,0,4,0,713,625,-0.0292,126.2903,6.8213,0.4212,54.882988,9.784751,108.3,5.845,1.85,335.95,54.883022,9.784676,0.000000,0.000000
1386888218,1,0,485.9,0,0,0,0,713,650,-0.0292,126.2903,6.8213,0.4212,54.882980,9.784776,108.3,5.845,1.85,335.95,54.883022,9.784676,0.000000,0.000000
1386888218,1,0,485.9,0,0,4,0,713,675,-0.0292,126.2903,6.8213,0.4212,54.882969,9.784801,108.3,5.845,1.85,335.95,54.883022,9.784676,0.000000,0.000000
1386888218,1,0,485.9,0,0,0,0,713,700,-0.0292,126.2903,6.8213,0.4212,54.882957,9.784826,108.3,5.845,1.85,335.95,54.883022,9.784676,0.000000,0.000000
1386888219,1,0,485.9,0,0,4,0,713,725,-0.0292,126.2903,6.8213,0.4212,54.882946,9.784852,108.3,5.845,1.85,335.95,54.883022,9.784676,0.000000,0.000000
1386888219,1,0,485.9,0,0,0,0,713,700,-0.0292,126.2903,6.8213,0.4212,54.882935,9.784877,108.3,5.845,1.85,335.95,54.883022,9.784676,0.000000,0.000000
1386888219,1,0,485.9,0,0,4,0,713,725,-0.0292,126.2903,6.8213,0.4212,54.882923,9.784902,108.3,5.845,1.85,335.95,54.883022,9.784676,0.000000,0.000000
1386888219,1,0,485.9,0,0,0,0,713,700,-0.0292,126.2903,6.8213,0.4212,54.882912,9.784927,108.3,5.845,1.85,335.95,54.883022,9.784676,0.000000,0.000000
1386888220,1,0,485.9,0,0,4,0,713,725,-0.0292,126.2903,6.8213,0.4212,54.882900,9.784952,108.3,5.845,1.85,335.95,54.883022,9.784676,0.000000,0.000000
1386888220,1,0,485.9,0,0,0,0,713,700,-0.0292,126.2903,6.8213,0.4212,54.882889,9.784978,108.3,5.845,1.85,335.95,54.883022,9.784676,0.000000,0.000000
1386888220,1,0,485.9,0,0,4,0,713,725,-0.0292,126.2903,6.8213,0.4212,54.882881,9.785003,108.3,5.845,1.85,335.95,54.883022,9.784676,0.000000,0.000000
1386888220,1,0,485.9,0,0,0,0,713,700,-0.0292,126.2903,6.8213,0.4212,54.882870,9.785028,108.3,5.845,1.85,335.95,54.883022,9.784676,0.000000,0.000000
1386888221,1,0,485.9,0,0,4,0,713,725,-0.0292,126.2903,6.8213,0.4212,54.882862,9.785053,108.3,5.845,1.85,335.95,54.883022,9.784676,0.000000,0.000000
1386888221,1,0,485.9,0,0,0,0,713,700,-0.0292,126.2903,6.8213,0.4212,54.882851,9.785078,108.3,5.845,1.85,335.95,54.883022,9.784676,0.000000,0.000000
1386888221,1,0,485.9,0,0,4,0,713,725,-0.0292,126.2903,6.8213,0.4212,54.882839,9.785104,108.3,5.845,1.85,335.95,54.883022,9.784676,0.000000,0.000000
1386888221,1,0,485.9,0,0,0,0,713,700,-0.0292,126.2903,6.8213,0.4212,54.882828,9.785129,108.3,5.845,1.85,335.95,54.883022,9.784676,0.000000,0.000000
1386888222,1,0,485.9,0,0,4,0,713,725,-0.0292,126.2903,6.8213,0.4212,54.882816,9.785154,108.3,5.845,1.85,335.95,54.883022,9.784676,0.000000,0.000000
1386888222,1,0,485.9,0,0,0,0,713,700,-0.0292,126.2903,6.8213,0.4212,54.882809,9.785179,108.3,5.845,1.85,335.95,54.883022,9.784676,0.000000,0.000000
1386888222,1,0,485.9,0,0,4,0,0,675,-0.0292,126.2903,6.8213,0.4212,54.882797,9.785204,108.3,5.845,1.85,335.95,54.883022,9.784676,0.000000,0.000000
1386888222,1,0,485.9,0,0,0,0,0,650,-0.0292,126.2903,6.8213,0.4212,54.882786,9.785230,108.3,5.845,1.85,335.95,54.883022,9.784676,0.000000,0.000000
1386888223,1,0,485.9,0,0,4,0,0,625,-0.0292,126.2903,6.8213,0.4212,54.882774,9.785254,108.3,5.845,1.85,335.95,54.883022,9.784676,0.000000,0.000000
1386888223,1,0,485.9,0,0,0,0,0,600,-0.0292,126.2903,6.8213,0.4212,54.882763,9.785280,108.3,5.845,1.85,335.95,54.883022,9.784676,0.000000,0.000000
1386888223,1,0,485.9,0,0,4,0,0,575,-0.0292,126.2903,6.8213,0.4212,54.882751,9.785305,108.3,5.845,1.85,335.95,54.883022,9.784676,0.000000,0.000000
1386888223,1,0,485.9,0,0,0,0,0,550,-0.0292,126.2903,6.8213,0.4212,54.882740,9.785330,108.3,5.845,1.85,335.95,54.883022,9.784676,0.000000,0.000000
1386888224,1,0,485.9,0,0,4,0,0,525,-0.0292,126.2903,6.8213,0.4212,54.882729,9.785356,108.3,5.845,1.85,335.95,54.883022,9.784676,0.000000,0.000000
1386888224,1,0,485.9,0,0,0,0,0,500,-0.0292,126.2903,6.8213,0.4212,54.882717,9.785380,108.3,5.845,1.85,335.95,54.883022,9.784676,0.000000,0.000000
1386888224,1,0,485.9,0,0,4,0,0,475,-0.0292,126.2903,6.8213,0.4212,54.882710,9.785406,108.3,5.845,1.85,335.95,54.883022,9.784676,0.000000,0.000000
1386888224,1,0,485.9,0,0,0,0,0,450,-0.0292,126.2903,6.8213,0.4212,54.882698,9.785431,108.3,5.845,1.85,335.95,54.883022,9.784676,0.000000,0.000000
1386888225,1,0,485.9,0,0,4,0,0,425,-0.0292,126.2903,6.8213,0.4212,54.882687,9.785456,108.3,5.845,1.85,335.95,54.883022,9.784676,0.000000,0.000000
1386888225,1,0,485.9,0,0,0,0,0,400,-0.0292,126.2903,6.8213,0.4212,54.882675,9.785480,108.3,5.845,1.85,335.95,54.883022,9.784676,0.000000,0.000000
1386888225,1,0,485.9,0,0,4,0,0,375,-0.0292,126.2903,6.8213,0.4212,54.882664,9.785505,108.3,5.845,1.85,335.95,54.883022,9.784676,0.000000,0.000000
1386888225,1,0,485.9,0,0,0,0,0,350,-0.0292,126.2903,6.8213,0.4212,54.882652,9.785531,108.3,5.845,1.85,335.95,54.883022,9.784676,0.000000,0.000000
1386888226,1,0,485.9,0,0,4,0,0,325,-0.0292,126.2903,6.8213,0.4212,54.882641,9.785556,108.3,5.845,1.85,335.95,54.883022,9.784676,0.000000,0.000000
1386888226,1,0,485.9,0,0,0,0,0,300,-0.0292,126.2903,6.8213,0.4212,54.882629,9.785582,108.3,5.845,1.85,335.95,54.883022,9.784676,0.000000,0.000000
1386888226,1,0,485.9,0,0,4,0,0,275,-0.0292,126.2903,6.8213,0.4212,54.882618,9.785606,108.3,5.845,1.85,335.95,54.883022,9.784676,0.000000,0.000000
1386888226,1,0,485.9,0,0,0,0,0,250,-0.0292,126.2903,6.8213,0.4212,54.882607,9.785631,108.3,5.845,1.85,335.95,54.883022,9.784676,0.000000,0.000000
1386888227,1,0,485.9,0,0,4,0,0,225,-0.0292,126.2903,6.8213,0.4212,54.882595,9.785657,108.3,5.845,1.85,335.95,54.883022,9.784676,0.000000,0.000000
1386888227,1,0,485.9,0,0,0,0,0,200,-0.0292,126.2903,6.8213,0.4212,54.882587,9.785682,108.3,5.845,1.85,335.95,54.883022,9.784676,0.000000,0.000000
1386888227,1,0,485.9,0,0,4,0,0,175,-0.0292,126.2903,6.8213,0.4212,54.882576,9.785707,108.3,5.845,1.85,335.95,54.883022,9.784676,0.000000,0.000000
1386888227,1,0,485.9,0,0,0,0,0,150,-0.0292,126.2903,6.8213,0.4212,54.882565,9.785732,108.3,5.845,1.85,335.95,54.883022,9.784676,0.000000,0.000000
1386888228,1,0,485.9,0,0,4,0,0,125,-0.0292,126.2903,6.8213,0.4212,54.882553,9.785757,108.3,5.845,1.85,335.95,54.883022,9.784676,0.000000,0.000000
1386888228,1,0,485.9,0,0,0,0,0,100,-0.0292,126.2903,6.8213,0.4212,54.882542,9.785783,108.3,5.845,1.85,335.95,54.883022,9.784676,0.000000,0.000000
1386888228,1,0,485.9,0,0,4,0,0,75,-0.0292,126.2903,6.8213,0.4212,54.882530,9.785808,108.3,5.845,1.85,335.95,54.883022,9.784676,0.000000,0.000000
1386888229,1,0,485.9,0,0,0,0,0,50,-0.0292,126.2903,6.8213,0.4212,54.882519,9.785833,108.3,5.845,1.85,335.95,54.883022,9.784676,0.000000,0.000000
1386888229,1,0,485.9,0,0,4,0,0,25,-0.0292,126.2903,6.8213,0.4212,54.882507,9.785858,108.3,5.845,1.85,335.95,54.883022,9.784676,0.000000,0.000000
1386888229,1,0,485.9,0,0,0,0,0,0,-0.0292,126.2903,6.8213,0.4212,54.882496,9.785884,108.3,5.845,1.85,335.95,54.883022,9.784676,0.000000,0.000000
1386888229,1,0,485.9,0,0,4,0,0,25,-0.0292,126.2903,6.8213,0.4212,54.882488,9.785909,108.3,5.845,1.85,335.95,54.883022,9.784676,0.000000,0.000000
1386888230,1,0,545.9,0,-35,0,0,0,0,-0.0292,135.6236,6.8213,0.4212,54.882477,9.785931,108.3,5.845,1.85,335.95,54.883022,9.784676,0.000000,0.000000
1386888230,1,0,545.9,0,-35,-4,0,0,25,-0.0292,144.9569,6.8213,0.4212,54.882462,9.785949,108.3,5.845,1.85,335.95,54.883022,9.784676,0.000000,0.000000
1386888230,1,0,545.9,0,-35,-8,0,0,0,-0.0292,154.2903,6.8213,0.4212,54.882446,9.785962,108.3,5.845,1.85,335.95,54.883022,9.784676,0.000000,0.000000
1386888230,1,0,545.9,0,-32,-12,0,0,25,-0.0292,162.8236,6.8213,0.4212,54.882431,9.785972,108.3,5.845,1.85,335.95,54.883022,9.784676,0.000000,0.000000
1386888231,1,0,545.9,0,-23,-16,0,0,0,-0.0292,168.9569,6.8213,0.4212,54.882412,9.785977,108.3,5.845,1.85,335.95,54.883022,9.784676,0.000000,0.000000
1386888231,1,0,545.9,0,-17,-20,0,0,25,-0.0292,173.4903,6.8213,0.4212,54.882393,9.785981,108.3,5.845,1.85,335.95,54.883022,9.784676,0.000000,0.000000
1386888231,1,0,545.9,0,-12,-16,0,0,0,-0.0292,176.6903,6.8213,0.4212,54.882374,9.785983,108.3,5.845,1.85,335.95,54.883022,9.784676,0.000000,0.000000
1386888231,1,0,545.9,0,-9,-12,0,0,25,-0.0292,179.0903,6.8213,0.4212,54.882359,9.785984,108.3,5.845,1.85,335.95,54.883022,9.784676,0.000000,0.000000
1386888232,1,0,545.9,0,-7,-8,0,713,50,-0.0292,180.9569,6.8213,0.4212,54.882339,9.785984,108.3,5.845,1.85,335.95,54.883022,9.784676,0.000000,0.000000
1386888232,1,0,545.9,0,-5,-4,0,713,75,-0.0292,182.2903,6.8213,0.4212,54.882320,9.785983,108.3,5.845,1.85,335.95,54.883022,9.784676,0.000000,0.000000
1386888232,1,0,545.9,0,-4,0,0,713,100,-0.0292,183.3569,6.8213,0.4212,54.882301,9.785982,108.3,5.845,1.85,335.95,54.883022,9.784676,0.000000,0.000000
1386888232,1,0,545.9,0,-3,-4,0,713,125,-0.0292,184.1569,6.8213,0.4212,54.882286,9.785980,108.3,5.845,1.85,335.95,54.883022,9.784676,0.000000,0.000000
1386888233,1,0,545.9,0,-2,0,0,713,150,-0.0292,184.6903,6.8213,0.4212,54.882267,9.785978,108.3,5.845,1.85,335.95,54.883022,9.784676,0.000000,0.000000
1386888233,1,0,545.9,0,-1,-4,0,713,175,-0.0292,184.9569,6.8213,0.4212,54.882248,9.785975,108.3,5.845,1.85,335.95,54.883022,9.784676,0.000000,0.000000
1386888233,1,0,545.9,0,-1,0,0,713,200,-0.0292,185.2236,6.8213,0.4212,54.882233,9.785973,108.3,5.845,1.85,335.95,54.883022,9.784676,0.000000,0.000000
1386888233,1,0,545.9,0,-1,-4,0,713,225,-0.0292,185.4902,6.8213,0.4212,54.882214,9.785970,108.3,5.845,1.85,335.95,54.883022,9.784676,0.000000,0.000000
1386888234,1,0,545.9,0,0,0,0,713,250,-0.0292,185.4902,6.8213,0.4212,54.882195,9.785967,108.3,5.845,1.85,335.95,54.883022,9.784676,0.000000,0.000000
1386888234,1,0,545.9,0,0,4,0,713,275,-0.0292,185.4902,6.8213,0.4212,54.882175,9.785964,108.3,5.845,1.85,335.95,54.883022,9.784676,0.000000,0.000000
1386888234,1,0,545.9,0,0,0,0,713,300,-0.0292,185.4902,6.8213,0.4212,54.882160,9.785961,108.3,5.845,1.85,335.95,54.883022,9.784676,0.000000,0.000000
1386888234,1,0,545.9,0,0,4,0,713,325,-0.0292,185.4902,6.8213,0.4212,54.882141,9.785958,108.3,5.845,1.85,335.95,54.883022,9.784676,0.000000,0.000000
1386888235,1,0,545.9,0,0,0,0,713,350,-0.0292,185.4902,6.8213,0.4212,54.882122,9.785955,108.3,5.845,1.85,335.95,54.883022,9.784676,0.000000,0.000000
1386888235,1,0,545.9,0,0,4,0,713,375,-0.0292,185.4902,6.8213,0.4212,54.882103,9.785953,108.3,5.845,1.85,335.95,54.883022,9.784676,0.000000,0.000000
1386888235,1,0,545.9,0,0,0,0,713,400,-0.0292,185.4902,6.8213,0.4212,54.882088,9.785950,108.3,5.845,1.85,335.95,54.883022,9.784676,0.000000,0.000000
1386888235,1,0,545.9,0,0,4,0,713,425,-0.0292,185.4902,6.8213,0.4212,54.882069,9.785946,108.3,5.845,1.85,335.95,54.883022,9.784676,0.000000,0.000000
1386888236,1,0,545.9,0,0,0,0,713,450,-0.0292,185.4902,6.8213,0.4212,54.882050,9.785942,108.3,5.845,1.85,335.95,54.883022,9.784676,0.000000,0.000000
1386888236,1,0,545.9,0,0,4,0,713,475,-0.0292,185.4902,6.8213,0.4212,54.882030,9.785939,108.3,5.845,1.85,335.95,54.883022,9.784676,0.000000,0.000000
1386888236,1,0,545.9,0,0,0,0,713,500,-0.0292,185.4902,6.8213,0.4212,54.882015,9.785936,108.3,5.845,1.85,335.95,54.883022,9.784676,0.000000,0.000000
1386888236,1,0,545.9,0,0,4,0,713,525,-0.0292,185.4902,6.8213,0.4212,54.881996,9.785933,108.3,5.845,1.85,335.95,54.883022,9.784676,0.000000,0.000000
1386888237,1,0,545.9,0,0,0,0,713,550,-0.0292,185.4902,6.8213,0.4212,54.881977,9.785931,108.3,5.845,1.85,335.95,54.883022,9.784676,0.000000,0.000000
1386888237,1,0,545.9,0,0,4,0,713,575,-0.0292,185.4902,6.8213,0.4212,54.881962,9.785928,108.3,5.845,1.85,335.95,54.883022,9.784676,0.000000,0.000000
1386888237,1,0,545.9,0,0,0,0,713,600,-0.0292,185.4902,6.8213,0.4212,54.881943,9.785925,108.3,5.845,1.85,335.95,54.883022,9.784676,0.000000,0.000000
1386888237,1,0,545.9,0,0,4,0,713,625,-0.0292,185.4902,6.8213,0.4212,54.881924,9.785922,108.3,5.845,1.85,335.95,54.883022,9.784676,0.000000,0.000000
1386888238,1,0,545.9,0,0,0,0,713,650,-0.0292,185.4902,6.8213,0.4212,54.881905,9.785919,108.3,5.845,1.85,335.95,54.883022,9.784676,0.000000,0.000000
1386888238,1,0,545.9,0,0,4,0,713,675,-0.0292,185.4902,6.8213,0.4212,54.881889,9.785916,108.3,5.845,1.85,335.95,54.883022,9.784676,0.000000,0.000000
1386888238,0,0,545.9,0,0,4,0,713,675,-0.0292,185.4902,6.8213,0.4212,54.881889,9.785916,108.3,5.845,1.85,335.95,54.883022,9.784676,0.000000,0.000000
1386888238,0,0,545.9,0,0,4,0,713,675,-0.0292,185.4902,6.8213,0.4212,54.881889,9.785916,108.3,5.845,1.85,335.95,54.883022,9.784676,0.000000,0.000000
1386888239,0,0,545.9,0,0,4,0,713,675,-0.0292,185.4902,6.8213,0.4212,54.881889,9.785916,108.3,5.845,1.85,335.95,54.883022,9.784676,0.000000,0.000000
1386888239,0,0,545.9,0,0,4,0,713,675,-0.0292,185.4902,6.8213,0.4212,54.881889,9.785916,108.3,5.845,1.85,335.95,54.883022,9.784676,0.000000,0.000000
1386888239,0,0,545.9,0,0,4,0,713,675,-0.0292,185.4902,6.8213,0.4212,54.881889,9.785916,108.3,5.845,1.85,335.95,54.883022,9.784676,0.000000,0.000000
1386888239,0,0,545.9,0,0,4,0,713,675,-0.0292,185.4902,6.8213,0.4212,54.881889,9.785916,108.3,5.845,1.85,335.95,54.883022,9.784676,0.000000,0.000000
1386888240,0,0,545.9,0,0,4,0,713,675,-0.0292,185.4902,6.8213,0.4212,54.881889,9.785916,108.3,5.845,1.85,335.95,54.883022,9.784676,0.000000,0.000000
1386888240,0,0,545.9,0,0,4,0,713,675,-0.0292,185.4902,6.8213,0.4212,54.881889,9.785916,108.3,5.845,1.85,335.95,54.883022,9.784676,0.000000,0.000000
1386888240,0,0,545.9,0,0,4,0,713,675,-0.0292,185.4902,6.8213,0.4212,54.881889,9.785916,108.3,5.845,1.85,335.95,54.883022,9.784676,0.000000,0.000000
1386888240,0,0,545.9,0,0,4,0,713,675,-0.0292,185.4902,6.8213,0.4212,54.881889,9.785916,108.3,5.845,1.85,335.95,54.883022,9.784676,0.000000,0.000000
1386888241,0,0,545.9,0,0,4,0,713,675,-0.0292,185.4902,6.8213,0.4212,54.881889,9.785916,108.3,5.845,1.85,335.95,54.883022,9.784676,0.000000,0.000000
1386888241,4,0,545.9,0,0,4,0,713,675,-0.0292,185.4902,6.8213,0.4212,54.881889,9.785916,108.3,5.845,1.85,335.95,54.883022,9.784676,0.000000,0.000000
1386888241,1,0,545.9,0,0,0,0,713,700,-0.0292,185.4902,6.8213,0.4212,54.881870,9.785913,108.3,5.845,1.85,335.95,54.881889,9.785916,54.895069,9.793790
1386888241,1,0,545.9,0,0,4,0,0,675,-0.0292,185.4902,6.8213,0.4212,54.881851,9.785911,108.3,5.845,1.85,335.95,54.881889,9.785916,54.895069,9.793790
1386888242,1,0,545.9,0,0,0,0,0,650,-0.0292,185.4902,6.8213,0.4212,54.881832,9.785908,108.3,5.845,1.85,335.95,54.881889,9.785916,54.895069,9.793790
1386888242,1,0,545.9,0,0,4,0,0,625,-0.0292,185.4902,6.8213,0.4212,54.881817,9.785905,108.3,5.845,1.85,335.95,54.881889,9.785916,54.895069,9.793790
1386888242,1,0,545.9,0,0,0,0,0,600,-0.0292,185.4902,6.8213,0.4212,54.881798,9.785901,108.3,5.845,1.85,335.95,54.881889,9.785916,54.895069,9.793790
1386888242,1,0,545.9,0,0,4,0,0,575,-0.0292,185.4902,6.8213,0.4212,54.881779,9.785897,108.3,5.845,1.85,335.95,54.881889,9.785916,54.895069,9.793790
1386888243,1,0,545.9,0,0,0,0,0,550,-0.0292,185.4902,6.8213,0.4212,54.881760,9.785894,108.3,5.845,1.85,335.95,54.881889,9.785916,54.895069,9.793790
1386888243,1,0,545.9,0,0,4,0,0,525,-0.0292,185.4902,6.8213,0.4212,54.881744,9.785892,108.3,5.845,1.85,335.95,54.881889,9.785916,54.895069,9.793790
1386888243,1,0,545.9,0,0,0,0,0,500,-0.0292,185.4902,6.8213,0.4212,54.881725,9.785889,108.3,5.845,1.85,335.95,54.881889,9.785916,54.895069,9.793790
1386888243,1,0,545.9,0,0,4,0,0,475,-0.0292,185.4902,6.8213,0.4212,54.881706,9.785886,108.3,5.845,1.85,335.95,54.881889,9.785916,54.895069,9.793790
1386888244,1,0,545.9,0,0,0,0,0,450,-0.0292,185.4902,6.8213,0.4212,54.881687,9.785883,108.3,5.845,1.85,335.95,54.881889,9.785916,54.895069,9.793790
1386888244,0,0,545.9,0,0,0,0,0,450,-0.0292,185.4902,6.8213,0.4212,54.881687,9.785883,108.3,5.845,1.85,335.95,54.881889,9.785916,54.895069,9.793790
1386888244,0,0,545.9,0,0,0,0,0,450,-0.0292,185.4902,6.8213,0.4212,54.881687,9.785883,108.3,5.845,1.85,335.95,54.881889,9.785916,54.895069,9.793790
1386888244,0,0,545.9,0,0,0,0,0,450,-0.0292,185.4902,6.8213,0.4212,54.881687,9.785883,108.3,5.845,1.85,335.95,54.881889,9.785916,54.895069,9.793790
1386888245,0,0,545.9,0,0,0,0,0,450,-0.0292,185.4902,6.8213,0.4212,54.881687,9.785883,108.3,5.845,1.85,335.95,54.881889,9.785916,54.895069,9.793790
1386888245,4,0,545.9,0,0,0,0,0,450,-0.0292,185.4902,6.8213,0.4212,54.881687,9.785883,108.3,5.845,1.85,335.95,54.881889,9.785916,54.895069,9.793790
1386888245,1,0,545.9,0,0,4,0,0,425,-0.0292,185.4902,6.8213,0.4212,54.881672,9.785880,108.3,5.845,1.85,335.95,54.881687,9.785883,54.895069,9.793790
1386888245,1,0,545.9,0,0,0,0,0,400,-0.0292,185.4902,6.8213,0.4212,54.881653,9.785877,108.3,5.845,1.85,335.95,54.881687,9.785883,54.895069,9.793790
1386888246,1,0,545.9,0,0,4,0,0,375,-0.0292,185.4902,6.8213,0.4212,54.881634,9.785874,108.3,5.845,1.85,335.95,54.881687,9.785883,54.895069,9.793790
1386888246,1,0,545.9,0,0,0,0,0,350,-0.0292,185.4902,6.8213,0.4212,54.881618,9.785872,108.3,5.845,1.85,335.95,54.881687,9.785883,54.895069,9.793790
1386888246,1,0,545.9,0,0,4,0,0,325,-0.0292,185.4902,6.8213,0.4212,54.881599,9.785869,108.3,5.845,1.85,335.95,54.881687,9.785883,54.895069,9.793790
1386888246,1,0,545.9,0,0,0,0,0,300,-0.0292,185.4902,6.8213,0.4212,54.881580,9.785866,108.3,5.845,1.85,335.95,54.881687,9.785883,54.895069,9.793790
1386888247,1,0,545.9,0,0,4,0,0,275,-0.0292,185.4902,6.8213,0.4212,54.881561,9.785863,108.3,5.845,1.85,335.95,54.881687,9.785883,54.895069,9.793790
1386888247,1,0,545.9,0,0,0,0,0,250,-0.0292,185.4902,6.8213,0.4212,54.881546,9.785859,108.3,5.845,1.85,335.95,54.881687,9.785883,54.895069,9.793790
1386888247,1,0,545.9,0,0,4,0,0,225,-0.0292,185.4902,6.8213,0.4212,54.881527,9.785855,108.3,5.845,1.85,335.95,54.881687,9.785883,54.895069,9.793790
1386888247,1,0,545.9,0,0,0,0,0,200,-0.0292,185.4902,6.8213,0.4212,54.881508,9.785852,108.3,5.845,1.85,335.95,54.881687,9.785883,54.895069,9.793790
1386888248,1,0,545.9,0,0,4,0,0,175,-0.0292,185.4902,6.8213,0.4212,54.881489,9.785850,108.3,5.845,1.85,335.95,54.881687,9.785883,54.895069,9.793790
1386888248,1,0,545.9,0,0,0,0,0,150,-0.0292,185.4902,6.8213,0.4212,54.881474,9.785847,108.3,5.845,1.85,335.95,54.881687,9.785883,54.895069,9.793790
1386888248,1,0,545.9,0,0,4,0,0,125,-0.0292,185.4902,6.8213,0.4212,54.881454,9.785844,108.3,5.845,1.85,335.95,54.881687,9.785883,54.895069,9.793790
1386888248,1,0,545.9,0,0,0,0,0,100,-0.0292,185.4902,6.8213,0.4212,54.881435,9.785841,108.3,5.845,1.85,335.95,54.881687,9.785883,54.895069,9.793790
1386888249,1,0,545.9,0,0,4,0,0,75,-0.0292,185.4902,6.8213,0.4212,54.881416,9.785838,108.3,5.845,1.85,335.95,54.881687,9.785883,54.895069,9.793790
1386888249,1,0,545.9,0,0,0,0,0,50,-0.0292,185.4902,6.8213,0.4212,54.881401,9.785835,108.3,5.845,1.85,335.95,54.881687,9.785883,54.895069,9.793790
1386888249,1,0,545.9,0,0,4,0,0,25,-0.0292,185.4902,6.8213,0.4212,54.881382,9.785832,108.3,5.845,1.85,335.95,54.881687,9.785883,54.895069,9.793790
1386888249,1,0,545.9,0,0,0,0,0,0,-0.0292,185.4902,6.8213,0.4212,54.881363,9.785830,108.3,5.845,1.85,335.95,54.881687,9.785883,54.895069,9.793790
1386888250,1,0,545.9,0,0,4,0,0,25,-0.0292,185.4902,6.8213,0.4212,54.881348,9.785827,108.3,5.845,1.85,335.95,54.881687,9.785883,54.895069,9.793790
1386888250,1,0,485.9,0,35,8,0,0,0,-0.0292,176.1569,6.8213,0.4212,54.881329,9.785829,108.3,5.845,1.85,335.95,54.881687,9.785883,54.895069,9.793790
1386888250,1,0,485.9,0,35,12,0,0,25,-0.0292,166.8236,6.8213,0.4212,54.881310,9.785835,108.3,5.845,1.85,335.95,54.881687,9.785883,54.895069,9.793790
1386888250,1,0,485.9,0,35,16,0,0,0,-0.0292,157.4903,6.8213,0.4212,54.881294,9.785847,108.3,5.845,1.85,335.95,54.881687,9.785883,54.895069,9.793790
1386888251,1,0,485.9,0,32,20,0,0,25,-0.0292,148.9569,6.8213,0.4212,54.881279,9.785863,108.3,5.845,1.85,335.95,54.881687,9.785883,54.895069,9.793790
1386888251,1,0,485.9,0,23,24,0,0,0,-0.0292,142.8236,6.8213,0.4212,54.881264,9.785881,108.3,5.845,1.85,335.95,54.881687,9.785883,54.895069,9.793790
1386888251,1,0,485.9,0,17,20,0,0,25,-0.0292,138.2903,6.8213,0.4212,54.881252,9.785902,108.3,5.845,1.85,335.95,54.881687,9.785883,54.895069,9.793790
1386888251,1,0,485.9,0,12,16,0,0,0,-0.0292,135.0903,6.8213,0.4212,54.881237,9.785924,108.3,5.845,1.85,335.95,54.881687,9.785883,54.895069,9.793790
1386888252,1,0,485.9,0,9,12,0,0,25,-0.0292,132.6903,6.8213,0.4212,54.881226,9.785947,108.3,5.845,1.85,335.95,54.881687,9.785883,54.895069,9.793790
1386888252,1,0,485.9,0,7,8,0,713,50,-0.0292,130.8236,6.8213,0.4212,54.881210,9.785970,108.3,5.845,1.85,335.95,54.881687,9.785883,54.895069,9.793790
1386888252,1,0,485.9,0,5,4,0,713,75,-0.0292,129.4903,6.8213,0.4212,54.881199,9.785994,108.3,5.845,1.85,335.95,54.881687,9.785883,54.895069,9.793790
1386888252,1,0,485.9,0,4,8,0,713,100,-0.0292,128.4236,6.8213,0.4212,54.881187,9.786017,108.3,5.845,1.85,335.95,54.881687,9.785883,54.895069,9.793790
1386888253,1,0,485.9,0,2,4,0,713,125,-0.0292,127.8903,6.8213,0.4212,54.881176,9.786042,108.3,5.845,1.85,335.95,54.881687,9.785883,54.895069,9.793790
1386888253,1,0,485.9,0,2,0,0,713,150,-0.0292,127.3569,6.8213,0.4212,54.881165,9.786067,108.3,5.845,1.85,335.95,54.881687,9.785883,54.895069,9.793790
1386888253,1,0,485.9,0,1,4,0,713,175,-0.0292,127.0903,6.8213,0.4212,54.881153,9.786092,108.3,5.845,1.85,335.95,54.881687,9.785883,54.895069,9.793790
1386888253,1,0,485.9,0,1,0,0,713,200,-0.0292,126.8236,6.8213,0.4212,54.881142,9.786117,108.3,5.845,1.85,335.95,54.881687,9.785883,54.895069,9.793790
1386888254,1,0,485.9,0,1,4,0,713,225,-0.0292,126.5569,6.8213,0.4212,54.881130,9.786141,108.3,5.845,1.85,335.95,54.881687,9.785883,54.895069,9.793790
1386888254,1,0,485.9,0,1,0,0,713,250,-0.0292,126.2903,6.8213,0.4212,54.881119,9.786166,108.3,5.845,1.85,335.95,54.881687,9.785883,54.895069,9.793790
1386888254,1,0,485.9,0,0,4,0,713,275,-0.0292,126.2903,6.8213,0.4212,54.881111,9.786191,108.3,5.845,1.85,335.95,54.881687,9.785883,54.895069,9.793790
1386888254,1,0,485.9,0,0,0,0,713,300,-0.0292,126.2903,6.8213,0.4212,54.881100,9.786217,108.3,5.845,1.85,335.95,54.881687,9.785883,54.895069,9.793790
1386888255,1,0,485.9,0,0,4,0,713,325,-0.0292,126.2903,6.8213,0.4212,54.881088,9.786242,108.3,5.845,1.85,335.95,54.881687,9.785883,54.895069,9.793790
1386888255,1,0,390.9,0,35,8,0,713,350,-0.0292,116.9569,6.8213,0.4212,54.881081,9.786270,108.3,5.845,1.85,335.95,54.881687,9.785883,54.895069,9.793790
1386888255,1,0,390.9,0,35,12,0,713,375,-0.0292,107.6236,6.8213,0.4212,54.881073,9.786300,108.3,5.845,1.85,335.95,54.881687,9.785883,54.895069,9.793790
1386888255,1,0,390.9,0,35,16,0,870,400,-0.0292,98.2902,6.8213,0.4212,54.881073,9.786330,108.3,5.845,1.85,335.95,54.881687,9.785883,54.895069,9.793790
1386888256,1,0,390.9,0,35,20,0,870,425,-0.0292,88.9569,6.8213,0.4212,54.881077,9.786361,108.3,5.845,1.85,335.95,54.881687,9.785883,54.895069,9.793790
1386888256,1,0,390.9,0,35,24,0,758,450,-0.0292,79.6236,6.8213,0.4212,54.881077,9.786391,108.3,5.845,1.85,335.95,54.881687,9.785883,54.895069,9.793790
1386888256,1,0,390.9,0,35,28,0,616,475,-0.0292,70.2902,6.8213,0.4212,54.881081,9.786421,108.3,5.845,1.85,335.95,54.881687,9.785883,54.895069,9.793790
1386888256,1,0,390.9,0,35,32,0,468,450,-0.0292,60.9569,6.8213,0.4212,54.881088,9.786448,108.3,5.845,1.85,335.95,54.881687,9.785883,54.895069,9.793790
1386888257,1,0,390.9,0,30,28,0,320,425,-0.0292,52.9569,6.8213,0.4212,54.881100,9.786472,108.3,5.845,1.85,335.95,54.881687,9.785883,54.895069,9.793790
1386888257,1,0,390.9,0,22,24,0,198,400,-0.0292,47.0902,6.8213,0.4212,54.881111,9.786495,108.3,5.845,1.85,335.95,54.881687,9.785883,54.895069,9.793790
1386888257,1,0,390.9,0,16,20,0,117,375,-0.0292,42.8236,6.8213,0.4212,54.881123,9.786517,108.3,5.845,1.85,335.95,54.881687,9.785883,54.895069,9.793790
1386888257,1,0,390.9,0,12,16,0,68,350,-0.0292,39.6236,6.8213,0.4212,54.881138,9.786537,108.3,5.845,1.85,335.95,54.881687,9.785883,54.895069,9.793790
1386888258,1,0,390.9,0,9,12,0,37,325,-0.0292,37.2236,6.8213,0.4212,54.881153,9.786556,108.3,5.845,1.85,335.95,54.881687,9.785883,54.895069,9.793790
1386888258,1,0,390.9,0,6,8,0,20,300,-0.0292,35.6236,6.8213,0.4212,54.881165,9.786574,108.3,5.845,1.85,335.95,54.881687,9.785883,54.895069,9.793790
1386888258,1,0,390.9,0,5,4,0,11,275,-0.0292,34.2902,6.8213,0.4212,54.881180,9.786592,108.3,5.845,1.85,335.95,54.881687,9.785883,54.895069,9.793790
1386888258,1,0,390.9,0,3,0,0,5,250,-0.0292,33.4902,6.8213,0.4212,54.881195,9.786610,108.3,5.845,1.85,335.95,54.881687,9.785883,54.895069,9.793790
1386888259,1,0,390.9,0,3,4,0,3,225,-0.0292,32.6902,6.8213,0.4212,54.881210,9.786627,108.3,5.845,1.85,335.95,54.881687,9.785883,54.895069,9.793790
1386888259,1,0,390.9,0,2,0,0,1,200,-0.0292,32.1569,6.8213,0.4212,54.881226,9.786644,108.3,5.845,1.85,335.95,54.881687,9.785883,54.895069,9.793790
1386888259,1,0,390.9,0,1,4,0,0,175,-0.0292,31.8902,6.8213,0.4212,54.881241,9.786660,108.3,5.845,1.85,335.95,54.881687,9.785883,54.895069,9.793790
1386888259,1,0,390.9,0,1,0,0,0,150,-0.0292,31.6236,6.8213,0.4212,54.881256,9.786676,108.3,5.845,1.85,335.95,54.881687,9.785883,54.895069,9.793790
1386888260,1,0,390.9,0,1,4,0,0,125,-0.0292,31.3569,6.8213,0.4212,54.881271,9.786693,108.3,5.845,1.85,335.95,54.881687,9.785883,54.895069,9.793790
1386888260,1,0,390.9,0,0,0,0,0,100,-0.0292,31.3569,6.8213,0.4212,54.881290,9.786709,108.3,5.845,1.85,335.95,54.881687,9.785883,54.895069,9.793790
1386888260,1,0,390.9,0,0,4,0,0,75,-0.0292,31.3569,6.8213,0.4212,54.881306,9.786725,108.3,5.845,1.85,335.95,54.881687,9.785883,54.895069,9.793790
1386888260,1,0,390.9,0,0,0,0,0,50,-0.0292,31.3569,6.8213,0.4212,54.881321,9.786741,108.3,5.845,1.85,335.95,54.881687,9.785883,54.895069,9.793790
1386888261,1,0,390.9,0,0,4,0,0,25,-0.0292,31.3569,6.8213,0.4212,54.881332,9.786757,108.3,5.845,1.85,335.95,54.881687,9.785883,54.895069,9.793790
1386888261,1,0,390.9,0,0,0,0,0,0,-0.0292,31.3569,6.8213,0.4212,54.881348,9.786775,108.3,5.845,1.85,335.95,54.881687,9.785883,54.895069,9.793790
1386888261,1,0,390.9,0,0,4,0,0,25,-0.0292,31.3569,6.8213,0.4212,54.881363,9.786791,108.3,5.845,1.85,335.95,54.881687,9.785883,54.895069,9.793790
1386888261,1,0,390.9,0,0,0,0,0,0,-0.0292,31.3569,6.8213,0.4212,54.881378,9.786807,108.3,5.845,1.85,335.95,54.881687,9.785883,54.895069,9.793790
1386888262,1,0,390.9,0,0,4,0,0,25,-0.0292,31.3569,6.8213,0.4212,54.881393,9.786823,108.3,5.845,1.85,335.95,54.881687,9.785883,54.895069,9.793790
1386888262,1,0,390.9,0,0,0,0,0,0,-0.0292,31.3569,6.8213,0.4212,54.881413,9.786839,108.3,5.845,1.85,335.95,54.881687,9.785883,54.895069,9.793790
1386888262,1,0,390.9,0,0,4,0,0,25,-0.0292,31.3569,6.8213,0.4212,54.881428,9.786856,108.3,5.845,1.85,335.95,54.881687,9.785883,54.895069,9.793790
1386888262,1,0,390.9,0,0,0,0,0,0,-0.0292,31.3569,6.8213,0.4212,54.881443,9.786872,108.3,5.845,1.85,335.95,54.881687,9.785883,54.895069,9.793790
1386888263,1,0,390.9,0,0,4,0,0,25,-0.0292,31.3569,6.8213,0.4212,54.881462,9.786888,108.3,5.845,1.85,335.95,54.881687,9.785883,54.895069,9.793790
1386888263,1,0,390.9,0,0,0,0,0,0,-0.0292,31.3569,6.8213,0.4212,54.881477,9.786904,108.3,5.845,1.85,335.95,54.881687,9.785883,54.895069,9.793790
1386888263,1,0,390.9,0,0,4,0,0,25,-0.0292,31.3569,6.8213,0.4212,54.881493,9.786921,108.3,5.845,1.85,335.95,54.881687,9.785883,54.895069,9.793790
1386888263,1,0,390.9,0,0,0,0,0,0,-0.0292,31.3569,6.8213,0.4212,54.881512,9.786937,108.3,5.845,1.85,335.95,54.881687,9.785883,54.895069,9.793790
1386888264,1,0,390.9,0,0,4,0,0,25,-0.0292,31.3569,6.8213,0.4212,54.881527,9.786953,108.3,5.845,1.85,335.95,54.881687,9.785883,54.895069,9.793790
1386888264,1,0,390.9,0,0,0,0,0,0,-0.0292,31.3569,6.8213,0.4212,54.881542,9.786969,108.3,5.845,1.85,335.95,54.881687,9.785883,54.895069,9.793790
1386888264,1,0,390.9,0,0,4,0,0,25,-0.0292,31.3569,6.8213,0.4212,54.881554,9.786985,108.3,5.845,1.85,335.95,54.881687,9.785883,54.895069,9.793790
1386888265,1,0,390.9,0,0,0,0,0,0,-0.0292,31.3569,6.8213,0.4212,54.881569,9.787002,108.3,5.845,1.85,335.95,54.881687,9.785883,54.895069,9.793790
1386888265,1,0,390.9,0,0,4,0,0,25,-0.0292,31.3569,6.8213,0.4212,54.881584,9.787018,108.3,5.845,1.85,335.95,54.881687,9.785883,54.895069,9.793790
1386888265,1,0,390.9,0,0,0,0,0,0,-0.0292,31.3569,6.8213,0.4212,54.881599,9.787034,108.3,5.845,1.85,335.95,54.881687,9.785883,54.895069,9.793790
1386888265,1,0,390.9,0,0,4,0,0,25,-0.0292,31.3569,6.8213,0.4212,54.881615,9.787050,108.3,5.845,1.85,335.95,54.881687,9.785883,54.895069,9.793790
1386888266,1,0,390.9,0,0,0,0,0,0,-0.0292,31.3569,6.8213,0.4212,54.881634,9.787066,108.3,5.845,1.85,335.95,54.881687,9.785883,54.895069,9.793790
1386888266,1,0,390.9,0,0,4,0,0,25,-0.0292,31.3569,6.8213,0.4212,54.881649,9.787083,108.3,5.845,1.85,335.95,54.881687,9.785883,54.895069,9.793790
1386888266,1,0,390.9,0,0,0,0,0,0,-0.0292,31.3569,6.8213,0.4212,54.881664,9.787099,108.3,5.845,1.85,335.95,54.881687,9.785883,54.895069,9.793790
1386888266,1,0,390.9,0,0,4,0,0,25,-0.0292,31.3569,6.8213,0.4212,54.881683,9.787115,108.3,5.845,1.85,335.95,54.881687,9.785883,54.895069,9.793790
1386888267,1,0,390.9,0,0,0,0,0,0,-0.0292,31.3569,6.8213,0.4212,54.881699,9.787131,108.3,5.845,1.85,335.95,54.881687,9.785883,54.895069,9.793790
1386888267,1,0,390.9,0,0,4,0,0,25,-0.0292,31.3569,6.8213,0.4212,54.881714,9.787148,108.3,5.845,1.85,335.95,54.881687,9.785883,54.895069,9.793790
1386888267,1,0,390.9,0,0,0,0,0,0,-0.0292,31.3569,6.8213,0.4212,54.881733,9.787164,108.3,5.845,1.85,335.95,54.881687,9.785883,54.895069,9.793790
1386888267,1,0,390.9,0,0,4,0,0,25,-0.0292,31.3569,6.8213,0.4212,54.881748,9.787180,108.3,5.845,1.85,335.95,54.881687,9.785883,54.895069,9.793790
1386888268,1,0,390.9,0,0,0,0,0,0,-0.0292,31.3569,6.8213,0.4212,54.881763,9.787196,108.3,5.845,1.85,335.95,54.881687,9.785883,54.895069,9.793790
1386888268,1,0,390.9,0,0,4,0,0,25,-0.0292,31.3569,6.8213,0.4212,54.881775,9.787212,108.3,5.845,1.85,335.95,54.881687,9.785883,54.895069,9.793790
1386888268,1,0,390.9,0,0,0,0,0,0,-0.0292,31.3569,6.8213,0.4212,54.881790,9.787229,108.3,5.845,1.85,335.95,54.881687,9.785883,54.895069,9.793790
1386888268,1,0,390.9,0,0,4,0,0,25,-0.0292,31.3569,6.8213,0.4212,54.881805,9.787246,108.3,5.845,1.85,335.95,54.881687,9.785883,54.895069,9.793790
1386888269,1,0,390.9,0,0,0,0,0,0,-0.0292,31.3569,6.8213,0.4212,54.881821,9.787262,108.3,5.845,1.85,335.95,54.881687,9.785883,54.895069,9.793790
1386888269,1,0,390.9,0,0,4,0,0,25,-0.0292,31.3569,6.8213,0.4212,54.881836,9.787278,108.3,5.845,1.85,335.95,54.881687,9.785883,54.895069,9.793790
1386888269,1,0,390.9,0,0,0,0,0,0,-0.0292,31.3569,6.8213,0.4212,54.881855,9.787294,108.3,5.845,1.85,335.95,54.881687,9.785883,54.895069,9.793790
1386888269,1,0,390.9,0,0,4,0,0,25,-0.0292,31.3569,6.8213,0.4212,54.881870,9.787311,108.3,5.845,1.85,335.95,54.881687,9.785883,54.895069,9.793790
1386888270,1,0,390.9,0,0,0,0,0,0,-0.0292,31.3569,6.8213,0.4212,54.881886,9.787327,108.3,5.845,1.85,335.95,54.881687,9.785883,54.895069,9.793790
1386888270,1,0,390.9,0,0,4,0,0,25,-0.0292,31.3569,6.8213,0.4212,54.881905,9.787343,108.3,5.845,1.85,335.95,54.881687,9.785883,54.895069,9.793790
1386888270,1,0,390.9,0,0,0,0,0,0,-0.0292,31.3569,6.8213,0.4212,54.881920,9.787359,108.3,5.845,1.85,335.95,54.881687,9.785883,54.895069,9.793790
1386888270,1,0,390.9,0,0,4,0,0,25,-0.0292,31.3569,6.8213,0.4212,54.881935,9.787375,108.3,5.845,1.85,335.95,54.881687,9.785883,54.895069,9.793790
1386888271,1,0,390.9,0,0,0,0,0,0,-0.0292,31.3569,6.8213,0.4212,54.881954,9.787392,108.3,5.845,1.85,335.95,54.881687,9.785883,54.895069,9.793790
1386888271,1,0,390.9,0,0,4,0,0,25,-0.0292,31.3569,6.8213,0.4212,54.881969,9.787408,108.3,5.845,1.85,335.95,54.881687,9.785883,54.895069,9.793790
1386888271,1,0,390.9,0,0,0,0,0,0,-0.0292,31.3569,6.8213,0.4212,54.881985,9.787424,108.3,5.845,1.85,335.95,54.881687,9.785883,54.895069,9.793790
1386888271,1,0,390.9,0,0,4,0,0,25,-0.0292,31.3569,6.8213,0.4212,54.882004,9.787440,108.3,5.845,1.85,335.95,54.881687,9.785883,54.895069,9.793790
1386888272,1,0,390.9,0,0,0,0,0,0,-0.0292,31.3569,6.8213,0.4212,54.882019,9.787457,108.3,5.845,1.85,335.95,54.881687,9.785883,54.895069,9.793790
1386888272,1,0,390.9,0,0,4,0,0,25,-0.0292,31.3569,6.8213,0.4212,54.882034,9.787473,108.3,5.845,1.85,335.95,54.881687,9.785883,54.895069,9.793790
1386888272,1,0,390.9,0,0,0,0,0,0,-0.0292,31.3569,6.8213,0.4212,54.882046,9.787489,108.3,5.845,1.85,335.95,54.881687,9.785883,54.895069,9.793790
1386888272,1,0,390.9,0,0,4,0,0,25,-0.0292,31.3569,6.8213,0.4212,54.882061,9.787505,108.3,5.845,1.85,335.95,54.881687,9.785883,54.895069,9.793790
1386888273,1,0,390.9,0,0,0,0,0,0,-0.0292,31.3569,6.8213,0.4212,54.882076,9.787521,108.3,5.845,1.85,335.95,54.881687,9.785883,54.895069,9.793790
1386888273,1,0,390.9,0,0,4,0,0,25,-0.0292,31.3569,6.8213,0.4212,54.882092,9.787538,108.3,5.845,1.85,335.95,54.881687,9.785883,54.895069,9.793790
1386888273,1,0,390.9,0,0,0,0,0,0,-0.0292,31.3569,6.8213,0.4212,54.882107,9.787554,108.3,5.845,1.85,335.95,54.881687,9.785883,54.895069,9.793790
1386888273,1,0,390.9,0,0,4,0,0,25,-0.0292,31.3569,6.8213,0.4212,54.882126,9.787570,108.3,5.845,1.85,335.95,54.881687,9.785883,54.895069,9.793790
1386888274,1,0,390.9,0,0,0,0,0,0,-0.0292,31.3569,6.8213,0.4212,54.882141,9.787586,108.3,5.845,1.85,335.95,54.881687,9.785883,54.895069,9.793790
1386888274,1,0,390.9,0,0,4,0,0,25,-0.0292,31.3569,6.8213,0.4212,54.882156,9.787602,108.3,5.845,1.85,335.95,54.881687,9.785883,54.895069,9.793790
1386888274,1,0,390.9,0,0,0,0,0,0,-0.0292,31.3569,6.8213,0.4212,54.882175,9.787619,108.3,5.845,1.85,335.95,54.881687,9.785883,54.895069,9.793790
1386888274,1,0,390.9,0,0,4,0,0,25,-0.0292,31.3569,6.8213,0.4212,54.882191,9.787635,108.3,5.845,1.85,335.95,54.881687,9.785883,54.895069,9.793790
1386888275,1,0,390.9,0,0,0,0,0,0,-0.0292,31.3569,6.8213,0.4212,54.882206,9.787651,108.3,5.845,1.85,335.95,54.881687,9.785883,54.895069,9.793790
1386888275,1,0,390.9,0,0,4,0,0,25,-0.0292,31.3569,6.8213,0.4212,54.882225,9.787667,108.3,5.845,1.85,335.95,54.881687,9.785883,54.895069,9.793790
1386888275,1,0,390.9,0,0,0,0,0,0,-0.0292,31.3569,6.8213,0.4212,54.882240,9.787683,108.3,5.845,1.85,335.95,54.881687,9.785883,54.895069,9.793790
1386888275,1,0,390.9,0,0,4,0,0,25,-0.0292,31.3569,6.8213,0.4212,54.882256,9.787700,108.3,5.845,1.85,335.95,54.881687,9.785883,54.895069,9.793790
1386888276,1,0,390.9,0,0,0,0,0,0,-0.0292,31.3569,6.8213,0.4212,54.882267,9.787716,108.3,5.845,1.85,335.95,54.881687,9.785883,54.895069,9.793790
1386888276,1,0,390.9,0,0,4,0,0,25,-0.0292,31.3569,6.8213,0.4212,54.882282,9.787732,108.3,5.845,1.85,335.95,54.881687,9.785883,54.895069,9.793790
1386888276,1,0,390.9,0,0,0,0,0,0,-0.0292,31.3569,6.8213,0.4212,54.882298,9.787748,108.3,5.845,1.85,335.95,54.881687,9.785883,54.895069,9.793790
1386888276,1,0,390.9,0,0,4,0,0,25,-0.0292,31.3569,6.8213,0.4212,54.882313,9.787765,108.3,5.845,1.85,335.95,54.881687,9.785883,54.895069,9.793790
1386888277,1,0,390.9,0,0,0,0,0,0,-0.0292,31.3569,6.8213,0.4212,54.882328,9.787781,108.3,5.845,1.85,335.95,54.881687,9.785883,54.895069,9.793790
1386888277,1,0,390.9,0,0,4,0,0,25,-0.0292,31.3569,6.8213,0.4212,54.882347,9.787797,108.3,5.845,1.85,335.95,54.881687,9.785883,54.895069,9.793790
1386888277,1,0,390.9,0,0,0,0,0,0,-0.0292,31.3569,6.8213,0.4212,54.882362,9.787813,108.3,5.845,1.85,335.95,54.881687,9.785883,54.895069,9.793790
1386888277,1,0,390.9,0,0,4,0,0,25,-0.0292,31.3569,6.8213,0.4212,54.882378,9.787829,108.3,5.845,1.85,335.95,54.881687,9.785883,54.895069,9.793790
1386888278,1,0,390.9,0,0,0,0,0,0,-0.0292,31.3569,6.8213,0.4212,54.882397,9.787847,108.3,5.845,1.85,335.95,54.881687,9.785883,54.895069,9.793790
1386888278,1,0,390.9,0,0,4,0,0,25,-0.0292,31.3569,6.8213,0.4212,54.882412,9.787863,108.3,5.845,1.85,335.95,54.881687,9.785883,54.895069,9.793790
1386888278,1,0,390.9,0,0,0,0,0,0,-0.0292,31.3569,6.8213,0.4212,54.882427,9.787879,108.3,5.845,1.85,335.95,54.881687,9.785883,54.895069,9.793790
1386888278,1,0,485.9,0,-35,-4,0,0,25,-0.0292,40.6902,6.8213,0.4212,54.882442,9.787899,108.3,5.845,1.85,335.95,54.881687,9.785883,54.895069,9.793790
1386888279,1,0,485.9,0,-35,-8,0,47,50,-0.0292,50.0236,6.8213,0.4212,54.882454,9.787923,108.3,5.845,1.85,335.95,54.881687,9.785883,54.895069,9.793790
1386888279,1,0,485.9,0,-35,-12,0,156,75,-0.0292,59.3569,6.8213,0.4212,54.882462,9.787950,108.3,5.845,1.85,335.95,54.881687,9.785883,54.895069,9.793790
1386888279,1,0,485.9,0,-35,-16,0,294,100,-0.0292,68.6902,6.8213,0.4212,54.882469,9.787979,108.3,5.845,1.85,335.95,54.881687,9.785883,54.895069,9.793790
1386888279,1,0,485.9,0,-35,-20,0,442,125,-0.0292,78.0236,6.8213,0.4212,54.882473,9.788010,108.3,5.845,1.85,335.95,54.881687,9.785883,54.895069,9.793790
1386888280,1,0,485.9,0,-35,-24,0,591,150,-0.0292,87.3569,6.8213,0.4212,54.882477,9.788040,108.3,5.845,1.85,335.95,54.881687,9.785883,54.895069,9.793790
1386888280,1,0,485.9,0,-35,-28,0,734,175,-0.0292,96.6902,6.8213,0.4212,54.882473,9.788072,108.3,5.845,1.85,335.95,54.881687,9.785883,54.895069,9.793790
1386888280,1,0,485.9,0,-29,-32,0,869,200,-0.0292,104.4236,6.8213,0.4212,54.882469,9.788102,108.3,5.845,1.85,335.95,54.881687,9.785883,54.895069,9.793790
1386888280,1,0,485.9,0,-22,-28,0,870,225,-0.0292,110.2902,6.8213,0.4212,54.882465,9.788132,108.3,5.845,1.85,335.95,54.881687,9.785883,54.895069,9.793790
1386888281,1,0,485.9,0,-16,-24,0,870,250,-0.0292,114.5569,6.8213,0.4212,54.882458,9.788159,108.3,5.845,1.85,335.95,54.881687,9.785883,54.895069,9.793790
1386888281,1,0,485.9,0,-11,-20,0,713,275,-0.0292,117.4902,6.8213,0.4212,54.882446,9.788187,108.3,5.845,1.85,335.95,54.881687,9.785883,54.895069,9.793790
1386888281,1,0,485.9,0,-8,-16,0,713,300,-0.0292,119.6236,6.8213,0.4212,54.882439,9.788214,108.3,5.845,1.85,335.95,54.881687,9.785883,54.895069,9.793790
1386888281,1,0,485.9,0,-6,-12,0,0,275,-0.0292,121.2236,6.8213,0.4212,54.882427,9.788240,108.3,5.845,1.85,335.95,54.881687,9.785883,54.895069,9.793790
1386888282,1,0,485.9,0,-5,-8,0,0,250,-0.0292,122.5569,6.8213,0.4212,54.882420,9.788267,108.3,5.845,1.85,335.95,54.881687,9.785883,54.895069,9.793790
1386888282,1,0,485.9,0,-3,-4,0,0,225,-0.0292,123.3569,6.8213,0.4212,54.882412,9.788293,108.3,5.845,1.85,335.95,54.881687,9.785883,54.895069,9.793790
1386888282,1,0,485.9,0,-3,0,0,0,200,-0.0292,124.1569,6.8213,0.4212,54.882401,9.788319,108.3,5.845,1.85,335.95,54.881687,9.785883,54.895069,9.793790
1386888282,1,0,485.9,0,-2,-4,0,0,175,-0.0292,124.6903,6.8213,0.4212,54.882393,9.788344,108.3,5.845,1.85,335.95,54.881687,9.785883,54.895069,9.793790
1386888283,1,0,485.9,0,-1,0,0,0,150,-0.0292,124.9569,6.8213,0.4212,54.882381,9.788370,108.3,5.845,1.85,335.95,54.881687,9.785883,54.895069,9.793790
1386888283,1,0,485.9,0,-1,-4,0,0,125,-0.0292,125.2236,6.8213,0.4212,54.882370,9.788396,108.3,5.845,1.85,335.95,54.881687,9.785883,54.895069,9.793790
1386888283,1,0,485.9,0,-1,0,0,0,100,-0.0292,125.4903,6.8213,0.4212,54.882359,9.788421,108.3,5.845,1.85,335.95,54.881687,9.785883,54.895069,9.793790
1386888283,1,0,485.9,0,0,4,0,0,75,-0.0292,125.4903,6.8213,0.4212,54.882347,9.788446,108.3,5.845,1.85,335.95,54.881687,9.785883,54.895069,9.793790
1386888284,1,0,485.9,0,0,0,0,0,50,-0.0292,125.4903,6.8213,0.4212,54.882339,9.788472,108.3,5.845,1.85,335.95,54.881687,9.785883,54.895069,9.793790
1386888284,1,0,485.9,0,0,4,0,0,25,-0.0292,125.4903,6.8213,0.4212,54.882328,9.788498,108.3,5.845,1.85,335.95,54.881687,9.785883,54.895069,9.793790
1386888284,1,0,485.9,0,0,0,0,0,0,-0.0292,125.4903,6.8213,0.4212,54.882320,9.788524,108.3,5.845,1.85,335.95,54.881687,9.785883,54.895069,9.793790
1386888284,1,0,485.9,0,0,4,0,0,25,-0.0292,125.4903,6.8213,0.4212,54.882309,9.788548,108.3,5.845,1.85,335.95,54.881687,9.785883,54.895069,9.793790
1386888285,1,0,545.9,0,-35,0,0,0,0,-0.0292,134.8236,6.8213,0.4212,54.882294,9.788570,108.3,5.845,1.85,335.95,54.881687,9.785883,54.895069,9.793790
1386888285,1,0,545.9,0,-35,-4,0,0,25,-0.0292,144.1569,6.8213,0.4212,54.882278,9.788589,108.3,5.845,1.85,335.95,54.881687,9.785883,54.895069,9.793790
1386888285,1,0,545.9,0,-35,-8,0,0,0,-0.0292,153.4902,6.8213,0.4212,54.882263,9.788603,108.3,5.845,1.85,335.95,54.881687,9.785883,54.895069,9.793790
1386888285,1,0,545.9,0,-32,-12,0,0,25,-0.0292,162.0236,6.8213,0.4212,54.882244,9.788612,108.3,5.845,1.85,335.95,54.881687,9.785883,54.895069,9.793790
1386888286,1,0,545.9,0,-24,-16,0,0,0,-0.0292,168.4236,6.8213,0.4212,54.882225,9.788618,108.3,5.845,1.85,335.95,54.881687,9.785883,54.895069,9.793790
1386888286,1,0,545.9,0,-18,-20,0,0,25,-0.0292,173.2236,6.8213,0.4212,54.882210,9.788622,108.3,5.845,1.85,335.95,54.881687,9.785883,54.895069,9.793790
1386888286,1,0,545.9,0,-13,-16,0,0,0,-0.0292,176.6902,6.8213,0.4212,54.882191,9.788624,108.3,5.845,1.85,335.95,54.881687,9.785883,54.895069,9.793790
1386888286,1,0,545.9,0,-9,-12,0,0,25,-0.0292,179.0902,6.8213,0.4212,54.882172,9.788625,108.3,5.845,1.85,335.95,54.881687,9.785883,54.895069,9.793790
1386888287,1,0,545.9,0,-7,-8,0,713,50,-0.0292,180.9569,6.8213,0.4212,54.882153,9.788624,108.3,5.845,1.85,335.95,54.881687,9.785883,54.895069,9.793790
1386888287,1,0,545.9,0,-5,-4,0,713,75,-0.0292,182.2902,6.8213,0.4212,54.882137,9.788623,108.3,5.845,1.85,335.95,54.881687,9.785883,54.895069,9.793790
1386888287,1,0,545.9,0,-4,0,0,713,100,-0.0292,183.3569,6.8213,0.4212,54.882118,9.788621,108.3,5.845,1.85,335.95,54.881687,9.785883,54.895069,9.793790
1386888287,1,0,545.9,0,-3,-4,0,713,125,-0.0292,184.1569,6.8213,0.4212,54.882099,9.788619,108.3,5.845,1.85,335.95,54.881687,9.785883,54.895069,9.793790
1386888288,1,0,545.9,0,-2,0,0,713,150,-0.0292,184.6902,6.8213,0.4212,54.882080,9.788616,108.3,5.845,1.85,335.95,54.881687,9.785883,54.895069,9.793790
1386888288,1,0,545.9,0,-1,-4,0,713,175,-0.0292,184.9569,6.8213,0.4212,54.882065,9.788613,108.3,5.845,1.85,335.95,54.881687,9.785883,54.895069,9.793790
1386888288,1,0,545.9,0,-1,0,0,713,200,-0.0292,185.2236,6.8213,0.4212,54.882046,9.788610,108.3,5.845,1.85,335.95,54.881687,9.785883,54.895069,9.793790
1386888288,1,0,545.9,0,-1,-4,0,713,225,-0.0292,185.4902,6.8213,0.4212,54.882027,9.788608,108.3,5.845,1.85,335.95,54.881687,9.785883,54.895069,9.793790
1386888289,1,0,545.9,0,0,0,0,713,250,-0.0292,185.4902,6.8213,0.4212,54.882011,9.788604,108.3,5.845,1.85,335.95,54.881687,9.785883,54.895069,9.793790
1386888289,1,0,545.9,0,0,4,0,713,275,-0.0292,185.4902,6.8213,0.4212,54.881992,9.788600,108.3,5.845,1.85,335.95,54.881687,9.785883,54.895069,9.793790
1386888289,1,0,545.9,0,0,0,0,713,300,-0.0292,185.4902,6.8213,0.4212,54.881973,9.788597,108.3,5.845,1.85,335.95,54.881687,9.785883,54.895069,9.793790
1386888289,1,0,545.9,0,0,4,0,713,325,-0.0292,185.4902,6.8213,0.4212,54.881954,9.788594,108.3,5.845,1.85,335.95,54.881687,9.785883,54.895069,9.793790
1386888290,1,0,280.9,0,-35,0,0,713,350,-0.0292,194.8236,6.8213,0.4212,54.881939,9.788587,108.3,5.845,1.85,335.95,54.881687,9.785883,54.895069,9.793790
1386888290,1,0,280.9,0,-35,-4,0,713,375,-0.0292,204.1569,6.8213,0.4212,54.881920,9.788574,108.3,5.845,1.85,335.95,54.881687,9.785883,54.895069,9.793790
1386888290,1,0,280.9,0,-35,-8,0,870,400,-0.0292,213.4902,6.8213,0.4212,54.881905,9.788557,108.3,5.845,1.85,335.95,54.881687,9.785883,54.895069,9.793790
1386888290,1,0,280.9,0,-35,-12,0,870,425,-0.0292,222.8235,6.8213,0.4212,54.881893,9.788536,108.3,5.845,1.85,335.95,54.881687,9.785883,54.895069,9.793790
1386888291,1,0,280.9,0,-35,-16,0,759,450,-0.0292,232.1569,6.8213,0.4212,54.881882,9.788511,108.3,5.845,1.85,335.95,54.881687,9.785883,54.895069,9.793790
1386888291,1,0,280.9,0,-35,-20,0,617,475,-0.0292,241.4902,6.8213,0.4212,54.881874,9.788485,108.3,5.845,1.85,335.95,54.881687,9.785883,54.895069,9.793790
1386888291,1,0,280.9,0,-35,-24,0,470,450,-0.0292,250.8235,6.8213,0.4212,54.881866,9.788455,108.3,5.845,1.85,335.95,54.881687,9.785883,54.895069,9.793790
1386888291,1,0,280.9,0,-30,-28,0,321,425,-0.0292,258.8235,6.8213,0.4212,54.881863,9.788424,108.3,5.845,1.85,335.95,54.881687,9.785883,54.895069,9.793790
1386888292,1,0,280.9,0,-22,-24,0,199,400,-0.0292,264.6902,6.8213,0.4212,54.881859,9.788394,108.3,5.845,1.85,335.95,54.881687,9.785883,54.895069,9.793790
1386888292,1,0,280.9,0,-16,-20,0,119,375,-0.0292,268.9569,6.8213,0.4212,54.881859,9.788363,108.3,5.845,1.85,335.95,54.881687,9.785883,54.895069,9.793790
1386888292,1,0,280.9,0,-12,-16,0,69,350,-0.0292,272.1569,6.8213,0.4212,54.881863,9.788331,108.3,5.845,1.85,335.95,54.881687,9.785883,54.895069,9.793790
1386888292,1,0,280.9,0,-9,-12,0,38,325,-0.0292,274.5569,6.8213,0.4212,54.881863,9.788301,108.3,5.845,1.85,335.95,54.881687,9.785883,54.895069,9.793790
1386888293,1,0,280.9,0,-6,-8,0,21,300,-0.0292,276.1569,6.8213,0.4212,54.881863,9.788270,108.3,5.845,1.85,335.95,54.881687,9.785883,54.895069,9.793790
1386888293,1,0,280.9,0,-5,-4,0,11,275,-0.0292,277.4902,6.8213,0.4212,54.881863,9.788239,108.3,5.845,1.85,335.95,54.881687,9.785883,54.895069,9.793790
1386888293,1,0,280.9,0,-3,0,0,6,250,-0.0292,278.2902,6.8213,0.4212,54.881863,9.788208,108.3,5.845,1.85,335.95,54.881687,9.785883,54.895069,9.793790
1386888293,1,0,280.9,0,-3,-4,0,3,225,-0.0292,279.0902,6.8213,0.4212,54.881863,9.788177,108.3,5.845,1.85,335.95,54.881687,9.785883,54.895069,9.793790
1386888294,1,0,280.9,0,-2,0,0,1,200,-0.0292,279.6235,6.8213,0.4212,54.881863,9.788146,108.3,5.845,1.85,335.95,54.881687,9.785883,54.895069,9.793790
1386888294,1,0,280.9,0,-1,-4,0,0,175,-0.0292,279.8902,6.8213,0.4212,54.881863,9.788116,108.3,5.845,1.85,335.95,54.881687,9.785883,54.895069,9.793790
1386888294,1,0,280.9,0,-1,0,0,0,150,-0.0292,280.1569,6.8213,0.4212,54.881863,9.788085,108.3,5.845,1.85,335.95,54.881687,9.785883,54.895069,9.793790
1386888294,1,0,280.9,0,-1,-4,0,0,125,-0.0292,280.4235,6.8213,0.4212,54.881863,9.788054,108.3,5.845,1.85,335.95,54.881687,9.785883,54.895069,9.793790
1386888295,1,0,280.9,0,-1,0,0,0,100,-0.0292,280.6902,6.8213,0.4212,54.881863,9.788024,108.3,5.845,1.85,335.95,54.881687,9.785883,54.895069,9.793790
1386888295,1,0,280.9,0,0,4,0,0,75,-0.0292,280.6902,6.8213,0.4212,54.881863,9.787993,108.3,5.845,1.85,335.95,54.881687,9.785883,54.895069,9.793790
1386888295,1,0,280.9,0,0,0,0,0,50,-0.0292,280.6902,6.8213,0.4212,54.881863,9.787963,108.3,5.845,1.85,335.95,54.881687,9.785883,54.895069,9.793790
1386888295,1,0,280.9,0,0,4,0,0,25,-0.0292,280.6902,6.8213,0.4212,54.881863,9.787931,108.3,5.845,1.85,335.95,54.881687,9.785883,54.895069,9.793790
1386888296,1,0,280.9,0,0,0,0,0,0,-0.0292,280.6902,6.8213,0.4212,54.881863,9.787901,108.3,5.845,1.85,335.95,54.881687,9.785883,54.895069,9.793790
1386888296,1,0,280.9,0,0,4,0,0,25,-0.0292,280.6902,6.8213,0.4212,54.881863,9.787870,108.3,5.845,1.85,335.95,54.881687,9.785883,54.895069,9.793790
1386888296,1,0,280.9,0,0,0,0,0,0,-0.0292,280.6902,6.8213,0.4212,54.881863,9.787840,108.3,5.845,1.85,335.95,54.881687,9.785883,54.895069,9.793790
1386888296,1,0,280.9,0,0,4,0,0,25,-0.0292,280.6902,6.8213,0.4212,54.881863,9.787809,108.3,5.845,1.85,335.95,54.881687,9.785883,54.895069,9.793790
1386888297,1,0,280.9,0,0,0,0,0,0,-0.0292,280.6902,6.8213,0.4212,54.881863,9.787779,108.3,5.845,1.85,335.95,54.881687,9.785883,54.895069,9.793790
1386888297,1,0,280.9,0,0,4,0,0,25,-0.0292,280.6902,6.8213,0.4212,54.881863,9.787748,108.3,5.845,1.85,335.95,54.881687,9.785883,54.895069,9.793790
1386888297,1,0,280.9,0,0,0,0,0,0,-0.0292,280.6902,6.8213,0.4212,54.881863,9.787717,108.3,5.845,1.85,335.95,54.881687,9.785883,54.895069,9.793790
1386888298,1,0,280.9,0,0,4,0,0,25,-0.0292,280.6902,6.8213,0.4212,54.881863,9.787686,108.3,5.845,1.85,335.95,54.881687,9.785883,54.895069,9.793790
1386888298,1,0,280.9,0,0,0,0,0,0,-0.0292,280.6902,6.8213,0.4212,54.881863,9.787656,108.3,5.845,1.85,335.95,54.881687,9.785883,54.895069,9.793790
1386888298,1,0,280.9,0,0,4,0,0,25,-0.0292,280.6902,6.8213,0.4212,54.881863,9.787625,108.3,5.845,1.85,335.95,54.881687,9.785883,54.895069,9.793790
1386888298,1,0,280.9,0,0,0,0,0,0,-0.0292,280.6902,6.8213,0.4212,54.881863,9.787595,108.3,5.845,1.85,335.95,54.881687,9.785883,54.895069,9.793790
1386888299,1,0,280.9,0,0,4,0,0,25,-0.0292,280.6902,6.8213,0.4212,54.881863,9.787564,108.3,5.845,1.85,335.95,54.881687,9.785883,54.895069,9.793790
1386888299,1,0,280.9,0,0,0,0,0,0,-0.0292,280.6902,6.8213,0.4212,54.881863,9.787534,108.3,5.845,1.85,335.95,54.881687,9.785883,54.895069,9.793790
1386888299,1,0,280.9,0,0,4,0,0,25,-0.0292,280.6902,6.8213,0.4212,54.881863,9.787502,108.3,5.845,1.85,335.95,54.881687,9.785883,54.895069,9.793790
1386888299,1,0,280.9,0,0,0,0,0,0,-0.0292,280.6902,6.8213,0.4212,54.881863,9.787472,108.3,5.845,1.85,335.95,54.881687,9.785883,54.895069,9.793790
1386888300,1,0,280.9,0,0,4,0,0,25,-0.0292,280.6902,6.8213,0.4212,54.881863,9.787441,108.3,5.845,1.85,335.95,54.881687,9.785883,54.895069,9.793790
1386888300,1,0,280.9,0,0,0,0,0,0,-0.0292,280.6902,6.8213,0.4212,54.881863,9.787411,108.3,5.845,1.85,335.95,54.881687,9.785883,54.895069,9.793790
1386888300,1,0,280.9,0,0,4,0,0,25,-0.0292,280.6902,6.8213,0.4212,54.881863,9.787380,108.3,5.845,1.85,335.95,54.881687,9.785883,54.895069,9.793790
1386888300,1,0,280.9,0,0,0,0,0,0,-0.0292,280.6902,6.8213,0.4212,54.881863,9.787350,108.3,5.845,1.85,335.95,54.881687,9.785883,54.895069,9.793790
1386888301,1,0,280.9,0,0,4,0,0,25,-0.0292,280.6902,6.8213,0.4212,54.881863,9.787319,108.3,5.845,1.85,335.95,54.881687,9.785883,54.895069,9.793790
1386888301,1,0,280.9,0,0,0,0,0,0,-0.0292,280.6902,6.8213,0.4212,54.881863,9.787288,108.3,5.845,1.85,335.95,54.881687,9.785883,54.895069,9.793790
1386888301,1,0,280.9,0,0,4,0,0,25,-0.0292,280.6902,6.8213,0.4212,54.881863,9.787257,108.3,5.845,1.85,335.95,54.881687,9.785883,54.895069,9.793790
1386888301,1,0,280.9,0,0,0,0,0,0,-0.0292,280.6902,6.8213,0.4212,54.881863,9.787227,108.3,5.845,1.85,335.95,54.881687,9.785883,54.895069,9.793790
1386888302,1,0,280.9,0,0,4,0,0,25,-0.0292,280.6902,6.8213,0.4212,54.881863,9.787196,108.3,5.845,1.85,335.95,54.881687,9.785883,54.895069,9.793790
1386888302,1,0,280.9,0,0,0,0,0,0,-0.0292,280.6902,6.8213,0.4212,54.881863,9.787166,108.3,5.845,1.85,335.95,54.881687,9.785883,54.895069,9.793790
1386888302,1,0,280.9,0,0,4,0,0,25,-0.0292,280.6902,6.8213,0.4212,54.881863,9.787135,108.3,5.845,1.85,335.95,54.881687,9.785883,54.895069,9.793790
1386888302,1,0,280.9,0,0,0,0,0,0,-0.0292,280.6902,6.8213,0.4212,54.881863,9.787105,108.3,5.845,1.85,335.95,54.881687,9.785883,54.895069,9.793790
1386888303,1,0,280.9,0,0,4,0,0,25,-0.0292,280.6902,6.8213,0.4212,54.881863,9.787073,108.3,5.845,1.85,335.95,54.881687,9.785883,54.895069,9.793790
1386888303,1,0,280.9,0,0,0,0,0,0,-0.0292,280.6902,6.8213,0.4212,54.881863,9.787043,108.3,5.845,1.85,335.95,54.881687,9.785883,54.895069,9.793790
1386888303,1,0,280.9,0,0,4,0,0,25,-0.0292,280.6902,6.8213,0.4212,54.881863,9.787012,108.3,5.845,1.85,335.95,54.881687,9.785883,54.895069,9.793790
1386888303,1,0,280.9,0,0,0,0,0,0,-0.0292,280.6902,6.8213,0.4212,54.881863,9.786982,108.3,5.845,1.85,335.95,54.881687,9.785883,54.895069,9.793790
1386888304,1,0,280.9,0,0,4,0,0,25,-0.0292,280.6902,6.8213,0.4212,54.881863,9.786951,108.3,5.845,1.85,335.95,54.881687,9.785883,54.895069,9.793790
1386888304,1,0,280.9,0,0,0,0,0,0,-0.0292,280.6902,6.8213,0.4212,54.881863,9.786921,108.3,5.845,1.85,335.95,54.881687,9.785883,54.895069,9.793790
1386888304,1,0,280.9,0,0,4,0,0,25,-0.0292,280.6902,6.8213,0.4212,54.881863,9.786890,108.3,5.845,1.85,335.95,54.881687,9.785883,54.895069,9.793790
1386888304,1,0,280.9,0,0,0,0,0,0,-0.0292,280.6902,6.8213,0.4212,54.881863,9.786859,108.3,5.845,1.85,335.95,54.881687,9.785883,54.895069,9.793790
1386888305,1,0,280.9,0,0,4,0,0,25,-0.0292,280.6902,6.8213,0.4212,54.881863,9.786828,108.3,5.845,1.85,335.95,54.881687,9.785883,54.895069,9.793790
1386888305,1,0,280.9,0,0,0,0,0,0,-0.0292,280.6902,6.8213,0.4212,54.881863,9.786798,108.3,5.845,1.85,335.95,54.881687,9.785883,54.895069,9.793790
1386888305,1,0,280.9,0,0,4,0,0,25,-0.0292,280.6902,6.8213,0.4212,54.881863,9.786767,108.3,5.845,1.85,335.95,54.881687,9.785883,54.895069,9.793790
1386888305,1,0,280.9,0,0,0,0,0,0,-0.0292,280.6902,6.8213,0.4212,54.881863,9.786736,108.3,5.845,1.85,335.95,54.881687,9.785883,54.895069,9.793790
1386888306,1,0,280.9,0,0,4,0,0,25,-0.0292,280.6902,6.8213,0.4212,54.881863,9.786706,108.3,5.845,1.85,335.95,54.881687,9.785883,54.895069,9.793790
1386888306,1,0,280.9,0,0,0,0,0,0,-0.0292,280.6902,6.8213,0.4212,54.881863,9.786675,108.3,5.845,1.85,335.95,54.881687,9.785883,54.895069,9.793790
1386888306,1,0,280.9,0,0,4,0,0,25,-0.0292,280.6902,6.8213,0.4212,54.881863,9.786644,108.3,5.845,1.85,335.95,54.881687,9.785883,54.895069,9.793790
1386888306,1,0,280.9,0,0,0,0,0,0,-0.0292,280.6902,6.8213,0.4212,54.881863,9.786613,108.3,5.845,1.85,335.95,54.881687,9.785883,54.895069,9.793790
1386888307,1,0,280.9,0,0,4,0,0,25,-0.0292,280.6902,6.8213,0.4212,54.881863,9.786583,108.3,5.845,1.85,335.95,54.881687,9.785883,54.895069,9.793790
1386888307,1,0,280.9,0,0,0,0,0,0,-0.0292,280.6902,6.8213,0.4212,54.881863,9.786552,108.3,5.845,1.85,335.95,54.881687,9.785883,54.895069,9.793790
1386888307,1,0,280.9,0,0,4,0,0,25,-0.0292,280.6902,6.8213,0.4212,54.881863,9.786522,108.3,5.845,1.85,335.95,54.881687,9.785883,54.895069,9.793790
1386888307,1,0,280.9,0,0,0,0,0,0,-0.0292,280.6902,6.8213,0.4212,54.881863,9.786491,108.3,5.845,1.85,335.95,54.881687,9.785883,54.895069,9.793790
1386888308,1,0,280.9,0,0,4,0,0,25,-0.0292,280.6902,6.8213,0.4212,54.881863,9.786461,108.3,5.845,1.85,335.95,54.881687,9.785883,54.895069,9.793790
1386888308,1,0,280.9,0,0,0,0,0,0,-0.0292,280.6902,6.8213,0.4212,54.881863,9.786429,108.3,5.845,1.85,335.95,54.881687,9.785883,54.895069,9.793790
1386888308,1,0,280.9,0,0,4,0,0,25,-0.0292,280.6902,6.8213,0.4212,54.881863,9.786399,108.3,5.845,1.85,335.95,54.881687,9.785883,54.895069,9.793790
1386888308,1,0,280.9,0,0,0,0,0,0,-0.0292,280.6902,6.8213,0.4212,54.881863,9.786368,108.3,5.845,1.85,335.95,54.881687,9.785883,54.895069,9.793790
1386888309,1,0,280.9,0,0,4,0,0,25,-0.0292,280.6902,6.8213,0.4212,54.881863,9.786338,108.3,5.845,1.85,335.95,54.881687,9.785883,54.895069,9.793790
1386888309,1,0,280.9,0,0,0,0,0,0,-0.0292,280.6902,6.8213,0.4212,54.881863,9.786307,108.3,5.845,1.85,335.95,54.881687,9.785883,54.895069,9.793790
1386888309,1,0,280.9,0,0,4,0,0,25,-0.0292,280.6902,6.8213,0.4212,54.881863,9.786277,108.3,5.845,1.85,335.95,54.881687,9.785883,54.895069,9.793790
1386888309,1,0,280.9,0,0,0,0,0,0,-0.0292,280.6902,6.8213,0.4212,54.881863,9.786246,108.3,5.845,1.85,335.95,54.881687,9.785883,54.895069,9.793790
1386888310,1,0,280.9,0,0,4,0,0,25,-0.0292,280.6902,6.8213,0.4212,54.881863,9.786215,108.3,5.845,1.85,335.95,54.881687,9.785883,54.895069,9.793790
1386888310,1,0,280.9,0,0,0,0,0,0,-0.0292,280.6902,6.8213,0.4212,54.881863,9.786184,108.3,5.845,1.85,335.95,54.881687,9.785883,54.895069,9.793790
1386888310,1,0,280.9,0,0,4,0,0,25,-0.0292,280.6902,6.8213,0.4212,54.881863,9.786154,108.3,5.845,1.85,335.95,54.881687,9.785883,54.895069,9.793790
1386888310,1,0,280.9,0,0,0,0,0,0,-0.0292,280.6902,6.8213,0.4212,54.881863,9.786123,108.3,5.845,1.85,335.95,54.881687,9.785883,54.895069,9.793790
1386888311,1,0,280.9,0,0,4,0,0,25,-0.0292,280.6902,6.8213,0.4212,54.881863,9.786093,108.3,5.845,1.85,335.95,54.881687,9.785883,54.895069,9.793790
1386888311,1,0,280.9,0,0,0,0,0,0,-0.0292,280.6902,6.8213,0.4212,54.881863,9.786062,108.3,5.845,1.85,335.95,54.881687,9.785883,54.895069,9.793790
1386888311,1,0,280.9,0,0,4,0,0,25,-0.0292,280.6902,6.8213,0.4212,54.881863,9.786032,108.3,5.845,1.85,335.95,54.881687,9.785883,54.895069,9.793790
1386888311,1,0,280.9,0,0,0,0,0,0,-0.0292,280.6902,6.8213,0.4212,54.881863,9.786000,108.3,5.845,1.85,335.95,54.881687,9.785883,54.895069,9.793790
1386888312,1,0,280.9,0,0,4,0,0,25,-0.0292,280.6902,6.8213,0.4212,54.881863,9.785970,108.3,5.845,1.85,335.95,54.881687,9.785883,54.895069,9.793790
1386888312,1,0,280.9,0,0,0,0,0,0,-0.0292,280.6902,6.8213,0.4212,54.881863,9.785939,108.3,5.845,1.85,335.95,54.881687,9.785883,54.895069,9.793790
1386888312,1,0,280.9,0,0,4,0,0,25,-0.0292,280.6902,6.8213,0.4212,54.881863,9.785909,108.3,5.845,1.85,335.95,54.881687,9.785883,54.895069,9.793790
1386888312,1,0,280.9,0,0,0,0,0,0,-0.0292,280.6902,6.8213,0.4212,54.881863,9.785878,108.3,5.845,1.85,335.95,54.881687,9.785883,54.895069,9.793790
1386888313,1,0,280.9,0,0,4,0,0,25,-0.0292,280.6902,6.8213,0.4212,54.881863,9.785848,108.3,5.845,1.85,335.95,54.881687,9.785883,54.895069,9.793790
1386888313,1,0,280.9,0,0,0,0,0,0,-0.0292,280.6902,6.8213,0.4212,54.881863,9.785817,108.3,5.845,1.85,335.95,54.881687,9.785883,54.895069,9.793790
1386888313,1,0,280.9,0,0,4,0,0,25,-0.0292,280.6902,6.8213,0.4212,54.881863,9.785786,108.3,5.845,1.85,335.95,54.881687,9.785883,54.895069,9.793790
1386888313,1,0,280.9,0,0,0,0,0,0,-0.0292,280.6902,6.8213,0.4212,54.881863,9.785755,108.3,5.845,1.85,335.95,54.881687,9.785883,54.895069,9.793790
1386888314,1,0,280.9,0,0,4,0,0,25,-0.0292,280.6902,6.8213,0.4212,54.881863,9.785725,108.3,5.845,1.85,335.95,54.881687,9.785883,54.895069,9.793790
1386888314,1,0,280.9,0,0,0,0,0,0,-0.0292,280.6902,6.8213,0.4212,54.881863,9.785694,108.3,5.845,1.85,335.95,54.881687,9.785883,54.895069,9.793790
1386888314,1,0,280.9,0,0,4,0,0,25,-0.0292,280.6902,6.8213,0.4212,54.881863,9.785664,108.3,5.845,1.85,335.95,54.881687,9.785883,54.895069,9.793790
1386888314,1,0,280.9,0,0,0,0,0,0,-0.0292,280.6902,6.8213,0.4212,54.881863,9.785633,108.3,5.845,1.85,335.95,54.881687,9.785883,54.895069,9.793790
1386888315,1,0,280.9,0,0,4,0,0,25,-0.0292,280.6902,6.8213,0.4212,54.881863,9.785603,108.3,5.845,1.85,335.95,54.881687,9.785883,54.895069,9.793790
1386888315,1,0,280.9,0,0,0,0,0,0,-0.0292,280.6902,6.8213,0.4212,54.881863,9.785571,108.3,5.845,1.85,335.95,54.881687,9.785883,54.895069,9.793790
1386888315,1,0,280.9,0,0,4,0,0,25,-0.0292,280.6902,6.8213,0.4212,54.881863,9.785541,108.3,5.845,1.85,335.95,54.881687,9.785883,54.895069,9.793790
1386888315,1,0,280.9,0,0,0,0,0,0,-0.0292,280.6902,6.8213,0.4212,54.881863,9.785510,108.3,5.845,1.85,335.95,54.881687,9.785883,54.895069,9.793790
1386888316,1,0,280.9,0,0,4,0,0,25,-0.0292,280.6902,6.8213,0.4212,54.881863,9.785480,108.3,5.845,1.85,335.95,54.881687,9.785883,54.895069,9.793790
1386888316,1,0,280.9,0,0,0,0,0,0,-0.0292,280.6902,6.8213,0.4212,54.881863,9.785448,108.3,5.845,1.85,335.95,54.881687,9.785883,54.895069,9.793790
1386888316,1,0,280.9,0,0,4,0,0,25,-0.0292,280.6902,6.8213,0.4212,54.881863,9.785418,108.3,5.845,1.85,335.95,54.881687,9.785883,54.895069,9.793790
1386888316,1,0,280.9,0,0,0,0,0,0,-0.0292,280.6902,6.8213,0.4212,54.881863,9.785387,108.3,5.845,1.85,335.95,54.881687,9.785883,54.895069,9.793790
1386888317,1,0,280.9,0,0,4,0,0,25,-0.0292,280.6902,6.8213,0.4212,54.881863,9.785356,108.3,5.845,1.85,335.95,54.881687,9.785883,54.895069,9.793790
1386888317,1,0,280.9,0,0,0,0,0,0,-0.0292,280.6902,6.8213,0.4212,54.881863,9.785325,108.3,5.845,1.85,335.95,54.881687,9.785883,54.895069,9.793790
1386888317,1,0,280.9,0,0,4,0,0,25,-0.0292,280.6902,6.8213,0.4212,54.881863,9.785295,108.3,5.845,1.85,335.95,54.881687,9.785883,54.895069,9.793790
1386888317,1,0,280.9,0,0,0,0,0,0,-0.0292,280.6902,6.8213,0.4212,54.881863,9.785264,108.3,5.845,1.85,335.95,54.881687,9.785883,54.895069,9.793790
1386888318,1,0,280.9,0,0,4,0,0,25,-0.0292,280.6902,6.8213,0.4212,54.881863,9.785233,108.3,5.845,1.85,335.95,54.881687,9.785883,54.895069,9.793790
1386888318,1,0,280.9,0,0,0,0,0,0,-0.0292,280.6902,6.8213,0.4212,54.881863,9.785202,108.3,5.845,1.85,335.95,54.881687,9.785883,54.895069,9.793790
1386888318,1,0,280.9,0,0,4,0,0,25,-0.0292,280.6902,6.8213,0.4212,54.881863,9.785172,108.3,5.845,1.85,335.95,54.881687,9.785883,54.895069,9.793790
1386888318,1,0,280.9,0,0,0,0,0,0,-0.0292,280.6902,6.8213,0.4212,54.881863,9.785141,108.3,5.845,1.85,335.95,54.881687,9.785883,54.895069,9.793790
1386888319,1,0,280.9,0,0,4,0,0,25,-0.0292,280.6902,6.8213,0.4212,54.881863,9.785110,108.3,5.845,1.85,335.95,54.881687,9.785883,54.895069,9.793790
1386888319,1,0,280.9,0,0,0,0,0,0,-0.0292,280.6902,6.8213,0.4212,54.881863,9.785080,108.3,5.845,1.85,335.95,54.881687,9.785883,54.895069,9.793790
1386888319,1,0,280.9,0,0,4,0,0,25,-0.0292,280.6902,6.8213,0.4212,54.881863,9.785049,108.3,5.845,1.85,335.95,54.881687,9.785883,54.895069,9.793790
