MCU_timestamp,Navigation_System,Manual_Control,Guidance_Heading,Manual_Ctrl_Rudder,Rudder_Desired_Angle,Rudder_Feedback,Manual_Ctrl_Sail,Sail_Desired_Pos,Sail_Feedback,Rate,Heading,Pitch,Roll,Latitude,Longitude,COG,SOG,Wind_Speed,Wind_Angle,Point_Start_Lat,Point_Start_Lon,Point_End_Lat,Point_End_Lon
1389971208,0,0,0.0,0,0,4,0,0,0,-0.0292,172.9588,6.8213,0.4212,54.885403,9.774549,108.3,5.845,1.85,335.95,0.000000,0.000000,0.000000,0.000000
1389971208,0,0,0.0,0,0,4,0,0,0,-0.0292,172.9588,6.8213,0.4212,54.885403,9.774549,108.3,5.845,1.85,335.95,0.000000,0.000000,0.000000,0.000000
1389971209,0,0,0.0,0,0,4,0,0,0,-0.0292,172.9588,6.8213,0.4212,54.885403,9.774549,108.3,5.845,1.85,335.95,0.000000,0.000000,0.000000,0.000000
1389971209,0,0,0.0,0,0,4,0,0,0,-0.0292,172.9588,6.8213,0.4212,54.885403,9.774549,108.3,5.845,1.85,335.95,0.000000,0.000000,0.000000,0.000000
1389971209,0,0,0.0,0,0,4,0,0,0,-0.0292,172.9588,6.8213,0.4212,54.885403,9.774549,108.3,5.845,1.85,335.95,0.000000,0.000000,0.000000,0.000000
1389971209,0,0,0.0,0,0,4,0,0,0,-0.0292,172.9588,6.8213,0.4212,54.885403,9.774549,108.3,5.845,1.85,335.95,0.000000,0.000000,0.000000,0.000000
1389971210,0,0,0.0,0,0,4,0,0,0,-0.0292,172.9588,6.8213,0.4212,54.885403,9.774549,108.3,5.845,1.85,335.95,0.000000,0.000000,0.000000,0.000000
1389971210,0,0,0.0,0,0,4,0,0,0,-0.0292,172.9588,6.8213,0.4212,54.885403,9.774549,108.3,5.845,1.85,335.95,0.000000,0.000000,0.000000,0.000000
1389971210,0,0,0.0,0,0,4,0,0,0,-0.0292,172.9588,6.8213,0.4212,54.885403,9.774549,108.3,5.845,1.85,335.95,0.000000,0.000000,0.000000,0.000000
1389971210,0,0,0.0,0,0,4,0,0,0,-0.0292,172.9588,6.8213,0.4212,54.885403,9.774549,108.3,5.845,1.85,335.95,0.000000,0.000000,0.000000,0.000000
1389971211,4,0,0.0,0,0,4,0,0,0,-0.0292,172.9588,6.8213,0.4212,54.885403,9.774549,108.3,5.845,1.85,335.95,0.000000,0.000000,0.000000,0.000000
1389971211,1,0,0.0,0,35,8,0,713,750,-0.0292,161.2922,6.8213,0.4212,54.885387,9.774558,108.3,5.845,1.85,335.95,54.895069,9.793790,54.895348,9.797490
1389971211,1,0,0.0,0,-9,4,0,0,700,-0.0292,164.2922,6.8213,0.4212,54.885368,9.774567,108.3,5.845,1.85,335.95,54.895348,9.797490,54.894039,9.801540
1389971211,1,0,0.0,0,-6,0,0,0,650,-0.0292,166.2922,6.8213,0.4212,54.885349,9.774574,108.3,5.845,1.85,335.95,54.894039,9.801540,54.893795,9.802299
1389971212,1,0,0.0,0,-4,-4,0,713,700,-0.0292,167.6255,6.8213,0.4212,54.885334,9.774581,108.3,5.845,1.85,335.95,54.893795,9.802299,54.893364,9.803688
1389971212,1,0,0.0,0,-2,0,0,713,750,-0.0292,168.2922,6.8213,0.4212,54.885315,9.774588,108.3,5.845,1.85,335.95,54.893364,9.803688,54.892704,9.801139
1389971212,1,0,0.0,0,-2,-4,0,713,700,-0.0292,168.9588,6.8213,0.4212,54.885296,9.774593,108.3,5.845,1.85,335.95,54.892704,9.801139,54.891663,9.800174
1389971212,1,0,0.0,0,-1,0,0,713,750,-0.0292,169.2922,6.8213,0.4212,54.885281,9.774599,108.3,5.845,1.85,335.95,54.891663,9.800174,54.892929,9.805077
1389971213,1,0,0.0,0,-1,-4,0,713,700,-0.0292,169.6255,6.8213,0.4212,54.885262,9.774605,108.3,5.845,1.85,335.95,54.892929,9.805077,54.892498,9.806466
1389971213,1,0,0.0,0,0,0,0,713,750,-0.0292,169.6255,6.8213,0.4212,54.885242,9.774611,108.3,5.845,1.85,335.95,54.892498,9.806466,54.891232,9.801563
1389971213,1,0,0.0,0,0,4,0,713,700,-0.0292,169.6255,6.8213,0.4212,54.885223,9.774616,108.3,5.845,1.85,335.95,54.891232,9.801563,54.890800,9.802953
1389971213,1,0,0.0,0,0,0,0,713,750,-0.0292,169.6255,6.8213,0.4212,54.885208,9.774622,108.3,5.845,1.85,335.95,54.890800,9.802953,54.891651,9.806246
1389971214,1,0,0.0,0,0,4,0,713,700,-0.0292,169.6255,6.8213,0.4212,54.885189,9.774628,108.3,5.845,1.85,335.95,54.891651,9.806246,54.890560,9.805087
1389971214,1,0,0.0,0,0,0,0,713,750,-0.0292,169.6255,6.8213,0.4212,54.885170,9.774632,108.3,5.845,1.85,335.95,54.890560,9.805087,54.890366,9.804342
1389971214,1,0,0.0,0,0,4,0,713,700,-0.0292,169.6255,6.8213,0.4212,54.885151,9.774638,108.3,5.845,1.85,335.95,54.890366,9.804342,54.890846,9.801930
1389971214,1,0,0.0,0,0,0,0,713,750,-0.0292,169.6255,6.8213,0.4212,54.885136,9.774644,108.3,5.845,1.85,335.95,54.890846,9.801930,54.889477,9.798280
1389971215,1,0,0.0,0,0,4,0,713,700,-0.0292,169.6255,6.8213,0.4212,54.885117,9.774650,108.3,5.845,1.85,335.95,54.889477,9.798280,54.891819,9.794550
1389971215,1,0,0.0,0,0,0,0,713,750,-0.0292,169.6255,6.8213,0.4212,54.885098,9.774655,108.3,5.845,1.85,335.95,54.891819,9.794550,54.895348,9.797490
1389971215,1,0,0.0,0,0,4,0,713,700,-0.0292,169.6255,6.8213,0.4212,54.885078,9.774661,108.3,5.845,1.85,335.95,54.895348,9.797490,54.895069,9.793790
1389971215,1,0,0.0,0,0,0,0,713,750,-0.0292,169.6255,6.8213,0.4212,54.885063,9.774667,108.3,5.845,1.85,335.95,54.895348,9.797490,54.895069,9.793790
1389971216,3,0,0.0,0,0,4,0,713,700,-0.0292,169.6255,6.8213,0.4212,54.885044,9.774673,108.3,5.845,1.85,335.95,54.895348,9.797490,54.885063,9.774667
1389971216,3,0,0.0,0,0,0,0,713,750,-0.0292,169.6255,6.8213,0.4212,54.885025,9.774677,108.3,5.845,1.85,335.95,54.895348,9.797490,54.885063,9.774667
1389971216,3,0,0.0,0,0,4,0,713,700,-0.0292,169.6255,6.8213,0.4212,54.885006,9.774683,108.3,5.845,1.85,335.95,54.895348,9.797490,54.885063,9.774667
1389971216,3,0,0.0,0,0,0,0,713,750,-0.0292,169.6255,6.8213,0.4212,54.884991,9.774689,108.3,5.845,1.85,335.95,54.895348,9.797490,54.885063,9.774667
1389971217,3,0,0.0,0,0,4,0,713,700,-0.0292,169.6255,6.8213,0.4212,54.884972,9.774694,108.3,5.845,1.85,335.95,54.895348,9.797490,54.885063,9.774667
1389971217,3,0,0.0,0,0,0,0,713,750,-0.0292,169.6255,6.8213,0.4212,54.884953,9.774700,108.3,5.845,1.85,335.95,54.895348,9.797490,54.885063,9.774667
1389971217,3,0,0.0,0,0,4,0,713,700,-0.0292,169.6255,6.8213,0.4212,54.884937,9.774706,108.3,5.845,1.85,335.95,54.895348,9.797490,54.885063,9.774667
1389971217,3,0,0.0,0,0,0,0,713,750,-0.0292,169.6255,6.8213,0.4212,54.884918,9.774712,108.3,5.845,1.85,335.95,54.895348,9.797490,54.885063,9.774667
1389971218,3,0,0.0,0,0,4,0,713,700,-0.0292,169.6255,6.8213,0.4212,54.884899,9.774717,108.3,5.845,1.85,335.95,54.895348,9.797490,54.885063,9.774667
1389971218,3,0,0.0,0,0,0,0,713,750,-0.0292,169.6255,6.8213,0.4212,54.884880,9.774722,108.3,5.845,1.85,335.95,54.895348,9.797490,54.885063,9.774667
1389971218,3,0,0.0,0,0,4,0,713,700,-0.0292,169.6255,6.8213,0.4212,54.884865,9.774728,108.3,5.845,1.85,335.95,54.895348,9.797490,54.885063,9.774667
1389971218,3,0,0.0,0,0,0,0,713,750,-0.0292,169.6255,6.8213,0.4212,54.884846,9.774734,108.3,5.845,1.85,335.95,54.895348,9.797490,54.885063,9.774667
1389971219,3,0,0.0,0,0,4,0,713,700,-0.0292,169.6255,6.8213,0.4212,54.884827,9.774739,108.3,5.845,1.85,335.95,54.895348,9.797490,54.885063,9.774667
1389971219,3,0,0.0,0,0,0,0,713,750,-0.0292,169.6255,6.8213,0.4212,54.884808,9.774745,108.3,5.845,1.85,335.95,54.895348,9.797490,54.885063,9.774667
1389971219,3,0,0.0,0,0,4,0,713,700,-0.0292,169.6255,6.8213,0.4212,54.884792,9.774751,108.3,5.845,1.85,335.95,54.895348,9.797490,54.885063,9.774667
1389971219,3,0,0.0,0,0,0,0,713,750,-0.0292,169.6255,6.8213,0.4212,54.884773,9.774756,108.3,5.845,1.85,335.95,54.895348,9.797490,54.885063,9.774667
1389971220,3,0,0.0,0,0,4,0,713,700,-0.0292,169.6255,6.8213,0.4212,54.884754,9.774761,108.3,5.845,1.85,335.95,54.895348,9.797490,54.885063,9.774667
1389971220,3,0,0.0,0,0,0,0,713,750,-0.0292,169.6255,6.8213,0.4212,54.884735,9.774767,108.3,5.845,1.85,335.95,54.895348,9.797490,54.885063,9.774667
1389971220,3,0,0.0,0,0,4,0,713,700,-0.0292,169.6255,6.8213,0.4212,54.884720,9.774773,108.3,5.845,1.85,335.95,54.895348,9.797490,54.885063,9.774667
1389971220,3,0,0.0,0,0,0,0,713,750,-0.0292,169.6255,6.8213,0.4212,54.884701,9.774778,108.3,5.845,1.85,335.95,54.895348,9.797490,54.885063,9.774667
1389971221,3,0,0.0,0,0,4,0,713,700,-0.0292,169.6255,6.8213,0.4212,54.884682,9.774784,108.3,5.845,1.85,335.95,54.895348,9.797490,54.885063,9.774667
1389971221,3,0,0.0,0,0,0,0,713,750,-0.0292,169.6255,6.8213,0.4212,54.884666,9.774790,108.3,5.845,1.85,335.95,54.895348,9.797490,54.885063,9.774667
1389971221,3,0,0.0,0,-20,-4,0,713,700,-0.0292,176.2922,6.8213,0.4212,54.884647,9.774792,108.3,5.845,1.85,335.95,54.895348,9.797490,54.885063,9.774667
1389971221,3,0,0.0,0,-14,-8,0,713,750,-0.0292,180.9588,6.8213,0.4212,54.884628,9.774792,108.3,5.845,1.85,335.95,54.895348,9.797490,54.885063,9.774667
1389971222,3,0,0.0,0,-9,-12,0,713,700,-0.0292,183.9588,6.8213,0.4212,54.884609,9.774790,108.3,5.845,1.85,335.95,54.895348,9.797490,54.885063,9.774667
1389971222,3,0,0.0,0,-6,-8,0,713,750,-0.0292,185.9588,6.8213,0.4212,54.884594,9.774787,108.3,5.845,1.85,335.95,54.895348,9.797490,54.885063,9.774667
1389971222,3,0,0.0,0,-4,-4,0,713,700,-0.0292,187.2922,6.8213,0.4212,54.884575,9.774783,108.3,5.845,1.85,335.95,54.895348,9.797490,54.885063,9.774667
1389971222,3,0,0.0,0,-3,0,0,713,750,-0.0292,188.2922,6.8213,0.4212,54.884556,9.774778,108.3,5.845,1.85,335.95,54.895348,9.797490,54.885063,9.774667
1389971223,3,0,0.0,0,-2,-4,0,713,700,-0.0292,188.9588,6.8213,0.4212,54.884537,9.774774,108.3,5.845,1.85,335.95,54.895348,9.797490,54.885063,9.774667
1389971223,3,0,0.0,0,-1,0,0,713,750,-0.0292,189.2922,6.8213,0.4212,54.884521,9.774769,108.3,5.845,1.85,335.95,54.895348,9.797490,54.885063,9.774667
1389971223,3,0,0.0,0,-1,-4,0,713,700,-0.0292,189.6255,6.8213,0.4212,54.884502,9.774763,108.3,5.845,1.85,335.95,54.895348,9.797490,54.885063,9.774667
1389971223,3,0,0.0,0,0,0,0,713,750,-0.0292,189.6255,6.8213,0.4212,54.884483,9.774757,108.3,5.845,1.85,335.95,54.895348,9.797490,54.885063,9.774667
1389971224,3,0,0.0,0,0,4,0,713,700,-0.0292,189.6255,6.8213,0.4212,54.884464,9.774752,108.3,5.845,1.85,335.95,54.895348,9.797490,54.885063,9.774667
1389971224,3,0,0.0,0,0,0,0,713,750,-0.0292,189.6255,6.8213,0.4212,54.884449,9.774747,108.3,5.845,1.85,335.95,54.895348,9.797490,54.885063,9.774667
1389971224,3,0,0.0,0,0,4,0,713,700,-0.0292,189.6255,6.8213,0.4212,54.884430,9.774742,108.3,5.845,1.85,335.95,54.895348,9.797490,54.885063,9.774667
1389971224,3,0,0.0,0,0,0,0,713,750,-0.0292,189.6255,6.8213,0.4212,54.884411,9.774737,108.3,5.845,1.85,335.95,54.895348,9.797490,54.885063,9.774667
1389971225,3,0,0.0,0,0,4,0,713,700,-0.0292,189.6255,6.8213,0.4212,54.884396,9.774733,108.3,5.845,1.85,335.95,54.895348,9.797490,54.885063,9.774667
1389971225,3,0,0.0,0,0,0,0,713,750,-0.0292,189.6255,6.8213,0.4212,54.884377,9.774727,108.3,5.845,1.85,335.95,54.895348,9.797490,54.885063,9.774667
1389971225,3,0,0.0,0,0,4,0,713,700,-0.0292,189.6255,6.8213,0.4212,54.884357,9.774721,108.3,5.845,1.85,335.95,54.895348,9.797490,54.885063,9.774667
1389971225,3,0,0.0,0,0,0,0,713,750,-0.0292,189.6255,6.8213,0.4212,54.884338,9.774715,108.3,5.845,1.85,335.95,54.895348,9.797490,54.885063,9.774667
1389971226,3,0,0.0,0,0,4,0,713,700,-0.0292,189.6255,6.8213,0.4212,54.884323,9.774710,108.3,5.845,1.85,335.95,54.895348,9.797490,54.885063,9.774667
1389971226,3,0,0.0,0,0,0,0,713,750,-0.0292,189.6255,6.8213,0.4212,54.884304,9.774705,108.3,5.845,1.85,335.95,54.895348,9.797490,54.885063,9.774667
1389971226,3,0,0.0,0,0,4,0,713,700,-0.0292,189.6255,6.8213,0.4212,54.884285,9.774700,108.3,5.845,1.85,335.95,54.895348,9.797490,54.885063,9.774667
1389971226,3,0,0.0,0,0,0,0,713,750,-0.0292,189.6255,6.8213,0.4212,54.884266,9.774695,108.3,5.845,1.85,335.95,54.895348,9.797490,54.885063,9.774667
1389971227,3,0,0.0,0,0,4,0,713,700,-0.0292,189.6255,6.8213,0.4212,54.884251,9.774691,108.3,5.845,1.85,335.95,54.895348,9.797490,54.885063,9.774667
1389971227,3,0,0.0,0,0,0,0,713,750,-0.0292,189.6255,6.8213,0.4212,54.884232,9.774686,108.3,5.845,1.85,335.95,54.895348,9.797490,54.885063,9.774667
1389971227,3,0,0.0,0,0,4,0,713,700,-0.0292,189.6255,6.8213,0.4212,54.884212,9.774680,108.3,5.845,1.85,335.95,54.895348,9.797490,54.885063,9.774667
1389971228,3,0,0.0,0,0,0,0,713,750,-0.0292,189.6255,6.8213,0.4212,54.884193,9.774674,108.3,5.845,1.85,335.95,54.895348,9.797490,54.885063,9.774667
1389971228,3,0,0.0,0,0,4,0,713,700,-0.0292,189.6255,6.8213,0.4212,54.884178,9.774669,108.3,5.845,1.85,335.95,54.895348,9.797490,54.885063,9.774667
1389971228,3,0,0.0,0,0,0,0,713,750,-0.0292,189.6255,6.8213,0.4212,54.884159,9.774664,108.3,5.845,1.85,335.95,54.895348,9.797490,54.885063,9.774667
1389971228,3,0,0.0,0,0,4,0,713,700,-0.0292,189.6255,6.8213,0.4212,54.884140,9.774659,108.3,5.845,1.85,335.95,54.895348,9.797490,54.885063,9.774667
1389971229,3,0,0.0,0,0,0,0,713,750,-0.0292,189.6255,6.8213,0.4212,54.884121,9.774654,108.3,5.845,1.85,335.95,54.895348,9.797490,54.885063,9.774667
1389971229,3,0,0.0,0,0,4,0,713,700,-0.0292,189.6255,6.8213,0.4212,54.884106,9.774650,108.3,5.845,1.85,335.95,54.895348,9.797490,54.885063,9.774667
1389971229,3,0,0.0,0,0,0,0,713,750,-0.0292,189.6255,6.8213,0.4212,54.884087,9.774645,108.3,5.845,1.85,335.95,54.895348,9.797490,54.885063,9.774667
1389971229,3,0,0.0,0,0,4,0,713,700,-0.0292,189.6255,6.8213,0.4212,54.884068,9.774639,108.3,5.845,1.85,335.95,54.895348,9.797490,54.885063,9.774667
1389971230,3,0,0.0,0,0,0,0,713,750,-0.0292,189.6255,6.8213,0.4212,54.884052,9.774633,108.3,5.845,1.85,335.95,54.895348,9.797490,54.885063,9.774667
1389971230,3,0,0.0,0,0,4,0,713,700,-0.0292,189.6255,6.8213,0.4212,54.884033,9.774628,108.3,5.845,1.85,335.95,54.895348,9.797490,54.885063,9.774667
1389971230,3,0,0.0,0,0,0,0,713,750,-0.0292,189.6255,6.8213,0.4212,54.884014,9.774622,108.3,5.845,1.85,335.95,54.895348,9.797490,54.885063,9.774667
1389971230,3,0,0.0,0,0,4,0,713,700,-0.0292,189.6255,6.8213,0.4212,54.883995,9.774617,108.3,5.845,1.85,335.95,54.895348,9.797490,54.885063,9.774667
1389971231,3,0,0.0,0,0,0,0,713,750,-0.0292,189.6255,6.8213,0.4212,54.883980,9.774612,108.3,5.845,1.85,335.95,54.895348,9.797490,54.885063,9.774667
1389971231,3,0,0.0,0,0,4,0,713,700,-0.0292,189.6255,6.8213,0.4212,54.883961,9.774608,108.3,5.845,1.85,335.95,54.895348,9.797490,54.885063,9.774667
1389971231,3,0,0.0,0,0,0,0,713,750,-0.0292,189.6255,6.8213,0.4212,54.883942,9.774603,108.3,5.845,1.85,335.95,54.895348,9.797490,54.885063,9.774667
1389971231,3,0,0.0,0,0,4,0,713,700,-0.0292,189.6255,6.8213,0.4212,54.883923,9.774597,108.3,5.845,1.85,335.95,54.895348,9.797490,54.885063,9.774667
1389971232,3,0,0.0,0,0,0,0,713,750,-0.0292,189.6255,6.8213,0.4212,54.883907,9.774591,108.3,5.845,1.85,335.95,54.895348,9.797490,54.885063,9.774667
1389971232,3,0,0.0,0,0,4,0,713,700,-0.0292,189.6255,6.8213,0.4212,54.883888,9.774586,108.3,5.845,1.85,335.95,54.895348,9.797490,54.885063,9.774667
1389971232,3,0,0.0,0,0,0,0,713,750,-0.0292,189.6255,6.8213,0.4212,54.883869,9.774580,108.3,5.845,1.85,335.95,54.895348,9.797490,54.885063,9.774667
1389971232,3,0,0.0,0,0,4,0,713,700,-0.0292,189.6255,6.8213,0.4212,54.883850,9.774575,108.3,5.845,1.85,335.95,54.895348,9.797490,54.885063,9.774667
1389971233,3,0,0.0,0,0,0,0,713,750,-0.0292,189.6255,6.8213,0.4212,54.883835,9.774570,108.3,5.845,1.85,335.95,54.895348,9.797490,54.885063,9.774667
1389971233,3,0,0.0,0,0,4,0,713,700,-0.0292,189.6255,6.8213,0.4212,54.883816,9.774566,108.3,5.845,1.85,335.95,54.895348,9.797490,54.885063,9.774667
1389971233,3,0,0.0,0,0,0,0,713,750,-0.0292,189.6255,6.8213,0.4212,54.883797,9.774561,108.3,5.845,1.85,335.95,54.895348,9.797490,54.885063,9.774667
1389971233,3,0,0.0,0,0,4,0,713,700,-0.0292,189.6255,6.8213,0.4212,54.883781,9.774555,108.3,5.845,1.85,335.95,54.895348,9.797490,54.885063,9.774667
1389971234,3,0,0.0,0,0,0,0,713,750,-0.0292,189.6255,6.8213,0.4212,54.883762,9.774549,108.3,5.845,1.85,335.95,54.895348,9.797490,54.885063,9.774667
1389971234,3,0,0.0,0,0,4,0,713,700,-0.0292,189.6255,6.8213,0.4212,54.883743,9.774544,108.3,5.845,1.85,335.95,54.895348,9.797490,54.885063,9.774667
1389971234,3,0,0.0,0,0,0,0,713,750,-0.0292,189.6255,6.8213,0.4212,54.883724,9.774538,108.3,5.845,1.85,335.95,54.895348,9.797490,54.885063,9.774667
1389971234,3,0,0.0,0,0,4,0,713,700,-0.0292,189.6255,6.8213,0.4212,54.883709,9.774533,108.3,5.845,1.85,335.95,54.895348,9.797490,54.885063,9.774667
1389971235,3,0,0.0,0,0,0,0,713,750,-0.0292,189.6255,6.8213,0.4212,54.883690,9.774529,108.3,5.845,1.85,335.95,54.895348,9.797490,54.885063,9.774667
1389971235,3,0,0.0,0,0,4,0,713,700,-0.0292,189.6255,6.8213,0.4212,54.883671,9.774524,108.3,5.845,1.85,335.95,54.895348,9.797490,54.885063,9.774667
1389971235,3,0,0.0,0,0,0,0,713,750,-0.0292,189.6255,6.8213,0.4212,54.883652,9.774519,108.3,5.845,1.85,335.95,54.895348,9.797490,54.885063,9.774667
1389971235,3,0,0.0,0,0,4,0,713,700,-0.0292,189.6255,6.8213,0.4212,54.883636,9.774514,108.3,5.845,1.85,335.95,54.895348,9.797490,54.885063,9.774667
1389971236,3,0,0.0,0,0,0,0,713,750,-0.0292,189.6255,6.8213,0.4212,54.883617,9.774508,108.3,5.845,1.85,335.95,54.895348,9.797490,54.885063,9.774667
1389971236,3,0,0.0,0,0,4,0,713,700,-0.0292,189.6255,6.8213,0.4212,54.883598,9.774503,108.3,5.845,1.85,335.95,54.895348,9.797490,54.885063,9.774667
1389971236,3,0,0.0,0,0,0,0,713,750,-0.0292,189.6255,6.8213,0.4212,54.883579,9.774497,108.3,5.845,1.85,335.95,54.895348,9.797490,54.885063,9.774667
1389971236,3,0,0.0,0,0,4,0,713,700,-0.0292,189.6255,6.8213,0.4212,54.883564,9.774492,108.3,5.845,1.85,335.95,54.895348,9.797490,54.885063,9.774667
1389971237,3,0,0.0,0,0,0,0,713,750,-0.0292,189.6255,6.8213,0.4212,54.883545,9.774487,108.3,5.845,1.85,335.95,54.895348,9.797490,54.885063,9.774667
1389971237,3,0,0.0,0,0,4,0,713,700,-0.0292,189.6255,6.8213,0.4212,54.883526,9.774483,108.3,5.845,1.85,335.95,54.895348,9.797490,54.885063,9.774667
1389971237,3,0,0.0,0,0,0,0,713,750,-0.0292,189.6255,6.8213,0.4212,54.883511,9.774478,108.3,5.845,1.85,335.95,54.895348,9.797490,54.885063,9.774667
1389971237,3,0,0.0,0,0,4,0,713,700,-0.0292,189.6255,6.8213,0.4212,54.883492,9.774473,108.3,5.845,1.85,335.95,54.895348,9.797490,54.885063,9.774667
1389971238,3,0,0.0,0,0,0,0,713,750,-0.0292,189.6255,6.8213,0.4212,54.883472,9.774467,108.3,5.845,1.85,335.95,54.895348,9.797490,54.885063,9.774667
1389971238,3,0,0.0,0,0,4,0,713,700,-0.0292,189.6255,6.8213,0.4212,54.883453,9.774462,108.3,5.845,1.85,335.95,54.895348,9.797490,54.885063,9.774667
1389971238,3,0,0.0,0,0,0,0,713,750,-0.0292,189.6255,6.8213,0.4212,54.883438,9.774456,108.3,5.845,1.85,335.95,54.895348,9.797490,54.885063,9.774667
1389971238,3,0,0.0,0,0,4,0,713,700,-0.0292,189.6255,6.8213,0.4212,54.883419,9.774450,108.3,5.845,1.85,335.95,54.895348,9.797490,54.885063,9.774667
1389971239,3,0,0.0,0,0,0,0,713,750,-0.0292,189.6255,6.8213,0.4212,54.883400,9.774446,108.3,5.845,1.85,335.95,54.895348,9.797490,54.885063,9.774667
1389971239,3,0,0.0,0,0,4,0,713,700,-0.0292,189.6255,6.8213,0.4212,54.883381,9.774441,108.3,5.845,1.85,335.95,54.895348,9.797490,54.885063,9.774667
1389971239,3,0,0.0,0,0,0,0,713,750,-0.0292,189.6255,6.8213,0.4212,54.883366,9.774436,108.3,5.845,1.85,335.95,54.895348,9.797490,54.885063,9.774667
1389971239,3,0,0.0,0,0,4,0,713,700,-0.0292,189.6255,6.8213,0.4212,54.883347,9.774431,108.3,5.845,1.85,335.95,54.895348,9.797490,54.885063,9.774667
1389971240,3,0,0.0,0,0,0,0,713,750,-0.0292,189.6255,6.8213,0.4212,54.883327,9.774426,108.3,5.845,1.85,335.95,54.895348,9.797490,54.885063,9.774667
1389971240,3,0,0.0,0,0,4,0,713,700,-0.0292,189.6255,6.8213,0.4212,54.883308,9.774420,108.3,5.845,1.85,335.95,54.895348,9.797490,54.885063,9.774667
1389971240,3,0,0.0,0,0,0,0,713,750,-0.0292,189.6255,6.8213,0.4212,54.883293,9.774414,108.3,5.845,1.85,335.95,54.895348,9.797490,54.885063,9.774667
1389971240,3,0,0.0,0,0,4,0,713,700,-0.0292,189.6255,6.8213,0.4212,54.883274,9.774408,108.3,5.845,1.85,335.95,54.895348,9.797490,54.885063,9.774667
1389971241,3,0,0.0,0,0,0,0,713,750,-0.0292,189.6255,6.8213,0.4212,54.883255,9.774404,108.3,5.845,1.85,335.95,54.895348,9.797490,54.885063,9.774667
1389971241,3,0,0.0,0,0,4,0,713,700,-0.0292,189.6255,6.8213,0.4212,54.883240,9.774399,108.3,5.845,1.85,335.95,54.895348,9.797490,54.885063,9.774667
1389971241,3,0,0.0,0,0,0,0,713,750,-0.0292,189.6255,6.8213,0.4212,54.883221,9.774394,108.3,5.845,1.85,335.95,54.895348,9.797490,54.885063,9.774667
1389971241,3,0,0.0,0,0,4,0,713,700,-0.0292,189.6255,6.8213,0.4212,54.883202,9.774389,108.3,5.845,1.85,335.95,54.895348,9.797490,54.885063,9.774667
1389971242,3,0,0.0,0,0,0,0,713,750,-0.0292,189.6255,6.8213,0.4212,54.883183,9.774384,108.3,5.845,1.85,335.95,54.895348,9.797490,54.885063,9.774667
1389971242,3,0,0.0,0,0,4,0,713,700,-0.0292,189.6255,6.8213,0.4212,54.883167,9.774378,108.3,5.845,1.85,335.95,54.895348,9.797490,54.885063,9.774667
1389971242,3,0,0.0,0,0,0,0,713,750,-0.0292,189.6255,6.8213,0.4212,54.883148,9.774372,108.3,5.845,1.85,335.95,54.895348,9.797490,54.885063,9.774667
1389971242,3,0,0.0,0,0,4,0,713,700,-0.0292,189.6255,6.8213,0.4212,54.883129,9.774366,108.3,5.845,1.85,335.95,54.895348,9.797490,54.885063,9.774667
1389971243,3,0,0.0,0,0,0,0,713,750,-0.0292,189.6255,6.8213,0.4212,54.883110,9.774362,108.3,5.845,1.85,335.95,54.895348,9.797490,54.885063,9.774667
1389971243,3,0,0.0,0,0,4,0,713,700,-0.0292,189.6255,6.8213,0.4212,54.883095,9.774357,108.3,5.845,1.85,335.95,54.895348,9.797490,54.885063,9.774667
1389971243,3,0,0.0,0,0,0,0,713,750,-0.0292,189.6255,6.8213,0.4212,54.883076,9.774352,108.3,5.845,1.85,335.95,54.895348,9.797490,54.885063,9.774667
1389971243,3,0,0.0,0,0,4,0,713,700,-0.0292,189.6255,6.8213,0.4212,54.883057,9.774347,108.3,5.845,1.85,335.95,54.895348,9.797490,54.885063,9.774667
1389971244,3,0,0.0,0,0,0,0,713,750,-0.0292,189.6255,6.8213,0.4212,54.883038,9.774343,108.3,5.845,1.85,335.95,54.895348,9.797490,54.885063,9.774667
1389971244,3,0,0.0,0,0,4,0,713,700,-0.0292,189.6255,6.8213,0.4212,54.883022,9.774337,108.3,5.845,1.85,335.95,54.895348,9.797490,54.885063,9.774667
1389971244,3,0,0.0,0,0,0,0,713,750,-0.0292,189.6255,6.8213,0.4212,54.883003,9.774331,108.3,5.845,1.85,335.95,54.895348,9.797490,54.885063,9.774667
1389971244,3,0,0.0,0,0,4,0,713,700,-0.0292,189.6255,6.8213,0.4212,54.882984,9.774325,108.3,5.845,1.85,335.95,54.895348,9.797490,54.885063,9.774667
1389971245,3,0,0.0,0,0,0,0,713,750,-0.0292,189.6255,6.8213,0.4212,54.882965,9.774321,108.3,5.845,1.85,335.95,54.895348,9.797490,54.885063,9.774667
1389971245,3,0,0.0,0,0,4,0,713,700,-0.0292,189.6255,6.8213,0.4212,54.882950,9.774316,108.3,5.845,1.85,335.95,54.895348,9.797490,54.885063,9.774667
1389971245,3,0,0.0,0,0,0,0,713,750,-0.0292,189.6255,6.8213,0.4212,54.882931,9.774311,108.3,5.845,1.85,335.95,54.895348,9.797490,54.885063,9.774667
1389971245,3,0,0.0,0,0,4,0,713,700,-0.0292,189.6255,6.8213,0.4212,54.882912,9.774306,108.3,5.845,1.85,335.95,54.895348,9.797490,54.885063,9.774667
1389971246,3,0,0.0,0,0,0,0,713,750,-0.0292,189.6255,6.8213,0.4212,54.882896,9.774302,108.3,5.845,1.85,335.95,54.895348,9.797490,54.885063,9.774667
1389971246,3,0,0.0,0,0,4,0,713,700,-0.0292,189.6255,6.8213,0.4212,54.882877,9.774296,108.3,5.845,1.85,335.95,54.895348,9.797490,54.885063,9.774667
1389971246,3,0,0.0,0,0,0,0,713,750,-0.0292,189.6255,6.8213,0.4212,54.882858,9.774290,108.3,5.845,1.85,335.95,54.895348,9.797490,54.885063,9.774667
1389971246,3,0,0.0,0,0,4,0,713,700,-0.0292,189.6255,6.8213,0.4212,54.882839,9.774284,108.3,5.845,1.85,335.95,54.895348,9.797490,54.885063,9.774667
1389971247,3,0,0.0,0,0,0,0,713,750,-0.0292,189.6255,6.8213,0.4212,54.882824,9.774279,108.3,5.845,1.85,335.95,54.895348,9.797490,54.885063,9.774667
1389971247,3,0,0.0,0,0,4,0,713,700,-0.0292,189.6255,6.8213,0.4212,54.882805,9.774274,108.3,5.845,1.85,335.95,54.895348,9.797490,54.885063,9.774667
1389971247,3,0,0.0,0,0,0,0,713,750,-0.0292,189.6255,6.8213,0.4212,54.882786,9.774269,108.3,5.845,1.85,335.95,54.895348,9.797490,54.885063,9.774667
1389971247,3,0,0.0,0,0,4,0,713,700,-0.0292,189.6255,6.8213,0.4212,54.882767,9.774264,108.3,5.845,1.85,335.95,54.895348,9.797490,54.885063,9.774667
1389971248,3,0,0.0,0,0,0,0,713,750,-0.0292,189.6255,6.8213,0.4212,54.882751,9.774260,108.3,5.845,1.85,335.95,54.895348,9.797490,54.885063,9.774667
1389971248,3,0,0.0,0,0,4,0,713,700,-0.0292,189.6255,6.8213,0.4212,54.882732,9.774254,108.3,5.845,1.85,335.95,54.895348,9.797490,54.885063,9.774667
1389971248,3,0,0.0,0,0,0,0,713,750,-0.0292,189.6255,6.8213,0.4212,54.882713,9.774248,108.3,5.845,1.85,335.95,54.895348,9.797490,54.885063,9.774667
1389971248,3,0,0.0,0,0,4,0,713,700,-0.0292,189.6255,6.8213,0.4212,54.882694,9.774242,108.3,5.845,1.85,335.95,54.895348,9.797490,54.885063,9.774667
1389971249,3,0,0.0,0,0,0,0,713,750,-0.0292,189.6255,6.8213,0.4212,54.882679,9.774237,108.3,5.845,1.85,335.95,54.895348,9.797490,54.885063,9.774667
1389971249,3,0,0.0,0,0,4,0,713,700,-0.0292,189.6255,6.8213,0.4212,54.882660,9.774232,108.3,5.845,1.85,335.95,54.895348,9.797490,54.885063,9.774667
1389971249,3,0,0.0,0,0,0,0,713,750,-0.0292,189.6255,6.8213,0.4212,54.882641,9.774227,108.3,5.845,1.85,335.95,54.895348,9.797490,54.885063,9.774667
1389971249,3,0,0.0,0,0,4,0,713,700,-0.0292,189.6255,6.8213,0.4212,54.882626,9.774222,108.3,5.845,1.85,335.95,54.895348,9.797490,54.885063,9.774667
1389971250,3,0,0.0,0,0,0,0,713,750,-0.0292,189.6255,6.8213,0.4212,54.882607,9.774218,108.3,5.845,1.85,335.95,54.895348,9.797490,54.885063,9.774667
1389971250,3,0,0.0,0,0,4,0,713,700,-0.0292,189.6255,6.8213,0.4212,54.882587,9.774212,108.3,5.845,1.85,335.95,54.895348,9.797490,54.885063,9.774667
1389971250,3,0,0.0,0,0,0,0,713,750,-0.0292,189.6255,6.8213,0.4212,54.882568,9.774206,108.3,5.845,1.85,335.95,54.895348,9.797490,54.885063,9.774667
1389971250,3,0,0.0,0,0,4,0,713,700,-0.0292,189.6255,6.8213,0.4212,54.882553,9.774200,108.3,5.845,1.85,335.95,54.895348,9.797490,54.885063,9.774667
1389971251,3,0,0.0,0,0,0,0,713,750,-0.0292,189.6255,6.8213,0.4212,54.882534,9.774195,108.3,5.845,1.85,335.95,54.895348,9.797490,54.885063,9.774667
1389971251,3,0,0.0,0,0,4,0,713,700,-0.0292,189.6255,6.8213,0.4212,54.882515,9.774190,108.3,5.845,1.85,335.95,54.895348,9.797490,54.885063,9.774667
1389971251,3,0,0.0,0,0,0,0,713,750,-0.0292,189.6255,6.8213,0.4212,54.882496,9.774185,108.3,5.845,1.85,335.95,54.895348,9.797490,54.885063,9.774667
1389971251,3,0,0.0,0,0,4,0,713,700,-0.0292,189.6255,6.8213,0.4212,54.882481,9.774180,108.3,5.845,1.85,335.95,54.895348,9.797490,54.885063,9.774667
1389971252,3,0,0.0,0,0,0,0,713,750,-0.0292,189.6255,6.8213,0.4212,54.882462,9.774176,108.3,5.845,1.85,335.95,54.895348,9.797490,54.885063,9.774667
1389971252,3,0,0.0,0,0,4,0,713,700,-0.0292,189.6255,6.8213,0.4212,54.882442,9.774170,108.3,5.845,1.85,335.95,54.895348,9.797490,54.885063,9.774667
1389971252,3,0,0.0,0,0,0,0,713,750,-0.0292,189.6255,6.8213,0.4212,54.882423,9.774164,108.3,5.845,1.85,335.95,54.895348,9.797490,54.885063,9.774667
1389971252,3,0,0.0,0,0,4,0,713,700,-0.0292,189.6255,6.8213,0.4212,54.882408,9.774158,108.3,5.845,1.85,335.95,54.895348,9.797490,54.885063,9.774667
1389971253,3,0,0.0,0,0,0,0,713,750,-0.0292,189.6255,6.8213,0.4212,54.882389,9.774153,108.3,5.845,1.85,335.95,54.895348,9.797490,54.885063,9.774667
1389971253,3,0,0.0,0,0,4,0,713,700,-0.0292,189.6255,6.8213,0.4212,54.882370,9.774148,108.3,5.845,1.85,335.95,54.895348,9.797490,54.885063,9.774667
1389971253,3,0,0.0,0,0,0,0,713,750,-0.0292,189.6255,6.8213,0.4212,54.882355,9.774143,108.3,5.845,1.85,335.95,54.895348,9.797490,54.885063,9.774667
1389971253,3,0,0.0,0,0,4,0,713,700,-0.0292,189.6255,6.8213,0.4212,54.882336,9.774138,108.3,5.845,1.85,335.95,54.895348,9.797490,54.885063,9.774667
1389971254,3,0,0.0,0,0,0,0,713,750,-0.0292,189.6255,6.8213,0.4212,54.882317,9.774134,108.3,5.845,1.85,335.95,54.895348,9.797490,54.885063,9.774667
1389971254,3,0,0.0,0,0,4,0,713,700,-0.0292,189.6255,6.8213,0.4212,54.882298,9.774129,108.3,5.845,1.85,335.95,54.895348,9.797490,54.885063,9.774667
1389971254,3,0,0.0,0,0,0,0,713,750,-0.0292,189.6255,6.8213,0.4212,54.882282,9.774123,108.3,5.845,1.85,335.95,54.895348,9.797490,54.885063,9.774667
1389971254,3,0,0.0,0,0,4,0,713,700,-0.0292,189.6255,6.8213,0.4212,54.882263,9.774117,108.3,5.845,1.85,335.95,54.895348,9.797490,54.885063,9.774667
1389971255,0,0,0.0,0,0,4,0,713,700,-0.0292,189.6255,6.8213,0.4212,54.882263,9.774117,108.3,5.845,1.85,335.95,54.895348,9.797490,54.885063,9.774667
1389971255,0,0,0.0,0,0,4,0,713,700,-0.0292,189.6255,6.8213,0.4212,54.882263,9.774117,108.3,5.845,1.85,335.95,54.895348,9.797490,54.885063,9.774667
1389971255,0,0,0.0,0,0,4,0,713,700,-0.0292,189.6255,6.8213,0.4212,54.882263,9.774117,108.3,5.845,1.85,335.95,54.895348,9.797490,54.885063,9.774667
1389971255,0,0,0.0,0,0,4,0,713,700,-0.0292,189.6255,6.8213,0.4212,54.882263,9.774117,108.3,5.845,1.85,335.95,54.895348,9.797490,54.885063,9.774667
1389971256,0,0,0.0,0,0,4,0,713,700,-0.0292,189.6255,6.8213,0.4212,54.882263,9.774117,108.3,5.845,1.85,335.95,54.895348,9.797490,54.885063,9.774667
1389971256,0,0,0.0,0,0,4,0,713,700,-0.0292,189.6255,6.8213,0.4212,54.882263,9.774117,108.3,5.845,1.85,335.95,54.895348,9.797490,54.885063,9.774667
1389971256,0,0,0.0,0,0,4,0,713,700,-0.0292,189.6255,6.8213,0.4212,54.882263,9.774117,108.3,5.845,1.85,335.95,54.895348,9.797490,54.885063,9.774667
1389971256,0,0,0.0,0,0,4,0,713,700,-0.0292,189.6255,6.8213,0.4212,54.882263,9.774117,108.3,5.845,1.85,335.95,54.895348,9.797490,54.885063,9.774667
1389971257,0,0,0.0,0,0,4,0,713,700,-0.0292,189.6255,6.8213,0.4212,54.882263,9.774117,108.3,5.845,1.85,335.95,54.895348,9.797490,54.885063,9.774667
1389971257,0,0,0.0,0,0,4,0,713,700,-0.0292,189.6255,6.8213,0.4212,54.882263,9.774117,108.3,5.845,1.85,335.95,54.895348,9.797490,54.885063,9.774667
1389971257,0,0,0.0,0,0,4,0,713,700,-0.0292,189.6255,6.8213,0.4212,54.882263,9.774117,108.3,5.845,1.85,335.95,54.895348,9.797490,54.885063,9.774667
1389971257,0,0,0.0,0,0,4,0,713,700,-0.0292,189.6255,6.8213,0.4212,54.882263,9.774117,108.3,5.845,1.85,335.95,54.895348,9.797490,54.885063,9.774667
1389971258,0,0,0.0,0,0,4,0,713,700,-0.0292,189.6255,6.8213,0.4212,54.882263,9.774117,108.3,5.845,1.85,335.95,54.895348,9.797490,54.885063,9.774667
1389971258,0,0,0.0,0,0,4,0,713,700,-0.0292,189.6255,6.8213,0.4212,54.882263,9.774117,108.3,5.845,1.85,335.95,54.895348,9.797490,54.885063,9.774667
1389971258,0,0,0.0,0,0,4,0,713,700,-0.0292,189.6255,6.8213,0.4212,54.882263,9.774117,108.3,5.845,1.85,335.95,54.895348,9.797490,54.885063,9.774667
1389971259,0,0,0.0,0,0,4,0,713,700,-0.0292,189.6255,6.8213,0.4212,54.882263,9.774117,108.3,5.845,1.85,335.95,54.895348,9.797490,54.885063,9.774667
1389971259,0,0,0.0,0,0,4,0,713,700,-0.0292,189.6255,6.8213,0.4212,54.882263,9.774117,108.3,5.845,1.85,335.95,54.895348,9.797490,54.885063,9.774667
1389971259,0,0,0.0,0,0,4,0,713,700,-0.0292,189.6255,6.8213,0.4212,54.882263,9.774117,108.3,5.845,1.85,335.95,54.895348,9.797490,54.885063,9.774667
1389971259,0,0,0.0,0,0,4,0,713,700,-0.0292,189.6255,6.8213,0.4212,54.882263,9.774117,108.3,5.845,1.85,335.95,54.895348,9.797490,54.885063,9.774667
1389971260,0,0,0.0,0,0,4,0,713,700,-0.0292,189.6255,6.8213,0.4212,54.882263,9.774117,108.3,5.845,1.85,335.95,54.895348,9.797490,54.885063,9.774667
1389971260,0,0,0.0,0,0,4,0,713,700,-0.0292,189.6255,6.8213,0.4212,54.882263,9.774117,108.3,5.845,1.85,335.95,54.895348,9.797490,54.885063,9.774667
1389971260,0,0,0.0,0,0,4,0,713,700,-0.0292,189.6255,6.8213,0.4212,54.882263,9.774117,108.3,5.845,1.85,335.95,54.895348,9.797490,54.885063,9.774667
1389971260,0,0,0.0,0,0,4,0,713,700,-0.0292,189.6255,6.8213,0.4212,54.882263,9.774117,108.3,5.845,1.85,335.95,54.895348,9.797490,54.885063,9.774667
1389971261,0,0,0.0,0,0,4,0,713,700,-0.0292,189.6255,6.8213,0.4212,54.882263,9.774117,108.3,5.845,1.85,335.95,54.895348,9.797490,54.885063,9.774667
1389971261,0,0,0.0,0,0,4,0,713,700,-0.0292,189.6255,6.8213,0.4212,54.882263,9.774117,108.3,5.845,1.85,335.95,54.895348,9.797490,54.885063,9.774667
1389971261,0,0,0.0,0,0,4,0,713,700,-0.0292,189.6255,6.8213,0.4212,54.882263,9.774117,108.3,5.845,1.85,335.95,54.895348,9.797490,54.885063,9.774667
1389971261,0,0,0.0,0,0,4,0,713,700,-0.0292,189.6255,6.8213,0.4212,54.882263,9.774117,108.3,5.845,1.85,335.95,54.895348,9.797490,54.885063,9.774667
1389971262,0,0,0.0,0,0,4,0,713,700,-0.0292,189.6255,6.8213,0.4212,54.882263,9.774117,108.3,5.845,1.85,335.95,54.895348,9.797490,54.885063,9.774667
1389971262,0,0,0.0,0,0,4,0,713,700,-0.0292,189.6255,6.8213,0.4212,54.882263,9.774117,108.3,5.845,1.85,335.95,54.895348,9.797490,54.885063,9.774667
1389971262,0,0,0.0,0,0,4,0,713,700,-0.0292,189.6255,6.8213,0.4212,54.882263,9.774117,108.3,5.845,1.85,335.95,54.895348,9.797490,54.885063,9.774667
1389971262,0,0,0.0,0,0,4,0,713,700,-0.0292,189.6255,6.8213,0.4212,54.882263,9.774117,108.3,5.845,1.85,335.95,54.895348,9.797490,54.885063,9.774667
1389971263,0,0,0.0,0,0,4,0,713,700,-0.0292,189.6255,6.8213,0.4212,54.882263,9.774117,108.3,5.845,1.85,335.95,54.895348,9.797490,54.885063,9.774667
1389971263,0,0,0.0,0,0,4,0,713,700,-0.0292,189.6255,6.8213,0.4212,54.882263,9.774117,108.3,5.845,1.85,335.95,54.895348,9.797490,54.885063,9.774667
1389971263,0,0,0.0,0,0,4,0,713,700,-0.0292,189.6255,6.8213,0.4212,54.882263,9.774117,108.3,5.845,1.85,335.95,54.895348,9.797490,54.885063,9.774667
1389971263,0,0,0.0,0,0,4,0,713,700,-0.0292,189.6255,6.8213,0.4212,54.882263,9.774117,108.3,5.845,1.85,335.95,54.895348,9.797490,54.885063,9.774667
1389971264,0,0,0.0,0,0,4,0,713,700,-0.0292,189.6255,6.8213,0.4212,54.882263,9.774117,108.3,5.845,1.85,335.95,54.895348,9.797490,54.885063,9.774667
1389971264,0,0,0.0,0,0,4,0,713,700,-0.0292,189.6255,6.8213,0.4212,54.882263,9.774117,108.3,5.845,1.85,335.95,54.895348,9.797490,54.885063,9.774667
1389971264,0,0,0.0,0,0,4,0,713,700,-0.0292,189.6255,6.8213,0.4212,54.882263,9.774117,108.3,5.845,1.85,335.95,54.895348,9.797490,54.885063,9.774667
1389971264,0,0,0.0,0,0,4,0,713,700,-0.0292,189.6255,6.8213,0.4212,54.882263,9.774117,108.3,5.845,1.85,335.95,54.895348,9.797490,54.885063,9.774667
1389971265,0,0,0.0,0,0,4,0,713,700,-0.0292,189.6255,6.8213,0.4212,54.882263,9.774117,108.3,5.845,1.85,335.95,54.895348,9.797490,54.885063,9.774667
1389971265,0,0,0.0,0,0,4,0,713,700,-0.0292,189.6255,6.8213,0.4212,54.882263,9.774117,108.3,5.845,1.85,335.95,54.895348,9.797490,54.885063,9.774667
1389971265,0,0,0.0,0,0,4,0,713,700,-0.0292,189.6255,6.8213,0.4212,54.882263,9.774117,108.3,5.845,1.85,335.95,54.895348,9.797490,54.885063,9.774667
1389971265,0,0,0.0,0,0,4,0,713,700,-0.0292,189.6255,6.8213,0.4212,54.882263,9.774117,108.3,5.845,1.85,335.95,54.895348,9.797490,54.885063,9.774667
1389971266,0,0,0.0,0,0,4,0,713,700,-0.0292,189.6255,6.8213,0.4212,54.882263,9.774117,108.3,5.845,1.85,335.95,54.895348,9.797490,54.885063,9.774667
1389971266,0,0,0.0,0,0,4,0,713,700,-0.0292,189.6255,6.8213,0.4212,54.882263,9.774117,108.3,5.845,1.85,335.95,54.895348,9.797490,54.885063,9.774667
1389971266,0,0,0.0,0,0,4,0,713,700,-0.0292,189.6255,6.8213,0.4212,54.882263,9.774117,108.3,5.845,1.85,335.95,54.895348,9.797490,54.885063,9.774667
1389971266,0,0,0.0,0,0,4,0,713,700,-0.0292,189.6255,6.8213,0.4212,54.882263,9.774117,108.3,5.845,1.85,335.95,54.895348,9.797490,54.885063,9.774667
1389971267,0,0,0.0,0,0,4,0,713,700,-0.0292,189.6255,6.8213,0.4212,54.882263,9.774117,108.3,5.845,1.85,335.95,54.895348,9.797490,54.885063,9.774667
1389971267,0,0,0.0,0,0,4,0,713,700,-0.0292,189.6255,6.8213,0.4212,54.882263,9.774117,108.3,5.845,1.85,335.95,54.895348,9.797490,54.885063,9.774667
1389971267,0,0,0.0,0,0,4,0,713,700,-0.0292,189.6255,6.8213,0.4212,54.882263,9.774117,108.3,5.845,1.85,335.95,54.895348,9.797490,54.885063,9.774667
1389971267,0,0,0.0,0,0,4,0,713,700,-0.0292,189.6255,6.8213,0.4212,54.882263,9.774117,108.3,5.845,1.85,335.95,54.895348,9.797490,54.885063,9.774667
1389971268,0,0,0.0,0,0,4,0,713,700,-0.0292,189.6255,6.8213,0.4212,54.882263,9.774117,108.3,5.845,1.85,335.95,54.895348,9.797490,54.885063,9.774667
1389971268,0,0,0.0,0,0,4,0,713,700,-0.0292,189.6255,6.8213,0.4212,54.882263,9.774117,108.3,5.845,1.85,335.95,54.895348,9.797490,54.885063,9.774667
1389971268,0,0,0.0,0,0,4,0,713,700,-0.0292,189.6255,6.8213,0.4212,54.882263,9.774117,108.3,5.845,1.85,335.95,54.895348,9.797490,54.885063,9.774667
1389971268,0,0,0.0,0,0,4,0,713,700,-0.0292,189.6255,6.8213,0.4212,54.882263,9.774117,108.3,5.845,1.85,335.95,54.895348,9.797490,54.885063,9.774667
1389971269,0,0,0.0,0,0,4,0,713,700,-0.0292,189.6255,6.8213,0.4212,54.882263,9.774117,108.3,5.845,1.85,335.95,54.895348,9.797490,54.885063,9.774667
1389971269,0,0,0.0,0,0,4,0,713,700,-0.0292,189.6255,6.8213,0.4212,54.882263,9.774117,108.3,5.845,1.85,335.95,54.895348,9.797490,54.885063,9.774667
1389971269,0,0,0.0,0,0,4,0,713,700,-0.0292,189.6255,6.8213,0.4212,54.882263,9.774117,108.3,5.845,1.85,335.95,54.895348,9.797490,54.885063,9.774667
1389971269,0,0,0.0,0,0,4,0,713,700,-0.0292,189.6255,6.8213,0.4212,54.882263,9.774117,108.3,5.845,1.85,335.95,54.895348,9.797490,54.885063,9.774667
1389971270,0,0,0.0,0,0,4,0,713,700,-0.0292,189.6255,6.8213,0.4212,54.882263,9.774117,108.3,5.845,1.85,335.95,54.895348,9.797490,54.885063,9.774667
1389971270,0,0,0.0,0,0,4,0,713,700,-0.0292,189.6255,6.8213,0.4212,54.882263,9.774117,108.3,5.845,1.85,335.95,54.895348,9.797490,54.885063,9.774667
1389971270,0,0,0.0,0,0,4,0,713,700,-0.0292,189.6255,6.8213,0.4212,54.882263,9.774117,108.3,5.845,1.85,335.95,54.895348,9.797490,54.885063,9.774667
1389971270,0,0,0.0,0,0,4,0,713,700,-0.0292,189.6255,6.8213,0.4212,54.882263,9.774117,108.3,5.845,1.85,335.95,54.895348,9.797490,54.885063,9.774667
1389971271,0,0,0.0,0,0,4,0,713,700,-0.0292,189.6255,6.8213,0.4212,54.882263,9.774117,108.3,5.845,1.85,335.95,54.895348,9.797490,54.885063,9.774667
1389971271,0,0,0.0,0,0,4,0,713,700,-0.0292,189.6255,6.8213,0.4212,54.882263,9.774117,108.3,5.845,1.85,335.95,54.895348,9.797490,54.885063,9.774667
1389971271,0,0,0.0,0,0,4,0,713,700,-0.0292,189.6255,6.8213,0.4212,54.882263,9.774117,108.3,5.845,1.85,335.95,54.895348,9.797490,54.885063,9.774667
1389971271,0,0,0.0,0,0,4,0,713,700,-0.0292,189.6255,6.8213,0.4212,54.882263,9.774117,108.3,5.845,1.85,335.95,54.895348,9.797490,54.885063,9.774667
1389971272,0,0,0.0,0,0,4,0,713,700,-0.0292,189.6255,6.8213,0.4212,54.882263,9.774117,108.3,5.845,1.85,335.95,54.895348,9.797490,54.885063,9.774667
1389971272,0,0,0.0,0,0,4,0,713,700,-0.0292,189.6255,6.8213,0.4212,54.882263,9.774117,108.3,5.845,1.85,335.95,54.895348,9.797490,54.885063,9.774667
1389971272,0,0,0.0,0,0,4,0,713,700,-0.0292,189.6255,6.8213,0.4212,54.882263,9.774117,108.3,5.845,1.85,335.95,54.895348,9.797490,54.885063,9.774667
1389971272,0,0,0.0,0,0,4,0,713,700,-0.0292,189.6255,6.8213,0.4212,54.882263,9.774117,108.3,5.845,1.85,335.95,54.895348,9.797490,54.885063,9.774667
1389971273,0,0,0.0,0,0,4,0,713,700,-0.0292,189.6255,6.8213,0.4212,54.882263,9.774117,108.3,5.845,1.85,335.95,54.895348,9.797490,54.885063,9.774667
1389971273,0,0,0.0,0,0,4,0,713,700,-0.0292,189.6255,6.8213,0.4212,54.882263,9.774117,108.3,5.845,1.85,335.95,54.895348,9.797490,54.885063,9.774667
1389971273,0,0,0.0,0,0,4,0,713,700,-0.0292,189.6255,6.8213,0.4212,54.882263,9.774117,108.3,5.845,1.85,335.95,54.895348,9.797490,54.885063,9.774667
1389971273,0,0,0.0,0,0,4,0,713,700,-0.0292,189.6255,6.8213,0.4212,54.882263,9.774117,108.3,5.845,1.85,335.95,54.895348,9.797490,54.885063,9.774667
1389971274,0,0,0.0,0,0,4,0,713,700,-0.0292,189.6255,6.8213,0.4212,54.882263,9.774117,108.3,5.845,1.85,335.95,54.895348,9.797490,54.885063,9.774667
1389971274,0,0,0.0,0,0,4,0,713,700,-0.0292,189.6255,6.8213,0.4212,54.882263,9.774117,108.3,5.845,1.85,335.95,54.895348,9.797490,54.885063,9.774667
1389971274,0,0,0.0,0,0,4,0,713,700,-0.0292,189.6255,6.8213,0.4212,54.882263,9.774117,108.3,5.845,1.85,335.95,54.895348,9.797490,54.885063,9.774667
1389971274,0,0,0.0,0,0,4,0,713,700,-0.0292,189.6255,6.8213,0.4212,54.882263,9.774117,108.3,5.845,1.85,335.95,54.895348,9.797490,54.885063,9.774667
1389971275,0,0,0.0,0,0,4,0,713,700,-0.0292,189.6255,6.8213,0.4212,54.882263,9.774117,108.3,5.845,1.85,335.95,54.895348,9.797490,54.885063,9.774667
1389971275,0,0,0.0,0,0,4,0,713,700,-0.0292,189.6255,6.8213,0.4212,54.882263,9.774117,108.3,5.845,1.85,335.95,54.895348,9.797490,54.885063,9.774667
1389971275,0,0,0.0,0,0,4,0,713,700,-0.0292,189.6255,6.8213,0.4212,54.882263,9.774117,108.3,5.845,1.85,335.95,54.895348,9.797490,54.885063,9.774667
1389971275,0,0,0.0,0,0,4,0,713,700,-0.0292,189.6255,6.8213,0.4212,54.882263,9.774117,108.3,5.845,1.85,335.95,54.895348,9.797490,54.885063,9.774667
1389971276,0,0,0.0,0,0,4,0,713,700,-0.0292,189.6255,6.8213,0.4212,54.882263,9.774117,108.3,5.845,1.85,335.95,54.895348,9.797490,54.885063,9.774667
1389971276,0,0,0.0,0,0,4,0,713,700,-0.0292,189.6255,6.8213,0.4212,54.882263,9.774117,108.3,5.845,1.85,335.95,54.895348,9.797490,54.885063,9.774667
1389971276,0,0,0.0,0,0,4,0,713,700,-0.0292,189.6255,6.8213,0.4212,54.882263,9.774117,108.3,5.845,1.85,335.95,54.895348,9.797490,54.885063,9.774667
1389971276,0,0,0.0,0,0,4,0,713,700,-0.0292,189.6255,6.8213,0.4212,54.882263,9.774117,108.3,5.845,1.85,335.95,54.895348,9.797490,54.885063,9.774667
1389971277,0,0,0.0,0,0,4,0,713,700,-0.0292,189.6255,6.8213,0.4212,54.882263,9.774117,108.3,5.845,1.85,335.95,54.895348,9.797490,54.885063,9.774667
1389971277,0,0,0.0,0,0,4,0,713,700,-0.0292,189.6255,6.8213,0.4212,54.882263,9.774117,108.3,5.845,1.85,335.95,54.895348,9.797490,54.885063,9.774667
1389971277,0,0,0.0,0,0,4,0,713,700,-0.0292,189.6255,6.8213,0.4212,54.882263,9.774117,108.3,5.845,1.85,335.95,54.895348,9.797490,54.885063,9.774667
1389971277,0,0,0.0,0,0,4,0,713,700,-0.0292,189.6255,6.8213,0.4212,54.882263,9.774117,108.3,5.845,1.85,335.95,54.895348,9.797490,54.885063,9.774667
1389971278,0,0,0.0,0,0,4,0,713,700,-0.0292,189.6255,6.8213,0.4212,54.882263,9.774117,108.3,5.845,1.85,335.95,54.895348,9.797490,54.885063,9.774667
1389971278,0,0,0.0,0,0,4,0,713,700,-0.0292,189.6255,6.8213,0.4212,54.882263,9.774117,108.3,5.845,1.85,335.95,54.895348,9.797490,54.885063,9.774667
1389971278,0,0,0.0,0,0,4,0,713,700,-0.0292,189.6255,6.8213,0.4212,54.882263,9.774117,108.3,5.845,1.85,335.95,54.895348,9.797490,54.885063,9.774667
1389971278,0,0,0.0,0,0,4,0,713,700,-0.0292,189.6255,6.8213,0.4212,54.882263,9.774117,108.3,5.845,1.85,335.95,54.895348,9.797490,54.885063,9.774667
1389971279,0,0,0.0,0,0,4,0,713,700,-0.0292,189.6255,6.8213,0.4212,54.882263,9.774117,108.3,5.845,1.85,335.95,54.895348,9.797490,54.885063,9.774667
1389971279,0,0,0.0,0,0,4,0,713,700,-0.0292,189.6255,6.8213,0.4212,54.882263,9.774117,108.3,5.845,1.85,335.95,54.895348,9.797490,54.885063,9.774667
1389971279,0,0,0.0,0,0,4,0,713,700,-0.0292,189.6255,6.8213,0.4212,54.882263,9.774117,108.3,5.845,1.85,335.95,54.895348,9.797490,54.885063,9.774667
1389971279,0,0,0.0,0,0,4,0,713,700,-0.0292,189.6255,6.8213,0.4212,54.882263,9.774117,108.3,5.845,1.85,335.95,54.895348,9.797490,54.885063,9.774667
1389971280,0,0,0.0,0,0,4,0,713,700,-0.0292,189.6255,6.8213,0.4212,54.882263,9.774117,108.3,5.845,1.85,335.95,54.895348,9.797490,54.885063,9.774667
1389971280,0,0,0.0,0,0,4,0,713,700,-0.0292,189.6255,6.8213,0.4212,54.882263,9.774117,108.3,5.845,1.85,335.95,54.895348,9.797490,54.885063,9.774667
1389971280,0,0,0.0,0,0,4,0,713,700,-0.0292,189.6255,6.8213,0.4212,54.882263,9.774117,108.3,5.845,1.85,335.95,54.895348,9.797490,54.885063,9.774667
1389971280,0,0,0.0,0,0,4,0,713,700,-0.0292,189.6255,6.8213,0.4212,54.882263,9.774117,108.3,5.845,1.85,335.95,54.895348,9.797490,54.885063,9.774667
1389971281,0,0,0.0,0,0,4,0,713,700,-0.0292,189.6255,6.8213,0.4212,54.882263,9.774117,108.3,5.845,1.85,335.95,54.895348,9.797490,54.885063,9.774667
1389971281,0,0,0.0,0,0,4,0,713,700,-0.0292,189.6255,6.8213,0.4212,54.882263,9.774117,108.3,5.845,1.85,335.95,54.895348,9.797490,54.885063,9.774667
1389971281,0,0,0.0,0,0,4,0,713,700,-0.0292,189.6255,6.8213,0.4212,54.882263,9.774117,108.3,5.845,1.85,335.95,54.895348,9.797490,54.885063,9.774667
1389971281,0,0,0.0,0,0,4,0,713,700,-0.0292,189.6255,6.8213,0.4212,54.882263,9.774117,108.3,5.845,1.85,335.95,54.895348,9.797490,54.885063,9.774667
1389971282,0,0,0.0,0,0,4,0,713,700,-0.0292,189.6255,6.8213,0.4212,54.882263,9.774117,108.3,5.845,1.85,335.95,54.895348,9.797490,54.885063,9.774667
1389971282,0,0,0.0,0,0,4,0,713,700,-0.0292,189.6255,6.8213,0.4212,54.882263,9.774117,108.3,5.845,1.85,335.95,54.895348,9.797490,54.885063,9.774667
1389971282,0,0,0.0,0,0,4,0,713,700,-0.0292,189.6255,6.8213,0.4212,54.882263,9.774117,108.3,5.845,1.85,335.95,54.895348,9.797490,54.885063,9.774667
1389971282,0,0,0.0,0,0,4,0,713,700,-0.0292,189.6255,6.8213,0.4212,54.882263,9.774117,108.3,5.845,1.85,335.95,54.895348,9.797490,54.885063,9.774667
1389971283,0,0,0.0,0,0,4,0,713,700,-0.0292,189.6255,6.8213,0.4212,54.882263,9.774117,108.3,5.845,1.85,335.95,54.895348,9.797490,54.885063,9.774667
1389971283,0,0,0.0,0,0,4,0,713,700,-0.0292,189.6255,6.8213,0.4212,54.882263,9.774117,108.3,5.845,1.85,335.95,54.895348,9.797490,54.885063,9.774667
1389971283,0,0,0.0,0,0,4,0,713,700,-0.0292,189.6255,6.8213,0.4212,54.882263,9.774117,108.3,5.845,1.85,335.95,54.895348,9.797490,54.885063,9.774667
1389971283,0,0,0.0,0,0,4,0,713,700,-0.0292,189.6255,6.8213,0.4212,54.882263,9.774117,108.3,5.845,1.85,335.95,54.895348,9.797490,54.885063,9.774667
1389971284,0,0,0.0,0,0,4,0,713,700,-0.0292,189.6255,6.8213,0.4212,54.882263,9.774117,108.3,5.845,1.85,335.95,54.895348,9.797490,54.885063,9.774667
1389971284,0,0,0.0,0,0,4,0,713,700,-0.0292,189.6255,6.8213,0.4212,54.882263,9.774117,108.3,5.845,1.85,335.95,54.895348,9.797490,54.885063,9.774667
1389971284,0,0,0.0,0,0,4,0,713,700,-0.0292,189.6255,6.8213,0.4212,54.882263,9.774117,108.3,5.845,1.85,335.95,54.895348,9.797490,54.885063,9.774667
1389971284,0,0,0.0,0,0,4,0,713,700,-0.0292,189.6255,6.8213,0.4212,54.882263,9.774117,108.3,5.845,1.85,335.95,54.895348,9.797490,54.885063,9.774667
1389971285,0,0,0.0,0,0,4,0,713,700,-0.0292,189.6255,6.8213,0.4212,54.882263,9.774117,108.3,5.845,1.85,335.95,54.895348,9.797490,54.885063,9.774667
1389971285,0,0,0.0,0,0,4,0,713,700,-0.0292,189.6255,6.8213,0.4212,54.882263,9.774117,108.3,5.845,1.85,335.95,54.895348,9.797490,54.885063,9.774667
1389971285,0,0,0.0,0,0,4,0,713,700,-0.0292,189.6255,6.8213,0.4212,54.882263,9.774117,108.3,5.845,1.85,335.95,54.895348,9.797490,54.885063,9.774667
1389971285,0,0,0.0,0,0,4,0,713,700,-0.0292,189.6255,6.8213,0.4212,54.882263,9.774117,108.3,5.845,1.85,335.95,54.895348,9.797490,54.885063,9.774667
1389971286,0,0,0.0,0,0,4,0,713,700,-0.0292,189.6255,6.8213,0.4212,54.882263,9.774117,108.3,5.845,1.85,335.95,54.895348,9.797490,54.885063,9.774667
1389971286,0,0,0.0,0,0,4,0,713,700,-0.0292,189.6255,6.8213,0.4212,54.882263,9.774117,108.3,5.845,1.85,335.95,54.895348,9.797490,54.885063,9.774667
1389971286,0,0,0.0,0,0,4,0,713,700,-0.0292,189.6255,6.8213,0.4212,54.882263,9.774117,108.3,5.845,1.85,335.95,54.895348,9.797490,54.885063,9.774667
1389971286,0,0,0.0,0,0,4,0,713,700,-0.0292,189.6255,6.8213,0.4212,54.882263,9.774117,108.3,5.845,1.85,335.95,54.895348,9.797490,54.885063,9.774667
1389971287,0,0,0.0,0,0,4,0,713,700,-0.0292,189.6255,6.8213,0.4212,54.882263,9.774117,108.3,5.845,1.85,335.95,54.895348,9.797490,54.885063,9.774667
1389971287,0,0,0.0,0,0,4,0,713,700,-0.0292,189.6255,6.8213,0.4212,54.882263,9.774117,108.3,5.845,1.85,335.95,54.895348,9.797490,54.885063,9.774667
1389971287,0,0,0.0,0,0,4,0,713,700,-0.0292,189.6255,6.8213,0.4212,54.882263,9.774117,108.3,5.845,1.85,335.95,54.895348,9.797490,54.885063,9.774667
1389971287,0,0,0.0,0,0,4,0,713,700,-0.0292,189.6255,6.8213,0.4212,54.882263,9.774117,108.3,5.845,1.85,335.95,54.895348,9.797490,54.885063,9.774667
1389971288,0,0,0.0,0,0,4,0,713,700,-0.0292,189.6255,6.8213,0.4212,54.882263,9.774117,108.3,5.845,1.85,335.95,54.895348,9.797490,54.885063,9.774667
1389971288,0,0,0.0,0,0,4,0,713,700,-0.0292,189.6255,6.8213,0.4212,54.882263,9.774117,108.3,5.845,1.85,335.95,54.895348,9.797490,54.885063,9.774667
1389971288,0,0,0.0,0,0,4,0,713,700,-0.0292,189.6255,6.8213,0.4212,54.882263,9.774117,108.3,5.845,1.85,335.95,54.895348,9.797490,54.885063,9.774667
1389971288,0,0,0.0,0,0,4,0,713,700,-0.0292,189.6255,6.8213,0.4212,54.882263,9.774117,108.3,5.845,1.85,335.95,54.895348,9.797490,54.885063,9.774667
1389971289,0,0,0.0,0,0,4,0,713,700,-0.0292,189.6255,6.8213,0.4212,54.882263,9.774117,108.3,5.845,1.85,335.95,54.895348,9.797490,54.885063,9.774667
1389971289,0,0,0.0,0,0,4,0,713,700,-0.0292,189.6255,6.8213,0.4212,54.882263,9.774117,108.3,5.845,1.85,335.95,54.895348,9.797490,54.885063,9.774667
1389971289,0,0,0.0,0,0,4,0,713,700,-0.0292,189.6255,6.8213,0.4212,54.882263,9.774117,108.3,5.845,1.85,335.95,54.895348,9.797490,54.885063,9.774667
1389971289,0,0,0.0,0,0,4,0,713,700,-0.0292,189.6255,6.8213,0.4212,54.882263,9.774117,108.3,5.845,1.85,335.95,54.895348,9.797490,54.885063,9.774667
1389971290,0,0,0.0,0,0,4,0,713,700,-0.0292,189.6255,6.8213,0.4212,54.882263,9.774117,108.3,5.845,1.85,335.95,54.895348,9.797490,54.885063,9.774667
1389971290,0,0,0.0,0,0,4,0,713,700,-0.0292,189.6255,6.8213,0.4212,54.882263,9.774117,108.3,5.845,1.85,335.95,54.895348,9.797490,54.885063,9.774667
1389971290,0,0,0.0,0,0,4,0,713,700,-0.0292,189.6255,6.8213,0.4212,54.882263,9.774117,108.3,5.845,1.85,335.95,54.895348,9.797490,54.885063,9.774667
1389971290,0,0,0.0,0,0,4,0,713,700,-0.0292,189.6255,6.8213,0.4212,54.882263,9.774117,108.3,5.845,1.85,335.95,54.895348,9.797490,54.885063,9.774667
1389971291,0,0,0.0,0,0,4,0,713,700,-0.0292,189.6255,6.8213,0.4212,54.882263,9.774117,108.3,5.845,1.85,335.95,54.895348,9.797490,54.885063,9.774667
1389971291,0,0,0.0,0,0,4,0,713,700,-0.0292,189.6255,6.8213,0.4212,54.882263,9.774117,108.3,5.845,1.85,335.95,54.895348,9.797490,54.885063,9.774667
1389971291,0,0,0.0,0,0,4,0,713,700,-0.0292,189.6255,6.8213,0.4212,54.882263,9.774117,108.3,5.845,1.85,335.95,54.895348,9.797490,54.885063,9.774667
1389971291,0,0,0.0,0,0,4,0,713,700,-0.0292,189.6255,6.8213,0.4212,54.882263,9.774117,108.3,5.845,1.85,335.95,54.895348,9.797490,54.885063,9.774667
1389971292,0,0,0.0,0,0,4,0,713,700,-0.0292,189.6255,6.8213,0.4212,54.882263,9.774117,108.3,5.845,1.85,335.95,54.895348,9.797490,54.885063,9.774667
1389971292,0,0,0.0,0,0,4,0,713,700,-0.0292,189.6255,6.8213,0.4212,54.882263,9.774117,108.3,5.845,1.85,335.95,54.895348,9.797490,54.885063,9.774667
1389971292,0,0,0.0,0,0,4,0,713,700,-0.0292,189.6255,6.8213,0.4212,54.882263,9.774117,108.3,5.845,1.85,335.95,54.895348,9.797490,54.885063,9.774667
1389971292,0,0,0.0,0,0,4,0,713,700,-0.0292,189.6255,6.8213,0.4212,54.882263,9.774117,108.3,5.845,1.85,335.95,54.895348,9.797490,54.885063,9.774667
1389971293,0,0,0.0,0,0,4,0,713,700,-0.0292,189.6255,6.8213,0.4212,54.882263,9.774117,108.3,5.845,1.85,335.95,54.895348,9.797490,54.885063,9.774667
1389971293,0,0,0.0,0,0,4,0,713,700,-0.0292,189.6255,6.8213,0.4212,54.882263,9.774117,108.3,5.845,1.85,335.95,54.895348,9.797490,54.885063,9.774667
1389971293,0,0,0.0,0,0,4,0,713,700,-0.0292,189.6255,6.8213,0.4212,54.882263,9.774117,108.3,5.845,1.85,335.95,54.895348,9.797490,54.885063,9.774667
1389971293,0,0,0.0,0,0,4,0,713,700,-0.0292,189.6255,6.8213,0.4212,54.882263,9.774117,108.3,5.845,1.85,335.95,54.895348,9.797490,54.885063,9.774667
1389971294,0,0,0.0,0,0,4,0,713,700,-0.0292,189.6255,6.8213,0.4212,54.882263,9.774117,108.3,5.845,1.85,335.95,54.895348,9.797490,54.885063,9.774667
1389971294,0,0,0.0,0,0,4,0,713,700,-0.0292,189.6255,6.8213,0.4212,54.882263,9.774117,108.3,5.845,1.85,335.95,54.895348,9.797490,54.885063,9.774667
1389971294,0,0,0.0,0,0,4,0,713,700,-0.0292,189.6255,6.8213,0.4212,54.882263,9.774117,108.3,5.845,1.85,335.95,54.895348,9.797490,54.885063,9.774667
1389971294,0,0,0.0,0,0,4,0,713,700,-0.0292,189.6255,6.8213,0.4212,54.882263,9.774117,108.3,5.845,1.85,335.95,54.895348,9.797490,54.885063,9.774667
1389971295,0,0,0.0,0,0,4,0,713,700,-0.0292,189.6255,6.8213,0.4212,54.882263,9.774117,108.3,5.845,1.85,335.95,54.895348,9.797490,54.885063,9.774667
1389971295,0,0,0.0,0,0,4,0,713,700,-0.0292,189.6255,6.8213,0.4212,54.882263,9.774117,108.3,5.845,1.85,335.95,54.895348,9.797490,54.885063,9.774667
1389971295,0,0,0.0,0,0,4,0,713,700,-0.0292,189.6255,6.8213,0.4212,54.882263,9.774117,108.3,5.845,1.85,335.95,54.895348,9.797490,54.885063,9.774667
1389971295,0,0,0.0,0,0,4,0,713,700,-0.0292,189.6255,6.8213,0.4212,54.882263,9.774117,108.3,5.845,1.85,335.95,54.895348,9.797490,54.885063,9.774667
1389971296,0,0,0.0,0,0,4,0,713,700,-0.0292,189.6255,6.8213,0.4212,54.882263,9.774117,108.3,5.845,1.85,335.95,54.895348,9.797490,54.885063,9.774667
1389971296,0,0,0.0,0,0,4,0,713,700,-0.0292,189.6255,6.8213,0.4212,54.882263,9.774117,108.3,5.845,1.85,335.95,54.895348,9.797490,54.885063,9.774667
1389971296,0,0,0.0,0,0,4,0,713,700,-0.0292,189.6255,6.8213,0.4212,54.882263,9.774117,108.3,5.845,1.85,335.95,54.895348,9.797490,54.885063,9.774667
1389971296,0,0,0.0,0,0,4,0,713,700,-0.0292,189.6255,6.8213,0.4212,54.882263,9.774117,108.3,5.845,1.85,335.95,54.895348,9.797490,54.885063,9.774667
1389971297,0,0,0.0,0,0,4,0,713,700,-0.0292,189.6255,6.8213,0.4212,54.882263,9.774117,108.3,5.845,1.85,335.95,54.895348,9.797490,54.885063,9.774667
1389971297,0,0,0.0,0,0,4,0,713,700,-0.0292,189.6255,6.8213,0.4212,54.882263,9.774117,108.3,5.845,1.85,335.95,54.895348,9.797490,54.885063,9.774667
1389971297,0,0,0.0,0,0,4,0,713,700,-0.0292,189.6255,6.8213,0.4212,54.882263,9.774117,108.3,5.845,1.85,335.95,54.895348,9.797490,54.885063,9.774667
1389971297,0,0,0.0,0,0,4,0,713,700,-0.0292,189.6255,6.8213,0.4212,54.882263,9.774117,108.3,5.845,1.85,335.95,54.895348,9.797490,54.885063,9.774667
1389971298,0,0,0.0,0,0,4,0,713,700,-0.0292,189.6255,6.8213,0.4212,54.882263,9.774117,108.3,5.845,1.85,335.95,54.895348,9.797490,54.885063,9.774667
1389971298,0,0,0.0,0,0,4,0,713,700,-0.0292,189.6255,6.8213,0.4212,54.882263,9.774117,108.3,5.845,1.85,335.95,54.895348,9.797490,54.885063,9.774667
1389971298,0,0,0.0,0,0,4,0,713,700,-0.0292,189.6255,6.8213,0.4212,54.882263,9.774117,108.3,5.845,1.85,335.95,54.895348,9.797490,54.885063,9.774667
1389971298,0,0,0.0,0,0,4,0,713,700,-0.0292,189.6255,6.8213,0.4212,54.882263,9.774117,108.3,5.845,1.85,335.95,54.895348,9.797490,54.885063,9.774667
1389971299,0,0,0.0,0,0,4,0,713,700,-0.0292,189.6255,6.8213,0.4212,54.882263,9.774117,108.3,5.845,1.85,335.95,54.895348,9.797490,54.885063,9.774667
1389971299,0,0,0.0,0,0,4,0,713,700,-0.0292,189.6255,6.8213,0.4212,54.882263,9.774117,108.3,5.845,1.85,335.95,54.895348,9.797490,54.885063,9.774667
1389971299,0,0,0.0,0,0,4,0,713,700,-0.0292,189.6255,6.8213,0.4212,54.882263,9.774117,108.3,5.845,1.85,335.95,54.895348,9.797490,54.885063,9.774667
1389971299,0,0,0.0,0,0,4,0,713,700,-0.0292,189.6255,6.8213,0.4212,54.882263,9.774117,108.3,5.845,1.85,335.95,54.895348,9.797490,54.885063,9.774667
1389971300,0,0,0.0,0,0,4,0,713,700,-0.0292,189.6255,6.8213,0.4212,54.882263,9.774117,108.3,5.845,1.85,335.95,54.895348,9.797490,54.885063,9.774667
1389971300,0,0,0.0,0,0,4,0,713,700,-0.0292,189.6255,6.8213,0.4212,54.882263,9.774117,108.3,5.845,1.85,335.95,54.895348,9.797490,54.885063,9.774667
1389971300,0,0,0.0,0,0,4,0,713,700,-0.0292,189.6255,6.8213,0.4212,54.882263,9.774117,108.3,5.845,1.85,335.95,54.895348,9.797490,54.885063,9.774667
1389971300,0,0,0.0,0,0,4,0,713,700,-0.0292,189.6255,6.8213,0.4212,54.882263,9.774117,108.3,5.845,1.85,335.95,54.895348,9.797490,54.885063,9.774667
1389971301,0,0,0.0,0,0,4,0,713,700,-0.0292,189.6255,6.8213,0.4212,54.882263,9.774117,108.3,5.845,1.85,335.95,54.895348,9.797490,54.885063,9.774667
1389971301,0,0,0.0,0,0,4,0,713,700,-0.0292,189.6255,6.8213,0.4212,54.882263,9.774117,108.3,5.845,1.85,335.95,54.895348,9.797490,54.885063,9.774667
1389971301,0,0,0.0,0,0,4,0,713,700,-0.0292,189.6255,6.8213,0.4212,54.882263,9.774117,108.3,5.845,1.85,335.95,54.895348,9.797490,54.885063,9.774667
1389971301,0,0,0.0,0,0,4,0,713,700,-0.0292,189.6255,6.8213,0.4212,54.882263,9.774117,108.3,5.845,1.85,335.95,54.895348,9.797490,54.885063,9.774667
1389971302,0,0,0.0,0,0,4,0,713,700,-0.0292,189.6255,6.8213,0.4212,54.882263,9.774117,108.3,5.845,1.85,335.95,54.895348,9.797490,54.885063,9.774667
1389971302,0,0,0.0,0,0,4,0,713,700,-0.0292,189.6255,6.8213,0.4212,54.882263,9.774117,108.3,5.845,1.85,335.95,54.895348,9.797490,54.885063,9.774667
1389971302,0,0,0.0,0,0,4,0,713,700,-0.0292,189.6255,6.8213,0.4212,54.882263,9.774117,108.3,5.845,1.85,335.95,54.895348,9.797490,54.885063,9.774667
1389971302,0,0,0.0,0,0,4,0,713,700,-0.0292,189.6255,6.8213,0.4212,54.882263,9.774117,108.3,5.845,1.85,335.95,54.895348,9.797490,54.885063,9.774667
1389971303,0,0,0.0,0,0,4,0,713,700,-0.0292,189.6255,6.8213,0.4212,54.882263,9.774117,108.3,5.845,1.85,335.95,54.895348,9.797490,54.885063,9.774667
1389971303,0,0,0.0,0,0,4,0,713,700,-0.0292,189.6255,6.8213,0.4212,54.882263,9.774117,108.3,5.845,1.85,335.95,54.895348,9.797490,54.885063,9.774667
1389971303,0,0,0.0,0,0,4,0,713,700,-0.0292,189.6255,6.8213,0.4212,54.882263,9.774117,108.3,5.845,1.85,335.95,54.895348,9.797490,54.885063,9.774667
1389971303,0,0,0.0,0,0,4,0,713,700,-0.0292,189.6255,6.8213,0.4212,54.882263,9.774117,108.3,5.845,1.85,335.95,54.895348,9.797490,54.885063,9.774667
1389971304,0,0,0.0,0,0,4,0,713,700,-0.0292,189.6255,6.8213,0.4212,54.882263,9.774117,108.3,5.845,1.85,335.95,54.895348,9.797490,54.885063,9.774667
1389971304,0,0,0.0,0,0,4,0,713,700,-0.0292,189.6255,6.8213,0.4212,54.882263,9.774117,108.3,5.845,1.85,335.95,54.895348,9.797490,54.885063,9.774667
1389971304,0,0,0.0,0,0,4,0,713,700,-0.0292,189.6255,6.8213,0.4212,54.882263,9.774117,108.3,5.845,1.85,335.95,54.895348,9.797490,54.885063,9.774667
1389971304,0,0,0.0,0,0,4,0,713,700,-0.0292,189.6255,6.8213,0.4212,54.882263,9.774117,108.3,5.845,1.85,335.95,54.895348,9.797490,54.885063,9.774667
1389971305,0,0,0.0,0,0,4,0,713,700,-0.0292,189.6255,6.8213,0.4212,54.882263,9.774117,108.3,5.845,1.85,335.95,54.895348,9.797490,54.885063,9.774667
1389971305,0,0,0.0,0,0,4,0,713,700,-0.0292,189.6255,6.8213,0.4212,54.882263,9.774117,108.3,5.845,1.85,335.95,54.895348,9.797490,54.885063,9.774667
1389971305,0,0,0.0,0,0,4,0,713,700,-0.0292,189.6255,6.8213,0.4212,54.882263,9.774117,108.3,5.845,1.85,335.95,54.895348,9.797490,54.885063,9.774667
1389971305,0,0,0.0,0,0,4,0,713,700,-0.0292,189.6255,6.8213,0.4212,54.882263,9.774117,108.3,5.845,1.85,335.95,54.895348,9.797490,54.885063,9.774667
1389971306,0,0,0.0,0,0,4,0,713,700,-0.0292,189.6255,6.8213,0.4212,54.882263,9.774117,108.3,5.845,1.85,335.95,54.895348,9.797490,54.885063,9.774667
1389971306,0,0,0.0,0,0,4,0,713,700,-0.0292,189.6255,6.8213,0.4212,54.882263,9.774117,108.3,5.845,1.85,335.95,54.895348,9.797490,54.885063,9.774667
1389971306,0,0,0.0,0,0,4,0,713,700,-0.0292,189.6255,6.8213,0.4212,54.882263,9.774117,108.3,5.845,1.85,335.95,54.895348,9.797490,54.885063,9.774667
1389971306,0,0,0.0,0,0,4,0,713,700,-0.0292,189.6255,6.8213,0.4212,54.882263,9.774117,108.3,5.845,1.85,335.95,54.895348,9.797490,54.885063,9.774667
1389971307,0,0,0.0,0,0,4,0,713,700,-0.0292,189.6255,6.8213,0.4212,54.882263,9.774117,108.3,5.845,1.85,335.95,54.895348,9.797490,54.885063,9.774667
1389971307,0,0,0.0,0,0,4,0,713,700,-0.0292,189.6255,6.8213,0.4212,54.882263,9.774117,108.3,5.845,1.85,335.95,54.895348,9.797490,54.885063,9.774667
1389971307,0,0,0.0,0,0,4,0,713,700,-0.0292,189.6255,6.8213,0.4212,54.882263,9.774117,108.3,5.845,1.85,335.95,54.895348,9.797490,54.885063,9.774667
1389971307,0,0,0.0,0,0,4,0,713,700,-0.0292,189.6255,6.8213,0.4212,54.882263,9.774117,108.3,5.845,1.85,335.95,54.895348,9.797490,54.885063,9.774667
1389971308,0,0,0.0,0,0,4,0,713,700,-0.0292,189.6255,6.8213,0.4212,54.882263,9.774117,108.3,5.845,1.85,335.95,54.895348,9.797490,54.885063,9.774667
1389971308,0,0,0.0,0,0,4,0,713,700,-0.0292,189.6255,6.8213,0.4212,54.882263,9.774117,108.3,5.845,1.85,335.95,54.895348,9.797490,54.885063,9.774667
1389971308,0,0,0.0,0,0,4,0,713,700,-0.0292,189.6255,6.8213,0.4212,54.882263,9.774117,108.3,5.845,1.85,335.95,54.895348,9.797490,54.885063,9.774667
1389971308,0,0,0.0,0,0,4,0,713,700,-0.0292,189.6255,6.8213,0.4212,54.882263,9.774117,108.3,5.845,1.85,335.95,54.895348,9.797490,54.885063,9.774667
1389971309,0,0,0.0,0,0,4,0,713,700,-0.0292,189.6255,6.8213,0.4212,54.882263,9.774117,108.3,5.845,1.85,335.95,54.895348,9.797490,54.885063,9.774667
1389971309,0,0,0.0,0,0,4,0,713,700,-0.0292,189.6255,6.8213,0.4212,54.882263,9.774117,108.3,5.845,1.85,335.95,54.895348,9.797490,54.885063,9.774667
1389971309,0,0,0.0,0,0,4,0,713,700,-0.0292,189.6255,6.8213,0.4212,54.882263,9.774117,108.3,5.845,1.85,335.95,54.895348,9.797490,54.885063,9.774667
1389971309,0,0,0.0,0,0,4,0,713,700,-0.0292,189.6255,6.8213,0.4212,54.882263,9.774117,108.3,5.845,1.85,335.95,54.895348,9.797490,54.885063,9.774667
1389971310,0,0,0.0,0,0,4,0,713,700,-0.0292,189.6255,6.8213,0.4212,54.882263,9.774117,108.3,5.845,1.85,335.95,54.895348,9.797490,54.885063,9.774667
1389971310,0,0,0.0,0,0,4,0,713,700,-0.0292,189.6255,6.8213,0.4212,54.882263,9.774117,108.3,5.845,1.85,335.95,54.895348,9.797490,54.885063,9.774667
