MCU_timestamp,Navigation_System,Manual_Control,Guidance_Heading,Manual_Ctrl_Rudder,Rudder_Desired_Angle,Rudder_Feedback,Manual_Ctrl_Sail,Sail_Desired_Pos,Sail_Feedback,Rate,Heading,Pitch,Roll,Latitude,Longitude,COG,SOG,Wind_Speed,Wind_Angle,Point_Start_Lat,Point_Start_Lon,Point_End_Lat,Point_End_Lon
1386769573,0,0,0.0,0,0,4,0,0,0,-0.0292,125.4922,6.8213,0.4212,54.890411,9.793260,108.3,5.845,1.85,335.95,0.000000,0.000000,0.000000,0.000000
1386769574,0,0,0.0,0,0,4,0,0,0,-0.0292,125.4922,6.8213,0.4212,54.890411,9.793260,108.3,5.845,1.85,335.95,0.000000,0.000000,0.000000,0.000000
1386769574,0,0,0.0,0,0,4,0,0,0,-0.0292,125.4922,6.8213,0.4212,54.890411,9.793260,108.3,5.845,1.85,335.95,0.000000,0.000000,0.000000,0.000000
1386769574,0,0,0.0,0,0,4,0,0,0,-0.0292,125.4922,6.8213,0.4212,54.890411,9.793260,108.3,5.845,1.85,335.95,0.000000,0.000000,0.000000,0.000000
1386769574,0,0,0.0,0,0,4,0,0,0,-0.0292,125.4922,6.8213,0.4212,54.890411,9.793260,108.3,5.845,1.85,335.95,0.000000,0.000000,0.000000,0.000000
1386769575,0,0,0.0,0,0,4,0,0,0,-0.0292,125.4922,6.8213,0.4212,54.890411,9.793260,108.3,5.845,1.85,335.95,0.000000,0.000000,0.000000,0.000000
1386769575,0,0,0.0,0,0,4,0,0,0,-0.0292,125.4922,6.8213,0.4212,54.890411,9.793260,108.3,5.845,1.85,335.95,0.000000,0.000000,0.000000,0.000000
1386769575,0,0,0.0,0,0,4,0,0,0,-0.0292,125.4922,6.8213,0.4212,54.890411,9.793260,108.3,5.845,1.85,335.95,0.000000,0.000000,0.000000,0.000000
1386769575,0,0,0.0,0,0,4,0,0,0,-0.0292,125.4922,6.8213,0.4212,54.890411,9.793260,108.3,5.845,1.85,335.95,0.000000,0.000000,0.000000,0.000000
1386769576,0,0,0.0,0,0,4,0,0,0,-0.0292,125.4922,6.8213,0.4212,54.890411,9.793260,108.3,5.845,1.85,335.95,0.000000,0.000000,0.000000,0.000000
1386769576,0,0,0.0,0,0,4,0,0,0,-0.0292,125.4922,6.8213,0.4212,54.890411,9.793260,108.3,5.845,1.85,335.95,0.000000,0.000000,0.000000,0.000000
1386769576,0,0,0.0,0,0,4,0,0,0,-0.0292,125.4922,6.8213,0.4212,54.890411,9.793260,108.3,5.845,1.85,335.95,0.000000,0.000000,0.000000,0.000000
1386769576,0,0,0.0,0,0,4,0,0,0,-0.0292,125.4922,6.8213,0.4212,54.890411,9.793260,108.3,5.845,1.85,335.95,0.000000,0.000000,0.000000,0.000000
1386769577,0,0,0.0,0,0,4,0,0,0,-0.0292,125.4922,6.8213,0.4212,54.890411,9.793260,108.3,5.845,1.85,335.95,0.000000,0.000000,0.000000,0.000000
1386769577,0,0,0.0,0,0,4,0,0,0,-0.0292,125.4922,6.8213,0.4212,54.890411,9.793260,108.3,5.845,1.85,335.95,0.000000,0.000000,0.000000,0.000000
1386769577,0,0,0.0,0,0,4,0,0,0,-0.0292,125.4922,6.8213,0.4212,54.890411,9.793260,108.3,5.845,1.85,335.95,0.000000,0.000000,0.000000,0.000000
1386769577,0,0,0.0,0,0,4,0,0,0,-0.0292,125.4922,6.8213,0.4212,54.890411,9.793260,108.3,5.845,1.85,335.95,0.000000,0.000000,0.000000,0.000000
1386769578,0,0,0.0,0,0,4,0,0,0,-0.0292,125.4922,6.8213,0.4212,54.890411,9.793260,108.3,5.845,1.85,335.95,0.000000,0.000000,0.000000,0.000000
1386769578,0,0,0.0,0,0,4,0,0,0,-0.0292,125.4922,6.8213,0.4212,54.887352,9.794075,108.3,5.845,1.85,335.95,0.000000,0.000000,0.000000,0.000000
1386769578,0,0,0.0,0,0,4,0,0,0,-0.0292,125.4922,6.8213,0.4212,54.887352,9.794075,108.3,5.845,1.85,335.95,0.000000,0.000000,0.000000,0.000000
1386769578,0,0,0.0,0,0,4,0,0,0,-0.0292,125.4922,6.8213,0.4212,54.887352,9.794075,108.3,5.845,1.85,335.95,0.000000,0.000000,0.000000,0.000000
1386769579,0,0,0.0,0,0,4,0,0,0,-0.0292,125.4922,6.8213,0.4212,54.887352,9.794075,108.3,5.845,1.85,335.95,0.000000,0.000000,0.000000,0.000000
1386769579,0,0,0.0,0,0,4,0,0,0,-0.0292,125.4922,6.8213,0.4212,54.887352,9.794075,108.3,5.845,1.85,335.95,0.000000,0.000000,0.000000,0.000000
1386769579,0,0,0.0,0,0,4,0,0,0,-0.0292,125.4922,6.8213,0.4212,54.887352,9.794075,108.3,5.845,1.85,335.95,0.000000,0.000000,0.000000,0.000000
1386769579,0,0,0.0,0,0,4,0,0,0,-0.0292,125.4922,6.8213,0.4212,54.887352,9.794075,108.3,5.845,1.85,335.95,0.000000,0.000000,0.000000,0.000000
1386769580,0,0,0.0,0,0,4,0,0,0,-0.0292,125.4922,6.8213,0.4212,54.887352,9.794075,108.3,5.845,1.85,335.95,0.000000,0.000000,0.000000,0.000000
1386769580,0,0,0.0,0,0,4,0,0,0,-0.0292,125.4922,6.8213,0.4212,54.887352,9.794075,108.3,5.845,1.85,335.95,0.000000,0.000000,0.000000,0.000000
1386769580,0,0,0.0,0,0,4,0,0,0,-0.0292,125.4922,6.8213,0.4212,54.887352,9.794075,108.3,5.845,1.85,335.95,0.000000,0.000000,0.000000,0.000000
1386769580,0,0,0.0,0,0,4,0,0,0,-0.0292,125.4922,6.8213,0.4212,54.887352,9.794075,108.3,5.845,1.85,335.95,0.000000,0.000000,0.000000,0.000000
1386769581,0,0,0.0,0,0,4,0,0,0,-0.0292,125.4922,6.8213,0.4212,54.887352,9.794075,108.3,5.845,1.85,335.95,0.000000,0.000000,0.000000,0.000000
1386769581,0,0,0.0,0,0,4,0,0,0,-0.0292,125.4922,6.8213,0.4212,54.887352,9.794075,108.3,5.845,1.85,335.95,0.000000,0.000000,0.000000,0.000000
1386769581,0,0,0.0,0,0,4,0,0,0,-0.0292,125.4922,6.8213,0.4212,54.887352,9.794075,108.3,5.845,1.85,335.95,0.000000,0.000000,0.000000,0.000000
1386769581,0,0,0.0,0,0,4,0,0,0,-0.0292,125.4922,6.8213,0.4212,54.887352,9.794075,108.3,5.845,1.85,335.95,0.000000,0.000000,0.000000,0.000000
1386769582,0,0,0.0,0,0,4,0,0,0,-0.0292,125.4922,6.8213,0.4212,54.887352,9.794075,108.3,5.845,1.85,335.95,0.000000,0.000000,0.000000,0.000000
1386769582,0,0,0.0,0,0,4,0,0,0,-0.0292,125.4922,6.8213,0.4212,54.887352,9.794075,108.3,5.845,1.85,335.95,0.000000,0.000000,0.000000,0.000000
1386769582,0,0,0.0,0,0,4,0,0,0,-0.0292,125.4922,6.8213,0.4212,54.887352,9.794075,108.3,5.845,1.85,335.95,0.000000,0.000000,0.000000,0.000000
1386769582,0,0,0.0,0,0,4,0,0,0,-0.0292,125.4922,6.8213,0.4212,54.887352,9.794075,108.3,5.845,1.85,335.95,0.000000,0.000000,0.000000,0.000000
1386769583,0,0,0.0,0,0,4,0,0,0,-0.0292,125.4922,6.8213,0.4212,54.887352,9.794075,108.3,5.845,1.85,335.95,0.000000,0.000000,0.000000,0.000000
1386769583,0,0,0.0,0,0,4,0,0,0,-0.0292,125.4922,6.8213,0.4212,54.887352,9.794075,108.3,5.845,1.85,335.95,0.000000,0.000000,0.000000,0.000000
1386769583,4,0,0.0,0,0,4,0,0,0,-0.0292,125.4922,6.8213,0.4212,54.887352,9.794075,108.3,5.845,1.85,335.95,0.000000,0.000000,0.000000,0.000000
1386769583,1,0,390.9,0,35,8,0,291,275,-0.0292,116.1589,6.8213,0.4212,54.887344,9.794104,108.3,5.845,1.85,335.95,54.887352,9.794075,54.895069,9.793790
1386769584,1,0,390.9,0,35,12,0,291,300,-0.0292,106.8255,6.8213,0.4212,54.887341,9.794133,108.3,5.845,1.85,335.95,54.887352,9.794075,54.895069,9.793790
1386769584,1,0,390.9,0,35,16,0,494,325,-0.0292,97.4922,6.8213,0.4212,54.887341,9.794164,108.3,5.845,1.85,335.95,54.887352,9.794075,54.895069,9.793790
1386769584,1,0,390.9,0,35,20,0,480,350,-0.0292,88.1589,6.8213,0.4212,54.887341,9.794195,108.3,5.845,1.85,335.95,54.887352,9.794075,54.895069,9.793790
1386769584,1,0,390.9,0,35,24,0,456,375,-0.0292,78.8255,6.8213,0.4212,54.887344,9.794226,108.3,5.845,1.85,335.95,54.887352,9.794075,54.895069,9.793790
1386769585,1,0,390.9,0,35,28,0,426,400,-0.0292,69.4922,6.8213,0.4212,54.887352,9.794254,108.3,5.845,1.85,335.95,54.887352,9.794075,54.895069,9.793790
1386769585,1,0,390.9,0,35,32,0,393,375,-0.0292,60.1588,6.8213,0.4212,54.887360,9.794282,108.3,5.845,1.85,335.95,54.887352,9.794075,54.895069,9.793790
1386769585,1,0,390.9,0,29,28,0,360,350,-0.0292,52.4255,6.8213,0.4212,54.887371,9.794307,108.3,5.845,1.85,335.95,54.887352,9.794075,54.895069,9.793790
1386769585,1,0,390.9,0,21,24,0,333,325,-0.0292,46.8255,6.8213,0.4212,54.887383,9.794329,108.3,5.845,1.85,335.95,54.887352,9.794075,54.895069,9.793790
1386769586,1,0,390.9,0,16,20,0,313,300,-0.0292,42.5588,6.8213,0.4212,54.887394,9.794350,108.3,5.845,1.85,335.95,54.887352,9.794075,54.895069,9.793790
1386769586,1,0,390.9,0,12,16,0,298,275,-0.0292,39.3588,6.8213,0.4212,54.887409,9.794369,108.3,5.845,1.85,335.95,54.887352,9.794075,54.895069,9.793790
1386769586,1,0,390.9,0,8,12,0,288,300,-0.0292,37.2255,6.8213,0.4212,54.887424,9.794388,108.3,5.845,1.85,335.95,54.887352,9.794075,54.895069,9.793790
1386769586,0,0,390.9,0,8,12,0,288,300,-0.0292,37.2255,6.8213,0.4212,54.887424,9.794388,108.3,5.845,1.85,335.95,54.887352,9.794075,54.895069,9.793790
1386769587,0,0,390.9,0,8,12,0,288,300,-0.0292,37.2255,6.8213,0.4212,54.887424,9.794388,108.3,5.845,1.85,335.95,54.887352,9.794075,54.895069,9.793790
1386769587,0,0,390.9,0,8,12,0,288,300,-0.0292,37.2255,6.8213,0.4212,54.887424,9.794388,108.3,5.845,1.85,335.95,54.887352,9.794075,54.895069,9.793790
1386769587,4,0,390.9,0,8,12,0,288,300,-0.0292,37.2255,6.8213,0.4212,54.887424,9.794388,108.3,5.845,1.85,335.95,54.887352,9.794075,54.895069,9.793790
1386769587,1,0,390.9,0,6,8,0,281,275,-0.0292,35.6255,6.8213,0.4212,54.887436,9.794407,108.3,5.845,1.85,335.95,54.887424,9.794388,54.895069,9.793790
1386769588,1,0,390.9,0,5,4,0,275,300,-0.0292,34.2922,6.8213,0.4212,54.887451,9.794424,108.3,5.845,1.85,335.95,54.887424,9.794388,54.895069,9.793790
1386769588,1,0,390.9,0,3,0,0,271,275,-0.0292,33.4922,6.8213,0.4212,54.887466,9.794441,108.3,5.845,1.85,335.95,54.887424,9.794388,54.895069,9.793790
1386769588,1,0,390.9,0,3,4,0,268,250,-0.0292,32.6922,6.8213,0.4212,54.887482,9.794457,108.3,5.845,1.85,335.95,54.887424,9.794388,54.895069,9.793790
1386769588,1,0,390.9,0,2,0,0,266,275,-0.0292,32.1589,6.8213,0.4212,54.887497,9.794475,108.3,5.845,1.85,335.95,54.887424,9.794388,54.895069,9.793790
1386769589,1,0,390.9,0,1,4,0,264,250,-0.0292,31.8922,6.8213,0.4212,54.887512,9.794491,108.3,5.845,1.85,335.95,54.887424,9.794388,54.895069,9.793790
1386769589,1,0,390.9,0,1,0,0,263,275,-0.0292,31.6255,6.8213,0.4212,54.887527,9.794507,108.3,5.845,1.85,335.95,54.887424,9.794388,54.895069,9.793790
1386769589,1,0,390.9,0,1,4,0,262,250,-0.0292,31.3589,6.8213,0.4212,54.887543,9.794523,108.3,5.845,1.85,335.95,54.887424,9.794388,54.895069,9.793790
1386769589,1,0,390.9,0,0,0,0,261,275,-0.0292,31.3589,6.8213,0.4212,54.887562,9.794539,108.3,5.845,1.85,335.95,54.887424,9.794388,54.895069,9.793790
1386769590,1,0,390.9,0,0,4,0,261,250,-0.0292,31.3589,6.8213,0.4212,54.887577,9.794556,108.3,5.845,1.85,335.95,54.887424,9.794388,54.895069,9.793790
1386769590,1,0,390.9,0,0,0,0,261,275,-0.0292,31.3589,6.8213,0.4212,54.887592,9.794572,108.3,5.845,1.85,335.95,54.887424,9.794388,54.895069,9.793790
1386769590,1,0,390.9,0,0,4,0,261,250,-0.0292,31.3589,6.8213,0.4212,54.887604,9.794588,108.3,5.845,1.85,335.95,54.887424,9.794388,54.895069,9.793790
1386769590,1,0,390.9,0,0,0,0,261,275,-0.0292,31.3589,6.8213,0.4212,54.887619,9.794604,108.3,5.845,1.85,335.95,54.887424,9.794388,54.895069,9.793790
1386769591,1,0,390.9,0,0,4,0,261,250,-0.0292,31.3589,6.8213,0.4212,54.887634,9.794621,108.3,5.845,1.85,335.95,54.887424,9.794388,54.895069,9.793790
1386769591,1,0,390.9,0,0,0,0,261,275,-0.0292,31.3589,6.8213,0.4212,54.887650,9.794637,108.3,5.845,1.85,335.95,54.887424,9.794388,54.895069,9.793790
1386769591,1,0,390.9,0,0,4,0,261,250,-0.0292,31.3589,6.8213,0.4212,54.887665,9.794653,108.3,5.845,1.85,335.95,54.887424,9.794388,54.895069,9.793790
1386769591,1,0,390.9,0,0,0,0,261,275,-0.0292,31.3589,6.8213,0.4212,54.887684,9.794669,108.3,5.845,1.85,335.95,54.887424,9.794388,54.895069,9.793790
1386769592,1,0,390.9,0,0,4,0,261,250,-0.0292,31.3589,6.8213,0.4212,54.887699,9.794685,108.3,5.845,1.85,335.95,54.887424,9.794388,54.895069,9.793790
1386769592,1,0,390.9,0,0,0,0,261,275,-0.0292,31.3589,6.8213,0.4212,54.887714,9.794702,108.3,5.845,1.85,335.95,54.887424,9.794388,54.895069,9.793790
1386769592,1,0,390.9,0,0,4,0,261,250,-0.0292,31.3589,6.8213,0.4212,54.887733,9.794718,108.3,5.845,1.85,335.95,54.887424,9.794388,54.895069,9.793790
1386769592,1,0,390.9,0,0,0,0,261,275,-0.0292,31.3589,6.8213,0.4212,54.887749,9.794734,108.3,5.845,1.85,335.95,54.887424,9.794388,54.895069,9.793790
1386769593,1,0,390.9,0,0,4,0,261,250,-0.0292,31.3589,6.8213,0.4212,54.887764,9.794750,108.3,5.845,1.85,335.95,54.887424,9.794388,54.895069,9.793790
1386769593,1,0,390.9,0,0,0,0,261,275,-0.0292,31.3589,6.8213,0.4212,54.887783,9.794766,108.3,5.845,1.85,335.95,54.887424,9.794388,54.895069,9.793790
1386769593,1,0,390.9,0,0,4,0,261,250,-0.0292,31.3589,6.8213,0.4212,54.887798,9.794783,108.3,5.845,1.85,335.95,54.887424,9.794388,54.895069,9.793790
1386769593,1,0,390.9,0,0,0,0,261,275,-0.0292,31.3589,6.8213,0.4212,54.887814,9.794799,108.3,5.845,1.85,335.95,54.887424,9.794388,54.895069,9.793790
1386769594,1,0,390.9,0,0,4,0,261,250,-0.0292,31.3589,6.8213,0.4212,54.887833,9.794815,108.3,5.845,1.85,335.95,54.887424,9.794388,54.895069,9.793790
1386769594,1,0,390.9,0,0,0,0,261,275,-0.0292,31.3589,6.8213,0.4212,54.887848,9.794831,108.3,5.845,1.85,335.95,54.887424,9.794388,54.895069,9.793790
1386769594,1,0,390.9,0,0,4,0,261,250,-0.0292,31.3589,6.8213,0.4212,54.887863,9.794847,108.3,5.845,1.85,335.95,54.887424,9.794388,54.895069,9.793790
1386769594,1,0,390.9,0,0,0,0,261,275,-0.0292,31.3589,6.8213,0.4212,54.887875,9.794864,108.3,5.845,1.85,335.95,54.887424,9.794388,54.895069,9.793790
1386769595,1,0,390.9,0,0,4,0,261,250,-0.0292,31.3589,6.8213,0.4212,54.887890,9.794880,108.3,5.845,1.85,335.95,54.887424,9.794388,54.895069,9.793790
1386769595,1,0,390.9,0,0,0,0,261,275,-0.0292,31.3589,6.8213,0.4212,54.887905,9.794896,108.3,5.845,1.85,335.95,54.887424,9.794388,54.895069,9.793790
1386769595,1,0,390.9,0,0,4,0,261,250,-0.0292,31.3589,6.8213,0.4212,54.887920,9.794912,108.3,5.845,1.85,335.95,54.887424,9.794388,54.895069,9.793790
1386769595,1,0,390.9,0,0,0,0,261,275,-0.0292,31.3589,6.8213,0.4212,54.887936,9.794929,108.3,5.845,1.85,335.95,54.887424,9.794388,54.895069,9.793790
1386769596,1,0,390.9,0,0,4,0,261,250,-0.0292,31.3589,6.8213,0.4212,54.887955,9.794945,108.3,5.845,1.85,335.95,54.887424,9.794388,54.895069,9.793790
1386769596,1,0,390.9,0,0,0,0,261,275,-0.0292,31.3589,6.8213,0.4212,54.887970,9.794962,108.3,5.845,1.85,335.95,54.887424,9.794388,54.895069,9.793790
1386769596,1,0,390.9,0,0,4,0,261,250,-0.0292,31.3589,6.8213,0.4212,54.887985,9.794978,108.3,5.845,1.85,335.95,54.887424,9.794388,54.895069,9.793790
1386769596,1,0,390.9,0,0,0,0,261,275,-0.0292,31.3589,6.8213,0.4212,54.888004,9.794994,108.3,5.845,1.85,335.95,54.887424,9.794388,54.895069,9.793790
1386769597,1,0,390.9,0,0,4,0,261,250,-0.0292,31.3589,6.8213,0.4212,54.888020,9.795011,108.3,5.845,1.85,335.95,54.887424,9.794388,54.895069,9.793790
1386769597,1,0,390.9,0,0,0,0,261,275,-0.0292,31.3589,6.8213,0.4212,54.888035,9.795027,108.3,5.845,1.85,335.95,54.887424,9.794388,54.895069,9.793790
1386769597,1,0,390.9,0,0,4,0,261,250,-0.0292,31.3589,6.8213,0.4212,54.888054,9.795043,108.3,5.845,1.85,335.95,54.887424,9.794388,54.895069,9.793790
1386769597,1,0,390.9,0,0,0,0,261,275,-0.0292,31.3589,6.8213,0.4212,54.888069,9.795059,108.3,5.845,1.85,335.95,54.887424,9.794388,54.895069,9.793790
1386769598,1,0,390.9,0,0,4,0,261,250,-0.0292,31.3589,6.8213,0.4212,54.888084,9.795075,108.3,5.845,1.85,335.95,54.887424,9.794388,54.895069,9.793790
1386769598,1,0,390.9,0,0,0,0,261,275,-0.0292,31.3589,6.8213,0.4212,54.888096,9.795092,108.3,5.845,1.85,335.95,54.887424,9.794388,54.895069,9.793790
1386769598,1,0,390.9,0,0,4,0,261,250,-0.0292,31.3589,6.8213,0.4212,54.888111,9.795108,108.3,5.845,1.85,335.95,54.887424,9.794388,54.895069,9.793790
1386769599,1,0,485.9,0,-35,0,0,261,275,-0.0292,40.6922,6.8213,0.4212,54.888123,9.795129,108.3,5.845,1.85,335.95,54.887424,9.794388,54.895069,9.793790
1386769599,1,0,485.9,0,-35,-4,0,292,300,-0.0292,50.0255,6.8213,0.4212,54.888134,9.795153,108.3,5.845,1.85,335.95,54.887424,9.794388,54.895069,9.793790
1386769599,1,0,485.9,0,-35,-8,0,324,325,-0.0292,59.3588,6.8213,0.4212,54.888142,9.795179,108.3,5.845,1.85,335.95,54.887424,9.794388,54.895069,9.793790
1386769599,1,0,485.9,0,-35,-12,0,357,350,-0.0292,68.6922,6.8213,0.4212,54.888149,9.795208,108.3,5.845,1.85,335.95,54.887424,9.794388,54.895069,9.793790
1386769600,1,0,485.9,0,-35,-16,0,391,375,-0.0292,78.0255,6.8213,0.4212,54.888153,9.795238,108.3,5.845,1.85,335.95,54.887424,9.794388,54.895069,9.793790
1386769600,1,0,485.9,0,-35,-20,0,423,400,-0.0292,87.3589,6.8213,0.4212,54.888157,9.795270,108.3,5.845,1.85,335.95,54.887424,9.794388,54.895069,9.793790
1386769600,1,0,485.9,0,-35,-24,0,453,425,-0.0292,96.6922,6.8213,0.4212,54.888157,9.795301,108.3,5.845,1.85,335.95,54.887424,9.794388,54.895069,9.793790
1386769600,1,0,485.9,0,-29,-28,0,478,450,-0.0292,104.4255,6.8213,0.4212,54.888153,9.795331,108.3,5.845,1.85,335.95,54.887424,9.794388,54.895069,9.793790
1386769601,1,0,485.9,0,-22,-24,0,492,475,-0.0292,110.2922,6.8213,0.4212,54.888149,9.795361,108.3,5.845,1.85,335.95,54.887424,9.794388,54.895069,9.793790
1386769601,1,0,485.9,0,-16,-20,0,496,500,-0.0292,114.5589,6.8213,0.4212,54.888142,9.795389,108.3,5.845,1.85,335.95,54.887424,9.794388,54.895069,9.793790
1386769601,1,0,485.9,0,-11,-16,0,291,475,-0.0292,117.4922,6.8213,0.4212,54.888134,9.795417,108.3,5.845,1.85,335.95,54.887424,9.794388,54.895069,9.793790
1386769601,1,0,485.9,0,-8,-12,0,291,450,-0.0292,119.6255,6.8213,0.4212,54.888123,9.795444,108.3,5.845,1.85,335.95,54.887424,9.794388,54.895069,9.793790
1386769602,1,0,545.9,0,-35,-16,0,291,425,-0.0292,128.9589,6.8213,0.4212,54.888111,9.795469,108.3,5.845,1.85,335.95,54.887424,9.794388,54.895069,9.793790
1386769602,1,0,545.9,0,-35,-20,0,291,400,-0.0292,138.2922,6.8213,0.4212,54.888096,9.795489,108.3,5.845,1.85,335.95,54.887424,9.794388,54.895069,9.793790
1386769602,1,0,545.9,0,-35,-24,0,291,375,-0.0292,147.6255,6.8213,0.4212,54.888081,9.795506,108.3,5.845,1.85,335.95,54.887424,9.794388,54.895069,9.793790
1386769602,1,0,545.9,0,-35,-28,0,496,400,-0.0292,156.9588,6.8213,0.4212,54.888065,9.795518,108.3,5.845,1.85,335.95,54.887424,9.794388,54.895069,9.793790
1386769603,1,0,545.9,0,-29,-32,0,496,425,-0.0292,164.6922,6.8213,0.4212,54.888046,9.795526,108.3,5.845,1.85,335.95,54.887424,9.794388,54.895069,9.793790
1386769603,1,0,545.9,0,-21,-28,0,496,450,-0.0292,170.2922,6.8213,0.4212,54.888027,9.795531,108.3,5.845,1.85,335.95,54.887424,9.794388,54.895069,9.793790
1386769603,1,0,545.9,0,-16,-24,0,291,425,-0.0292,174.5589,6.8213,0.4212,54.888012,9.795534,108.3,5.845,1.85,335.95,54.887424,9.794388,54.895069,9.793790
1386769603,1,0,545.9,0,-11,-20,0,291,400,-0.0292,177.4922,6.8213,0.4212,54.887993,9.795536,108.3,5.845,1.85,335.95,54.887424,9.794388,54.895069,9.793790
1386769604,1,0,280.9,0,-35,-24,0,291,375,-0.0292,186.8255,6.8213,0.4212,54.887974,9.795532,108.3,5.845,1.85,335.95,54.887424,9.794388,54.895069,9.793790
1386769604,1,0,280.9,0,-35,-28,0,291,350,-0.0292,196.1588,6.8213,0.4212,54.887955,9.795524,108.3,5.845,1.85,335.95,54.887424,9.794388,54.895069,9.793790
1386769604,1,0,280.9,0,-35,-32,0,291,325,-0.0292,205.4922,6.8213,0.4212,54.887939,9.795510,108.3,5.845,1.85,335.95,54.887424,9.794388,54.895069,9.793790
1386769604,1,0,280.9,0,-35,-36,0,494,350,-0.0292,214.8255,6.8213,0.4212,54.887924,9.795492,108.3,5.845,1.85,335.95,54.887424,9.794388,54.895069,9.793790
1386769605,1,0,280.9,0,-35,-32,0,479,375,-0.0292,224.1588,6.8213,0.4212,54.887913,9.795470,108.3,5.845,1.85,335.95,54.887424,9.794388,54.895069,9.793790
1386769605,1,0,280.9,0,-35,-36,0,454,400,-0.0292,233.4922,6.8213,0.4212,54.887901,9.795444,108.3,5.845,1.85,335.95,54.887424,9.794388,54.895069,9.793790
1386769605,1,0,280.9,0,-35,-32,0,424,425,-0.0292,242.8255,6.8213,0.4212,54.887894,9.795417,108.3,5.845,1.85,335.95,54.887424,9.794388,54.895069,9.793790
1386769605,1,0,280.9,0,-35,-36,0,392,400,-0.0292,252.1588,6.8213,0.4212,54.887886,9.795387,108.3,5.845,1.85,335.95,54.887424,9.794388,54.895069,9.793790
1386769606,1,0,280.9,0,-29,-32,0,359,375,-0.0292,259.8922,6.8213,0.4212,54.887886,9.795357,108.3,5.845,1.85,335.95,54.887424,9.794388,54.895069,9.793790
1386769606,1,0,280.9,0,-21,-28,0,331,350,-0.0292,265.4922,6.8213,0.4212,54.887886,9.795325,108.3,5.845,1.85,335.95,54.887424,9.794388,54.895069,9.793790
1386769606,1,0,280.9,0,-15,-24,0,312,325,-0.0292,269.4922,6.8213,0.4212,54.887886,9.795295,108.3,5.845,1.85,335.95,54.887424,9.794388,54.895069,9.793790
1386769606,1,0,280.9,0,-11,-20,0,298,300,-0.0292,272.4255,6.8213,0.4212,54.887890,9.795263,108.3,5.845,1.85,335.95,54.887424,9.794388,54.895069,9.793790
1386769607,1,0,280.9,0,-9,-16,0,288,275,-0.0292,274.8255,6.8213,0.4212,54.887890,9.795232,108.3,5.845,1.85,335.95,54.887424,9.794388,54.895069,9.793790
1386769607,1,0,280.9,0,-6,-12,0,280,300,-0.0292,276.4255,6.8213,0.4212,54.887890,9.795201,108.3,5.845,1.85,335.95,54.887424,9.794388,54.895069,9.793790
1386769607,1,0,280.9,0,-5,-8,0,275,275,-0.0292,277.7588,6.8213,0.4212,54.887890,9.795171,108.3,5.845,1.85,335.95,54.887424,9.794388,54.895069,9.793790
1386769607,1,0,280.9,0,-3,-4,0,270,250,-0.0292,278.5588,6.8213,0.4212,54.887890,9.795139,108.3,5.845,1.85,335.95,54.887424,9.794388,54.895069,9.793790
1386769608,1,0,280.9,0,-2,0,0,268,275,-0.0292,279.0921,6.8213,0.4212,54.887890,9.795109,108.3,5.845,1.85,335.95,54.887424,9.794388,54.895069,9.793790
1386769608,1,0,280.9,0,-2,-4,0,266,250,-0.0292,279.6255,6.8213,0.4212,54.887890,9.795078,108.3,5.845,1.85,335.95,54.887424,9.794388,54.895069,9.793790
1386769608,1,0,280.9,0,-1,0,0,264,275,-0.0292,279.8921,6.8213,0.4212,54.887890,9.795047,108.3,5.845,1.85,335.95,54.887424,9.794388,54.895069,9.793790
1386769608,1,0,280.9,0,-1,-4,0,263,250,-0.0292,280.1588,6.8213,0.4212,54.887890,9.795016,108.3,5.845,1.85,335.95,54.887424,9.794388,54.895069,9.793790
1386769609,1,0,280.9,0,-1,0,0,263,275,-0.0292,280.4254,6.8213,0.4212,54.887890,9.794986,108.3,5.845,1.85,335.95,54.887424,9.794388,54.895069,9.793790
1386769609,1,0,280.9,0,-1,-4,0,262,250,-0.0292,280.6921,6.8213,0.4212,54.887890,9.794955,108.3,5.845,1.85,335.95,54.887424,9.794388,54.895069,9.793790
1386769609,1,0,280.9,0,0,0,0,261,275,-0.0292,280.6921,6.8213,0.4212,54.887890,9.794925,108.3,5.845,1.85,335.95,54.887424,9.794388,54.895069,9.793790
1386769609,1,0,280.9,0,0,4,0,261,250,-0.0292,280.6921,6.8213,0.4212,54.887890,9.794894,108.3,5.845,1.85,335.95,54.887424,9.794388,54.895069,9.793790
1386769610,1,0,280.9,0,0,0,0,261,275,-0.0292,280.6921,6.8213,0.4212,54.887890,9.794864,108.3,5.845,1.85,335.95,54.887424,9.794388,54.895069,9.793790
1386769610,1,0,280.9,0,0,4,0,261,250,-0.0292,280.6921,6.8213,0.4212,54.887890,9.794832,108.3,5.845,1.85,335.95,54.887424,9.794388,54.895069,9.793790
1386769610,1,0,280.9,0,0,0,0,261,275,-0.0292,280.6921,6.8213,0.4212,54.887890,9.794802,108.3,5.845,1.85,335.95,54.887424,9.794388,54.895069,9.793790
1386769610,1,0,280.9,0,0,4,0,261,250,-0.0292,280.6921,6.8213,0.4212,54.887890,9.794771,108.3,5.845,1.85,335.95,54.887424,9.794388,54.895069,9.793790
1386769611,1,0,280.9,0,0,0,0,261,275,-0.0292,280.6921,6.8213,0.4212,54.887890,9.794741,108.3,5.845,1.85,335.95,54.887424,9.794388,54.895069,9.793790
1386769611,1,0,280.9,0,0,4,0,261,250,-0.0292,280.6921,6.8213,0.4212,54.887890,9.794710,108.3,5.845,1.85,335.95,54.887424,9.794388,54.895069,9.793790
1386769611,1,0,280.9,0,0,0,0,261,275,-0.0292,280.6921,6.8213,0.4212,54.887890,9.794680,108.3,5.845,1.85,335.95,54.887424,9.794388,54.895069,9.793790
1386769611,1,0,280.9,0,0,4,0,261,250,-0.0292,280.6921,6.8213,0.4212,54.887890,9.794649,108.3,5.845,1.85,335.95,54.887424,9.794388,54.895069,9.793790
1386769612,1,0,280.9,0,0,0,0,261,275,-0.0292,280.6921,6.8213,0.4212,54.887890,9.794618,108.3,5.845,1.85,335.95,54.887424,9.794388,54.895069,9.793790
1386769612,1,0,280.9,0,0,4,0,261,250,-0.0292,280.6921,6.8213,0.4212,54.887890,9.794587,108.3,5.845,1.85,335.95,54.887424,9.794388,54.895069,9.793790
1386769612,1,0,280.9,0,0,0,0,261,275,-0.0292,280.6921,6.8213,0.4212,54.887890,9.794557,108.3,5.845,1.85,335.95,54.887424,9.794388,54.895069,9.793790
1386769612,1,0,280.9,0,0,4,0,261,250,-0.0292,280.6921,6.8213,0.4212,54.887890,9.794526,108.3,5.845,1.85,335.95,54.887424,9.794388,54.895069,9.793790
1386769613,1,0,280.9,0,0,0,0,261,275,-0.0292,280.6921,6.8213,0.4212,54.887890,9.794496,108.3,5.845,1.85,335.95,54.887424,9.794388,54.895069,9.793790
1386769613,1,0,280.9,0,0,4,0,261,250,-0.0292,280.6921,6.8213,0.4212,54.887890,9.794465,108.3,5.845,1.85,335.95,54.887424,9.794388,54.895069,9.793790
1386769613,1,0,280.9,0,0,0,0,261,275,-0.0292,280.6921,6.8213,0.4212,54.887890,9.794435,108.3,5.845,1.85,335.95,54.887424,9.794388,54.895069,9.793790
1386769613,1,0,280.9,0,0,4,0,261,250,-0.0292,280.6921,6.8213,0.4212,54.887890,9.794403,108.3,5.845,1.85,335.95,54.887424,9.794388,54.895069,9.793790
1386769614,1,0,280.9,0,0,0,0,261,275,-0.0292,280.6921,6.8213,0.4212,54.887890,9.794373,108.3,5.845,1.85,335.95,54.887424,9.794388,54.895069,9.793790
1386769614,1,0,280.9,0,0,4,0,261,250,-0.0292,280.6921,6.8213,0.4212,54.887890,9.794342,108.3,5.845,1.85,335.95,54.887424,9.794388,54.895069,9.793790
1386769614,1,0,280.9,0,0,0,0,261,275,-0.0292,280.6921,6.8213,0.4212,54.887890,9.794312,108.3,5.845,1.85,335.95,54.887424,9.794388,54.895069,9.793790
1386769614,1,0,280.9,0,0,4,0,261,250,-0.0292,280.6921,6.8213,0.4212,54.887890,9.794281,108.3,5.845,1.85,335.95,54.887424,9.794388,54.895069,9.793790
1386769615,1,0,280.9,0,0,0,0,261,275,-0.0292,280.6921,6.8213,0.4212,54.887890,9.794250,108.3,5.845,1.85,335.95,54.887424,9.794388,54.895069,9.793790
1386769615,1,0,280.9,0,0,4,0,261,250,-0.0292,280.6921,6.8213,0.4212,54.887890,9.794220,108.3,5.845,1.85,335.95,54.887424,9.794388,54.895069,9.793790
1386769615,1,0,280.9,0,0,0,0,261,275,-0.0292,280.6921,6.8213,0.4212,54.887890,9.794188,108.3,5.845,1.85,335.95,54.887424,9.794388,54.895069,9.793790
1386769615,1,0,280.9,0,0,4,0,261,250,-0.0292,280.6921,6.8213,0.4212,54.887890,9.794158,108.3,5.845,1.85,335.95,54.887424,9.794388,54.895069,9.793790
1386769616,1,0,280.9,0,0,0,0,261,275,-0.0292,280.6921,6.8213,0.4212,54.887890,9.794127,108.3,5.845,1.85,335.95,54.887424,9.794388,54.895069,9.793790
1386769616,1,0,280.9,0,0,4,0,261,250,-0.0292,280.6921,6.8213,0.4212,54.887890,9.794097,108.3,5.845,1.85,335.95,54.887424,9.794388,54.895069,9.793790
1386769616,1,0,280.9,0,0,0,0,261,275,-0.0292,280.6921,6.8213,0.4212,54.887890,9.794066,108.3,5.845,1.85,335.95,54.887424,9.794388,54.895069,9.793790
1386769616,1,0,280.9,0,0,4,0,261,250,-0.0292,280.6921,6.8213,0.4212,54.887890,9.794036,108.3,5.845,1.85,335.95,54.887424,9.794388,54.895069,9.793790
1386769617,1,0,280.9,0,0,0,0,261,275,-0.0292,280.6921,6.8213,0.4212,54.887890,9.794005,108.3,5.845,1.85,335.95,54.887424,9.794388,54.895069,9.793790
1386769617,1,0,280.9,0,0,4,0,261,250,-0.0292,280.6921,6.8213,0.4212,54.887890,9.793974,108.3,5.845,1.85,335.95,54.887424,9.794388,54.895069,9.793790
1386769617,1,0,280.9,0,0,0,0,261,275,-0.0292,280.6921,6.8213,0.4212,54.887890,9.793943,108.3,5.845,1.85,335.95,54.887424,9.794388,54.895069,9.793790
1386769617,1,0,280.9,0,0,4,0,261,250,-0.0292,280.6921,6.8213,0.4212,54.887890,9.793913,108.3,5.845,1.85,335.95,54.887424,9.794388,54.895069,9.793790
1386769618,1,0,280.9,0,0,0,0,261,275,-0.0292,280.6921,6.8213,0.4212,54.887890,9.793882,108.3,5.845,1.85,335.95,54.887424,9.794388,54.895069,9.793790
1386769618,1,0,280.9,0,0,4,0,261,250,-0.0292,280.6921,6.8213,0.4212,54.887890,9.793852,108.3,5.845,1.85,335.95,54.887424,9.794388,54.895069,9.793790
1386769618,1,0,280.9,0,0,0,0,261,275,-0.0292,280.6921,6.8213,0.4212,54.887890,9.793821,108.3,5.845,1.85,335.95,54.887424,9.794388,54.895069,9.793790
1386769618,1,0,280.9,0,0,4,0,261,250,-0.0292,280.6921,6.8213,0.4212,54.887890,9.793791,108.3,5.845,1.85,335.95,54.887424,9.794388,54.895069,9.793790
1386769619,1,0,280.9,0,0,0,0,261,275,-0.0292,280.6921,6.8213,0.4212,54.887890,9.793759,108.3,5.845,1.85,335.95,54.887424,9.794388,54.895069,9.793790
1386769619,1,0,280.9,0,0,4,0,261,250,-0.0292,280.6921,6.8213,0.4212,54.887890,9.793729,108.3,5.845,1.85,335.95,54.887424,9.794388,54.895069,9.793790
1386769619,1,0,280.9,0,0,0,0,261,275,-0.0292,280.6921,6.8213,0.4212,54.887890,9.793698,108.3,5.845,1.85,335.95,54.887424,9.794388,54.895069,9.793790
1386769619,1,0,280.9,0,0,4,0,261,250,-0.0292,280.6921,6.8213,0.4212,54.887890,9.793668,108.3,5.845,1.85,335.95,54.887424,9.794388,54.895069,9.793790
1386769620,1,0,280.9,0,0,0,0,261,275,-0.0292,280.6921,6.8213,0.4212,54.887890,9.793637,108.3,5.845,1.85,335.95,54.887424,9.794388,54.895069,9.793790
1386769620,1,0,280.9,0,0,4,0,261,250,-0.0292,280.6921,6.8213,0.4212,54.887890,9.793607,108.3,5.845,1.85,335.95,54.887424,9.794388,54.895069,9.793790
1386769620,1,0,280.9,0,0,0,0,261,275,-0.0292,280.6921,6.8213,0.4212,54.887890,9.793576,108.3,5.845,1.85,335.95,54.887424,9.794388,54.895069,9.793790
1386769620,1,0,280.9,0,0,4,0,261,250,-0.0292,280.6921,6.8213,0.4212,54.887890,9.793545,108.3,5.845,1.85,335.95,54.887424,9.794388,54.895069,9.793790
1386769621,1,0,545.9,0,35,8,0,261,275,-0.0292,271.3588,6.8213,0.4212,54.887890,9.793513,108.3,5.845,1.85,335.95,54.887424,9.794388,54.895069,9.793790
1386769621,1,0,545.9,0,35,12,0,292,300,-0.0292,262.0254,6.8213,0.4212,54.887886,9.793483,108.3,5.845,1.85,335.95,54.887424,9.794388,54.895069,9.793790
1386769621,1,0,545.9,0,35,16,0,324,325,-0.0292,252.6921,6.8213,0.4212,54.887882,9.793453,108.3,5.845,1.85,335.95,54.887424,9.794388,54.895069,9.793790
1386769621,1,0,545.9,0,35,20,0,357,350,-0.0292,243.3588,6.8213,0.4212,54.887875,9.793425,108.3,5.845,1.85,335.95,54.887424,9.794388,54.895069,9.793790
1386769622,1,0,545.9,0,35,24,0,390,375,-0.0292,234.0254,6.8213,0.4212,54.887863,9.793400,108.3,5.845,1.85,335.95,54.887424,9.794388,54.895069,9.793790
1386769622,1,0,545.9,0,35,28,0,423,400,-0.0292,224.6921,6.8213,0.4212,54.887848,9.793378,108.3,5.845,1.85,335.95,54.887424,9.794388,54.895069,9.793790
1386769622,1,0,545.9,0,35,32,0,453,425,-0.0292,215.3588,6.8213,0.4212,54.887833,9.793360,108.3,5.845,1.85,335.95,54.887424,9.794388,54.895069,9.793790
1386769622,1,0,545.9,0,29,28,0,478,450,-0.0292,207.6254,6.8213,0.4212,54.887817,9.793345,108.3,5.845,1.85,335.95,54.887424,9.794388,54.895069,9.793790
1386769623,1,0,545.9,0,22,24,0,492,475,-0.0292,201.7588,6.8213,0.4212,54.887798,9.793334,108.3,5.845,1.85,335.95,54.887424,9.794388,54.895069,9.793790
1386769623,1,0,545.9,0,16,20,0,496,500,-0.0292,197.4921,6.8213,0.4212,54.887779,9.793324,108.3,5.845,1.85,335.95,54.887424,9.794388,54.895069,9.793790
1386769623,1,0,545.9,0,12,16,0,291,475,-0.0292,194.2921,6.8213,0.4212,54.887764,9.793317,108.3,5.845,1.85,335.95,54.887424,9.794388,54.895069,9.793790
1386769623,1,0,545.9,0,8,12,0,291,450,-0.0292,192.1588,6.8213,0.4212,54.887749,9.793311,108.3,5.845,1.85,335.95,54.887424,9.794388,54.895069,9.793790
1386769624,1,0,485.9,0,35,16,0,291,425,-0.0292,182.8255,6.8213,0.4212,54.887730,9.793310,108.3,5.845,1.85,335.95,54.887424,9.794388,54.895069,9.793790
1386769624,1,0,485.9,0,35,20,0,291,400,-0.0292,173.4921,6.8213,0.4212,54.887711,9.793314,108.3,5.845,1.85,335.95,54.887424,9.794388,54.895069,9.793790
1386769624,1,0,485.9,0,35,24,0,291,375,-0.0292,164.1588,6.8213,0.4212,54.887695,9.793323,108.3,5.845,1.85,335.95,54.887424,9.794388,54.895069,9.793790
1386769624,1,0,485.9,0,35,28,0,496,400,-0.0292,154.8255,6.8213,0.4212,54.887676,9.793336,108.3,5.845,1.85,335.95,54.887424,9.794388,54.895069,9.793790
1386769625,1,0,485.9,0,29,32,0,496,425,-0.0292,147.0921,6.8213,0.4212,54.887661,9.793353,108.3,5.845,1.85,335.95,54.887424,9.794388,54.895069,9.793790
1386769625,1,0,485.9,0,21,28,0,496,450,-0.0292,141.4921,6.8213,0.4212,54.887650,9.793373,108.3,5.845,1.85,335.95,54.887424,9.794388,54.895069,9.793790
1386769625,1,0,485.9,0,16,24,0,291,425,-0.0292,137.2255,6.8213,0.4212,54.887634,9.793394,108.3,5.845,1.85,335.95,54.887424,9.794388,54.895069,9.793790
1386769626,1,0,485.9,0,11,20,0,291,400,-0.0292,134.2921,6.8213,0.4212,54.887623,9.793417,108.3,5.845,1.85,335.95,54.887424,9.794388,54.895069,9.793790
1386769626,1,0,390.9,0,35,24,0,291,375,-0.0292,124.9588,6.8213,0.4212,54.887611,9.793443,108.3,5.845,1.85,335.95,54.887424,9.794388,54.895069,9.793790
1386769626,1,0,390.9,0,35,28,0,291,350,-0.0292,115.6255,6.8213,0.4212,54.887604,9.793471,108.3,5.845,1.85,335.95,54.887424,9.794388,54.895069,9.793790
1386769626,1,0,390.9,0,35,32,0,291,325,-0.0292,106.2921,6.8213,0.4212,54.887600,9.793502,108.3,5.845,1.85,335.95,54.887424,9.794388,54.895069,9.793790
1386769627,1,0,390.9,0,35,36,0,494,350,-0.0292,96.9588,6.8213,0.4212,54.887596,9.793532,108.3,5.845,1.85,335.95,54.887424,9.794388,54.895069,9.793790
1386769627,1,0,390.9,0,35,32,0,479,375,-0.0292,87.6255,6.8213,0.4212,54.887596,9.793563,108.3,5.845,1.85,335.95,54.887424,9.794388,54.895069,9.793790
1386769627,1,0,390.9,0,35,36,0,454,400,-0.0292,78.2921,6.8213,0.4212,54.887600,9.793593,108.3,5.845,1.85,335.95,54.887424,9.794388,54.895069,9.793790
1386769627,1,0,390.9,0,35,32,0,424,425,-0.0292,68.9588,6.8213,0.4212,54.887604,9.793622,108.3,5.845,1.85,335.95,54.887424,9.794388,54.895069,9.793790
1386769628,1,0,390.9,0,35,36,0,392,400,-0.0292,59.6254,6.8213,0.4212,54.887611,9.793649,108.3,5.845,1.85,335.95,54.887424,9.794388,54.895069,9.793790
1386769628,1,0,390.9,0,29,32,0,358,375,-0.0292,51.8921,6.8213,0.4212,54.887623,9.793674,108.3,5.845,1.85,335.95,54.887424,9.794388,54.895069,9.793790
1386769628,1,0,390.9,0,21,28,0,331,350,-0.0292,46.2921,6.8213,0.4212,54.887634,9.793695,108.3,5.845,1.85,335.95,54.887424,9.794388,54.895069,9.793790
1386769628,1,0,390.9,0,15,24,0,311,325,-0.0292,42.2921,6.8213,0.4212,54.887650,9.793716,108.3,5.845,1.85,335.95,54.887424,9.794388,54.895069,9.793790
1386769629,1,0,390.9,0,11,20,0,298,300,-0.0292,39.3588,6.8213,0.4212,54.887661,9.793736,108.3,5.845,1.85,335.95,54.887424,9.794388,54.895069,9.793790
1386769629,1,0,390.9,0,8,16,0,288,275,-0.0292,37.2254,6.8213,0.4212,54.887676,9.793756,108.3,5.845,1.85,335.95,54.887424,9.794388,54.895069,9.793790
1386769629,1,0,390.9,0,6,12,0,281,300,-0.0292,35.6254,6.8213,0.4212,54.887691,9.793774,108.3,5.845,1.85,335.95,54.887424,9.794388,54.895069,9.793790
1386769629,1,0,390.9,0,5,8,0,275,275,-0.0292,34.2921,6.8213,0.4212,54.887703,9.793792,108.3,5.845,1.85,335.95,54.887424,9.794388,54.895069,9.793790
1386769630,1,0,390.9,0,3,4,0,271,250,-0.0292,33.4921,6.8213,0.4212,54.887718,9.793809,108.3,5.845,1.85,335.95,54.887424,9.794388,54.895069,9.793790
1386769630,1,0,390.9,0,3,0,0,268,275,-0.0292,32.6921,6.8213,0.4212,54.887733,9.793826,108.3,5.845,1.85,335.95,54.887424,9.794388,54.895069,9.793790
1386769630,1,0,390.9,0,2,4,0,266,250,-0.0292,32.1588,6.8213,0.4212,54.887749,9.793843,108.3,5.845,1.85,335.95,54.887424,9.794388,54.895069,9.793790
1386769630,1,0,390.9,0,1,0,0,264,275,-0.0292,31.8921,6.8213,0.4212,54.887764,9.793859,108.3,5.845,1.85,335.95,54.887424,9.794388,54.895069,9.793790
1386769631,1,0,390.9,0,1,4,0,263,250,-0.0292,31.6255,6.8213,0.4212,54.887783,9.793876,108.3,5.845,1.85,335.95,54.887424,9.794388,54.895069,9.793790
1386769631,1,0,390.9,0,1,0,0,262,275,-0.0292,31.3588,6.8213,0.4212,54.887798,9.793892,108.3,5.845,1.85,335.95,54.887424,9.794388,54.895069,9.793790
1386769631,1,0,390.9,0,0,4,0,261,250,-0.0292,31.3588,6.8213,0.4212,54.887814,9.793908,108.3,5.845,1.85,335.95,54.887424,9.794388,54.895069,9.793790
1386769631,1,0,390.9,0,0,0,0,261,275,-0.0292,31.3588,6.8213,0.4212,54.887833,9.793924,108.3,5.845,1.85,335.95,54.887424,9.794388,54.895069,9.793790
1386769632,1,0,390.9,0,0,4,0,261,250,-0.0292,31.3588,6.8213,0.4212,54.887848,9.793941,108.3,5.845,1.85,335.95,54.887424,9.794388,54.895069,9.793790
1386769632,1,0,390.9,0,0,0,0,261,275,-0.0292,31.3588,6.8213,0.4212,54.887863,9.793957,108.3,5.845,1.85,335.95,54.887424,9.794388,54.895069,9.793790
1386769632,1,0,390.9,0,0,4,0,261,250,-0.0292,31.3588,6.8213,0.4212,54.887875,9.793973,108.3,5.845,1.85,335.95,54.887424,9.794388,54.895069,9.793790
1386769632,1,0,390.9,0,0,0,0,261,275,-0.0292,31.3588,6.8213,0.4212,54.887890,9.793989,108.3,5.845,1.85,335.95,54.887424,9.794388,54.895069,9.793790
1386769633,1,0,390.9,0,0,4,0,261,250,-0.0292,31.3588,6.8213,0.4212,54.887905,9.794005,108.3,5.845,1.85,335.95,54.887424,9.794388,54.895069,9.793790
1386769633,1,0,390.9,0,0,0,0,261,275,-0.0292,31.3588,6.8213,0.4212,54.887920,9.794022,108.3,5.845,1.85,335.95,54.887424,9.794388,54.895069,9.793790
1386769633,1,0,390.9,0,0,4,0,261,250,-0.0292,31.3588,6.8213,0.4212,54.887936,9.794038,108.3,5.845,1.85,335.95,54.887424,9.794388,54.895069,9.793790
1386769633,1,0,390.9,0,0,0,0,261,275,-0.0292,31.3588,6.8213,0.4212,54.887955,9.794054,108.3,5.845,1.85,335.95,54.887424,9.794388,54.895069,9.793790
1386769634,1,0,390.9,0,0,4,0,261,250,-0.0292,31.3588,6.8213,0.4212,54.887970,9.794070,108.3,5.845,1.85,335.95,54.887424,9.794388,54.895069,9.793790
1386769634,1,0,390.9,0,0,0,0,261,275,-0.0292,31.3588,6.8213,0.4212,54.887985,9.794086,108.3,5.845,1.85,335.95,54.887424,9.794388,54.895069,9.793790
1386769634,1,0,390.9,0,0,4,0,261,250,-0.0292,31.3588,6.8213,0.4212,54.888004,9.794103,108.3,5.845,1.85,335.95,54.887424,9.794388,54.895069,9.793790
1386769634,1,0,390.9,0,0,0,0,261,275,-0.0292,31.3588,6.8213,0.4212,54.888020,9.794119,108.3,5.845,1.85,335.95,54.887424,9.794388,54.895069,9.793790
1386769635,1,0,390.9,0,0,4,0,261,250,-0.0292,31.3588,6.8213,0.4212,54.888035,9.794135,108.3,5.845,1.85,335.95,54.887424,9.794388,54.895069,9.793790
1386769635,1,0,390.9,0,0,0,0,261,275,-0.0292,31.3588,6.8213,0.4212,54.888054,9.794151,108.3,5.845,1.85,335.95,54.887424,9.794388,54.895069,9.793790
1386769635,1,0,390.9,0,0,4,0,261,250,-0.0292,31.3588,6.8213,0.4212,54.888069,9.794168,108.3,5.845,1.85,335.95,54.887424,9.794388,54.895069,9.793790
1386769635,1,0,390.9,0,0,0,0,261,275,-0.0292,31.3588,6.8213,0.4212,54.888084,9.794184,108.3,5.845,1.85,335.95,54.887424,9.794388,54.895069,9.793790
1386769636,1,0,390.9,0,0,4,0,261,250,-0.0292,31.3588,6.8213,0.4212,54.888096,9.794200,108.3,5.845,1.85,335.95,54.887424,9.794388,54.895069,9.793790
1386769636,1,0,390.9,0,0,0,0,261,275,-0.0292,31.3588,6.8213,0.4212,54.888111,9.794216,108.3,5.845,1.85,335.95,54.887424,9.794388,54.895069,9.793790
1386769636,1,0,390.9,0,0,4,0,261,250,-0.0292,31.3588,6.8213,0.4212,54.888126,9.794233,108.3,5.845,1.85,335.95,54.887424,9.794388,54.895069,9.793790
1386769636,1,0,390.9,0,0,0,0,261,275,-0.0292,31.3588,6.8213,0.4212,54.888142,9.794250,108.3,5.845,1.85,335.95,54.887424,9.794388,54.895069,9.793790
1386769637,1,0,390.9,0,0,4,0,261,250,-0.0292,31.3588,6.8213,0.4212,54.888157,9.794266,108.3,5.845,1.85,335.95,54.887424,9.794388,54.895069,9.793790
1386769637,1,0,390.9,0,0,0,0,261,275,-0.0292,31.3588,6.8213,0.4212,54.888176,9.794282,108.3,5.845,1.85,335.95,54.887424,9.794388,54.895069,9.793790
1386769637,1,0,390.9,0,0,4,0,261,250,-0.0292,31.3588,6.8213,0.4212,54.888191,9.794298,108.3,5.845,1.85,335.95,54.887424,9.794388,54.895069,9.793790
1386769637,1,0,390.9,0,0,0,0,261,275,-0.0292,31.3588,6.8213,0.4212,54.888206,9.794314,108.3,5.845,1.85,335.95,54.887424,9.794388,54.895069,9.793790
1386769638,1,0,390.9,0,0,4,0,261,250,-0.0292,31.3588,6.8213,0.4212,54.888226,9.794331,108.3,5.845,1.85,335.95,54.887424,9.794388,54.895069,9.793790
1386769638,1,0,390.9,0,0,0,0,261,275,-0.0292,31.3588,6.8213,0.4212,54.888241,9.794347,108.3,5.845,1.85,335.95,54.887424,9.794388,54.895069,9.793790
1386769638,1,0,390.9,0,0,4,0,261,250,-0.0292,31.3588,6.8213,0.4212,54.888256,9.794363,108.3,5.845,1.85,335.95,54.887424,9.794388,54.895069,9.793790
1386769638,1,0,390.9,0,0,0,0,261,275,-0.0292,31.3588,6.8213,0.4212,54.888275,9.794379,108.3,5.845,1.85,335.95,54.887424,9.794388,54.895069,9.793790
1386769639,1,0,390.9,0,0,4,0,261,250,-0.0292,31.3588,6.8213,0.4212,54.888290,9.794395,108.3,5.845,1.85,335.95,54.887424,9.794388,54.895069,9.793790
1386769639,1,0,390.9,0,0,0,0,261,275,-0.0292,31.3588,6.8213,0.4212,54.888306,9.794412,108.3,5.845,1.85,335.95,54.887424,9.794388,54.895069,9.793790
1386769639,1,0,390.9,0,0,4,0,261,250,-0.0292,31.3588,6.8213,0.4212,54.888317,9.794428,108.3,5.845,1.85,335.95,54.887424,9.794388,54.895069,9.793790
1386769639,1,0,390.9,0,0,0,0,261,275,-0.0292,31.3588,6.8213,0.4212,54.888332,9.794444,108.3,5.845,1.85,335.95,54.887424,9.794388,54.895069,9.793790
1386769640,1,0,390.9,0,0,4,0,261,250,-0.0292,31.3588,6.8213,0.4212,54.888348,9.794460,108.3,5.845,1.85,335.95,54.887424,9.794388,54.895069,9.793790
1386769640,1,0,390.9,0,0,0,0,261,275,-0.0292,31.3588,6.8213,0.4212,54.888363,9.794477,108.3,5.845,1.85,335.95,54.887424,9.794388,54.895069,9.793790
1386769640,1,0,390.9,0,0,4,0,261,250,-0.0292,31.3588,6.8213,0.4212,54.888378,9.794493,108.3,5.845,1.85,335.95,54.887424,9.794388,54.895069,9.793790
1386769640,1,0,390.9,0,0,0,0,261,275,-0.0292,31.3588,6.8213,0.4212,54.888397,9.794509,108.3,5.845,1.85,335.95,54.887424,9.794388,54.895069,9.793790
1386769641,1,0,390.9,0,0,4,0,261,250,-0.0292,31.3588,6.8213,0.4212,54.888412,9.794525,108.3,5.845,1.85,335.95,54.887424,9.794388,54.895069,9.793790
1386769641,1,0,390.9,0,0,0,0,261,275,-0.0292,31.3588,6.8213,0.4212,54.888428,9.794541,108.3,5.845,1.85,335.95,54.887424,9.794388,54.895069,9.793790
1386769641,1,0,390.9,0,0,4,0,261,250,-0.0292,31.3588,6.8213,0.4212,54.888447,9.794558,108.3,5.845,1.85,335.95,54.887424,9.794388,54.895069,9.793790
1386769641,1,0,390.9,0,0,0,0,261,275,-0.0292,31.3588,6.8213,0.4212,54.888462,9.794574,108.3,5.845,1.85,335.95,54.887424,9.794388,54.895069,9.793790
1386769642,1,0,390.9,0,0,4,0,261,250,-0.0292,31.3588,6.8213,0.4212,54.888477,9.794590,108.3,5.845,1.85,335.95,54.887424,9.794388,54.895069,9.793790
1386769642,1,0,390.9,0,0,0,0,261,275,-0.0292,31.3588,6.8213,0.4212,54.888496,9.794606,108.3,5.845,1.85,335.95,54.887424,9.794388,54.895069,9.793790
1386769642,1,0,390.9,0,0,4,0,261,250,-0.0292,31.3588,6.8213,0.4212,54.888512,9.794622,108.3,5.845,1.85,335.95,54.887424,9.794388,54.895069,9.793790
1386769642,1,0,390.9,0,0,0,0,261,275,-0.0292,31.3588,6.8213,0.4212,54.888527,9.794639,108.3,5.845,1.85,335.95,54.887424,9.794388,54.895069,9.793790
1386769643,1,0,390.9,0,0,4,0,261,250,-0.0292,31.3588,6.8213,0.4212,54.888538,9.794655,108.3,5.845,1.85,335.95,54.887424,9.794388,54.895069,9.793790
1386769643,1,0,390.9,0,0,0,0,261,275,-0.0292,31.3588,6.8213,0.4212,54.888554,9.794671,108.3,5.845,1.85,335.95,54.887424,9.794388,54.895069,9.793790
1386769643,1,0,390.9,0,0,4,0,261,250,-0.0292,31.3588,6.8213,0.4212,54.888569,9.794687,108.3,5.845,1.85,335.95,54.887424,9.794388,54.895069,9.793790
1386769643,1,0,390.9,0,0,0,0,261,275,-0.0292,31.3588,6.8213,0.4212,54.888584,9.794704,108.3,5.845,1.85,335.95,54.887424,9.794388,54.895069,9.793790
1386769644,1,0,390.9,0,0,4,0,261,250,-0.0292,31.3588,6.8213,0.4212,54.888599,9.794721,108.3,5.845,1.85,335.95,54.887424,9.794388,54.895069,9.793790
1386769644,1,0,390.9,0,0,0,0,261,275,-0.0292,31.3588,6.8213,0.4212,54.888618,9.794737,108.3,5.845,1.85,335.95,54.887424,9.794388,54.895069,9.793790
1386769644,1,0,390.9,0,0,4,0,261,250,-0.0292,31.3588,6.8213,0.4212,54.888634,9.794753,108.3,5.845,1.85,335.95,54.887424,9.794388,54.895069,9.793790
1386769644,1,0,390.9,0,0,0,0,261,275,-0.0292,31.3588,6.8213,0.4212,54.888649,9.794769,108.3,5.845,1.85,335.95,54.887424,9.794388,54.895069,9.793790
1386769645,1,0,390.9,0,0,4,0,261,250,-0.0292,31.3588,6.8213,0.4212,54.888668,9.794785,108.3,5.845,1.85,335.95,54.887424,9.794388,54.895069,9.793790
1386769645,1,0,390.9,0,0,0,0,261,275,-0.0292,31.3588,6.8213,0.4212,54.888683,9.794802,108.3,5.845,1.85,335.95,54.887424,9.794388,54.895069,9.793790
1386769645,1,0,390.9,0,0,4,0,261,250,-0.0292,31.3588,6.8213,0.4212,54.888699,9.794818,108.3,5.845,1.85,335.95,54.887424,9.794388,54.895069,9.793790
1386769645,1,0,390.9,0,0,0,0,261,275,-0.0292,31.3588,6.8213,0.4212,54.888718,9.794834,108.3,5.845,1.85,335.95,54.887424,9.794388,54.895069,9.793790
1386769646,1,0,390.9,0,0,4,0,261,250,-0.0292,31.3588,6.8213,0.4212,54.888733,9.794850,108.3,5.845,1.85,335.95,54.887424,9.794388,54.895069,9.793790
1386769646,1,0,390.9,0,0,0,0,261,275,-0.0292,31.3588,6.8213,0.4212,54.888748,9.794867,108.3,5.845,1.85,335.95,54.887424,9.794388,54.895069,9.793790
1386769646,1,0,390.9,0,0,4,0,261,250,-0.0292,31.3588,6.8213,0.4212,54.888760,9.794883,108.3,5.845,1.85,335.95,54.887424,9.794388,54.895069,9.793790
1386769646,1,0,390.9,0,0,0,0,261,275,-0.0292,31.3588,6.8213,0.4212,54.888775,9.794899,108.3,5.845,1.85,335.95,54.887424,9.794388,54.895069,9.793790
1386769647,1,0,390.9,0,0,4,0,261,250,-0.0292,31.3588,6.8213,0.4212,54.888790,9.794915,108.3,5.845,1.85,335.95,54.887424,9.794388,54.895069,9.793790
1386769647,1,0,390.9,0,0,0,0,261,275,-0.0292,31.3588,6.8213,0.4212,54.888805,9.794931,108.3,5.845,1.85,335.95,54.887424,9.794388,54.895069,9.793790
1386769647,1,0,390.9,0,0,4,0,261,250,-0.0292,31.3588,6.8213,0.4212,54.888821,9.794948,108.3,5.845,1.85,335.95,54.887424,9.794388,54.895069,9.793790
1386769647,1,0,390.9,0,0,0,0,261,275,-0.0292,31.3588,6.8213,0.4212,54.888840,9.794964,108.3,5.845,1.85,335.95,54.887424,9.794388,54.895069,9.793790
1386769648,1,0,390.9,0,0,4,0,261,250,-0.0292,31.3588,6.8213,0.4212,54.888855,9.794980,108.3,5.845,1.85,335.95,54.887424,9.794388,54.895069,9.793790
1386769648,1,0,390.9,0,0,0,0,261,275,-0.0292,31.3588,6.8213,0.4212,54.888870,9.794996,108.3,5.845,1.85,335.95,54.887424,9.794388,54.895069,9.793790
1386769648,1,0,390.9,0,0,4,0,261,250,-0.0292,31.3588,6.8213,0.4212,54.888889,9.795012,108.3,5.845,1.85,335.95,54.887424,9.794388,54.895069,9.793790
1386769648,1,0,390.9,0,0,0,0,261,275,-0.0292,31.3588,6.8213,0.4212,54.888905,9.795029,108.3,5.845,1.85,335.95,54.887424,9.794388,54.895069,9.793790
1386769649,1,0,390.9,0,0,4,0,261,250,-0.0292,31.3588,6.8213,0.4212,54.888920,9.795045,108.3,5.845,1.85,335.95,54.887424,9.794388,54.895069,9.793790
1386769649,1,0,485.9,0,-35,0,0,261,275,-0.0292,40.6921,6.8213,0.4212,54.888935,9.795065,108.3,5.845,1.85,335.95,54.887424,9.794388,54.895069,9.793790
1386769649,1,0,485.9,0,-35,-4,0,292,300,-0.0292,50.0254,6.8213,0.4212,54.888947,9.795089,108.3,5.845,1.85,335.95,54.887424,9.794388,54.895069,9.793790
1386769649,1,0,485.9,0,-35,-8,0,324,325,-0.0292,59.3588,6.8213,0.4212,54.888954,9.795115,108.3,5.845,1.85,335.95,54.887424,9.794388,54.895069,9.793790
1386769650,1,0,485.9,0,-35,-12,0,357,350,-0.0292,68.6921,6.8213,0.4212,54.888962,9.795145,108.3,5.845,1.85,335.95,54.887424,9.794388,54.895069,9.793790
1386769650,1,0,485.9,0,-35,-16,0,391,375,-0.0292,78.0255,6.8213,0.4212,54.888966,9.795176,108.3,5.845,1.85,335.95,54.887424,9.794388,54.895069,9.793790
1386769650,1,0,485.9,0,-35,-20,0,423,400,-0.0292,87.3588,6.8213,0.4212,54.888969,9.795207,108.3,5.845,1.85,335.95,54.887424,9.794388,54.895069,9.793790
1386769650,1,0,485.9,0,-35,-24,0,453,425,-0.0292,96.6921,6.8213,0.4212,54.888969,9.795238,108.3,5.845,1.85,335.95,54.887424,9.794388,54.895069,9.793790
1386769651,1,0,485.9,0,-29,-28,0,478,450,-0.0292,104.4255,6.8213,0.4212,54.888966,9.795268,108.3,5.845,1.85,335.95,54.887424,9.794388,54.895069,9.793790
1386769651,1,0,485.9,0,-22,-24,0,492,475,-0.0292,110.2921,6.8213,0.4212,54.888962,9.795298,108.3,5.845,1.85,335.95,54.887424,9.794388,54.895069,9.793790
1386769651,1,0,485.9,0,-16,-20,0,496,500,-0.0292,114.5588,6.8213,0.4212,54.888954,9.795325,108.3,5.845,1.85,335.95,54.887424,9.794388,54.895069,9.793790
1386769652,1,0,485.9,0,-11,-16,0,291,475,-0.0292,117.4921,6.8213,0.4212,54.888947,9.795353,108.3,5.845,1.85,335.95,54.887424,9.794388,54.895069,9.793790
1386769652,1,0,485.9,0,-8,-12,0,291,450,-0.0292,119.6255,6.8213,0.4212,54.888935,9.795380,108.3,5.845,1.85,335.95,54.887424,9.794388,54.895069,9.793790
1386769652,1,0,545.9,0,-35,-16,0,291,425,-0.0292,128.9588,6.8213,0.4212,54.888924,9.795403,108.3,5.845,1.85,335.95,54.887424,9.794388,54.895069,9.793790
1386769652,1,0,545.9,0,-35,-20,0,291,400,-0.0292,138.2921,6.8213,0.4212,54.888908,9.795424,108.3,5.845,1.85,335.95,54.887424,9.794388,54.895069,9.793790
1386769653,1,0,545.9,0,-35,-24,0,291,375,-0.0292,147.6254,6.8213,0.4212,54.888893,9.795441,108.3,5.845,1.85,335.95,54.887424,9.794388,54.895069,9.793790
1386769653,1,0,545.9,0,-35,-28,0,496,400,-0.0292,156.9588,6.8213,0.4212,54.888878,9.795453,108.3,5.845,1.85,335.95,54.887424,9.794388,54.895069,9.793790
1386769653,1,0,545.9,0,-29,-32,0,496,425,-0.0292,164.6921,6.8213,0.4212,54.888859,9.795462,108.3,5.845,1.85,335.95,54.887424,9.794388,54.895069,9.793790
1386769653,1,0,545.9,0,-21,-28,0,496,450,-0.0292,170.2921,6.8213,0.4212,54.888840,9.795466,108.3,5.845,1.85,335.95,54.887424,9.794388,54.895069,9.793790
1386769654,1,0,545.9,0,-16,-24,0,291,425,-0.0292,174.5588,6.8213,0.4212,54.888824,9.795469,108.3,5.845,1.85,335.95,54.887424,9.794388,54.895069,9.793790
1386769654,1,0,545.9,0,-11,-20,0,291,400,-0.0292,177.4921,6.8213,0.4212,54.888805,9.795470,108.3,5.845,1.85,335.95,54.887424,9.794388,54.895069,9.793790
1386769654,1,0,280.9,0,-35,-24,0,291,375,-0.0292,186.8254,6.8213,0.4212,54.888786,9.795466,108.3,5.845,1.85,335.95,54.887424,9.794388,54.895069,9.793790
1386769654,1,0,280.9,0,-35,-28,0,291,350,-0.0292,196.1588,6.8213,0.4212,54.888771,9.795458,108.3,5.845,1.85,335.95,54.887424,9.794388,54.895069,9.793790
1386769655,1,0,280.9,0,-35,-32,0,291,325,-0.0292,205.4921,6.8213,0.4212,54.888756,9.795444,108.3,5.845,1.85,335.95,54.887424,9.794388,54.895069,9.793790
1386769655,1,0,280.9,0,-35,-36,0,494,350,-0.0292,214.8254,6.8213,0.4212,54.888741,9.795426,108.3,5.845,1.85,335.95,54.887424,9.794388,54.895069,9.793790
1386769655,1,0,280.9,0,-35,-32,0,479,375,-0.0292,224.1588,6.8213,0.4212,54.888729,9.795404,108.3,5.845,1.85,335.95,54.887424,9.794388,54.895069,9.793790
1386769655,1,0,280.9,0,-35,-36,0,454,400,-0.0292,233.4921,6.8213,0.4212,54.888718,9.795380,108.3,5.845,1.85,335.95,54.887424,9.794388,54.895069,9.793790
1386769656,1,0,280.9,0,-35,-32,0,424,425,-0.0292,242.8254,6.8213,0.4212,54.888710,9.795351,108.3,5.845,1.85,335.95,54.887424,9.794388,54.895069,9.793790
1386769656,1,0,280.9,0,-35,-36,0,392,400,-0.0292,252.1587,6.8213,0.4212,54.888702,9.795321,108.3,5.845,1.85,335.95,54.887424,9.794388,54.895069,9.793790
1386769656,1,0,280.9,0,-29,-32,0,359,375,-0.0292,259.8921,6.8213,0.4212,54.888699,9.795291,108.3,5.845,1.85,335.95,54.887424,9.794388,54.895069,9.793790
1386769656,1,0,280.9,0,-21,-28,0,331,350,-0.0292,265.4921,6.8213,0.4212,54.888699,9.795259,108.3,5.845,1.85,335.95,54.887424,9.794388,54.895069,9.793790
1386769657,1,0,280.9,0,-15,-24,0,312,325,-0.0292,269.4921,6.8213,0.4212,54.888702,9.795228,108.3,5.845,1.85,335.95,54.887424,9.794388,54.895069,9.793790
1386769657,0,0,280.9,0,-15,-24,0,312,325,-0.0292,269.4921,6.8213,0.4212,54.888702,9.795228,108.3,5.845,1.85,335.95,54.887424,9.794388,54.895069,9.793790
1386769657,0,0,280.9,0,-15,-24,0,312,325,-0.0292,269.4921,6.8213,0.4212,54.888702,9.795228,108.3,5.845,1.85,335.95,54.887424,9.794388,54.895069,9.793790
1386769657,0,0,280.9,0,-15,-24,0,312,325,-0.0292,269.4921,6.8213,0.4212,54.888702,9.795228,108.3,5.845,1.85,335.95,54.887424,9.794388,54.895069,9.793790
1386769658,0,0,280.9,0,-15,-24,0,312,325,-0.0292,269.4921,6.8213,0.4212,54.888702,9.795228,108.3,5.845,1.85,335.95,54.887424,9.794388,54.895069,9.793790
1386769658,0,0,280.9,0,-15,-24,0,312,325,-0.0292,269.4921,6.8213,0.4212,54.888702,9.795228,108.3,5.845,1.85,335.95,54.887424,9.794388,54.895069,9.793790
1386769658,0,0,280.9,0,-15,-24,0,312,325,-0.0292,269.4921,6.8213,0.4212,54.901741,9.792101,108.3,5.845,1.85,335.95,54.887424,9.794388,54.895069,9.793790
1386769658,0,0,280.9,0,-15,-24,0,312,325,-0.0292,269.4921,6.8213,0.4212,54.901741,9.792101,108.3,5.845,1.85,335.95,54.887424,9.794388,54.895069,9.793790
1386769659,0,0,280.9,0,-15,-24,0,312,325,-0.0292,269.4921,6.8213,0.4212,54.901741,9.792101,108.3,5.845,1.85,335.95,54.887424,9.794388,54.895069,9.793790
1386769659,0,0,280.9,0,-15,-24,0,312,325,-0.0292,269.4921,6.8213,0.4212,54.901741,9.792101,108.3,5.845,1.85,335.95,54.887424,9.794388,54.895069,9.793790
1386769659,0,0,280.9,0,-15,-24,0,312,325,-0.0292,269.4921,6.8213,0.4212,54.901741,9.792101,108.3,5.845,1.85,335.95,54.887424,9.794388,54.895069,9.793790
1386769659,0,0,280.9,0,-15,-24,0,312,325,-0.0292,269.4921,6.8213,0.4212,54.901741,9.792101,108.3,5.845,1.85,335.95,54.887424,9.794388,54.895069,9.793790
1386769660,0,0,280.9,0,-15,-24,0,312,325,-0.0292,269.4921,6.8213,0.4212,54.901741,9.792101,108.3,5.845,1.85,335.95,54.887424,9.794388,54.895069,9.793790
1386769660,4,0,280.9,0,-15,-24,0,312,325,-0.0292,269.4921,6.8213,0.4212,54.901741,9.792101,108.3,5.845,1.85,335.95,54.887424,9.794388,54.895069,9.793790
1386769660,1,0,545.9,0,35,-20,0,298,300,-0.0292,260.1587,6.8213,0.4212,54.901737,9.792070,108.3,5.845,1.85,335.95,54.901741,9.792101,54.895069,9.793790
1386769660,1,0,545.9,0,35,-16,0,330,325,-0.0292,250.8254,6.8213,0.4212,54.901730,9.792042,108.3,5.845,1.85,335.95,54.901741,9.792101,54.895069,9.793790
1386769661,1,0,545.9,0,35,-12,0,363,350,-0.0292,241.4921,6.8213,0.4212,54.901722,9.792014,108.3,5.845,1.85,335.95,54.901741,9.792101,54.895069,9.793790
1386769661,1,0,545.9,0,35,-8,0,397,375,-0.0292,232.1587,6.8213,0.4212,54.901711,9.791989,108.3,5.845,1.85,335.95,54.901741,9.792101,54.895069,9.793790
1386769661,1,0,545.9,0,35,-4,0,429,400,-0.0292,222.8254,6.8213,0.4212,54.901695,9.791967,108.3,5.845,1.85,335.95,54.901741,9.792101,54.895069,9.793790
1386769661,1,0,545.9,0,35,0,0,458,425,-0.0292,213.4921,6.8213,0.4212,54.901680,9.791950,108.3,5.845,1.85,335.95,54.901741,9.792101,54.895069,9.793790
1386769662,1,0,545.9,0,28,4,0,482,450,-0.0292,206.0254,6.8213,0.4212,54.901665,9.791936,108.3,5.845,1.85,335.95,54.901741,9.792101,54.895069,9.793790
1386769662,1,0,545.9,0,20,8,0,493,475,-0.0292,200.6921,6.8213,0.4212,54.901646,9.791925,108.3,5.845,1.85,335.95,54.901741,9.792101,54.895069,9.793790
1386769662,1,0,545.9,0,15,12,0,291,450,-0.0292,196.6921,6.8213,0.4212,54.901627,9.791917,108.3,5.845,1.85,335.95,54.901741,9.792101,54.895069,9.793790
1386769662,1,0,545.9,0,11,8,0,291,425,-0.0292,193.7588,6.8213,0.4212,54.901611,9.791909,108.3,5.845,1.85,335.95,54.901741,9.792101,54.895069,9.793790
1386769663,1,0,545.9,0,8,12,0,291,400,-0.0292,191.6254,6.8213,0.4212,54.901592,9.791903,108.3,5.845,1.85,335.95,54.901741,9.792101,54.895069,9.793790
1386769663,1,0,485.9,0,35,16,0,291,375,-0.0292,182.2921,6.8213,0.4212,54.901573,9.791901,108.3,5.845,1.85,335.95,54.901741,9.792101,54.895069,9.793790
1386769663,1,0,485.9,0,35,20,0,291,350,-0.0292,172.9588,6.8213,0.4212,54.901554,9.791904,108.3,5.845,1.85,335.95,54.901741,9.792101,54.895069,9.793790
1386769663,1,0,485.9,0,35,24,0,291,325,-0.0292,163.6254,6.8213,0.4212,54.901539,9.791913,108.3,5.845,1.85,335.95,54.901741,9.792101,54.895069,9.793790
1386769664,1,0,485.9,0,35,28,0,496,350,-0.0292,154.2921,6.8213,0.4212,54.901520,9.791926,108.3,5.845,1.85,335.95,54.901741,9.792101,54.895069,9.793790
1386769664,1,0,485.9,0,28,32,0,496,375,-0.0292,146.8255,6.8213,0.4212,54.901505,9.791944,108.3,5.845,1.85,335.95,54.901741,9.792101,54.895069,9.793790
1386769664,1,0,485.9,0,21,28,0,496,400,-0.0292,141.2254,6.8213,0.4212,54.901493,9.791964,108.3,5.845,1.85,335.95,54.901741,9.792101,54.895069,9.793790
1386769664,1,0,485.9,0,15,24,0,291,375,-0.0292,137.2254,6.8213,0.4212,54.901478,9.791985,108.3,5.845,1.85,335.95,54.901741,9.792101,54.895069,9.793790
1386769665,1,0,485.9,0,11,20,0,291,350,-0.0292,134.2921,6.8213,0.4212,54.901466,9.792007,108.3,5.845,1.85,335.95,54.901741,9.792101,54.895069,9.793790
1386769665,1,0,485.9,0,8,16,0,291,325,-0.0292,132.1588,6.8213,0.4212,54.901451,9.792030,108.3,5.845,1.85,335.95,54.901741,9.792101,54.895069,9.793790
1386769665,1,0,485.9,0,6,12,0,291,300,-0.0292,130.5588,6.8213,0.4212,54.901440,9.792054,108.3,5.845,1.85,335.95,54.901741,9.792101,54.895069,9.793790
1386769665,1,0,545.9,0,-35,8,0,291,275,-0.0292,139.8921,6.8213,0.4212,54.901424,9.792074,108.3,5.845,1.85,335.95,54.901741,9.792101,54.895069,9.793790
1386769666,1,0,545.9,0,-35,4,0,291,300,-0.0292,149.2254,6.8213,0.4212,54.901409,9.792089,108.3,5.845,1.85,335.95,54.901741,9.792101,54.895069,9.793790
1386769666,1,0,545.9,0,-35,0,0,496,325,-0.0292,158.5588,6.8213,0.4212,54.901394,9.792101,108.3,5.845,1.85,335.95,54.901741,9.792101,54.895069,9.793790
1386769666,1,0,545.9,0,-27,-4,0,496,350,-0.0292,165.7588,6.8213,0.4212,54.901375,9.792109,108.3,5.845,1.85,335.95,54.901741,9.792101,54.895069,9.793790
1386769666,1,0,545.9,0,-20,-8,0,496,375,-0.0292,171.0921,6.8213,0.4212,54.901356,9.792113,108.3,5.845,1.85,335.95,54.901741,9.792101,54.895069,9.793790
1386769667,1,0,545.9,0,-15,-12,0,291,350,-0.0292,175.0921,6.8213,0.4212,54.901337,9.792116,108.3,5.845,1.85,335.95,54.901741,9.792101,54.895069,9.793790
1386769667,1,0,545.9,0,-11,-8,0,291,325,-0.0292,178.0254,6.8213,0.4212,54.901321,9.792118,108.3,5.845,1.85,335.95,54.901741,9.792101,54.895069,9.793790
1386769667,1,0,545.9,0,-8,-4,0,291,300,-0.0292,180.1588,6.8213,0.4212,54.901302,9.792117,108.3,5.845,1.85,335.95,54.901741,9.792101,54.895069,9.793790
1386769667,1,0,545.9,0,-6,-8,0,291,275,-0.0292,181.7588,6.8213,0.4212,54.901283,9.792115,108.3,5.845,1.85,335.95,54.901741,9.792101,54.895069,9.793790
1386769668,1,0,485.9,0,35,-4,0,291,300,-0.0292,172.4254,6.8213,0.4212,54.901268,9.792120,108.3,5.845,1.85,335.95,54.901741,9.792101,54.895069,9.793790
1386769668,1,0,485.9,0,35,0,0,291,275,-0.0292,163.0921,6.8213,0.4212,54.901249,9.792129,108.3,5.845,1.85,335.95,54.901741,9.792101,54.895069,9.793790
1386769668,1,0,485.9,0,35,4,0,496,300,-0.0292,153.7588,6.8213,0.4212,54.901230,9.792142,108.3,5.845,1.85,335.95,54.901741,9.792101,54.895069,9.793790
1386769668,1,0,485.9,0,28,8,0,496,325,-0.0292,146.2921,6.8213,0.4212,54.901215,9.792159,108.3,5.845,1.85,335.95,54.901741,9.792101,54.895069,9.793790
1386769669,1,0,485.9,0,20,12,0,496,350,-0.0292,140.9588,6.8213,0.4212,54.901203,9.792179,108.3,5.845,1.85,335.95,54.901741,9.792101,54.895069,9.793790
1386769669,1,0,485.9,0,15,16,0,291,325,-0.0292,136.9588,6.8213,0.4212,54.901188,9.792200,108.3,5.845,1.85,335.95,54.901741,9.792101,54.895069,9.793790
1386769669,1,0,485.9,0,11,12,0,291,300,-0.0292,134.0255,6.8213,0.4212,54.901176,9.792223,108.3,5.845,1.85,335.95,54.901741,9.792101,54.895069,9.793790
1386769669,1,0,485.9,0,8,8,0,291,275,-0.0292,131.8921,6.8213,0.4212,54.901165,9.792246,108.3,5.845,1.85,335.95,54.901741,9.792101,54.895069,9.793790
1386769670,1,0,485.9,0,6,4,0,291,300,-0.0292,130.2921,6.8213,0.4212,54.901154,9.792269,108.3,5.845,1.85,335.95,54.901741,9.792101,54.895069,9.793790
1386769670,1,0,545.9,0,-35,0,0,291,275,-0.0292,139.6254,6.8213,0.4212,54.901138,9.792289,108.3,5.845,1.85,335.95,54.901741,9.792101,54.895069,9.793790
1386769670,1,0,545.9,0,-35,-4,0,291,300,-0.0292,148.9588,6.8213,0.4212,54.901123,9.792304,108.3,5.845,1.85,335.95,54.901741,9.792101,54.895069,9.793790
1386769670,1,0,545.9,0,-35,-8,0,496,325,-0.0292,158.2921,6.8213,0.4212,54.901104,9.792315,108.3,5.845,1.85,335.95,54.901741,9.792101,54.895069,9.793790
1386769671,1,0,545.9,0,-28,-12,0,496,350,-0.0292,165.7588,6.8213,0.4212,54.901085,9.792323,108.3,5.845,1.85,335.95,54.901741,9.792101,54.895069,9.793790
1386769671,1,0,545.9,0,-20,-16,0,496,375,-0.0292,171.0921,6.8213,0.4212,54.901066,9.792328,108.3,5.845,1.85,335.95,54.901741,9.792101,54.895069,9.793790
1386769671,1,0,545.9,0,-15,-12,0,291,350,-0.0292,175.0921,6.8213,0.4212,54.901051,9.792331,108.3,5.845,1.85,335.95,54.901741,9.792101,54.895069,9.793790
1386769671,1,0,545.9,0,-11,-8,0,291,325,-0.0292,178.0254,6.8213,0.4212,54.901031,9.792333,108.3,5.845,1.85,335.95,54.901741,9.792101,54.895069,9.793790
1386769672,1,0,545.9,0,-8,-4,0,291,300,-0.0292,180.1588,6.8213,0.4212,54.901012,9.792332,108.3,5.845,1.85,335.95,54.901741,9.792101,54.895069,9.793790
1386769672,1,0,545.9,0,-6,-8,0,291,275,-0.0292,181.7588,6.8213,0.4212,54.900993,9.792330,108.3,5.845,1.85,335.95,54.901741,9.792101,54.895069,9.793790
1386769672,1,0,485.9,0,35,-4,0,291,300,-0.0292,172.4254,6.8213,0.4212,54.900978,9.792335,108.3,5.845,1.85,335.95,54.901741,9.792101,54.895069,9.793790
1386769672,1,0,485.9,0,35,0,0,291,275,-0.0292,163.0921,6.8213,0.4212,54.900959,9.792343,108.3,5.845,1.85,335.95,54.901741,9.792101,54.895069,9.793790
1386769673,1,0,485.9,0,35,4,0,496,300,-0.0292,153.7588,6.8213,0.4212,54.900944,9.792356,108.3,5.845,1.85,335.95,54.901741,9.792101,54.895069,9.793790
1386769673,1,0,485.9,0,28,8,0,496,325,-0.0292,146.2921,6.8213,0.4212,54.900932,9.792374,108.3,5.845,1.85,335.95,54.901741,9.792101,54.895069,9.793790
1386769673,1,0,485.9,0,20,12,0,496,350,-0.0292,140.9588,6.8213,0.4212,54.900917,9.792394,108.3,5.845,1.85,335.95,54.901741,9.792101,54.895069,9.793790
1386769673,1,0,485.9,0,15,16,0,291,325,-0.0292,136.9588,6.8213,0.4212,54.900906,9.792415,108.3,5.845,1.85,335.95,54.901741,9.792101,54.895069,9.793790
1386769674,1,0,485.9,0,11,12,0,291,300,-0.0292,134.0255,6.8213,0.4212,54.900890,9.792438,108.3,5.845,1.85,335.95,54.901741,9.792101,54.895069,9.793790
1386769674,1,0,485.9,0,8,8,0,291,275,-0.0292,131.8921,6.8213,0.4212,54.900879,9.792460,108.3,5.845,1.85,335.95,54.901741,9.792101,54.895069,9.793790
