MCU_timestamp,Navigation_System,Manual_Control,Guidance_Heading,Manual_Ctrl_Rudder,Rudder_Desired_Angle,Rudder_Feedback,Manual_Ctrl_Sail,Sail_Desired_Pos,Sail_Feedback,Rate,Heading,Pitch,Roll,Latitude,Longitude,COG,SOG,Wind_Speed,Wind_Angle,Point_Start_Lat,Point_Start_Lon,Point_End_Lat,Point_End_Lon
1389978425,0,0,0.0,0,0,0,0,0,0,-0.0292,167.9589,6.8213,0.4212,54.888954,9.787381,108.3,5.845,1.85,335.95,0.000000,0.000000,0.000000,0.000000
1389978425,0,0,0.0,0,0,0,0,0,0,-0.0292,167.9589,6.8213,0.4212,54.888954,9.787381,108.3,5.845,1.85,335.95,0.000000,0.000000,0.000000,0.000000
1389978426,0,0,0.0,0,0,0,0,0,0,-0.0292,167.9589,6.8213,0.4212,54.888954,9.787381,108.3,5.845,1.85,335.95,0.000000,0.000000,0.000000,0.000000
1389978426,0,0,0.0,0,0,0,0,0,0,-0.0292,167.9589,6.8213,0.4212,54.888954,9.787381,108.3,5.845,1.85,335.95,0.000000,0.000000,0.000000,0.000000
1389978426,0,0,0.0,0,0,0,0,0,0,-0.0292,167.9589,6.8213,0.4212,54.888954,9.787381,108.3,5.845,1.85,335.95,0.000000,0.000000,0.000000,0.000000
1389978426,0,0,0.0,0,0,0,0,0,0,-0.0292,167.9589,6.8213,0.4212,54.888954,9.787381,108.3,5.845,1.85,335.95,0.000000,0.000000,0.000000,0.000000
1389978427,0,0,0.0,0,0,0,0,0,0,-0.0292,167.9589,6.8213,0.4212,54.888954,9.787381,108.3,5.845,1.85,335.95,0.000000,0.000000,0.000000,0.000000
1389978427,0,0,0.0,0,0,0,0,0,0,-0.0292,167.9589,6.8213,0.4212,54.888954,9.787381,108.3,5.845,1.85,335.95,0.000000,0.000000,0.000000,0.000000
1389978427,0,0,0.0,0,0,0,0,0,0,-0.0292,167.9589,6.8213,0.4212,54.888954,9.787381,108.3,5.845,1.85,335.95,0.000000,0.000000,0.000000,0.000000
1389978427,0,0,0.0,0,0,0,0,0,0,-0.0292,167.9589,6.8213,0.4212,54.888954,9.787381,108.3,5.845,1.85,335.95,0.000000,0.000000,0.000000,0.000000
1389978428,0,0,0.0,0,0,0,0,0,0,-0.0292,167.9589,6.8213,0.4212,54.888954,9.787381,108.3,5.845,1.85,335.95,0.000000,0.000000,0.000000,0.000000
1389978428,0,0,0.0,0,0,0,0,0,0,-0.0292,167.9589,6.8213,0.4212,54.888954,9.787381,108.3,5.845,1.85,335.95,0.000000,0.000000,0.000000,0.000000
1389978428,0,0,0.0,0,0,0,0,0,0,-0.0292,167.9589,6.8213,0.4212,54.888954,9.787381,108.3,5.845,1.85,335.95,0.000000,0.000000,0.000000,0.000000
1389978428,0,0,0.0,0,0,0,0,0,0,-0.0292,167.9589,6.8213,0.4212,54.888954,9.787381,108.3,5.845,1.85,335.95,0.000000,0.000000,0.000000,0.000000
1389978429,0,0,0.0,0,0,0,0,0,0,-0.0292,167.9589,6.8213,0.4212,54.888954,9.787381,108.3,5.845,1.85,335.95,0.000000,0.000000,0.000000,0.000000
1389978429,4,0,0.0,0,0,0,0,0,0,-0.0292,167.9589,6.8213,0.4212,54.888954,9.787381,108.3,5.845,1.85,335.95,0.000000,0.000000,0.000000,0.000000
1389978429,1,0,0.0,0,-12,-4,0,713,100,-0.0292,171.9589,6.8213,0.4212,54.888935,9.787386,108.3,5.845,1.85,335.95,54.895069,9.793790,54.895348,9.797490
1389978429,1,0,0.0,0,2,0,0,713,150,-0.0292,171.2923,6.8213,0.4212,54.888916,9.787391,108.3,5.845,1.85,335.95,54.895348,9.797490,54.894039,9.801540
1389978430,1,0,0.0,0,1,4,0,713,200,-0.0292,170.9589,6.8213,0.4212,54.888901,9.787395,108.3,5.845,1.85,335.95,54.894039,9.801540,54.893795,9.802299
1389978430,1,0,0.0,0,1,0,0,713,250,-0.0292,170.6256,6.8213,0.4212,54.888882,9.787401,108.3,5.845,1.85,335.95,54.893795,9.802299,54.893364,9.803688
1389978430,1,0,0.0,0,1,4,0,713,300,-0.0292,170.2923,6.8213,0.4212,54.888863,9.787407,108.3,5.845,1.85,335.95,54.893364,9.803688,54.892704,9.801139
1389978430,1,0,0.0,0,0,0,0,713,350,-0.0292,170.2923,6.8213,0.4212,54.888847,9.787412,108.3,5.845,1.85,335.95,54.892704,9.801139,54.891663,9.800174
1389978431,1,0,0.0,0,0,4,0,713,400,-0.0292,170.2923,6.8213,0.4212,54.888828,9.787416,108.3,5.845,1.85,335.95,54.891663,9.800174,54.892929,9.805077
1389978431,1,0,0.0,0,0,0,0,713,450,-0.0292,170.2923,6.8213,0.4212,54.888809,9.787421,108.3,5.845,1.85,335.95,54.892929,9.805077,54.892498,9.806466
1389978431,1,0,0.0,0,0,4,0,713,500,-0.0292,170.2923,6.8213,0.4212,54.888790,9.787426,108.3,5.845,1.85,335.95,54.892498,9.806466,54.891232,9.801563
1389978431,1,0,0.0,0,0,0,0,713,550,-0.0292,170.2923,6.8213,0.4212,54.888775,9.787432,108.3,5.845,1.85,335.95,54.891232,9.801563,54.890800,9.802953
1389978432,1,0,0.0,0,0,4,0,713,600,-0.0292,170.2923,6.8213,0.4212,54.888756,9.787437,108.3,5.845,1.85,335.95,54.890800,9.802953,54.891651,9.806246
1389978432,1,0,0.0,0,0,0,0,713,650,-0.0292,170.2923,6.8213,0.4212,54.888737,9.787443,108.3,5.845,1.85,335.95,54.891651,9.806246,54.890560,9.805087
1389978432,1,0,0.0,0,0,4,0,713,700,-0.0292,170.2923,6.8213,0.4212,54.888718,9.787449,108.3,5.845,1.85,335.95,54.890560,9.805087,54.890366,9.804342
1389978432,1,0,0.0,0,0,0,0,713,750,-0.0292,170.2923,6.8213,0.4212,54.888702,9.787454,108.3,5.845,1.85,335.95,54.890366,9.804342,54.890846,9.801930
1389978433,1,0,0.0,0,0,4,0,713,700,-0.0292,170.2923,6.8213,0.4212,54.888683,9.787458,108.3,5.845,1.85,335.95,54.890846,9.801930,54.889477,9.798280
1389978433,1,0,0.0,0,0,0,0,713,750,-0.0292,170.2923,6.8213,0.4212,54.888664,9.787463,108.3,5.845,1.85,335.95,54.889477,9.798280,54.891819,9.794550
1389978433,1,0,0.0,0,0,4,0,713,700,-0.0292,170.2923,6.8213,0.4212,54.888645,9.787468,108.3,5.845,1.85,335.95,54.891819,9.794550,54.895348,9.797490
1389978433,1,0,0.0,0,0,0,0,713,750,-0.0292,170.2923,6.8213,0.4212,54.888630,9.787474,108.3,5.845,1.85,335.95,54.895348,9.797490,54.895069,9.793790
1389978434,1,0,0.0,0,0,4,0,713,700,-0.0292,170.2923,6.8213,0.4212,54.888611,9.787479,108.3,5.845,1.85,335.95,54.895348,9.797490,54.895069,9.793790
1389978434,3,0,0.0,0,0,0,0,713,750,-0.0292,170.2923,6.8213,0.4212,54.888592,9.787485,108.3,5.845,1.85,335.95,54.895348,9.797490,54.888611,9.787479
1389978434,3,0,0.0,0,0,4,0,713,700,-0.0292,170.2923,6.8213,0.4212,54.888577,9.787491,108.3,5.845,1.85,335.95,54.895348,9.797490,54.888611,9.787479
1389978434,3,0,0.0,0,10,8,0,713,750,-0.0292,166.9589,6.8213,0.4212,54.888557,9.787498,108.3,5.845,1.85,335.95,54.895348,9.797490,54.888611,9.787479
1389978435,3,0,0.0,0,7,4,0,713,700,-0.0292,164.6256,6.8213,0.4212,54.888538,9.787505,108.3,5.845,1.85,335.95,54.895348,9.797490,54.888611,9.787479
1389978435,3,0,0.0,0,5,8,0,0,650,-0.0292,162.9589,6.8213,0.4212,54.888519,9.787515,108.3,5.845,1.85,335.95,54.895348,9.797490,54.888611,9.787479
1389978435,3,0,0.0,0,3,4,0,0,600,-0.0292,161.9589,6.8213,0.4212,54.888504,9.787524,108.3,5.845,1.85,335.95,54.895348,9.797490,54.888611,9.787479
1389978435,3,0,0.0,0,2,0,0,0,550,-0.0292,161.2923,6.8213,0.4212,54.888485,9.787535,108.3,5.845,1.85,335.95,54.895348,9.797490,54.888611,9.787479
1389978436,3,0,0.0,0,1,4,0,0,500,-0.0292,160.9589,6.8213,0.4212,54.888466,9.787544,108.3,5.845,1.85,335.95,54.895348,9.797490,54.888611,9.787479
1389978436,3,0,0.0,0,1,0,0,0,450,-0.0292,160.6256,6.8213,0.4212,54.888451,9.787555,108.3,5.845,1.85,335.95,54.895348,9.797490,54.888611,9.787479
1389978436,3,0,0.0,0,1,4,0,0,400,-0.0292,160.2923,6.8213,0.4212,54.888435,9.787565,108.3,5.845,1.85,335.95,54.895348,9.797490,54.888611,9.787479
1389978436,3,0,0.0,0,0,0,0,0,350,-0.0292,160.2923,6.8213,0.4212,54.888416,9.787576,108.3,5.845,1.85,335.95,54.895348,9.797490,54.888611,9.787479
1389978437,3,0,0.0,0,0,4,0,0,300,-0.0292,160.2923,6.8213,0.4212,54.888401,9.787586,108.3,5.845,1.85,335.95,54.895348,9.797490,54.888611,9.787479
1389978437,3,0,0.0,0,0,0,0,0,250,-0.0292,160.2923,6.8213,0.4212,54.888386,9.787597,108.3,5.845,1.85,335.95,54.895348,9.797490,54.888611,9.787479
1389978437,3,0,0.0,0,0,4,0,0,200,-0.0292,160.2923,6.8213,0.4212,54.888367,9.787607,108.3,5.845,1.85,335.95,54.895348,9.797490,54.888611,9.787479
1389978437,3,0,0.0,0,0,0,0,0,150,-0.0292,160.2923,6.8213,0.4212,54.888351,9.787618,108.3,5.845,1.85,335.95,54.895348,9.797490,54.888611,9.787479
1389978438,3,0,0.0,0,0,4,0,0,100,-0.0292,160.2923,6.8213,0.4212,54.888336,9.787628,108.3,5.845,1.85,335.95,54.895348,9.797490,54.888611,9.787479
1389978438,3,0,0.0,0,0,0,0,0,50,-0.0292,160.2923,6.8213,0.4212,54.888317,9.787639,108.3,5.845,1.85,335.95,54.895348,9.797490,54.888611,9.787479
1389978438,3,0,0.0,0,0,4,0,0,0,-0.0292,160.2923,6.8213,0.4212,54.888302,9.787649,108.3,5.845,1.85,335.95,54.895348,9.797490,54.888611,9.787479
1389978438,3,0,0.0,0,0,0,0,0,0,-0.0292,160.2923,6.8213,0.4212,54.888287,9.787660,108.3,5.845,1.85,335.95,54.895348,9.797490,54.888611,9.787479
1389978439,3,0,0.0,0,0,4,0,0,0,-0.0292,160.2923,6.8213,0.4212,54.888268,9.787670,108.3,5.845,1.85,335.95,54.895348,9.797490,54.888611,9.787479
1389978439,3,0,0.0,0,0,0,0,0,0,-0.0292,160.2923,6.8213,0.4212,54.888248,9.787681,108.3,5.845,1.85,335.95,54.895348,9.797490,54.888611,9.787479
1389978439,3,0,0.0,0,0,4,0,0,0,-0.0292,160.2923,6.8213,0.4212,54.888233,9.787691,108.3,5.845,1.85,335.95,54.895348,9.797490,54.888611,9.787479
1389978439,3,0,0.0,0,10,8,0,0,0,-0.0292,156.9590,6.8213,0.4212,54.888214,9.787704,108.3,5.845,1.85,335.95,54.895348,9.797490,54.888611,9.787479
1389978440,3,0,0.0,0,7,4,0,0,0,-0.0292,154.6256,6.8213,0.4212,54.888195,9.787717,108.3,5.845,1.85,335.95,54.895348,9.797490,54.888611,9.787479
1389978440,3,0,0.0,0,5,8,0,0,0,-0.0292,152.9590,6.8213,0.4212,54.888180,9.787731,108.3,5.845,1.85,335.95,54.895348,9.797490,54.888611,9.787479
1389978440,3,0,0.0,0,3,4,0,0,0,-0.0292,151.9590,6.8213,0.4212,54.888165,9.787746,108.3,5.845,1.85,335.95,54.895348,9.797490,54.888611,9.787479
1389978440,3,0,0.0,0,2,0,0,0,0,-0.0292,151.2923,6.8213,0.4212,54.888149,9.787761,108.3,5.845,1.85,335.95,54.895348,9.797490,54.888611,9.787479
1389978441,3,0,0.0,0,1,4,0,0,0,-0.0292,150.9590,6.8213,0.4212,54.888134,9.787776,108.3,5.845,1.85,335.95,54.895348,9.797490,54.888611,9.787479
1389978441,3,0,0.0,0,1,0,0,0,0,-0.0292,150.6256,6.8213,0.4212,54.888115,9.787791,108.3,5.845,1.85,335.95,54.895348,9.797490,54.888611,9.787479
1389978441,3,0,0.0,0,1,4,0,0,0,-0.0292,150.2923,6.8213,0.4212,54.888100,9.787807,108.3,5.845,1.85,335.95,54.895348,9.797490,54.888611,9.787479
1389978441,3,0,0.0,0,0,0,0,0,0,-0.0292,150.2923,6.8213,0.4212,54.888084,9.787822,108.3,5.845,1.85,335.95,54.895348,9.797490,54.888611,9.787479
1389978442,3,0,0.0,0,0,4,0,0,0,-0.0292,150.2923,6.8213,0.4212,54.888065,9.787838,108.3,5.845,1.85,335.95,54.895348,9.797490,54.888611,9.787479
1389978442,3,0,0.0,0,0,0,0,0,0,-0.0292,150.2923,6.8213,0.4212,54.888050,9.787853,108.3,5.845,1.85,335.95,54.895348,9.797490,54.888611,9.787479
1389978442,3,0,0.0,0,0,4,0,0,0,-0.0292,150.2923,6.8213,0.4212,54.888035,9.787868,108.3,5.845,1.85,335.95,54.895348,9.797490,54.888611,9.787479
1389978442,3,0,0.0,0,0,0,0,0,0,-0.0292,150.2923,6.8213,0.4212,54.888020,9.787885,108.3,5.845,1.85,335.95,54.895348,9.797490,54.888611,9.787479
1389978443,3,0,0.0,0,0,4,0,0,0,-0.0292,150.2923,6.8213,0.4212,54.888004,9.787900,108.3,5.845,1.85,335.95,54.895348,9.797490,54.888611,9.787479
1389978443,3,0,0.0,0,0,0,0,0,0,-0.0292,150.2923,6.8213,0.4212,54.887989,9.787915,108.3,5.845,1.85,335.95,54.895348,9.797490,54.888611,9.787479
1389978443,3,0,0.0,0,0,4,0,0,0,-0.0292,150.2923,6.8213,0.4212,54.887970,9.787931,108.3,5.845,1.85,335.95,54.895348,9.797490,54.888611,9.787479
1389978443,3,0,0.0,0,0,0,0,0,0,-0.0292,150.2923,6.8213,0.4212,54.887955,9.787947,108.3,5.845,1.85,335.95,54.895348,9.797490,54.888611,9.787479
1389978444,3,0,0.0,0,0,4,0,0,0,-0.0292,150.2923,6.8213,0.4212,54.887939,9.787962,108.3,5.845,1.85,335.95,54.895348,9.797490,54.888611,9.787479
1389978444,3,0,0.0,0,0,0,0,0,0,-0.0292,150.2923,6.8213,0.4212,54.887920,9.787977,108.3,5.845,1.85,335.95,54.895348,9.797490,54.888611,9.787479
1389978444,3,0,0.0,0,0,4,0,0,0,-0.0292,150.2923,6.8213,0.4212,54.887905,9.787992,108.3,5.845,1.85,335.95,54.895348,9.797490,54.888611,9.787479
1389978444,3,0,0.0,0,-10,0,0,0,0,-0.0292,153.6256,6.8213,0.4212,54.887890,9.788007,108.3,5.845,1.85,335.95,54.895348,9.797490,54.888611,9.787479
1389978445,3,0,0.0,0,-6,-4,0,0,0,-0.0292,155.6256,6.8213,0.4212,54.887871,9.788019,108.3,5.845,1.85,335.95,54.895348,9.797490,54.888611,9.787479
1389978445,3,0,0.0,0,-4,0,0,0,0,-0.0292,156.9590,6.8213,0.4212,54.887852,9.788032,108.3,5.845,1.85,335.95,54.895348,9.797490,54.888611,9.787479
1389978445,3,0,0.0,0,-3,-4,0,0,0,-0.0292,157.9590,6.8213,0.4212,54.887836,9.788043,108.3,5.845,1.85,335.95,54.895348,9.797490,54.888611,9.787479
1389978445,3,0,0.0,0,-2,0,0,0,0,-0.0292,158.6256,6.8213,0.4212,54.887821,9.788054,108.3,5.845,1.85,335.95,54.895348,9.797490,54.888611,9.787479
1389978446,3,0,0.0,0,-1,-4,0,0,0,-0.0292,158.9590,6.8213,0.4212,54.887802,9.788065,108.3,5.845,1.85,335.95,54.895348,9.797490,54.888611,9.787479
1389978446,3,0,0.0,0,-1,0,0,0,0,-0.0292,159.2923,6.8213,0.4212,54.887787,9.788076,108.3,5.845,1.85,335.95,54.895348,9.797490,54.888611,9.787479
1389978446,3,0,0.0,0,-1,-4,0,0,0,-0.0292,159.6256,6.8213,0.4212,54.887772,9.788088,108.3,5.845,1.85,335.95,54.895348,9.797490,54.888611,9.787479
1389978446,3,0,0.0,0,0,0,0,0,0,-0.0292,159.6256,6.8213,0.4212,54.887753,9.788098,108.3,5.845,1.85,335.95,54.895348,9.797490,54.888611,9.787479
1389978447,3,0,0.0,0,0,4,0,0,0,-0.0292,159.6256,6.8213,0.4212,54.887737,9.788109,108.3,5.845,1.85,335.95,54.895348,9.797490,54.888611,9.787479
1389978447,3,0,0.0,0,0,0,0,0,0,-0.0292,159.6256,6.8213,0.4212,54.887722,9.788119,108.3,5.845,1.85,335.95,54.895348,9.797490,54.888611,9.787479
1389978447,3,0,0.0,0,0,4,0,0,0,-0.0292,159.6256,6.8213,0.4212,54.887703,9.788131,108.3,5.845,1.85,335.95,54.895348,9.797490,54.888611,9.787479
1389978447,3,0,0.0,0,0,0,0,0,0,-0.0292,159.6256,6.8213,0.4212,54.887688,9.788141,108.3,5.845,1.85,335.95,54.895348,9.797490,54.888611,9.787479
1389978448,3,0,0.0,0,0,4,0,0,0,-0.0292,159.6256,6.8213,0.4212,54.887672,9.788152,108.3,5.845,1.85,335.95,54.895348,9.797490,54.888611,9.787479
1389978448,3,0,0.0,0,0,0,0,0,0,-0.0292,159.6256,6.8213,0.4212,54.887653,9.788162,108.3,5.845,1.85,335.95,54.895348,9.797490,54.888611,9.787479
1389978448,3,0,0.0,0,0,4,0,0,0,-0.0292,159.6256,6.8213,0.4212,54.887638,9.788174,108.3,5.845,1.85,335.95,54.895348,9.797490,54.888611,9.787479
1389978448,3,0,0.0,0,0,0,0,0,0,-0.0292,159.6256,6.8213,0.4212,54.887623,9.788184,108.3,5.845,1.85,335.95,54.895348,9.797490,54.888611,9.787479
1389978449,3,0,0.0,0,0,4,0,0,0,-0.0292,159.6256,6.8213,0.4212,54.887604,9.788195,108.3,5.845,1.85,335.95,54.895348,9.797490,54.888611,9.787479
1389978449,3,0,0.0,0,0,0,0,0,0,-0.0292,159.6256,6.8213,0.4212,54.887589,9.788205,108.3,5.845,1.85,335.95,54.895348,9.797490,54.888611,9.787479
1389978449,3,0,0.0,0,0,4,0,0,0,-0.0292,159.6256,6.8213,0.4212,54.887573,9.788217,108.3,5.845,1.85,335.95,54.895348,9.797490,54.888611,9.787479
1389978449,3,0,0.0,0,-10,0,0,0,0,-0.0292,162.9589,6.8213,0.4212,54.887554,9.788225,108.3,5.845,1.85,335.95,54.895348,9.797490,54.888611,9.787479
1389978450,3,0,0.0,0,-7,-4,0,0,0,-0.0292,165.2923,6.8213,0.4212,54.887535,9.788233,108.3,5.845,1.85,335.95,54.895348,9.797490,54.888611,9.787479
1389978450,3,0,0.0,0,-5,-8,0,0,0,-0.0292,166.9589,6.8213,0.4212,54.887520,9.788239,108.3,5.845,1.85,335.95,54.895348,9.797490,54.888611,9.787479
1389978450,3,0,0.0,0,-3,-4,0,713,50,-0.0292,167.9589,6.8213,0.4212,54.887501,9.788246,108.3,5.845,1.85,335.95,54.895348,9.797490,54.888611,9.787479
1389978450,3,0,0.0,0,-2,0,0,713,100,-0.0292,168.6256,6.8213,0.4212,54.887482,9.788253,108.3,5.845,1.85,335.95,54.895348,9.797490,54.888611,9.787479
1389978451,3,0,0.0,0,-1,-4,0,713,150,-0.0292,168.9589,6.8213,0.4212,54.887463,9.788260,108.3,5.845,1.85,335.95,54.895348,9.797490,54.888611,9.787479
1389978451,3,0,0.0,0,-1,0,0,713,200,-0.0292,169.2923,6.8213,0.4212,54.887447,9.788265,108.3,5.845,1.85,335.95,54.895348,9.797490,54.888611,9.787479
1389978451,3,0,0.0,0,-1,-4,0,713,250,-0.0292,169.6256,6.8213,0.4212,54.887428,9.788271,108.3,5.845,1.85,335.95,54.895348,9.797490,54.888611,9.787479
1389978451,3,0,0.0,0,0,0,0,713,300,-0.0292,169.6256,6.8213,0.4212,54.887409,9.788277,108.3,5.845,1.85,335.95,54.895348,9.797490,54.888611,9.787479
1389978452,3,0,0.0,0,0,4,0,713,350,-0.0292,169.6256,6.8213,0.4212,54.887390,9.788282,108.3,5.845,1.85,335.95,54.895348,9.797490,54.888611,9.787479
1389978452,3,0,0.0,0,0,0,0,713,400,-0.0292,169.6256,6.8213,0.4212,54.887375,9.788288,108.3,5.845,1.85,335.95,54.895348,9.797490,54.888611,9.787479
1389978452,3,0,0.0,0,0,4,0,713,450,-0.0292,169.6256,6.8213,0.4212,54.887356,9.788294,108.3,5.845,1.85,335.95,54.895348,9.797490,54.888611,9.787479
1389978452,3,0,0.0,0,0,0,0,713,500,-0.0292,169.6256,6.8213,0.4212,54.887337,9.788300,108.3,5.845,1.85,335.95,54.895348,9.797490,54.888611,9.787479
1389978453,3,0,0.0,0,0,4,0,713,550,-0.0292,169.6256,6.8213,0.4212,54.887318,9.788305,108.3,5.845,1.85,335.95,54.895348,9.797490,54.888611,9.787479
1389978453,3,0,0.0,0,0,0,0,713,600,-0.0292,169.6256,6.8213,0.4212,54.887302,9.788310,108.3,5.845,1.85,335.95,54.895348,9.797490,54.888611,9.787479
1389978453,3,0,0.0,0,0,4,0,713,650,-0.0292,169.6256,6.8213,0.4212,54.887283,9.788316,108.3,5.845,1.85,335.95,54.895348,9.797490,54.888611,9.787479
1389978453,3,0,0.0,0,0,0,0,713,700,-0.0292,169.6256,6.8213,0.4212,54.887264,9.788321,108.3,5.845,1.85,335.95,54.895348,9.797490,54.888611,9.787479
1389978454,3,0,0.0,0,0,4,0,713,750,-0.0292,169.6256,6.8213,0.4212,54.887249,9.788327,108.3,5.845,1.85,335.95,54.895348,9.797490,54.888611,9.787479
1389978454,3,0,0.0,0,0,0,0,713,700,-0.0292,169.6256,6.8213,0.4212,54.887230,9.788333,108.3,5.845,1.85,335.95,54.895348,9.797490,54.888611,9.787479
1389978454,3,0,0.0,0,0,4,0,713,750,-0.0292,169.6256,6.8213,0.4212,54.887211,9.788339,108.3,5.845,1.85,335.95,54.895348,9.797490,54.888611,9.787479
1389978454,3,0,0.0,0,10,8,0,713,700,-0.0292,166.2923,6.8213,0.4212,54.887192,9.788346,108.3,5.845,1.85,335.95,54.895348,9.797490,54.888611,9.787479
1389978455,3,0,0.0,0,6,4,0,713,750,-0.0292,164.2923,6.8213,0.4212,54.887177,9.788354,108.3,5.845,1.85,335.95,54.895348,9.797490,54.888611,9.787479
1389978455,3,0,0.0,0,4,8,0,0,700,-0.0292,162.9589,6.8213,0.4212,54.887157,9.788363,108.3,5.845,1.85,335.95,54.895348,9.797490,54.888611,9.787479
1389978455,3,0,0.0,0,3,4,0,0,650,-0.0292,161.9589,6.8213,0.4212,54.887138,9.788372,108.3,5.845,1.85,335.95,54.895348,9.797490,54.888611,9.787479
1389978455,3,0,0.0,0,2,0,0,0,600,-0.0292,161.2923,6.8213,0.4212,54.887123,9.788383,108.3,5.845,1.85,335.95,54.895348,9.797490,54.888611,9.787479
1389978456,3,0,0.0,0,1,4,0,0,550,-0.0292,160.9589,6.8213,0.4212,54.887108,9.788393,108.3,5.845,1.85,335.95,54.895348,9.797490,54.888611,9.787479
1389978456,3,0,0.0,0,1,0,0,0,500,-0.0292,160.6256,6.8213,0.4212,54.887089,9.788403,108.3,5.845,1.85,335.95,54.895348,9.797490,54.888611,9.787479
1389978456,3,0,0.0,0,1,4,0,0,450,-0.0292,160.2923,6.8213,0.4212,54.887074,9.788413,108.3,5.845,1.85,335.95,54.895348,9.797490,54.888611,9.787479
1389978456,3,0,0.0,0,0,0,0,0,400,-0.0292,160.2923,6.8213,0.4212,54.887058,9.788424,108.3,5.845,1.85,335.95,54.895348,9.797490,54.888611,9.787479
1389978457,3,0,0.0,0,0,4,0,0,350,-0.0292,160.2923,6.8213,0.4212,54.887039,9.788434,108.3,5.845,1.85,335.95,54.895348,9.797490,54.888611,9.787479
1389978457,3,0,0.0,0,0,0,0,0,300,-0.0292,160.2923,6.8213,0.4212,54.887024,9.788445,108.3,5.845,1.85,335.95,54.895348,9.797490,54.888611,9.787479
1389978457,3,0,0.0,0,0,4,0,0,250,-0.0292,160.2923,6.8213,0.4212,54.887009,9.788455,108.3,5.845,1.85,335.95,54.895348,9.797490,54.888611,9.787479
1389978457,3,0,0.0,0,0,0,0,0,200,-0.0292,160.2923,6.8213,0.4212,54.886990,9.788465,108.3,5.845,1.85,335.95,54.895348,9.797490,54.888611,9.787479
1389978458,3,0,0.0,0,0,4,0,0,150,-0.0292,160.2923,6.8213,0.4212,54.886974,9.788476,108.3,5.845,1.85,335.95,54.895348,9.797490,54.888611,9.787479
1389978458,3,0,0.0,0,0,0,0,0,100,-0.0292,160.2923,6.8213,0.4212,54.886959,9.788486,108.3,5.845,1.85,335.95,54.895348,9.797490,54.888611,9.787479
1389978458,3,0,0.0,0,0,4,0,0,50,-0.0292,160.2923,6.8213,0.4212,54.886940,9.788497,108.3,5.845,1.85,335.95,54.895348,9.797490,54.888611,9.787479
1389978458,3,0,0.0,0,0,0,0,0,0,-0.0292,160.2923,6.8213,0.4212,54.886925,9.788507,108.3,5.845,1.85,335.95,54.895348,9.797490,54.888611,9.787479
1389978459,3,0,0.0,0,0,4,0,0,0,-0.0292,160.2923,6.8213,0.4212,54.886909,9.788518,108.3,5.845,1.85,335.95,54.895348,9.797490,54.888611,9.787479
1389978459,3,0,0.0,0,0,0,0,0,0,-0.0292,160.2923,6.8213,0.4212,54.886890,9.788528,108.3,5.845,1.85,335.95,54.895348,9.797490,54.888611,9.787479
1389978459,3,0,0.0,0,0,4,0,0,0,-0.0292,160.2923,6.8213,0.4212,54.886875,9.788539,108.3,5.845,1.85,335.95,54.895348,9.797490,54.888611,9.787479
1389978459,3,0,0.0,0,10,8,0,0,0,-0.0292,156.9590,6.8213,0.4212,54.886860,9.788551,108.3,5.845,1.85,335.95,54.895348,9.797490,54.888611,9.787479
1389978460,3,0,0.0,0,7,4,0,0,0,-0.0292,154.6256,6.8213,0.4212,54.886841,9.788565,108.3,5.845,1.85,335.95,54.895348,9.797490,54.888611,9.787479
1389978460,3,0,0.0,0,5,8,0,0,0,-0.0292,152.9590,6.8213,0.4212,54.886826,9.788579,108.3,5.845,1.85,335.95,54.895348,9.797490,54.888611,9.787479
1389978460,3,0,0.0,0,3,4,0,0,0,-0.0292,151.9590,6.8213,0.4212,54.886810,9.788593,108.3,5.845,1.85,335.95,54.895348,9.797490,54.888611,9.787479
1389978460,3,0,0.0,0,2,0,0,0,0,-0.0292,151.2923,6.8213,0.4212,54.886795,9.788609,108.3,5.845,1.85,335.95,54.895348,9.797490,54.888611,9.787479
1389978461,3,0,0.0,0,1,4,0,0,0,-0.0292,150.9590,6.8213,0.4212,54.886780,9.788624,108.3,5.845,1.85,335.95,54.895348,9.797490,54.888611,9.787479
1389978461,3,0,0.0,0,1,0,0,0,0,-0.0292,150.6256,6.8213,0.4212,54.886765,9.788639,108.3,5.845,1.85,335.95,54.895348,9.797490,54.888611,9.787479
1389978461,3,0,0.0,0,1,4,0,0,0,-0.0292,150.2923,6.8213,0.4212,54.886749,9.788655,108.3,5.845,1.85,335.95,54.895348,9.797490,54.888611,9.787479
1389978461,3,0,0.0,0,0,0,0,0,0,-0.0292,150.2923,6.8213,0.4212,54.886734,9.788671,108.3,5.845,1.85,335.95,54.895348,9.797490,54.888611,9.787479
1389978462,3,0,0.0,0,0,4,0,0,0,-0.0292,150.2923,6.8213,0.4212,54.886715,9.788686,108.3,5.845,1.85,335.95,54.895348,9.797490,54.888611,9.787479
1389978462,3,0,0.0,0,0,0,0,0,0,-0.0292,150.2923,6.8213,0.4212,54.886700,9.788702,108.3,5.845,1.85,335.95,54.895348,9.797490,54.888611,9.787479
1389978462,3,0,0.0,0,0,4,0,0,0,-0.0292,150.2923,6.8213,0.4212,54.886684,9.788717,108.3,5.845,1.85,335.95,54.895348,9.797490,54.888611,9.787479
1389978462,3,0,0.0,0,0,0,0,0,0,-0.0292,150.2923,6.8213,0.4212,54.886665,9.788733,108.3,5.845,1.85,335.95,54.895348,9.797490,54.888611,9.787479
1389978463,3,0,0.0,0,0,4,0,0,0,-0.0292,150.2923,6.8213,0.4212,54.886650,9.788748,108.3,5.845,1.85,335.95,54.895348,9.797490,54.888611,9.787479
1389978463,3,0,0.0,0,0,0,0,0,0,-0.0292,150.2923,6.8213,0.4212,54.886635,9.788763,108.3,5.845,1.85,335.95,54.895348,9.797490,54.888611,9.787479
1389978463,3,0,0.0,0,0,4,0,0,0,-0.0292,150.2923,6.8213,0.4212,54.886616,9.788778,108.3,5.845,1.85,335.95,54.895348,9.797490,54.888611,9.787479
1389978464,3,0,0.0,0,0,0,0,0,0,-0.0292,150.2923,6.8213,0.4212,54.886600,9.788794,108.3,5.845,1.85,335.95,54.895348,9.797490,54.888611,9.787479
1389978464,3,0,0.0,0,0,4,0,0,0,-0.0292,150.2923,6.8213,0.4212,54.886585,9.788809,108.3,5.845,1.85,335.95,54.895348,9.797490,54.888611,9.787479
1389978464,3,0,0.0,0,0,0,0,0,0,-0.0292,150.2923,6.8213,0.4212,54.886566,9.788825,108.3,5.845,1.85,335.95,54.895348,9.797490,54.888611,9.787479
1389978464,3,0,0.0,0,0,4,0,0,0,-0.0292,150.2923,6.8213,0.4212,54.886551,9.788840,108.3,5.845,1.85,335.95,54.895348,9.797490,54.888611,9.787479
1389978465,3,0,0.0,0,-10,0,0,0,0,-0.0292,153.6256,6.8213,0.4212,54.886536,9.788855,108.3,5.845,1.85,335.95,54.895348,9.797490,54.888611,9.787479
1389978465,3,0,0.0,0,-6,-4,0,0,0,-0.0292,155.6256,6.8213,0.4212,54.886517,9.788868,108.3,5.845,1.85,335.95,54.895348,9.797490,54.888611,9.787479
1389978465,3,0,0.0,0,-4,0,0,0,0,-0.0292,156.9590,6.8213,0.4212,54.886497,9.788880,108.3,5.845,1.85,335.95,54.895348,9.797490,54.888611,9.787479
1389978465,3,0,0.0,0,-3,-4,0,0,0,-0.0292,157.9590,6.8213,0.4212,54.886482,9.788892,108.3,5.845,1.85,335.95,54.895348,9.797490,54.888611,9.787479
1389978466,3,0,0.0,0,-2,0,0,0,0,-0.0292,158.6256,6.8213,0.4212,54.886467,9.788903,108.3,5.845,1.85,335.95,54.895348,9.797490,54.888611,9.787479
1389978466,3,0,0.0,0,-1,-4,0,0,0,-0.0292,158.9590,6.8213,0.4212,54.886448,9.788914,108.3,5.845,1.85,335.95,54.895348,9.797490,54.888611,9.787479
1389978466,3,0,0.0,0,-1,0,0,0,0,-0.0292,159.2923,6.8213,0.4212,54.886433,9.788924,108.3,5.845,1.85,335.95,54.895348,9.797490,54.888611,9.787479
1389978466,3,0,0.0,0,-1,-4,0,0,0,-0.0292,159.6256,6.8213,0.4212,54.886417,9.788935,108.3,5.845,1.85,335.95,54.895348,9.797490,54.888611,9.787479
1389978467,3,0,0.0,0,0,0,0,0,0,-0.0292,159.6256,6.8213,0.4212,54.886398,9.788946,108.3,5.845,1.85,335.95,54.895348,9.797490,54.888611,9.787479
1389978467,3,0,0.0,0,0,4,0,0,0,-0.0292,159.6256,6.8213,0.4212,54.886383,9.788957,108.3,5.845,1.85,335.95,54.895348,9.797490,54.888611,9.787479
1389978467,3,0,0.0,0,0,0,0,0,0,-0.0292,159.6256,6.8213,0.4212,54.886368,9.788967,108.3,5.845,1.85,335.95,54.895348,9.797490,54.888611,9.787479
1389978467,3,0,0.0,0,0,4,0,0,0,-0.0292,159.6256,6.8213,0.4212,54.886349,9.788978,108.3,5.845,1.85,335.95,54.895348,9.797490,54.888611,9.787479
1389978468,3,0,0.0,0,0,0,0,0,0,-0.0292,159.6256,6.8213,0.4212,54.886330,9.788989,108.3,5.845,1.85,335.95,54.895348,9.797490,54.888611,9.787479
1389978468,3,0,0.0,0,0,4,0,0,0,-0.0292,159.6256,6.8213,0.4212,54.886314,9.789000,108.3,5.845,1.85,335.95,54.895348,9.797490,54.888611,9.787479
1389978468,3,0,0.0,0,0,0,0,0,0,-0.0292,159.6256,6.8213,0.4212,54.886295,9.789010,108.3,5.845,1.85,335.95,54.895348,9.797490,54.888611,9.787479
1389978468,3,0,0.0,0,0,4,0,0,0,-0.0292,159.6256,6.8213,0.4212,54.886276,9.789021,108.3,5.845,1.85,335.95,54.895348,9.797490,54.888611,9.787479
1389978469,3,0,0.0,0,0,0,0,0,0,-0.0292,159.6256,6.8213,0.4212,54.886261,9.789032,108.3,5.845,1.85,335.95,54.895348,9.797490,54.888611,9.787479
1389978469,3,0,0.0,0,0,4,0,0,0,-0.0292,159.6256,6.8213,0.4212,54.886246,9.789042,108.3,5.845,1.85,335.95,54.895348,9.797490,54.888611,9.787479
1389978469,3,0,0.0,0,0,0,0,0,0,-0.0292,159.6256,6.8213,0.4212,54.886227,9.789053,108.3,5.845,1.85,335.95,54.895348,9.797490,54.888611,9.787479
1389978469,3,0,0.0,0,0,4,0,0,0,-0.0292,159.6256,6.8213,0.4212,54.886211,9.789063,108.3,5.845,1.85,335.95,54.895348,9.797490,54.888611,9.787479
1389978470,3,0,0.0,0,-10,0,0,0,0,-0.0292,162.9589,6.8213,0.4212,54.886196,9.789073,108.3,5.845,1.85,335.95,54.895348,9.797490,54.888611,9.787479
1389978470,3,0,0.0,0,-7,-4,0,0,0,-0.0292,165.2923,6.8213,0.4212,54.886177,9.789082,108.3,5.845,1.85,335.95,54.895348,9.797490,54.888611,9.787479
1389978470,0,0,0.0,0,-7,-4,0,0,0,-0.0292,165.2923,6.8213,0.4212,54.886177,9.789082,108.3,5.845,1.85,335.95,54.895348,9.797490,54.888611,9.787479
1389978470,0,0,0.0,0,-7,-4,0,0,0,-0.0292,165.2923,6.8213,0.4212,54.886177,9.789082,108.3,5.845,1.85,335.95,54.895348,9.797490,54.888611,9.787479
1389978471,0,0,0.0,0,-7,-4,0,0,0,-0.0292,165.2923,6.8213,0.4212,54.886177,9.789082,108.3,5.845,1.85,335.95,54.895348,9.797490,54.888611,9.787479
1389978471,0,0,0.0,0,-7,-4,0,0,0,-0.0292,165.2923,6.8213,0.4212,54.886177,9.789082,108.3,5.845,1.85,335.95,54.895348,9.797490,54.888611,9.787479
1389978471,0,0,0.0,0,-7,-4,0,0,0,-0.0292,165.2923,6.8213,0.4212,54.886177,9.789082,108.3,5.845,1.85,335.95,54.895348,9.797490,54.888611,9.787479
1389978471,0,0,0.0,0,-7,-4,0,0,0,-0.0292,165.2923,6.8213,0.4212,54.886177,9.789082,108.3,5.845,1.85,335.95,54.895348,9.797490,54.888611,9.787479
1389978472,0,0,0.0,0,-7,-4,0,0,0,-0.0292,165.2923,6.8213,0.4212,54.886177,9.789082,108.3,5.845,1.85,335.95,54.895348,9.797490,54.888611,9.787479
1389978472,0,0,0.0,0,-7,-4,0,0,0,-0.0292,165.2923,6.8213,0.4212,54.886177,9.789082,108.3,5.845,1.85,335.95,54.895348,9.797490,54.888611,9.787479
1389978472,0,0,0.0,0,-7,-4,0,0,0,-0.0292,165.2923,6.8213,0.4212,54.886177,9.789082,108.3,5.845,1.85,335.95,54.895348,9.797490,54.888611,9.787479
1389978472,0,0,0.0,0,-7,-4,0,0,0,-0.0292,165.2923,6.8213,0.4212,54.886177,9.789082,108.3,5.845,1.85,335.95,54.895348,9.797490,54.888611,9.787479
1389978473,0,0,0.0,0,-7,-4,0,0,0,-0.0292,165.2923,6.8213,0.4212,54.886177,9.789082,108.3,5.845,1.85,335.95,54.895348,9.797490,54.888611,9.787479
1389978473,0,0,0.0,0,-7,-4,0,0,0,-0.0292,165.2923,6.8213,0.4212,54.886177,9.789082,108.3,5.845,1.85,335.95,54.895348,9.797490,54.888611,9.787479
1389978473,0,0,0.0,0,-7,-4,0,0,0,-0.0292,165.2923,6.8213,0.4212,54.886177,9.789082,108.3,5.845,1.85,335.95,54.895348,9.797490,54.888611,9.787479
1389978473,0,0,0.0,0,-7,-4,0,0,0,-0.0292,165.2923,6.8213,0.4212,54.886177,9.789082,108.3,5.845,1.85,335.95,54.895348,9.797490,54.888611,9.787479
1389978474,0,0,0.0,0,-7,-4,0,0,0,-0.0292,165.2923,6.8213,0.4212,54.886177,9.789082,108.3,5.845,1.85,335.95,54.895348,9.797490,54.888611,9.787479
1389978474,0,0,0.0,0,-7,-4,0,0,0,-0.0292,165.2923,6.8213,0.4212,54.886177,9.789082,108.3,5.845,1.85,335.95,54.895348,9.797490,54.888611,9.787479
1389978474,0,0,0.0,0,-7,-4,0,0,0,-0.0292,165.2923,6.8213,0.4212,54.886177,9.789082,108.3,5.845,1.85,335.95,54.895348,9.797490,54.888611,9.787479
1389978474,0,0,0.0,0,-7,-4,0,0,0,-0.0292,165.2923,6.8213,0.4212,54.886177,9.789082,108.3,5.845,1.85,335.95,54.895348,9.797490,54.888611,9.787479
1389978475,0,0,0.0,0,-7,-4,0,0,0,-0.0292,165.2923,6.8213,0.4212,54.886177,9.789082,108.3,5.845,1.85,335.95,54.895348,9.797490,54.888611,9.787479
1389978475,0,0,0.0,0,-7,-4,0,0,0,-0.0292,165.2923,6.8213,0.4212,54.886177,9.789082,108.3,5.845,1.85,335.95,54.895348,9.797490,54.888611,9.787479
1389978475,0,0,0.0,0,-7,-4,0,0,0,-0.0292,165.2923,6.8213,0.4212,54.886177,9.789082,108.3,5.845,1.85,335.95,54.895348,9.797490,54.888611,9.787479
1389978475,0,0,0.0,0,-7,-4,0,0,0,-0.0292,165.2923,6.8213,0.4212,54.886177,9.789082,108.3,5.845,1.85,335.95,54.895348,9.797490,54.888611,9.787479
1389978476,0,0,0.0,0,-7,-4,0,0,0,-0.0292,165.2923,6.8213,0.4212,54.886177,9.789082,108.3,5.845,1.85,335.95,54.895348,9.797490,54.888611,9.787479
1389978476,0,0,0.0,0,-7,-4,0,0,0,-0.0292,165.2923,6.8213,0.4212,54.886177,9.789082,108.3,5.845,1.85,335.95,54.895348,9.797490,54.888611,9.787479
1389978476,0,0,0.0,0,-7,-4,0,0,0,-0.0292,165.2923,6.8213,0.4212,54.886177,9.789082,108.3,5.845,1.85,335.95,54.895348,9.797490,54.888611,9.787479
1389978476,0,0,0.0,0,-7,-4,0,0,0,-0.0292,165.2923,6.8213,0.4212,54.886177,9.789082,108.3,5.845,1.85,335.95,54.895348,9.797490,54.888611,9.787479
1389978477,0,0,0.0,0,-7,-4,0,0,0,-0.0292,165.2923,6.8213,0.4212,54.886177,9.789082,108.3,5.845,1.85,335.95,54.895348,9.797490,54.888611,9.787479
1389978477,0,0,0.0,0,-7,-4,0,0,0,-0.0292,165.2923,6.8213,0.4212,54.886177,9.789082,108.3,5.845,1.85,335.95,54.895348,9.797490,54.888611,9.787479
1389978477,0,0,0.0,0,-7,-4,0,0,0,-0.0292,165.2923,6.8213,0.4212,54.886177,9.789082,108.3,5.845,1.85,335.95,54.895348,9.797490,54.888611,9.787479
1389978477,0,0,0.0,0,-7,-4,0,0,0,-0.0292,165.2923,6.8213,0.4212,54.886177,9.789082,108.3,5.845,1.85,335.95,54.895348,9.797490,54.888611,9.787479
1389978478,0,0,0.0,0,-7,-4,0,0,0,-0.0292,165.2923,6.8213,0.4212,54.886177,9.789082,108.3,5.845,1.85,335.95,54.895348,9.797490,54.888611,9.787479
1389978478,0,0,0.0,0,-7,-4,0,0,0,-0.0292,165.2923,6.8213,0.4212,54.886177,9.789082,108.3,5.845,1.85,335.95,54.895348,9.797490,54.888611,9.787479
1389978478,0,0,0.0,0,-7,-4,0,0,0,-0.0292,165.2923,6.8213,0.4212,54.886177,9.789082,108.3,5.845,1.85,335.95,54.895348,9.797490,54.888611,9.787479
1389978478,0,0,0.0,0,-7,-4,0,0,0,-0.0292,165.2923,6.8213,0.4212,54.886177,9.789082,108.3,5.845,1.85,335.95,54.895348,9.797490,54.888611,9.787479
1389978479,0,0,0.0,0,-7,-4,0,0,0,-0.0292,165.2923,6.8213,0.4212,54.886177,9.789082,108.3,5.845,1.85,335.95,54.895348,9.797490,54.888611,9.787479
1389978479,0,0,0.0,0,-7,-4,0,0,0,-0.0292,165.2923,6.8213,0.4212,54.886177,9.789082,108.3,5.845,1.85,335.95,54.895348,9.797490,54.888611,9.787479
1389978479,0,0,0.0,0,-7,-4,0,0,0,-0.0292,165.2923,6.8213,0.4212,54.886177,9.789082,108.3,5.845,1.85,335.95,54.895348,9.797490,54.888611,9.787479
1389978479,0,0,0.0,0,-7,-4,0,0,0,-0.0292,165.2923,6.8213,0.4212,54.886177,9.789082,108.3,5.845,1.85,335.95,54.895348,9.797490,54.888611,9.787479
