MCU_timestamp,Navigation_System,Manual_Control,Guidance_Heading,Manual_Ctrl_Rudder,Rudder_Desired_Angle,Rudder_Feedback,Manual_Ctrl_Sail,Sail_Desired_Pos,Sail_Feedback,Rate,Heading,Pitch,Roll,Latitude,Longitude,COG,SOG,Wind_Speed,Wind_Angle,Point_Start_Lat,Point_Start_Lon,Point_End_Lat,Point_End_Lon
1389977179,0,0,0.0,0,0,0,0,0,0,-0.0292,189.6255,6.8213,0.4212,54.892899,9.784117,108.3,5.845,1.85,335.95,0.000000,0.000000,0.000000,0.000000
1389977179,0,0,0.0,0,0,0,0,0,0,-0.0292,189.6255,6.8213,0.4212,54.892899,9.784117,108.3,5.845,1.85,335.95,0.000000,0.000000,0.000000,0.000000
1389977179,0,0,0.0,0,0,0,0,0,0,-0.0292,189.6255,6.8213,0.4212,54.892899,9.784117,108.3,5.845,1.85,335.95,0.000000,0.000000,0.000000,0.000000
1389977180,0,0,0.0,0,0,0,0,0,0,-0.0292,189.6255,6.8213,0.4212,54.892899,9.784117,108.3,5.845,1.85,335.95,0.000000,0.000000,0.000000,0.000000
1389977180,0,0,0.0,0,0,0,0,0,0,-0.0292,189.6255,6.8213,0.4212,54.892899,9.784117,108.3,5.845,1.85,335.95,0.000000,0.000000,0.000000,0.000000
1389977180,0,0,0.0,0,0,0,0,0,0,-0.0292,189.6255,6.8213,0.4212,54.892899,9.784117,108.3,5.845,1.85,335.95,0.000000,0.000000,0.000000,0.000000
1389977180,0,0,0.0,0,0,0,0,0,0,-0.0292,189.6255,6.8213,0.4212,54.892899,9.784117,108.3,5.845,1.85,335.95,0.000000,0.000000,0.000000,0.000000
1389977181,0,0,0.0,0,0,0,0,0,0,-0.0292,189.6255,6.8213,0.4212,54.892899,9.784117,108.3,5.845,1.85,335.95,0.000000,0.000000,0.000000,0.000000
1389977181,0,0,0.0,0,0,0,0,0,0,-0.0292,189.6255,6.8213,0.4212,54.892899,9.784117,108.3,5.845,1.85,335.95,0.000000,0.000000,0.000000,0.000000
1389977181,0,0,0.0,0,0,0,0,0,0,-0.0292,189.6255,6.8213,0.4212,54.892899,9.784117,108.3,5.845,1.85,335.95,0.000000,0.000000,0.000000,0.000000
1389977181,0,0,0.0,0,0,0,0,0,0,-0.0292,189.6255,6.8213,0.4212,54.892899,9.784117,108.3,5.845,1.85,335.95,0.000000,0.000000,0.000000,0.000000
1389977182,0,0,0.0,0,0,0,0,0,0,-0.0292,189.6255,6.8213,0.4212,54.892899,9.784117,108.3,5.845,1.85,335.95,0.000000,0.000000,0.000000,0.000000
1389977182,0,0,0.0,0,0,0,0,0,0,-0.0292,189.6255,6.8213,0.4212,54.892899,9.784117,108.3,5.845,1.85,335.95,0.000000,0.000000,0.000000,0.000000
1389977182,0,0,0.0,0,0,0,0,0,0,-0.0292,189.6255,6.8213,0.4212,54.892899,9.784117,108.3,5.845,1.85,335.95,0.000000,0.000000,0.000000,0.000000
1389977182,0,0,0.0,0,0,0,0,0,0,-0.0292,189.6255,6.8213,0.4212,54.892899,9.784117,108.3,5.845,1.85,335.95,0.000000,0.000000,0.000000,0.000000
1389977183,0,0,0.0,0,0,0,0,0,0,-0.0292,189.6255,6.8213,0.4212,54.892899,9.784117,108.3,5.845,1.85,335.95,0.000000,0.000000,0.000000,0.000000
1389977183,4,0,0.0,0,0,0,0,0,0,-0.0292,189.6255,6.8213,0.4212,54.892899,9.784117,108.3,5.845,1.85,335.95,0.000000,0.000000,0.000000,0.000000
1389977183,1,0,0.0,0,-35,-4,0,713,700,-0.0292,201.2922,6.8213,0.4212,54.892883,9.784105,108.3,5.845,1.85,335.95,54.895069,9.793790,54.895348,9.797490
1389977183,1,0,0.0,0,31,0,0,870,750,-0.0292,190.9588,6.8213,0.4212,54.892864,9.784099,108.3,5.845,1.85,335.95,54.895348,9.797490,54.894039,9.801540
1389977184,1,0,0.0,0,21,4,0,713,700,-0.0292,183.9588,6.8213,0.4212,54.892845,9.784097,108.3,5.845,1.85,335.95,54.894039,9.801540,54.893795,9.802299
1389977184,1,0,0.0,0,14,8,0,713,750,-0.0292,179.2922,6.8213,0.4212,54.892826,9.784098,108.3,5.845,1.85,335.95,54.893795,9.802299,54.893364,9.803688
1389977184,1,0,0.0,0,9,12,0,713,700,-0.0292,176.2922,6.8213,0.4212,54.892811,9.784101,108.3,5.845,1.85,335.95,54.893364,9.803688,54.892704,9.801139
1389977184,1,0,0.0,0,6,8,0,713,750,-0.0292,174.2922,6.8213,0.4212,54.892792,9.784104,108.3,5.845,1.85,335.95,54.892704,9.801139,54.891663,9.800174
1389977185,1,0,0.0,0,4,4,0,713,700,-0.0292,172.9588,6.8213,0.4212,54.892773,9.784108,108.3,5.845,1.85,335.95,54.891663,9.800174,54.892929,9.805077
1389977185,1,0,0.0,0,3,0,0,713,750,-0.0292,171.9588,6.8213,0.4212,54.892754,9.784112,108.3,5.845,1.85,335.95,54.892929,9.805077,54.892498,9.806466
1389977185,1,0,0.0,0,2,4,0,713,700,-0.0292,171.2922,6.8213,0.4212,54.892738,9.784117,108.3,5.845,1.85,335.95,54.892498,9.806466,54.891232,9.801563
1389977185,1,0,0.0,0,1,0,0,713,750,-0.0292,170.9588,6.8213,0.4212,54.892719,9.784122,108.3,5.845,1.85,335.95,54.891232,9.801563,54.890800,9.802953
1389977186,1,0,0.0,0,1,4,0,713,700,-0.0292,170.6255,6.8213,0.4212,54.892700,9.784126,108.3,5.845,1.85,335.95,54.890800,9.802953,54.891651,9.806246
1389977186,1,0,0.0,0,1,0,0,713,750,-0.0292,170.2922,6.8213,0.4212,54.892685,9.784132,108.3,5.845,1.85,335.95,54.891651,9.806246,54.890560,9.805087
1389977186,1,0,0.0,0,0,4,0,713,700,-0.0292,170.2922,6.8213,0.4212,54.892666,9.784138,108.3,5.845,1.85,335.95,54.890560,9.805087,54.890366,9.804342
1389977186,1,0,0.0,0,0,0,0,713,750,-0.0292,170.2922,6.8213,0.4212,54.892647,9.784143,108.3,5.845,1.85,335.95,54.890366,9.804342,54.890846,9.801930
1389977187,1,0,0.0,0,0,4,0,713,700,-0.0292,170.2922,6.8213,0.4212,54.892628,9.784149,108.3,5.845,1.85,335.95,54.890846,9.801930,54.889477,9.798280
1389977187,1,0,0.0,0,0,0,0,713,750,-0.0292,170.2922,6.8213,0.4212,54.892612,9.784154,108.3,5.845,1.85,335.95,54.889477,9.798280,54.891819,9.794550
1389977187,1,0,0.0,0,0,4,0,713,700,-0.0292,170.2922,6.8213,0.4212,54.892593,9.784159,108.3,5.845,1.85,335.95,54.891819,9.794550,54.895348,9.797490
1389977187,1,0,0.0,0,0,0,0,713,750,-0.0292,170.2922,6.8213,0.4212,54.892574,9.784163,108.3,5.845,1.85,335.95,54.895348,9.797490,54.895069,9.793790
1389977188,1,0,0.0,0,0,4,0,713,700,-0.0292,170.2922,6.8213,0.4212,54.892555,9.784168,108.3,5.845,1.85,335.95,54.895348,9.797490,54.895069,9.793790
1389977188,3,0,0.0,0,0,0,0,713,750,-0.0292,170.2922,6.8213,0.4212,54.892540,9.784174,108.3,5.845,1.85,335.95,54.895348,9.797490,54.892555,9.784168
1389977188,3,0,0.0,0,0,4,0,713,700,-0.0292,170.2922,6.8213,0.4212,54.892521,9.784180,108.3,5.845,1.85,335.95,54.895348,9.797490,54.892555,9.784168
1389977188,3,0,0.0,0,0,0,0,713,750,-0.0292,170.2922,6.8213,0.4212,54.892502,9.784185,108.3,5.845,1.85,335.95,54.895348,9.797490,54.892555,9.784168
1389977189,3,0,0.0,0,0,4,0,713,700,-0.0292,170.2922,6.8213,0.4212,54.892483,9.784191,108.3,5.845,1.85,335.95,54.895348,9.797490,54.892555,9.784168
1389977189,3,0,0.0,0,0,0,0,713,750,-0.0292,170.2922,6.8213,0.4212,54.892467,9.784196,108.3,5.845,1.85,335.95,54.895348,9.797490,54.892555,9.784168
1389977189,3,0,0.0,0,0,4,0,713,700,-0.0292,170.2922,6.8213,0.4212,54.892448,9.784201,108.3,5.845,1.85,335.95,54.895348,9.797490,54.892555,9.784168
1389977189,3,0,0.0,0,0,0,0,713,750,-0.0292,170.2922,6.8213,0.4212,54.892429,9.784205,108.3,5.845,1.85,335.95,54.895348,9.797490,54.892555,9.784168
1389977190,3,0,0.0,0,0,4,0,713,700,-0.0292,170.2922,6.8213,0.4212,54.892414,9.784210,108.3,5.845,1.85,335.95,54.895348,9.797490,54.892555,9.784168
1389977190,3,0,0.0,0,0,0,0,713,750,-0.0292,170.2922,6.8213,0.4212,54.892395,9.784216,108.3,5.845,1.85,335.95,54.895348,9.797490,54.892555,9.784168
1389977190,3,0,0.0,0,0,4,0,713,700,-0.0292,170.2922,6.8213,0.4212,54.892376,9.784222,108.3,5.845,1.85,335.95,54.895348,9.797490,54.892555,9.784168
1389977190,3,0,0.0,0,0,0,0,713,750,-0.0292,170.2922,6.8213,0.4212,54.892357,9.784227,108.3,5.845,1.85,335.95,54.895348,9.797490,54.892555,9.784168
1389977191,3,0,0.0,0,0,4,0,713,700,-0.0292,170.2922,6.8213,0.4212,54.892342,9.784233,108.3,5.845,1.85,335.95,54.895348,9.797490,54.892555,9.784168
1389977191,3,0,0.0,0,0,0,0,713,750,-0.0292,170.2922,6.8213,0.4212,54.892323,9.784238,108.3,5.845,1.85,335.95,54.895348,9.797490,54.892555,9.784168
1389977191,3,0,0.0,0,0,4,0,713,700,-0.0292,170.2922,6.8213,0.4212,54.892303,9.784243,108.3,5.845,1.85,335.95,54.895348,9.797490,54.892555,9.784168
1389977191,3,0,0.0,0,0,0,0,713,750,-0.0292,170.2922,6.8213,0.4212,54.892284,9.784247,108.3,5.845,1.85,335.95,54.895348,9.797490,54.892555,9.784168
1389977192,3,0,0.0,0,0,4,0,713,700,-0.0292,170.2922,6.8213,0.4212,54.892269,9.784252,108.3,5.845,1.85,335.95,54.895348,9.797490,54.892555,9.784168
1389977192,3,0,0.0,0,0,0,0,713,750,-0.0292,170.2922,6.8213,0.4212,54.892250,9.784258,108.3,5.845,1.85,335.95,54.895348,9.797490,54.892555,9.784168
1389977192,3,0,0.0,0,0,4,0,713,700,-0.0292,170.2922,6.8213,0.4212,54.892231,9.784264,108.3,5.845,1.85,335.95,54.895348,9.797490,54.892555,9.784168
1389977192,3,0,0.0,0,0,0,0,713,750,-0.0292,170.2922,6.8213,0.4212,54.892212,9.784269,108.3,5.845,1.85,335.95,54.895348,9.797490,54.892555,9.784168
1389977193,3,0,0.0,0,0,4,0,713,700,-0.0292,170.2922,6.8213,0.4212,54.892197,9.784275,108.3,5.845,1.85,335.95,54.895348,9.797490,54.892555,9.784168
1389977193,3,0,0.0,0,0,0,0,713,750,-0.0292,170.2922,6.8213,0.4212,54.892178,9.784280,108.3,5.845,1.85,335.95,54.895348,9.797490,54.892555,9.784168
1389977193,3,0,0.0,0,0,4,0,713,700,-0.0292,170.2922,6.8213,0.4212,54.892159,9.784285,108.3,5.845,1.85,335.95,54.895348,9.797490,54.892555,9.784168
1389977193,3,0,0.0,0,-20,0,0,713,750,-0.0292,176.9589,6.8213,0.4212,54.892139,9.784286,108.3,5.845,1.85,335.95,54.895348,9.797490,54.892555,9.784168
1389977194,3,0,0.0,0,-13,-4,0,713,700,-0.0292,181.2922,6.8213,0.4212,54.892124,9.784286,108.3,5.845,1.85,335.95,54.895348,9.797490,54.892555,9.784168
1389977194,3,0,0.0,0,-9,-8,0,713,750,-0.0292,184.2922,6.8213,0.4212,54.892105,9.784283,108.3,5.845,1.85,335.95,54.895348,9.797490,54.892555,9.784168
1389977194,3,0,0.0,0,-6,-4,0,713,700,-0.0292,186.2922,6.8213,0.4212,54.892086,9.784279,108.3,5.845,1.85,335.95,54.895348,9.797490,54.892555,9.784168
1389977194,3,0,0.0,0,-4,0,0,713,750,-0.0292,187.6255,6.8213,0.4212,54.892071,9.784274,108.3,5.845,1.85,335.95,54.895348,9.797490,54.892555,9.784168
1389977195,3,0,0.0,0,-2,-4,0,713,700,-0.0292,188.2922,6.8213,0.4212,54.892052,9.784269,108.3,5.845,1.85,335.95,54.895348,9.797490,54.892555,9.784168
1389977195,3,0,0.0,0,-2,0,0,713,750,-0.0292,188.9589,6.8213,0.4212,54.892033,9.784265,108.3,5.845,1.85,335.95,54.895348,9.797490,54.892555,9.784168
1389977195,3,0,0.0,0,-1,-4,0,713,700,-0.0292,189.2922,6.8213,0.4212,54.892014,9.784260,108.3,5.845,1.85,335.95,54.895348,9.797490,54.892555,9.784168
1389977195,3,0,0.0,0,-1,0,0,713,750,-0.0292,189.6255,6.8213,0.4212,54.891998,9.784255,108.3,5.845,1.85,335.95,54.895348,9.797490,54.892555,9.784168
1389977196,3,0,0.0,0,0,4,0,713,700,-0.0292,189.6255,6.8213,0.4212,54.891979,9.784250,108.3,5.845,1.85,335.95,54.895348,9.797490,54.892555,9.784168
1389977196,3,0,0.0,0,0,0,0,713,750,-0.0292,189.6255,6.8213,0.4212,54.891960,9.784245,108.3,5.845,1.85,335.95,54.895348,9.797490,54.892555,9.784168
1389977196,3,0,0.0,0,0,4,0,713,700,-0.0292,189.6255,6.8213,0.4212,54.891941,9.784240,108.3,5.845,1.85,335.95,54.895348,9.797490,54.892555,9.784168
1389977196,3,0,0.0,0,0,0,0,713,750,-0.0292,189.6255,6.8213,0.4212,54.891926,9.784234,108.3,5.845,1.85,335.95,54.895348,9.797490,54.892555,9.784168
1389977197,3,0,0.0,0,0,4,0,713,700,-0.0292,189.6255,6.8213,0.4212,54.891907,9.784228,108.3,5.845,1.85,335.95,54.895348,9.797490,54.892555,9.784168
1389977197,3,0,0.0,0,0,0,0,713,750,-0.0292,189.6255,6.8213,0.4212,54.891888,9.784224,108.3,5.845,1.85,335.95,54.895348,9.797490,54.892555,9.784168
1389977197,3,0,0.0,0,0,4,0,713,700,-0.0292,189.6255,6.8213,0.4212,54.891872,9.784219,108.3,5.845,1.85,335.95,54.895348,9.797490,54.892555,9.784168
1389977197,3,0,0.0,0,0,0,0,713,750,-0.0292,189.6255,6.8213,0.4212,54.891853,9.784214,108.3,5.845,1.85,335.95,54.895348,9.797490,54.892555,9.784168
1389977198,3,0,0.0,0,0,4,0,713,700,-0.0292,189.6255,6.8213,0.4212,54.891834,9.784209,108.3,5.845,1.85,335.95,54.895348,9.797490,54.892555,9.784168
1389977198,3,0,0.0,0,0,0,0,713,750,-0.0292,189.6255,6.8213,0.4212,54.891815,9.784204,108.3,5.845,1.85,335.95,54.895348,9.797490,54.892555,9.784168
1389977198,3,0,0.0,0,0,4,0,713,700,-0.0292,189.6255,6.8213,0.4212,54.891800,9.784199,108.3,5.845,1.85,335.95,54.895348,9.797490,54.892555,9.784168
1389977198,3,0,0.0,0,0,0,0,713,750,-0.0292,189.6255,6.8213,0.4212,54.891781,9.784193,108.3,5.845,1.85,335.95,54.895348,9.797490,54.892555,9.784168
1389977199,3,0,0.0,0,0,4,0,713,700,-0.0292,189.6255,6.8213,0.4212,54.891762,9.784187,108.3,5.845,1.85,335.95,54.895348,9.797490,54.892555,9.784168
1389977199,3,0,0.0,0,0,0,0,713,750,-0.0292,189.6255,6.8213,0.4212,54.891743,9.784182,108.3,5.845,1.85,335.95,54.895348,9.797490,54.892555,9.784168
1389977199,3,0,0.0,0,0,4,0,713,700,-0.0292,189.6255,6.8213,0.4212,54.891727,9.784177,108.3,5.845,1.85,335.95,54.895348,9.797490,54.892555,9.784168
1389977199,3,0,0.0,0,0,0,0,713,750,-0.0292,189.6255,6.8213,0.4212,54.891708,9.784172,108.3,5.845,1.85,335.95,54.895348,9.797490,54.892555,9.784168
1389977200,3,0,0.0,0,0,4,0,713,700,-0.0292,189.6255,6.8213,0.4212,54.891689,9.784167,108.3,5.845,1.85,335.95,54.895348,9.797490,54.892555,9.784168
1389977200,3,0,0.0,0,0,0,0,713,750,-0.0292,189.6255,6.8213,0.4212,54.891670,9.784163,108.3,5.845,1.85,335.95,54.895348,9.797490,54.892555,9.784168
1389977200,3,0,0.0,0,0,4,0,713,700,-0.0292,189.6255,6.8213,0.4212,54.891655,9.784157,108.3,5.845,1.85,335.95,54.895348,9.797490,54.892555,9.784168
1389977200,3,0,0.0,0,0,0,0,713,750,-0.0292,189.6255,6.8213,0.4212,54.891636,9.784151,108.3,5.845,1.85,335.95,54.895348,9.797490,54.892555,9.784168
1389977201,3,0,0.0,0,0,4,0,713,700,-0.0292,189.6255,6.8213,0.4212,54.891617,9.784145,108.3,5.845,1.85,335.95,54.895348,9.797490,54.892555,9.784168
1389977201,3,0,0.0,0,0,0,0,713,750,-0.0292,189.6255,6.8213,0.4212,54.891598,9.784140,108.3,5.845,1.85,335.95,54.895348,9.797490,54.892555,9.784168
1389977201,3,0,0.0,0,0,4,0,713,700,-0.0292,189.6255,6.8213,0.4212,54.891582,9.784135,108.3,5.845,1.85,335.95,54.895348,9.797490,54.892555,9.784168
1389977201,3,0,0.0,0,0,0,0,713,750,-0.0292,189.6255,6.8213,0.4212,54.891563,9.784130,108.3,5.845,1.85,335.95,54.895348,9.797490,54.892555,9.784168
1389977202,3,0,0.0,0,0,4,0,713,700,-0.0292,189.6255,6.8213,0.4212,54.891544,9.784125,108.3,5.845,1.85,335.95,54.895348,9.797490,54.892555,9.784168
1389977202,3,0,0.0,0,0,0,0,713,750,-0.0292,189.6255,6.8213,0.4212,54.891529,9.784121,108.3,5.845,1.85,335.95,54.895348,9.797490,54.892555,9.784168
1389977202,3,0,0.0,0,0,4,0,713,700,-0.0292,189.6255,6.8213,0.4212,54.891510,9.784115,108.3,5.845,1.85,335.95,54.895348,9.797490,54.892555,9.784168
1389977202,3,0,0.0,0,0,0,0,713,750,-0.0292,189.6255,6.8213,0.4212,54.891491,9.784109,108.3,5.845,1.85,335.95,54.895348,9.797490,54.892555,9.784168
1389977203,3,0,0.0,0,0,4,0,713,700,-0.0292,189.6255,6.8213,0.4212,54.891472,9.784103,108.3,5.845,1.85,335.95,54.895348,9.797490,54.892555,9.784168
1389977203,3,0,0.0,0,0,0,0,713,750,-0.0292,189.6255,6.8213,0.4212,54.891457,9.784098,108.3,5.845,1.85,335.95,54.895348,9.797490,54.892555,9.784168
1389977203,3,0,0.0,0,0,4,0,713,700,-0.0292,189.6255,6.8213,0.4212,54.891438,9.784093,108.3,5.845,1.85,335.95,54.895348,9.797490,54.892555,9.784168
1389977203,3,0,0.0,0,0,0,0,713,750,-0.0292,189.6255,6.8213,0.4212,54.891418,9.784088,108.3,5.845,1.85,335.95,54.895348,9.797490,54.892555,9.784168
1389977204,3,0,0.0,0,0,4,0,713,700,-0.0292,189.6255,6.8213,0.4212,54.891399,9.784083,108.3,5.845,1.85,335.95,54.895348,9.797490,54.892555,9.784168
1389977204,3,0,0.0,0,0,0,0,713,750,-0.0292,189.6255,6.8213,0.4212,54.891384,9.784079,108.3,5.845,1.85,335.95,54.895348,9.797490,54.892555,9.784168
1389977204,3,0,0.0,0,0,4,0,713,700,-0.0292,189.6255,6.8213,0.4212,54.891365,9.784074,108.3,5.845,1.85,335.95,54.895348,9.797490,54.892555,9.784168
1389977204,3,0,0.0,0,0,0,0,713,750,-0.0292,189.6255,6.8213,0.4212,54.891346,9.784068,108.3,5.845,1.85,335.95,54.895348,9.797490,54.892555,9.784168
1389977205,3,0,0.0,0,0,4,0,713,700,-0.0292,189.6255,6.8213,0.4212,54.891327,9.784062,108.3,5.845,1.85,335.95,54.895348,9.797490,54.892555,9.784168
1389977205,3,0,0.0,0,0,0,0,713,750,-0.0292,189.6255,6.8213,0.4212,54.891312,9.784057,108.3,5.845,1.85,335.95,54.895348,9.797490,54.892555,9.784168
