MCU_timestamp,Navigation_System,Manual_Control,Guidance_Heading,Manual_Ctrl_Rudder,Rudder_Desired_Angle,Rudder_Feedback,Manual_Ctrl_Sail,Sail_Desired_Pos,Sail_Feedback,Rate,Heading,Pitch,Roll,Latitude,Longitude,COG,SOG,Wind_Speed,Wind_Angle,Point_Start_Lat,Point_Start_Lon,Point_End_Lat,Point_End_Lon
1390145255,0,0,0.0,0,0,-4,0,0,0,-0.0292,48.9589,6.8213,0.4212,54.894066,9.790845,108.3,5.845,1.85,335.95,0.000000,0.000000,0.000000,0.000000
1390145256,0,0,0.0,0,0,-4,0,0,0,-0.0292,48.9589,6.8213,0.4212,54.894066,9.790845,108.3,5.845,1.85,335.95,0.000000,0.000000,0.000000,0.000000
1390145256,0,0,0.0,0,0,-4,0,0,0,-0.0292,48.9589,6.8213,0.4212,54.894066,9.790845,108.3,5.845,1.85,335.95,0.000000,0.000000,0.000000,0.000000
1390145256,0,0,0.0,0,0,-4,0,0,0,-0.0292,48.9589,6.8213,0.4212,54.894066,9.790845,108.3,5.845,1.85,335.95,0.000000,0.000000,0.000000,0.000000
1390145256,0,0,0.0,0,0,-4,0,0,0,-0.0292,48.9589,6.8213,0.4212,54.894066,9.790845,108.3,5.845,1.85,335.95,0.000000,0.000000,0.000000,0.000000
1390145257,0,0,0.0,0,0,-4,0,0,0,-0.0292,48.9589,6.8213,0.4212,54.894066,9.790845,108.3,5.845,1.85,335.95,0.000000,0.000000,0.000000,0.000000
1390145257,0,0,0.0,0,0,-4,0,0,0,-0.0292,48.9589,6.8213,0.4212,54.894066,9.790845,108.3,5.845,1.85,335.95,0.000000,0.000000,0.000000,0.000000
1390145257,0,0,0.0,0,0,-4,0,0,0,-0.0292,48.9589,6.8213,0.4212,54.894066,9.790845,108.3,5.845,1.85,335.95,0.000000,0.000000,0.000000,0.000000
1390145257,0,0,0.0,0,0,-4,0,0,0,-0.0292,48.9589,6.8213,0.4212,54.894066,9.790845,108.3,5.845,1.85,335.95,0.000000,0.000000,0.000000,0.000000
1390145258,0,0,0.0,0,0,-4,0,0,0,-0.0292,48.9589,6.8213,0.4212,54.894066,9.790845,108.3,5.845,1.85,335.95,0.000000,0.000000,0.000000,0.000000
1390145258,0,0,0.0,0,0,-4,0,0,0,-0.0292,48.9589,6.8213,0.4212,54.894066,9.790845,108.3,5.845,1.85,335.95,0.000000,0.000000,0.000000,0.000000
1390145258,0,0,0.0,0,0,-4,0,0,0,-0.0292,48.9589,6.8213,0.4212,54.894066,9.790845,108.3,5.845,1.85,335.95,0.000000,0.000000,0.000000,0.000000
1390145258,0,0,0.0,0,0,-4,0,0,0,-0.0292,48.9589,6.8213,0.4212,54.894066,9.790845,108.3,5.845,1.85,335.95,0.000000,0.000000,0.000000,0.000000
1390145259,0,0,0.0,0,0,-4,0,0,0,-0.0292,48.9589,6.8213,0.4212,54.894066,9.790845,108.3,5.845,1.85,335.95,0.000000,0.000000,0.000000,0.000000
1390145259,0,0,0.0,0,0,-4,0,0,0,-0.0292,48.9589,6.8213,0.4212,54.894066,9.790845,108.3,5.845,1.85,335.95,0.000000,0.000000,0.000000,0.000000
1390145259,0,0,0.0,0,0,-4,0,0,0,-0.0292,48.9589,6.8213,0.4212,54.894066,9.790845,108.3,5.845,1.85,335.95,0.000000,0.000000,0.000000,0.000000
1390145259,4,0,0.0,0,0,-4,0,0,0,-0.0292,48.9589,6.8213,0.4212,54.894066,9.790845,108.3,5.845,1.85,335.95,0.000000,0.000000,0.000000,0.000000
1390145260,1,0,0.0,0,-35,-8,0,0,84,-0.0292,60.6256,6.8213,0.4212,54.894070,9.790855,108.3,5.845,1.85,335.95,54.895069,9.793790,54.895348,9.797490
1390145260,1,0,0.0,0,-35,-12,0,0,72,-0.0292,72.2922,6.8213,0.4212,54.894070,9.790868,108.3,5.845,1.85,335.95,54.895348,9.797490,54.894039,9.801540
1390145260,1,0,0.0,0,-35,-16,0,0,60,-0.0292,83.9589,6.8213,0.4212,54.894070,9.790880,108.3,5.845,1.85,335.95,54.894039,9.801540,54.893795,9.802299
1390145260,1,0,0.0,0,-35,-20,0,0,48,-0.0292,95.6255,6.8213,0.4212,54.894070,9.790891,108.3,5.845,1.85,335.95,54.893795,9.802299,54.893364,9.803688
1390145261,1,0,0.0,0,-35,-24,0,0,36,-0.0292,107.2922,6.8213,0.4212,54.894066,9.790899,108.3,5.845,1.85,335.95,54.893364,9.803688,54.892704,9.801139
1390145261,1,0,0.0,0,-35,-28,0,0,24,-0.0292,118.9589,6.8213,0.4212,54.894062,9.790905,108.3,5.845,1.85,335.95,54.892704,9.801139,54.891663,9.800174
1390145261,1,0,0.0,0,-35,-32,0,0,12,-0.0292,130.6255,6.8213,0.4212,54.894058,9.790908,108.3,5.845,1.85,335.95,54.891663,9.800174,54.892929,9.805077
1390145261,1,0,0.0,0,-35,-36,0,0,0,-0.0292,142.2922,6.8213,0.4212,54.894058,9.790908,108.3,5.845,1.85,335.95,54.892929,9.805077,54.892498,9.806466
1390145262,1,0,0.0,0,-35,-32,0,0,0,-0.0292,153.9589,6.8213,0.4212,54.894058,9.790908,108.3,5.845,1.85,335.95,54.892498,9.806466,54.891232,9.801563
1390145262,1,0,0.0,0,-26,-28,0,0,0,-0.0292,162.6256,6.8213,0.4212,54.894058,9.790908,108.3,5.845,1.85,335.95,54.891232,9.801563,54.890800,9.802953
1390145262,1,0,0.0,0,-17,-24,0,20,12,-0.0292,168.2922,6.8213,0.4212,54.894058,9.790909,108.3,5.845,1.85,335.95,54.890800,9.802953,54.891651,9.806246
1390145262,1,0,0.0,0,-12,-20,0,20,24,-0.0292,172.2922,6.8213,0.4212,54.894054,9.790910,108.3,5.845,1.85,335.95,54.891651,9.806246,54.890560,9.805087
1390145263,1,0,0.0,0,-8,-16,0,20,12,-0.0292,174.9589,6.8213,0.4212,54.894054,9.790911,108.3,5.845,1.85,335.95,54.890560,9.805087,54.890366,9.804342
1390145263,1,0,0.0,0,-5,-12,0,20,24,-0.0292,176.6256,6.8213,0.4212,54.894051,9.790912,108.3,5.845,1.85,335.95,54.890366,9.804342,54.890846,9.801930
1390145263,1,0,0.0,0,-3,-8,0,20,12,-0.0292,177.6256,6.8213,0.4212,54.894051,9.790913,108.3,5.845,1.85,335.95,54.890846,9.801930,54.889477,9.798280
1390145263,1,0,0.0,0,-2,-4,0,20,24,-0.0292,178.2923,6.8213,0.4212,54.894047,9.790914,108.3,5.845,1.85,335.95,54.889477,9.798280,54.891819,9.794550
1390145264,1,0,0.0,0,-2,0,0,20,12,-0.0292,178.9589,6.8213,0.4212,54.894043,9.790915,108.3,5.845,1.85,335.95,54.891819,9.794550,54.895348,9.797490
1390145264,1,0,0.0,0,-1,-4,0,20,24,-0.0292,179.2923,6.8213,0.4212,54.894039,9.790915,108.3,5.845,1.85,335.95,54.895348,9.797490,54.895069,9.793790
1390145264,1,0,0.0,0,-1,0,0,20,12,-0.0292,179.6256,6.8213,0.4212,54.894035,9.790916,108.3,5.845,1.85,335.95,54.895348,9.797490,54.895069,9.793790
1390145264,3,0,0.0,0,0,4,0,20,24,-0.0292,179.6256,6.8213,0.4212,54.894032,9.790917,108.3,5.845,1.85,335.95,54.895348,9.797490,54.894035,9.790916
1390145265,3,0,0.0,0,10,8,0,20,12,-0.0292,176.2923,6.8213,0.4212,54.894032,9.790917,108.3,5.845,1.85,335.95,54.895348,9.797490,54.894035,9.790916
1390145265,3,0,0.0,0,6,4,0,20,24,-0.0292,174.2923,6.8213,0.4212,54.894028,9.790917,108.3,5.845,1.85,335.95,54.895348,9.797490,54.894035,9.790916
1390145265,3,0,0.0,0,4,8,0,20,12,-0.0292,172.9589,6.8213,0.4212,54.894028,9.790917,108.3,5.845,1.85,335.95,54.895348,9.797490,54.894035,9.790916
1390145265,3,0,0.0,0,3,4,0,20,24,-0.0292,171.9589,6.8213,0.4212,54.894024,9.790918,108.3,5.845,1.85,335.95,54.895348,9.797490,54.894035,9.790916
1390145266,3,0,0.0,0,2,0,0,20,12,-0.0292,171.2923,6.8213,0.4212,54.894020,9.790918,108.3,5.845,1.85,335.95,54.895348,9.797490,54.894035,9.790916
1390145266,3,0,0.0,0,1,4,0,20,24,-0.0292,170.9589,6.8213,0.4212,54.894016,9.790919,108.3,5.845,1.85,335.95,54.895348,9.797490,54.894035,9.790916
1390145266,3,0,0.0,0,1,0,0,20,12,-0.0292,170.6256,6.8213,0.4212,54.894012,9.790919,108.3,5.845,1.85,335.95,54.895348,9.797490,54.894035,9.790916
1390145266,3,0,0.0,0,1,4,0,20,24,-0.0292,170.2923,6.8213,0.4212,54.894005,9.790920,108.3,5.845,1.85,335.95,54.895348,9.797490,54.894035,9.790916
1390145267,3,0,0.0,0,0,0,0,20,12,-0.0292,170.2923,6.8213,0.4212,54.894005,9.790920,108.3,5.845,1.85,335.95,54.895348,9.797490,54.894035,9.790916
1390145267,3,0,0.0,0,0,4,0,20,24,-0.0292,170.2923,6.8213,0.4212,54.894001,9.790921,108.3,5.845,1.85,335.95,54.895348,9.797490,54.894035,9.790916
1390145267,3,0,0.0,0,0,0,0,40,36,-0.0292,170.2923,6.8213,0.4212,54.893993,9.790923,108.3,5.845,1.85,335.95,54.895348,9.797490,54.894035,9.790916
1390145267,3,0,0.0,0,0,4,0,40,48,-0.0292,170.2923,6.8213,0.4212,54.893986,9.790925,108.3,5.845,1.85,335.95,54.895348,9.797490,54.894035,9.790916
1390145268,3,0,0.0,0,0,0,0,40,36,-0.0292,170.2923,6.8213,0.4212,54.893982,9.790927,108.3,5.845,1.85,335.95,54.895348,9.797490,54.894035,9.790916
1390145268,3,0,0.0,0,0,4,0,40,48,-0.0292,170.2923,6.8213,0.4212,54.893974,9.790929,108.3,5.845,1.85,335.95,54.895348,9.797490,54.894035,9.790916
1390145268,3,0,0.0,0,0,0,0,40,36,-0.0292,170.2923,6.8213,0.4212,54.893967,9.790931,108.3,5.845,1.85,335.95,54.895348,9.797490,54.894035,9.790916
1390145268,3,0,0.0,0,0,4,0,40,48,-0.0292,170.2923,6.8213,0.4212,54.893959,9.790933,108.3,5.845,1.85,335.95,54.895348,9.797490,54.894035,9.790916
1390145269,3,0,0.0,0,0,0,0,40,36,-0.0292,170.2923,6.8213,0.4212,54.893955,9.790935,108.3,5.845,1.85,335.95,54.895348,9.797490,54.894035,9.790916
1390145269,3,0,0.0,0,0,4,0,40,48,-0.0292,170.2923,6.8213,0.4212,54.893948,9.790936,108.3,5.845,1.85,335.95,54.895348,9.797490,54.894035,9.790916
1390145269,3,0,0.0,0,0,0,0,40,36,-0.0292,170.2923,6.8213,0.4212,54.893940,9.790938,108.3,5.845,1.85,335.95,54.895348,9.797490,54.894035,9.790916
1390145269,3,0,0.0,0,0,4,0,40,48,-0.0292,170.2923,6.8213,0.4212,54.893929,9.790941,108.3,5.845,1.85,335.95,54.895348,9.797490,54.894035,9.790916
1390145270,3,0,0.0,0,10,8,0,40,36,-0.0292,166.9589,6.8213,0.4212,54.893925,9.790944,108.3,5.845,1.85,335.95,54.895348,9.797490,54.894035,9.790916
1390145270,3,0,0.0,0,7,4,0,40,48,-0.0292,164.6256,6.8213,0.4212,54.893917,9.790948,108.3,5.845,1.85,335.95,54.895348,9.797490,54.894035,9.790916
1390145270,3,0,0.0,0,5,8,0,40,36,-0.0292,162.9589,6.8213,0.4212,54.893909,9.790952,108.3,5.845,1.85,335.95,54.895348,9.797490,54.894035,9.790916
1390145270,3,0,0.0,0,3,4,0,40,48,-0.0292,161.9589,6.8213,0.4212,54.893902,9.790956,108.3,5.845,1.85,335.95,54.895348,9.797490,54.894035,9.790916
1390145271,3,0,0.0,0,2,0,0,40,36,-0.0292,161.2923,6.8213,0.4212,54.893894,9.790960,108.3,5.845,1.85,335.95,54.895348,9.797490,54.894035,9.790916
1390145271,3,0,0.0,0,1,4,0,40,48,-0.0292,160.9589,6.8213,0.4212,54.893887,9.790964,108.3,5.845,1.85,335.95,54.895348,9.797490,54.894035,9.790916
1390145271,3,0,0.0,0,1,0,0,40,36,-0.0292,160.6256,6.8213,0.4212,54.893883,9.790967,108.3,5.845,1.85,335.95,54.895348,9.797490,54.894035,9.790916
1390145271,3,0,0.0,0,1,4,0,40,48,-0.0292,160.2923,6.8213,0.4212,54.893875,9.790972,108.3,5.845,1.85,335.95,54.895348,9.797490,54.894035,9.790916
1390145272,3,0,0.0,0,0,0,0,40,36,-0.0292,160.2923,6.8213,0.4212,54.893867,9.790976,108.3,5.845,1.85,335.95,54.895348,9.797490,54.894035,9.790916
1390145272,3,0,0.0,0,0,4,0,40,48,-0.0292,160.2923,6.8213,0.4212,54.893860,9.790980,108.3,5.845,1.85,335.95,54.895348,9.797490,54.894035,9.790916
1390145272,3,0,0.0,0,0,0,0,60,60,-0.0292,160.2923,6.8213,0.4212,54.893852,9.790986,108.3,5.845,1.85,335.95,54.895348,9.797490,54.894035,9.790916
1390145272,3,0,0.0,0,0,4,0,60,60,-0.0292,160.2923,6.8213,0.4212,54.893845,9.790992,108.3,5.845,1.85,335.95,54.895348,9.797490,54.894035,9.790916
1390145273,3,0,0.0,0,0,0,0,60,60,-0.0292,160.2923,6.8213,0.4212,54.893833,9.790998,108.3,5.845,1.85,335.95,54.895348,9.797490,54.894035,9.790916
1390145273,3,0,0.0,0,0,4,0,60,60,-0.0292,160.2923,6.8213,0.4212,54.893826,9.791003,108.3,5.845,1.85,335.95,54.895348,9.797490,54.894035,9.790916
1390145273,3,0,0.0,0,0,0,0,60,60,-0.0292,160.2923,6.8213,0.4212,54.893818,9.791008,108.3,5.845,1.85,335.95,54.895348,9.797490,54.894035,9.790916
1390145273,3,0,0.0,0,0,4,0,60,60,-0.0292,160.2923,6.8213,0.4212,54.893806,9.791014,108.3,5.845,1.85,335.95,54.895348,9.797490,54.894035,9.790916
1390145274,3,0,0.0,0,0,0,0,60,60,-0.0292,160.2923,6.8213,0.4212,54.893799,9.791019,108.3,5.845,1.85,335.95,54.895348,9.797490,54.894035,9.790916
1390145274,3,0,0.0,0,0,4,0,60,60,-0.0292,160.2923,6.8213,0.4212,54.893787,9.791025,108.3,5.845,1.85,335.95,54.895348,9.797490,54.894035,9.790916
1390145274,3,0,0.0,0,0,0,0,60,60,-0.0292,160.2923,6.8213,0.4212,54.893780,9.791031,108.3,5.845,1.85,335.95,54.895348,9.797490,54.894035,9.790916
1390145275,3,0,0.0,0,0,4,0,60,60,-0.0292,160.2923,6.8213,0.4212,54.893772,9.791037,108.3,5.845,1.85,335.95,54.895348,9.797490,54.894035,9.790916
1390145275,3,0,0.0,0,10,8,0,60,60,-0.0292,156.9590,6.8213,0.4212,54.893761,9.791043,108.3,5.845,1.85,335.95,54.895348,9.797490,54.894035,9.790916
1390145275,3,0,0.0,0,7,4,0,60,60,-0.0292,154.6256,6.8213,0.4212,54.893753,9.791051,108.3,5.845,1.85,335.95,54.895348,9.797490,54.894035,9.790916
1390145275,3,0,0.0,0,5,8,0,60,60,-0.0292,152.9590,6.8213,0.4212,54.893745,9.791059,108.3,5.845,1.85,335.95,54.895348,9.797490,54.894035,9.790916
1390145276,3,0,0.0,0,3,4,0,60,60,-0.0292,151.9590,6.8213,0.4212,54.893734,9.791066,108.3,5.845,1.85,335.95,54.895348,9.797490,54.894035,9.790916
1390145276,3,0,0.0,0,2,0,0,60,60,-0.0292,151.2923,6.8213,0.4212,54.893726,9.791074,108.3,5.845,1.85,335.95,54.895348,9.797490,54.894035,9.790916
1390145276,3,0,0.0,0,1,4,0,60,60,-0.0292,150.9590,6.8213,0.4212,54.893719,9.791082,108.3,5.845,1.85,335.95,54.895348,9.797490,54.894035,9.790916
1390145276,3,0,0.0,0,1,0,0,60,60,-0.0292,150.6256,6.8213,0.4212,54.893707,9.791091,108.3,5.845,1.85,335.95,54.895348,9.797490,54.894035,9.790916
1390145277,3,0,0.0,0,1,4,0,60,60,-0.0292,150.2923,6.8213,0.4212,54.893700,9.791099,108.3,5.845,1.85,335.95,54.895348,9.797490,54.894035,9.790916
1390145277,3,0,0.0,0,0,0,0,60,60,-0.0292,150.2923,6.8213,0.4212,54.893692,9.791106,108.3,5.845,1.85,335.95,54.895348,9.797490,54.894035,9.790916
1390145277,3,0,0.0,0,0,4,0,60,60,-0.0292,150.2923,6.8213,0.4212,54.893681,9.791115,108.3,5.845,1.85,335.95,54.895348,9.797490,54.894035,9.790916
1390145277,3,0,0.0,0,0,0,0,80,72,-0.0292,150.2923,6.8213,0.4212,54.893673,9.791124,108.3,5.845,1.85,335.95,54.895348,9.797490,54.894035,9.790916
1390145278,3,0,0.0,0,0,4,0,80,84,-0.0292,150.2923,6.8213,0.4212,54.893661,9.791136,108.3,5.845,1.85,335.95,54.895348,9.797490,54.894035,9.790916
1390145278,3,0,0.0,0,0,0,0,80,72,-0.0292,150.2923,6.8213,0.4212,54.893654,9.791145,108.3,5.845,1.85,335.95,54.895348,9.797490,54.894035,9.790916
1390145278,3,0,0.0,0,0,4,0,80,84,-0.0292,150.2923,6.8213,0.4212,54.893642,9.791156,108.3,5.845,1.85,335.95,54.895348,9.797490,54.894035,9.790916
1390145278,3,0,0.0,0,0,0,0,80,72,-0.0292,150.2923,6.8213,0.4212,54.893631,9.791165,108.3,5.845,1.85,335.95,54.895348,9.797490,54.894035,9.790916
1390145279,3,0,0.0,0,0,4,0,80,84,-0.0292,150.2923,6.8213,0.4212,54.893620,9.791176,108.3,5.845,1.85,335.95,54.895348,9.797490,54.894035,9.790916
1390145279,3,0,0.0,0,0,0,0,80,72,-0.0292,150.2923,6.8213,0.4212,54.893608,9.791185,108.3,5.845,1.85,335.95,54.895348,9.797490,54.894035,9.790916
1390145279,3,0,0.0,0,0,4,0,80,84,-0.0292,150.2923,6.8213,0.4212,54.893597,9.791196,108.3,5.845,1.85,335.95,54.895348,9.797490,54.894035,9.790916
1390145279,3,0,0.0,0,0,0,0,80,72,-0.0292,150.2923,6.8213,0.4212,54.893585,9.791205,108.3,5.845,1.85,335.95,54.895348,9.797490,54.894035,9.790916
1390145280,3,0,0.0,0,0,4,0,80,84,-0.0292,150.2923,6.8213,0.4212,54.893574,9.791216,108.3,5.845,1.85,335.95,54.895348,9.797490,54.894035,9.790916
1390145280,3,0,0.0,0,-10,0,0,80,72,-0.0292,153.6256,6.8213,0.4212,54.893562,9.791224,108.3,5.845,1.85,335.95,54.895348,9.797490,54.894035,9.790916
1390145280,3,0,0.0,0,-6,-4,0,80,84,-0.0292,155.6256,6.8213,0.4212,54.893551,9.791233,108.3,5.845,1.85,335.95,54.895348,9.797490,54.894035,9.790916
1390145280,3,0,0.0,0,-4,0,0,80,72,-0.0292,156.9590,6.8213,0.4212,54.893539,9.791241,108.3,5.845,1.85,335.95,54.895348,9.797490,54.894035,9.790916
1390145281,3,0,0.0,0,-3,-4,0,80,84,-0.0292,157.9590,6.8213,0.4212,54.893528,9.791249,108.3,5.845,1.85,335.95,54.895348,9.797490,54.894035,9.790916
1390145281,3,0,0.0,0,-2,0,0,80,72,-0.0292,158.6256,6.8213,0.4212,54.893517,9.791257,108.3,5.845,1.85,335.95,54.895348,9.797490,54.894035,9.790916
1390145281,3,0,0.0,0,-1,-4,0,80,84,-0.0292,158.9590,6.8213,0.4212,54.893505,9.791265,108.3,5.845,1.85,335.95,54.895348,9.797490,54.894035,9.790916
1390145281,3,0,0.0,0,-1,0,0,80,72,-0.0292,159.2923,6.8213,0.4212,54.893494,9.791272,108.3,5.845,1.85,335.95,54.895348,9.797490,54.894035,9.790916
1390145282,3,0,0.0,0,-1,-4,0,80,84,-0.0292,159.6256,6.8213,0.4212,54.893482,9.791280,108.3,5.845,1.85,335.95,54.895348,9.797490,54.894035,9.790916
1390145282,3,0,0.0,0,0,0,0,80,72,-0.0292,159.6256,6.8213,0.4212,54.893471,9.791286,108.3,5.845,1.85,335.95,54.895348,9.797490,54.894035,9.790916
1390145282,3,0,0.0,0,0,4,0,80,84,-0.0292,159.6256,6.8213,0.4212,54.893456,9.791294,108.3,5.845,1.85,335.95,54.895348,9.797490,54.894035,9.790916
1390145282,3,0,0.0,0,0,0,0,100,96,-0.0292,159.6256,6.8213,0.4212,54.893440,9.791303,108.3,5.845,1.85,335.95,54.895348,9.797490,54.894035,9.790916
1390145283,3,0,0.0,0,0,4,0,100,108,-0.0292,159.6256,6.8213,0.4212,54.893429,9.791311,108.3,5.845,1.85,335.95,54.895348,9.797490,54.894035,9.790916
1390145283,3,0,0.0,0,0,0,0,100,96,-0.0292,159.6256,6.8213,0.4212,54.893414,9.791319,108.3,5.845,1.85,335.95,54.895348,9.797490,54.894035,9.790916
1390145283,3,0,0.0,0,0,4,0,100,108,-0.0292,159.6256,6.8213,0.4212,54.893402,9.791327,108.3,5.845,1.85,335.95,54.895348,9.797490,54.894035,9.790916
1390145283,3,0,0.0,0,0,0,0,100,96,-0.0292,159.6256,6.8213,0.4212,54.893387,9.791336,108.3,5.845,1.85,335.95,54.895348,9.797490,54.894035,9.790916
1390145284,3,0,0.0,0,0,4,0,100,108,-0.0292,159.6256,6.8213,0.4212,54.893372,9.791346,108.3,5.845,1.85,335.95,54.895348,9.797490,54.894035,9.790916
1390145284,3,0,0.0,0,0,0,0,100,96,-0.0292,159.6256,6.8213,0.4212,54.893360,9.791353,108.3,5.845,1.85,335.95,54.895348,9.797490,54.894035,9.790916
1390145284,3,0,0.0,0,0,4,0,100,108,-0.0292,159.6256,6.8213,0.4212,54.893345,9.791362,108.3,5.845,1.85,335.95,54.895348,9.797490,54.894035,9.790916
1390145284,3,0,0.0,0,0,0,0,100,96,-0.0292,159.6256,6.8213,0.4212,54.893333,9.791370,108.3,5.845,1.85,335.95,54.895348,9.797490,54.894035,9.790916
1390145285,3,0,0.0,0,0,4,0,100,108,-0.0292,159.6256,6.8213,0.4212,54.893318,9.791379,108.3,5.845,1.85,335.95,54.895348,9.797490,54.894035,9.790916
1390145285,3,0,0.0,0,-10,0,0,100,96,-0.0292,162.9589,6.8213,0.4212,54.893307,9.791387,108.3,5.845,1.85,335.95,54.895348,9.797490,54.894035,9.790916
1390145285,3,0,0.0,0,-7,-4,0,100,108,-0.0292,165.2923,6.8213,0.4212,54.893291,9.791393,108.3,5.845,1.85,335.95,54.895348,9.797490,54.894035,9.790916
1390145285,3,0,0.0,0,-5,-8,0,100,96,-0.0292,166.9589,6.8213,0.4212,54.893280,9.791398,108.3,5.845,1.85,335.95,54.895348,9.797490,54.894035,9.790916
1390145286,3,0,0.0,0,-3,-4,0,100,108,-0.0292,167.9589,6.8213,0.4212,54.893265,9.791403,108.3,5.845,1.85,335.95,54.895348,9.797490,54.894035,9.790916
1390145286,3,0,0.0,0,-2,0,0,100,96,-0.0292,168.6256,6.8213,0.4212,54.893253,9.791408,108.3,5.845,1.85,335.95,54.895348,9.797490,54.894035,9.790916
1390145286,3,0,0.0,0,-1,-4,0,100,108,-0.0292,168.9589,6.8213,0.4212,54.893238,9.791412,108.3,5.845,1.85,335.95,54.895348,9.797490,54.894035,9.790916
1390145286,3,0,0.0,0,-1,0,0,100,96,-0.0292,169.2923,6.8213,0.4212,54.893223,9.791417,108.3,5.845,1.85,335.95,54.895348,9.797490,54.894035,9.790916
1390145287,3,0,0.0,0,-1,-4,0,100,108,-0.0292,169.6256,6.8213,0.4212,54.893211,9.791422,108.3,5.845,1.85,335.95,54.895348,9.797490,54.894035,9.790916
1390145287,3,0,0.0,0,0,0,0,100,96,-0.0292,169.6256,6.8213,0.4212,54.893196,9.791427,108.3,5.845,1.85,335.95,54.895348,9.797490,54.894035,9.790916
1390145287,3,0,0.0,0,0,4,0,100,108,-0.0292,169.6256,6.8213,0.4212,54.893185,9.791431,108.3,5.845,1.85,335.95,54.895348,9.797490,54.894035,9.790916
1390145287,3,0,0.0,0,0,0,0,120,120,-0.0292,169.6256,6.8213,0.4212,54.893169,9.791436,108.3,5.845,1.85,335.95,54.895348,9.797490,54.894035,9.790916
1390145288,3,0,0.0,0,0,4,0,120,120,-0.0292,169.6256,6.8213,0.4212,54.893154,9.791441,108.3,5.845,1.85,335.95,54.895348,9.797490,54.894035,9.790916
1390145288,3,0,0.0,0,0,0,0,120,120,-0.0292,169.6256,6.8213,0.4212,54.893135,9.791446,108.3,5.845,1.85,335.95,54.895348,9.797490,54.894035,9.790916
1390145288,3,0,0.0,0,0,4,0,120,120,-0.0292,169.6256,6.8213,0.4212,54.893120,9.791451,108.3,5.845,1.85,335.95,54.895348,9.797490,54.894035,9.790916
1390145288,3,0,0.0,0,0,0,0,120,120,-0.0292,169.6256,6.8213,0.4212,54.893105,9.791455,108.3,5.845,1.85,335.95,54.895348,9.797490,54.894035,9.790916
1390145289,3,0,0.0,0,0,4,0,120,120,-0.0292,169.6256,6.8213,0.4212,54.893085,9.791460,108.3,5.845,1.85,335.95,54.895348,9.797490,54.894035,9.790916
1390145289,3,0,0.0,0,0,0,0,120,120,-0.0292,169.6256,6.8213,0.4212,54.893070,9.791465,108.3,5.845,1.85,335.95,54.895348,9.797490,54.894035,9.790916
1390145289,3,0,0.0,0,0,4,0,120,120,-0.0292,169.6256,6.8213,0.4212,54.893055,9.791470,108.3,5.845,1.85,335.95,54.895348,9.797490,54.894035,9.790916
1390145289,3,0,0.0,0,0,0,0,120,120,-0.0292,169.6256,6.8213,0.4212,54.893036,9.791475,108.3,5.845,1.85,335.95,54.895348,9.797490,54.894035,9.790916
1390145290,3,0,0.0,0,0,4,0,120,120,-0.0292,169.6256,6.8213,0.4212,54.893021,9.791480,108.3,5.845,1.85,335.95,54.895348,9.797490,54.894035,9.790916
1390145290,3,0,0.0,0,-10,0,0,120,120,-0.0292,172.9589,6.8213,0.4212,54.893005,9.791483,108.3,5.845,1.85,335.95,54.895348,9.797490,54.894035,9.790916
1390145290,3,0,0.0,0,-7,-4,0,120,120,-0.0292,175.2923,6.8213,0.4212,54.892986,9.791485,108.3,5.845,1.85,335.95,54.895348,9.797490,54.894035,9.790916
1390145290,3,0,0.0,0,-5,-8,0,120,120,-0.0292,176.9589,6.8213,0.4212,54.892971,9.791486,108.3,5.845,1.85,335.95,54.895348,9.797490,54.894035,9.790916
1390145291,3,0,0.0,0,-3,-4,0,120,120,-0.0292,177.9589,6.8213,0.4212,54.892956,9.791487,108.3,5.845,1.85,335.95,54.895348,9.797490,54.894035,9.790916
1390145291,3,0,0.0,0,-2,0,0,120,120,-0.0292,178.6256,6.8213,0.4212,54.892937,9.791487,108.3,5.845,1.85,335.95,54.895348,9.797490,54.894035,9.790916
1390145291,3,0,0.0,0,-1,-4,0,120,120,-0.0292,178.9589,6.8213,0.4212,54.892921,9.791487,108.3,5.845,1.85,335.95,54.895348,9.797490,54.894035,9.790916
1390145291,3,0,0.0,0,-1,0,0,120,120,-0.0292,179.2923,6.8213,0.4212,54.892906,9.791487,108.3,5.845,1.85,335.95,54.895348,9.797490,54.894035,9.790916
1390145292,3,0,0.0,0,-1,-4,0,120,120,-0.0292,179.6256,6.8213,0.4212,54.892887,9.791487,108.3,5.845,1.85,335.95,54.895348,9.797490,54.894035,9.790916
1390145292,3,0,0.0,0,0,0,0,120,120,-0.0292,179.6256,6.8213,0.4212,54.892872,9.791487,108.3,5.845,1.85,335.95,54.895348,9.797490,54.894035,9.790916
1390145292,3,0,0.0,0,0,4,0,120,120,-0.0292,179.6256,6.8213,0.4212,54.892857,9.791487,108.3,5.845,1.85,335.95,54.895348,9.797490,54.894035,9.790916
1390145292,3,0,0.0,0,0,0,0,140,132,-0.0292,179.6256,6.8213,0.4212,54.892838,9.791487,108.3,5.845,1.85,335.95,54.895348,9.797490,54.894035,9.790916
1390145293,3,0,0.0,0,0,4,0,140,144,-0.0292,179.6256,6.8213,0.4212,54.892818,9.791487,108.3,5.845,1.85,335.95,54.895348,9.797490,54.894035,9.790916
1390145293,3,0,0.0,0,0,0,0,140,132,-0.0292,179.6256,6.8213,0.4212,54.892803,9.791487,108.3,5.845,1.85,335.95,54.895348,9.797490,54.894035,9.790916
1390145293,3,0,0.0,0,0,4,0,140,144,-0.0292,179.6256,6.8213,0.4212,54.892788,9.791487,108.3,5.845,1.85,335.95,54.895348,9.797490,54.894035,9.790916
1390145293,3,0,0.0,0,0,0,0,140,132,-0.0292,179.6256,6.8213,0.4212,54.892769,9.791487,108.3,5.845,1.85,335.95,54.895348,9.797490,54.894035,9.790916
1390145294,3,0,0.0,0,0,4,0,140,144,-0.0292,179.6256,6.8213,0.4212,54.892750,9.791487,108.3,5.845,1.85,335.95,54.895348,9.797490,54.894035,9.790916
1390145294,3,0,0.0,0,0,0,0,140,132,-0.0292,179.6256,6.8213,0.4212,54.892735,9.791487,108.3,5.845,1.85,335.95,54.895348,9.797490,54.894035,9.790916
1390145294,3,0,0.0,0,0,4,0,140,144,-0.0292,179.6256,6.8213,0.4212,54.892715,9.791487,108.3,5.845,1.85,335.95,54.895348,9.797490,54.894035,9.790916
1390145294,3,0,0.0,0,0,0,0,140,132,-0.0292,179.6256,6.8213,0.4212,54.892696,9.791487,108.3,5.845,1.85,335.95,54.895348,9.797490,54.894035,9.790916
1390145295,3,0,0.0,0,0,4,0,140,144,-0.0292,179.6256,6.8213,0.4212,54.892681,9.791487,108.3,5.845,1.85,335.95,54.895348,9.797490,54.894035,9.790916
1390145295,3,0,0.0,0,-10,0,0,140,132,-0.0292,182.9589,6.8213,0.4212,54.892666,9.791485,108.3,5.845,1.85,335.95,54.895348,9.797490,54.894035,9.790916
1390145295,3,0,0.0,0,-7,-4,0,140,144,-0.0292,185.2922,6.8213,0.4212,54.892647,9.791482,108.3,5.845,1.85,335.95,54.895348,9.797490,54.894035,9.790916
1390145295,3,0,0.0,0,-5,-8,0,140,132,-0.0292,186.9589,6.8213,0.4212,54.892632,9.791478,108.3,5.845,1.85,335.95,54.895348,9.797490,54.894035,9.790916
1390145296,3,0,0.0,0,-3,-4,0,140,144,-0.0292,187.9589,6.8213,0.4212,54.892616,9.791473,108.3,5.845,1.85,335.95,54.895348,9.797490,54.894035,9.790916
1390145296,3,0,0.0,0,-2,0,0,140,132,-0.0292,188.6256,6.8213,0.4212,54.892597,9.791470,108.3,5.845,1.85,335.95,54.895348,9.797490,54.894035,9.790916
1390145296,3,0,0.0,0,-1,-4,0,140,144,-0.0292,188.9589,6.8213,0.4212,54.892582,9.791466,108.3,5.845,1.85,335.95,54.895348,9.797490,54.894035,9.790916
1390145296,3,0,0.0,0,-1,0,0,140,132,-0.0292,189.2922,6.8213,0.4212,54.892567,9.791461,108.3,5.845,1.85,335.95,54.895348,9.797490,54.894035,9.790916
1390145297,3,0,0.0,0,-1,-4,0,140,144,-0.0292,189.6256,6.8213,0.4212,54.892548,9.791456,108.3,5.845,1.85,335.95,54.895348,9.797490,54.894035,9.790916
1390145297,3,0,0.0,0,0,0,0,140,132,-0.0292,189.6256,6.8213,0.4212,54.892532,9.791451,108.3,5.845,1.85,335.95,54.895348,9.797490,54.894035,9.790916
1390145297,3,0,0.0,0,0,4,0,140,144,-0.0292,189.6256,6.8213,0.4212,54.892517,9.791447,108.3,5.845,1.85,335.95,54.895348,9.797490,54.894035,9.790916
1390145297,3,0,0.0,0,0,0,0,160,156,-0.0292,189.6256,6.8213,0.4212,54.892498,9.791442,108.3,5.845,1.85,335.95,54.895348,9.797490,54.894035,9.790916
1390145298,3,0,0.0,0,0,4,0,160,168,-0.0292,189.6256,6.8213,0.4212,54.892479,9.791436,108.3,5.845,1.85,335.95,54.895348,9.797490,54.894035,9.790916
1390145298,3,0,0.0,0,0,0,0,160,156,-0.0292,189.6256,6.8213,0.4212,54.892464,9.791430,108.3,5.845,1.85,335.95,54.895348,9.797490,54.894035,9.790916
1390145298,3,0,0.0,0,0,4,0,160,168,-0.0292,189.6256,6.8213,0.4212,54.892445,9.791426,108.3,5.845,1.85,335.95,54.895348,9.797490,54.894035,9.790916
1390145298,3,0,0.0,0,0,0,0,160,156,-0.0292,189.6256,6.8213,0.4212,54.892426,9.791421,108.3,5.845,1.85,335.95,54.895348,9.797490,54.894035,9.790916
1390145299,3,0,0.0,0,0,4,0,160,168,-0.0292,189.6256,6.8213,0.4212,54.892406,9.791416,108.3,5.845,1.85,335.95,54.895348,9.797490,54.894035,9.790916
1390145299,3,0,0.0,0,0,0,0,160,156,-0.0292,189.6256,6.8213,0.4212,54.892391,9.791411,108.3,5.845,1.85,335.95,54.895348,9.797490,54.894035,9.790916
1390145299,3,0,0.0,0,0,4,0,160,168,-0.0292,189.6256,6.8213,0.4212,54.892372,9.791407,108.3,5.845,1.85,335.95,54.895348,9.797490,54.894035,9.790916
1390145299,3,0,0.0,0,0,0,0,160,156,-0.0292,189.6256,6.8213,0.4212,54.892353,9.791402,108.3,5.845,1.85,335.95,54.895348,9.797490,54.894035,9.790916
1390145300,3,0,0.0,0,0,4,0,160,168,-0.0292,189.6256,6.8213,0.4212,54.892334,9.791396,108.3,5.845,1.85,335.95,54.895348,9.797490,54.894035,9.790916
1390145300,3,0,0.0,0,-10,0,0,160,156,-0.0292,192.9589,6.8213,0.4212,54.892319,9.791389,108.3,5.845,1.85,335.95,54.895348,9.797490,54.894035,9.790916
1390145300,3,0,0.0,0,-7,-4,0,160,168,-0.0292,195.2922,6.8213,0.4212,54.892300,9.791381,108.3,5.845,1.85,335.95,54.895348,9.797490,54.894035,9.790916
1390145300,3,0,0.0,0,-5,-8,0,160,156,-0.0292,196.9589,6.8213,0.4212,54.892281,9.791372,108.3,5.845,1.85,335.95,54.895348,9.797490,54.894035,9.790916
1390145301,3,0,0.0,0,-3,-4,0,160,168,-0.0292,197.9589,6.8213,0.4212,54.892265,9.791363,108.3,5.845,1.85,335.95,54.895348,9.797490,54.894035,9.790916
1390145301,3,0,0.0,0,-2,0,0,160,156,-0.0292,198.6256,6.8213,0.4212,54.892246,9.791353,108.3,5.845,1.85,335.95,54.895348,9.797490,54.894035,9.790916
1390145301,3,0,0.0,0,-1,-4,0,160,168,-0.0292,198.9589,6.8213,0.4212,54.892227,9.791343,108.3,5.845,1.85,335.95,54.895348,9.797490,54.894035,9.790916
1390145301,3,0,0.0,0,-1,0,0,160,156,-0.0292,199.2922,6.8213,0.4212,54.892212,9.791333,108.3,5.845,1.85,335.95,54.895348,9.797490,54.894035,9.790916
1390145302,3,0,0.0,0,-1,-4,0,160,168,-0.0292,199.6255,6.8213,0.4212,54.892197,9.791323,108.3,5.845,1.85,335.95,54.895348,9.797490,54.894035,9.790916
1390145302,3,0,0.0,0,0,0,0,160,156,-0.0292,199.6255,6.8213,0.4212,54.892178,9.791312,108.3,5.845,1.85,335.95,54.895348,9.797490,54.894035,9.790916
1390145302,3,0,0.0,0,0,4,0,160,168,-0.0292,199.6255,6.8213,0.4212,54.892162,9.791302,108.3,5.845,1.85,335.95,54.895348,9.797490,54.894035,9.790916
1390145302,3,0,0.0,0,0,0,0,180,180,-0.0292,199.6255,6.8213,0.4212,54.892147,9.791292,108.3,5.845,1.85,335.95,54.895348,9.797490,54.894035,9.790916
1390145303,3,0,0.0,0,0,4,0,180,180,-0.0292,199.6255,6.8213,0.4212,54.892128,9.791282,108.3,5.845,1.85,335.95,54.895348,9.797490,54.894035,9.790916
1390145303,3,0,0.0,0,0,0,0,180,180,-0.0292,199.6255,6.8213,0.4212,54.892109,9.791271,108.3,5.845,1.85,335.95,54.895348,9.797490,54.894035,9.790916
1390145303,3,0,0.0,0,0,4,0,180,180,-0.0292,199.6255,6.8213,0.4212,54.892094,9.791261,108.3,5.845,1.85,335.95,54.895348,9.797490,54.894035,9.790916
1390145303,3,0,0.0,0,0,0,0,180,180,-0.0292,199.6255,6.8213,0.4212,54.892075,9.791250,108.3,5.845,1.85,335.95,54.895348,9.797490,54.894035,9.790916
1390145304,3,0,0.0,0,0,4,0,180,180,-0.0292,199.6255,6.8213,0.4212,54.892056,9.791240,108.3,5.845,1.85,335.95,54.895348,9.797490,54.894035,9.790916
1390145304,3,0,0.0,0,0,0,0,180,180,-0.0292,199.6255,6.8213,0.4212,54.892040,9.791229,108.3,5.845,1.85,335.95,54.895348,9.797490,54.894035,9.790916
1390145304,3,0,0.0,0,0,4,0,180,180,-0.0292,199.6255,6.8213,0.4212,54.892025,9.791219,108.3,5.845,1.85,335.95,54.895348,9.797490,54.894035,9.790916
1390145304,3,0,0.0,0,0,0,0,180,180,-0.0292,199.6255,6.8213,0.4212,54.892006,9.791208,108.3,5.845,1.85,335.95,54.895348,9.797490,54.894035,9.790916
1390145305,3,0,0.0,0,0,4,0,180,180,-0.0292,199.6255,6.8213,0.4212,54.891991,9.791198,108.3,5.845,1.85,335.95,54.895348,9.797490,54.894035,9.790916
1390145305,3,0,0.0,0,-10,0,0,180,180,-0.0292,202.9589,6.8213,0.4212,54.891975,9.791185,108.3,5.845,1.85,335.95,54.895348,9.797490,54.894035,9.790916
1390145305,3,0,0.0,0,-7,-4,0,180,180,-0.0292,205.2922,6.8213,0.4212,54.891956,9.791172,108.3,5.845,1.85,335.95,54.895348,9.797490,54.894035,9.790916
1390145305,3,0,0.0,0,-5,-8,0,180,180,-0.0292,206.9589,6.8213,0.4212,54.891941,9.791159,108.3,5.845,1.85,335.95,54.895348,9.797490,54.894035,9.790916
1390145306,3,0,0.0,0,-3,-4,0,180,180,-0.0292,207.9589,6.8213,0.4212,54.891926,9.791144,108.3,5.845,1.85,335.95,54.895348,9.797490,54.894035,9.790916
1390145306,3,0,0.0,0,-2,0,0,180,180,-0.0292,208.6255,6.8213,0.4212,54.891911,9.791129,108.3,5.845,1.85,335.95,54.895348,9.797490,54.894035,9.790916
1390145306,3,0,0.0,0,-1,-4,0,180,180,-0.0292,208.9589,6.8213,0.4212,54.891895,9.791115,108.3,5.845,1.85,335.95,54.895348,9.797490,54.894035,9.790916
1390145306,3,0,0.0,0,-1,0,0,180,180,-0.0292,209.2922,6.8213,0.4212,54.891884,9.791100,108.3,5.845,1.85,335.95,54.895348,9.797490,54.894035,9.790916
1390145307,3,0,0.0,0,-1,-4,0,180,180,-0.0292,209.6255,6.8213,0.4212,54.891869,9.791084,108.3,5.845,1.85,335.95,54.895348,9.797490,54.894035,9.790916
1390145307,3,0,0.0,0,0,0,0,180,180,-0.0292,209.6255,6.8213,0.4212,54.891853,9.791070,108.3,5.845,1.85,335.95,54.895348,9.797490,54.894035,9.790916
1390145307,3,0,0.0,0,0,4,0,180,180,-0.0292,209.6255,6.8213,0.4212,54.891838,9.791055,108.3,5.845,1.85,335.95,54.895348,9.797490,54.894035,9.790916
1390145307,3,0,0.0,0,0,0,0,160,168,-0.0292,209.6255,6.8213,0.4212,54.891823,9.791039,108.3,5.845,1.85,335.95,54.895348,9.797490,54.894035,9.790916
1390145308,3,0,0.0,0,0,4,0,160,156,-0.0292,209.6255,6.8213,0.4212,54.891804,9.791025,108.3,5.845,1.85,335.95,54.895348,9.797490,54.894035,9.790916
1390145308,3,0,0.0,0,0,0,0,160,168,-0.0292,209.6255,6.8213,0.4212,54.891788,9.791010,108.3,5.845,1.85,335.95,54.895348,9.797490,54.894035,9.790916
1390145308,3,0,0.0,0,0,4,0,160,156,-0.0292,209.6255,6.8213,0.4212,54.891773,9.790995,108.3,5.845,1.85,335.95,54.895348,9.797490,54.894035,9.790916
1390145308,3,0,0.0,0,0,0,0,160,168,-0.0292,209.6255,6.8213,0.4212,54.891762,9.790980,108.3,5.845,1.85,335.95,54.895348,9.797490,54.894035,9.790916
1390145309,3,0,0.0,0,0,4,0,160,156,-0.0292,209.6255,6.8213,0.4212,54.891747,9.790966,108.3,5.845,1.85,335.95,54.895348,9.797490,54.894035,9.790916
1390145309,3,0,0.0,0,0,0,0,160,168,-0.0292,209.6255,6.8213,0.4212,54.891731,9.790951,108.3,5.845,1.85,335.95,54.895348,9.797490,54.894035,9.790916
1390145309,3,0,0.0,0,0,4,0,160,156,-0.0292,209.6255,6.8213,0.4212,54.891716,9.790936,108.3,5.845,1.85,335.95,54.895348,9.797490,54.894035,9.790916
1390145309,3,0,0.0,0,0,0,0,160,168,-0.0292,209.6255,6.8213,0.4212,54.891701,9.790921,108.3,5.845,1.85,335.95,54.895348,9.797490,54.894035,9.790916
1390145310,3,0,0.0,0,0,4,0,160,156,-0.0292,209.6255,6.8213,0.4212,54.891685,9.790906,108.3,5.845,1.85,335.95,54.895348,9.797490,54.894035,9.790916
1390145310,3,0,0.0,0,-10,0,0,160,168,-0.0292,212.9589,6.8213,0.4212,54.891670,9.790890,108.3,5.845,1.85,335.95,54.895348,9.797490,54.894035,9.790916
1390145310,3,0,0.0,0,-7,-4,0,160,156,-0.0292,215.2922,6.8213,0.4212,54.891659,9.790873,108.3,5.845,1.85,335.95,54.895348,9.797490,54.894035,9.790916
1390145310,3,0,0.0,0,-5,-8,0,160,168,-0.0292,216.9589,6.8213,0.4212,54.891644,9.790855,108.3,5.845,1.85,335.95,54.895348,9.797490,54.894035,9.790916
1390145311,3,0,0.0,0,-3,-4,0,160,156,-0.0292,217.9589,6.8213,0.4212,54.891632,9.790837,108.3,5.845,1.85,335.95,54.895348,9.797490,54.894035,9.790916
1390145311,3,0,0.0,0,-2,0,0,160,168,-0.0292,218.6255,6.8213,0.4212,54.891617,9.790818,108.3,5.845,1.85,335.95,54.895348,9.797490,54.894035,9.790916
1390145311,3,0,0.0,0,-1,-4,0,160,156,-0.0292,218.9589,6.8213,0.4212,54.891605,9.790800,108.3,5.845,1.85,335.95,54.895348,9.797490,54.894035,9.790916
1390145311,3,0,0.0,0,-1,0,0,160,168,-0.0292,219.2922,6.8213,0.4212,54.891590,9.790781,108.3,5.845,1.85,335.95,54.895348,9.797490,54.894035,9.790916
1390145312,3,0,0.0,0,-1,-4,0,160,156,-0.0292,219.6255,6.8213,0.4212,54.891579,9.790763,108.3,5.845,1.85,335.95,54.895348,9.797490,54.894035,9.790916
1390145312,3,0,0.0,0,0,0,0,160,168,-0.0292,219.6255,6.8213,0.4212,54.891563,9.790744,108.3,5.845,1.85,335.95,54.895348,9.797490,54.894035,9.790916
1390145312,3,0,0.0,0,0,4,0,160,156,-0.0292,219.6255,6.8213,0.4212,54.891552,9.790726,108.3,5.845,1.85,335.95,54.895348,9.797490,54.894035,9.790916
1390145312,3,0,0.0,0,0,0,0,180,168,-0.0292,219.6255,6.8213,0.4212,54.891537,9.790707,108.3,5.845,1.85,335.95,54.895348,9.797490,54.894035,9.790916
1390145313,3,0,0.0,0,0,4,0,180,180,-0.0292,219.6255,6.8213,0.4212,54.891521,9.790688,108.3,5.845,1.85,335.95,54.895348,9.797490,54.894035,9.790916
1390145313,3,0,0.0,0,0,0,0,180,180,-0.0292,219.6255,6.8213,0.4212,54.891510,9.790668,108.3,5.845,1.85,335.95,54.895348,9.797490,54.894035,9.790916
1390145313,3,0,0.0,0,0,4,0,180,180,-0.0292,219.6255,6.8213,0.4212,54.891495,9.790649,108.3,5.845,1.85,335.95,54.895348,9.797490,54.894035,9.790916
1390145313,3,0,0.0,0,0,0,0,180,180,-0.0292,219.6255,6.8213,0.4212,54.891483,9.790630,108.3,5.845,1.85,335.95,54.895348,9.797490,54.894035,9.790916
1390145314,3,0,0.0,0,0,4,0,180,180,-0.0292,219.6255,6.8213,0.4212,54.891468,9.790611,108.3,5.845,1.85,335.95,54.895348,9.797490,54.894035,9.790916
1390145314,3,0,0.0,0,0,0,0,180,180,-0.0292,219.6255,6.8213,0.4212,54.891457,9.790592,108.3,5.845,1.85,335.95,54.895348,9.797490,54.894035,9.790916
1390145314,3,0,0.0,0,0,4,0,180,180,-0.0292,219.6255,6.8213,0.4212,54.891441,9.790573,108.3,5.845,1.85,335.95,54.895348,9.797490,54.894035,9.790916
1390145315,3,0,0.0,0,0,0,0,180,180,-0.0292,219.6255,6.8213,0.4212,54.891430,9.790555,108.3,5.845,1.85,335.95,54.895348,9.797490,54.894035,9.790916
1390145315,3,0,0.0,0,0,4,0,180,180,-0.0292,219.6255,6.8213,0.4212,54.891415,9.790536,108.3,5.845,1.85,335.95,54.895348,9.797490,54.894035,9.790916
1390145315,3,0,0.0,0,-10,0,0,180,180,-0.0292,222.9588,6.8213,0.4212,54.891403,9.790515,108.3,5.845,1.85,335.95,54.895348,9.797490,54.894035,9.790916
1390145315,3,0,0.0,0,-7,-4,0,180,180,-0.0292,225.2922,6.8213,0.4212,54.891392,9.790494,108.3,5.845,1.85,335.95,54.895348,9.797490,54.894035,9.790916
1390145316,3,0,0.0,0,-5,-8,0,180,180,-0.0292,226.9588,6.8213,0.4212,54.891380,9.790472,108.3,5.845,1.85,335.95,54.895348,9.797490,54.894035,9.790916
1390145316,3,0,0.0,0,-3,-4,0,180,180,-0.0292,227.9588,6.8213,0.4212,54.891365,9.790450,108.3,5.845,1.85,335.95,54.895348,9.797490,54.894035,9.790916
1390145316,3,0,0.0,0,-2,0,0,180,180,-0.0292,228.6255,6.8213,0.4212,54.891354,9.790428,108.3,5.845,1.85,335.95,54.895348,9.797490,54.894035,9.790916
1390145316,3,0,0.0,0,-1,-4,0,180,180,-0.0292,228.9588,6.8213,0.4212,54.891346,9.790406,108.3,5.845,1.85,335.95,54.895348,9.797490,54.894035,9.790916
1390145317,3,0,0.0,0,-1,0,0,180,180,-0.0292,229.2922,6.8213,0.4212,54.891335,9.790383,108.3,5.845,1.85,335.95,54.895348,9.797490,54.894035,9.790916
1390145317,3,0,0.0,0,-1,-4,0,180,180,-0.0292,229.6255,6.8213,0.4212,54.891323,9.790361,108.3,5.845,1.85,335.95,54.895348,9.797490,54.894035,9.790916
1390145317,3,0,0.0,0,0,0,0,180,180,-0.0292,229.6255,6.8213,0.4212,54.891312,9.790339,108.3,5.845,1.85,335.95,54.895348,9.797490,54.894035,9.790916
1390145317,3,0,0.0,0,0,4,0,180,180,-0.0292,229.6255,6.8213,0.4212,54.891300,9.790317,108.3,5.845,1.85,335.95,54.895348,9.797490,54.894035,9.790916
1390145318,3,0,0.0,0,0,0,0,160,168,-0.0292,229.6255,6.8213,0.4212,54.891289,9.790294,108.3,5.845,1.85,335.95,54.895348,9.797490,54.894035,9.790916
1390145318,3,0,0.0,0,0,4,0,160,156,-0.0292,229.6255,6.8213,0.4212,54.891277,9.790272,108.3,5.845,1.85,335.95,54.895348,9.797490,54.894035,9.790916
1390145318,3,0,0.0,0,0,0,0,160,168,-0.0292,229.6255,6.8213,0.4212,54.891270,9.790250,108.3,5.845,1.85,335.95,54.895348,9.797490,54.894035,9.790916
1390145318,3,0,0.0,0,0,4,0,160,156,-0.0292,229.6255,6.8213,0.4212,54.891258,9.790228,108.3,5.845,1.85,335.95,54.895348,9.797490,54.894035,9.790916
1390145319,3,0,0.0,0,0,0,0,160,168,-0.0292,229.6255,6.8213,0.4212,54.891247,9.790206,108.3,5.845,1.85,335.95,54.895348,9.797490,54.894035,9.790916
1390145319,3,0,0.0,0,0,4,0,160,156,-0.0292,229.6255,6.8213,0.4212,54.891235,9.790184,108.3,5.845,1.85,335.95,54.895348,9.797490,54.894035,9.790916
1390145319,3,0,0.0,0,0,0,0,160,168,-0.0292,229.6255,6.8213,0.4212,54.891224,9.790162,108.3,5.845,1.85,335.95,54.895348,9.797490,54.894035,9.790916
1390145319,3,0,0.0,0,0,4,0,160,156,-0.0292,229.6255,6.8213,0.4212,54.891212,9.790140,108.3,5.845,1.85,335.95,54.895348,9.797490,54.894035,9.790916
1390145320,3,0,0.0,0,0,0,0,160,168,-0.0292,229.6255,6.8213,0.4212,54.891201,9.790118,108.3,5.845,1.85,335.95,54.895348,9.797490,54.894035,9.790916
1390145320,3,0,0.0,0,0,4,0,160,156,-0.0292,229.6255,6.8213,0.4212,54.891190,9.790096,108.3,5.845,1.85,335.95,54.895348,9.797490,54.894035,9.790916
1390145320,3,0,0.0,0,-10,0,0,160,168,-0.0292,232.9588,6.8213,0.4212,54.891178,9.790073,108.3,5.845,1.85,335.95,54.895348,9.797490,54.894035,9.790916
1390145320,3,0,0.0,0,-7,-4,0,160,156,-0.0292,235.2922,6.8213,0.4212,54.891171,9.790051,108.3,5.845,1.85,335.95,54.895348,9.797490,54.894035,9.790916
1390145321,3,0,0.0,0,-5,-8,0,160,168,-0.0292,236.9588,6.8213,0.4212,54.891163,9.790028,108.3,5.845,1.85,335.95,54.895348,9.797490,54.894035,9.790916
1390145321,3,0,0.0,0,-3,-4,0,160,156,-0.0292,237.9588,6.8213,0.4212,54.891151,9.790004,108.3,5.845,1.85,335.95,54.895348,9.797490,54.894035,9.790916
1390145321,3,0,0.0,0,-2,0,0,160,168,-0.0292,238.6255,6.8213,0.4212,54.891144,9.789980,108.3,5.845,1.85,335.95,54.895348,9.797490,54.894035,9.790916
1390145321,3,0,0.0,0,-1,-4,0,160,156,-0.0292,238.9588,6.8213,0.4212,54.891136,9.789956,108.3,5.845,1.85,335.95,54.895348,9.797490,54.894035,9.790916
1390145322,3,0,0.0,0,-1,0,0,160,168,-0.0292,239.2922,6.8213,0.4212,54.891125,9.789932,108.3,5.845,1.85,335.95,54.895348,9.797490,54.894035,9.790916
1390145322,3,0,0.0,0,-1,-4,0,160,156,-0.0292,239.6255,6.8213,0.4212,54.891117,9.789908,108.3,5.845,1.85,335.95,54.895348,9.797490,54.894035,9.790916
1390145322,3,0,0.0,0,0,0,0,160,168,-0.0292,239.6255,6.8213,0.4212,54.891109,9.789885,108.3,5.845,1.85,335.95,54.895348,9.797490,54.894035,9.790916
1390145322,3,0,0.0,0,0,4,0,160,156,-0.0292,239.6255,6.8213,0.4212,54.891098,9.789862,108.3,5.845,1.85,335.95,54.895348,9.797490,54.894035,9.790916
1390145323,3,0,0.0,0,0,0,0,180,168,-0.0292,239.6255,6.8213,0.4212,54.891090,9.789838,108.3,5.845,1.85,335.95,54.895348,9.797490,54.894035,9.790916
1390145323,3,0,0.0,0,0,4,0,180,180,-0.0292,239.6255,6.8213,0.4212,54.891083,9.789814,108.3,5.845,1.85,335.95,54.895348,9.797490,54.894035,9.790916
1390145323,3,0,0.0,0,0,0,0,180,180,-0.0292,239.6255,6.8213,0.4212,54.891075,9.789789,108.3,5.845,1.85,335.95,54.895348,9.797490,54.894035,9.790916
1390145323,3,0,0.0,0,0,4,0,180,180,-0.0292,239.6255,6.8213,0.4212,54.891068,9.789765,108.3,5.845,1.85,335.95,54.895348,9.797490,54.894035,9.790916
1390145324,3,0,0.0,0,0,0,0,180,180,-0.0292,239.6255,6.8213,0.4212,54.891060,9.789741,108.3,5.845,1.85,335.95,54.895348,9.797490,54.894035,9.790916
1390145324,3,0,0.0,0,0,4,0,180,180,-0.0292,239.6255,6.8213,0.4212,54.891052,9.789717,108.3,5.845,1.85,335.95,54.895348,9.797490,54.894035,9.790916
1390145324,3,0,0.0,0,0,0,0,180,180,-0.0292,239.6255,6.8213,0.4212,54.891045,9.789692,108.3,5.845,1.85,335.95,54.895348,9.797490,54.894035,9.790916
1390145324,3,0,0.0,0,0,4,0,180,180,-0.0292,239.6255,6.8213,0.4212,54.891037,9.789668,108.3,5.845,1.85,335.95,54.895348,9.797490,54.894035,9.790916
1390145325,3,0,0.0,0,0,0,0,180,180,-0.0292,239.6255,6.8213,0.4212,54.891026,9.789644,108.3,5.845,1.85,335.95,54.895348,9.797490,54.894035,9.790916
1390145325,3,0,0.0,0,0,4,0,180,180,-0.0292,239.6255,6.8213,0.4212,54.891018,9.789619,108.3,5.845,1.85,335.95,54.895348,9.797490,54.894035,9.790916
1390145325,3,0,0.0,0,-10,0,0,180,180,-0.0292,242.9588,6.8213,0.4212,54.891010,9.789595,108.3,5.845,1.85,335.95,54.895348,9.797490,54.894035,9.790916
1390145325,3,0,0.0,0,-7,-4,0,180,180,-0.0292,245.2921,6.8213,0.4212,54.891006,9.789570,108.3,5.845,1.85,335.95,54.895348,9.797490,54.894035,9.790916
1390145326,3,0,0.0,0,-5,-8,0,180,180,-0.0292,246.9588,6.8213,0.4212,54.891003,9.789545,108.3,5.845,1.85,335.95,54.895348,9.797490,54.894035,9.790916
1390145326,3,0,0.0,0,-3,-4,0,180,180,-0.0292,247.9588,6.8213,0.4212,54.890999,9.789519,108.3,5.845,1.85,335.95,54.895348,9.797490,54.894035,9.790916
1390145326,3,0,0.0,0,-2,0,0,180,180,-0.0292,248.6255,6.8213,0.4212,54.890995,9.789495,108.3,5.845,1.85,335.95,54.895348,9.797490,54.894035,9.790916
1390145326,3,0,0.0,0,-1,-4,0,180,180,-0.0292,248.9588,6.8213,0.4212,54.890987,9.789470,108.3,5.845,1.85,335.95,54.895348,9.797490,54.894035,9.790916
1390145327,3,0,0.0,0,-1,0,0,180,180,-0.0292,249.2921,6.8213,0.4212,54.890980,9.789444,108.3,5.845,1.85,335.95,54.895348,9.797490,54.894035,9.790916
1390145327,3,0,0.0,0,-1,-4,0,180,180,-0.0292,249.6255,6.8213,0.4212,54.890976,9.789419,108.3,5.845,1.85,335.95,54.895348,9.797490,54.894035,9.790916
1390145327,3,0,0.0,0,0,0,0,180,180,-0.0292,249.6255,6.8213,0.4212,54.890972,9.789393,108.3,5.845,1.85,335.95,54.895348,9.797490,54.894035,9.790916
1390145327,3,0,0.0,0,0,4,0,180,180,-0.0292,249.6255,6.8213,0.4212,54.890965,9.789369,108.3,5.845,1.85,335.95,54.895348,9.797490,54.894035,9.790916
1390145328,3,0,0.0,0,0,0,0,160,168,-0.0292,249.6255,6.8213,0.4212,54.890957,9.789344,108.3,5.845,1.85,335.95,54.895348,9.797490,54.894035,9.790916
1390145328,3,0,0.0,0,0,4,0,160,156,-0.0292,249.6255,6.8213,0.4212,54.890953,9.789319,108.3,5.845,1.85,335.95,54.895348,9.797490,54.894035,9.790916
1390145328,3,0,0.0,0,0,0,0,160,168,-0.0292,249.6255,6.8213,0.4212,54.890949,9.789294,108.3,5.845,1.85,335.95,54.895348,9.797490,54.894035,9.790916
1390145328,3,0,0.0,0,0,4,0,160,156,-0.0292,249.6255,6.8213,0.4212,54.890945,9.789269,108.3,5.845,1.85,335.95,54.895348,9.797490,54.894035,9.790916
1390145329,3,0,0.0,0,0,0,0,160,168,-0.0292,249.6255,6.8213,0.4212,54.890938,9.789245,108.3,5.845,1.85,335.95,54.895348,9.797490,54.894035,9.790916
1390145329,3,0,0.0,0,0,4,0,160,156,-0.0292,249.6255,6.8213,0.4212,54.890930,9.789221,108.3,5.845,1.85,335.95,54.895348,9.797490,54.894035,9.790916
1390145329,3,0,0.0,0,0,0,0,160,168,-0.0292,249.6255,6.8213,0.4212,54.890926,9.789196,108.3,5.845,1.85,335.95,54.895348,9.797490,54.894035,9.790916
1390145329,3,0,0.0,0,0,4,0,160,156,-0.0292,249.6255,6.8213,0.4212,54.890923,9.789171,108.3,5.845,1.85,335.95,54.895348,9.797490,54.894035,9.790916
1390145330,3,0,0.0,0,0,0,0,160,168,-0.0292,249.6255,6.8213,0.4212,54.890915,9.789146,108.3,5.845,1.85,335.95,54.895348,9.797490,54.894035,9.790916
1390145330,3,0,0.0,0,0,4,0,160,156,-0.0292,249.6255,6.8213,0.4212,54.890907,9.789122,108.3,5.845,1.85,335.95,54.895348,9.797490,54.894035,9.790916
1390145330,3,0,0.0,0,-10,0,0,160,168,-0.0292,252.9588,6.8213,0.4212,54.890903,9.789096,108.3,5.845,1.85,335.95,54.895348,9.797490,54.894035,9.790916
1390145330,3,0,0.0,0,-7,-4,0,160,156,-0.0292,255.2921,6.8213,0.4212,54.890900,9.789071,108.3,5.845,1.85,335.95,54.895348,9.797490,54.894035,9.790916
1390145331,3,0,0.0,0,-5,-8,0,160,168,-0.0292,256.9588,6.8213,0.4212,54.890896,9.789046,108.3,5.845,1.85,335.95,54.895348,9.797490,54.894035,9.790916
1390145331,3,0,0.0,0,-3,-4,0,160,156,-0.0292,257.9588,6.8213,0.4212,54.890892,9.789021,108.3,5.845,1.85,335.95,54.895348,9.797490,54.894035,9.790916
1390145331,3,0,0.0,0,-2,0,0,160,168,-0.0292,258.6255,6.8213,0.4212,54.890888,9.788997,108.3,5.845,1.85,335.95,54.895348,9.797490,54.894035,9.790916
1390145331,3,0,0.0,0,-1,-4,0,160,156,-0.0292,258.9588,6.8213,0.4212,54.890884,9.788972,108.3,5.845,1.85,335.95,54.895348,9.797490,54.894035,9.790916
1390145332,3,0,0.0,0,-1,0,0,160,168,-0.0292,259.2921,6.8213,0.4212,54.890884,9.788947,108.3,5.845,1.85,335.95,54.895348,9.797490,54.894035,9.790916
1390145332,3,0,0.0,0,-1,-4,0,160,156,-0.0292,259.6255,6.8213,0.4212,54.890884,9.788922,108.3,5.845,1.85,335.95,54.895348,9.797490,54.894035,9.790916
1390145332,3,0,0.0,0,0,0,0,160,168,-0.0292,259.6255,6.8213,0.4212,54.890884,9.788898,108.3,5.845,1.85,335.95,54.895348,9.797490,54.894035,9.790916
1390145332,3,0,0.0,0,0,4,0,160,156,-0.0292,259.6255,6.8213,0.4212,54.890884,9.788874,108.3,5.845,1.85,335.95,54.895348,9.797490,54.894035,9.790916
1390145333,3,0,0.0,0,0,0,0,180,168,-0.0292,259.6255,6.8213,0.4212,54.890884,9.788849,108.3,5.845,1.85,335.95,54.895348,9.797490,54.894035,9.790916
1390145333,3,0,0.0,0,0,4,0,180,180,-0.0292,259.6255,6.8213,0.4212,54.890884,9.788824,108.3,5.845,1.85,335.95,54.895348,9.797490,54.894035,9.790916
1390145333,3,0,0.0,0,0,0,0,180,180,-0.0292,259.6255,6.8213,0.4212,54.890884,9.788798,108.3,5.845,1.85,335.95,54.895348,9.797490,54.894035,9.790916
1390145333,3,0,0.0,0,0,4,0,180,180,-0.0292,259.6255,6.8213,0.4212,54.890884,9.788774,108.3,5.845,1.85,335.95,54.895348,9.797490,54.894035,9.790916
1390145334,3,0,0.0,0,0,0,0,180,180,-0.0292,259.6255,6.8213,0.4212,54.890884,9.788748,108.3,5.845,1.85,335.95,54.895348,9.797490,54.894035,9.790916
1390145334,3,0,0.0,0,0,4,0,180,180,-0.0292,259.6255,6.8213,0.4212,54.890884,9.788723,108.3,5.845,1.85,335.95,54.895348,9.797490,54.894035,9.790916
1390145334,3,0,0.0,0,0,0,0,180,180,-0.0292,259.6255,6.8213,0.4212,54.890884,9.788698,108.3,5.845,1.85,335.95,54.895348,9.797490,54.894035,9.790916
1390145334,3,0,0.0,0,0,4,0,180,180,-0.0292,259.6255,6.8213,0.4212,54.890884,9.788672,108.3,5.845,1.85,335.95,54.895348,9.797490,54.894035,9.790916
1390145335,3,0,0.0,0,0,0,0,180,180,-0.0292,259.6255,6.8213,0.4212,54.890884,9.788648,108.3,5.845,1.85,335.95,54.895348,9.797490,54.894035,9.790916
1390145335,3,0,0.0,0,0,4,0,180,180,-0.0292,259.6255,6.8213,0.4212,54.890884,9.788622,108.3,5.845,1.85,335.95,54.895348,9.797490,54.894035,9.790916
1390145335,3,0,0.0,0,-10,0,0,180,180,-0.0292,262.9588,6.8213,0.4212,54.890884,9.788597,108.3,5.845,1.85,335.95,54.895348,9.797490,54.894035,9.790916
1390145335,3,0,0.0,0,-7,-4,0,180,180,-0.0292,265.2922,6.8213,0.4212,54.890884,9.788573,108.3,5.845,1.85,335.95,54.895348,9.797490,54.894035,9.790916
1390145336,3,0,0.0,0,-5,-8,0,180,180,-0.0292,266.9588,6.8213,0.4212,54.890884,9.788548,108.3,5.845,1.85,335.95,54.895348,9.797490,54.894035,9.790916
1390145336,3,0,0.0,0,-3,-4,0,180,180,-0.0292,267.9588,6.8213,0.4212,54.890884,9.788525,108.3,5.845,1.85,335.95,54.895348,9.797490,54.894035,9.790916
1390145336,3,0,0.0,0,-2,0,0,180,180,-0.0292,268.6255,6.8213,0.4212,54.890884,9.788500,108.3,5.845,1.85,335.95,54.895348,9.797490,54.894035,9.790916
1390145336,3,0,0.0,0,-1,-4,0,180,180,-0.0292,268.9588,6.8213,0.4212,54.890884,9.788476,108.3,5.845,1.85,335.95,54.895348,9.797490,54.894035,9.790916
1390145337,3,0,0.0,0,-1,0,0,180,180,-0.0292,269.2922,6.8213,0.4212,54.890884,9.788451,108.3,5.845,1.85,335.95,54.895348,9.797490,54.894035,9.790916
1390145337,3,0,0.0,0,-1,-4,0,180,180,-0.0292,269.6255,6.8213,0.4212,54.890884,9.788427,108.3,5.845,1.85,335.95,54.895348,9.797490,54.894035,9.790916
1390145337,3,0,0.0,0,0,0,0,180,180,-0.0292,269.6255,6.8213,0.4212,54.890884,9.788404,108.3,5.845,1.85,335.95,54.895348,9.797490,54.894035,9.790916
1390145337,3,0,0.0,0,0,4,0,180,180,-0.0292,269.6255,6.8213,0.4212,54.890884,9.788380,108.3,5.845,1.85,335.95,54.895348,9.797490,54.894035,9.790916
1390145338,3,0,0.0,0,0,0,0,160,168,-0.0292,269.6255,6.8213,0.4212,54.890884,9.788356,108.3,5.845,1.85,335.95,54.895348,9.797490,54.894035,9.790916
1390145338,3,0,0.0,0,0,4,0,160,156,-0.0292,269.6255,6.8213,0.4212,54.890884,9.788332,108.3,5.845,1.85,335.95,54.895348,9.797490,54.894035,9.790916
1390145338,3,0,0.0,0,0,0,0,160,168,-0.0292,269.6255,6.8213,0.4212,54.890884,9.788308,108.3,5.845,1.85,335.95,54.895348,9.797490,54.894035,9.790916
1390145338,3,0,0.0,0,0,4,0,160,156,-0.0292,269.6255,6.8213,0.4212,54.890884,9.788284,108.3,5.845,1.85,335.95,54.895348,9.797490,54.894035,9.790916
1390145339,3,0,0.0,0,0,0,0,160,168,-0.0292,269.6255,6.8213,0.4212,54.890884,9.788260,108.3,5.845,1.85,335.95,54.895348,9.797490,54.894035,9.790916
1390145339,3,0,0.0,0,0,4,0,160,156,-0.0292,269.6255,6.8213,0.4212,54.890884,9.788237,108.3,5.845,1.85,335.95,54.895348,9.797490,54.894035,9.790916
1390145339,3,0,0.0,0,0,0,0,160,168,-0.0292,269.6255,6.8213,0.4212,54.890884,9.788213,108.3,5.845,1.85,335.95,54.895348,9.797490,54.894035,9.790916
1390145339,3,0,0.0,0,0,4,0,160,156,-0.0292,269.6255,6.8213,0.4212,54.890884,9.788190,108.3,5.845,1.85,335.95,54.895348,9.797490,54.894035,9.790916
1390145340,3,0,0.0,0,0,0,0,160,168,-0.0292,269.6255,6.8213,0.4212,54.890884,9.788166,108.3,5.845,1.85,335.95,54.895348,9.797490,54.894035,9.790916
1390145340,3,0,0.0,0,0,4,0,160,156,-0.0292,269.6255,6.8213,0.4212,54.890884,9.788143,108.3,5.845,1.85,335.95,54.895348,9.797490,54.894035,9.790916
1390145340,3,0,0.0,0,-10,0,0,160,168,-0.0292,272.9589,6.8213,0.4212,54.890888,9.788119,108.3,5.845,1.85,335.95,54.895348,9.797490,54.894035,9.790916
1390145340,3,0,0.0,0,-7,-4,0,160,156,-0.0292,275.2922,6.8213,0.4212,54.890888,9.788097,108.3,5.845,1.85,335.95,54.895348,9.797490,54.894035,9.790916
1390145341,3,0,0.0,0,-5,-8,0,160,168,-0.0292,276.9589,6.8213,0.4212,54.890888,9.788074,108.3,5.845,1.85,335.95,54.895348,9.797490,54.894035,9.790916
1390145341,3,0,0.0,0,-3,-4,0,160,156,-0.0292,277.9589,6.8213,0.4212,54.890888,9.788053,108.3,5.845,1.85,335.95,54.895348,9.797490,54.894035,9.790916
1390145341,3,0,0.0,0,-2,0,0,160,168,-0.0292,278.6255,6.8213,0.4212,54.890888,9.788031,108.3,5.845,1.85,335.95,54.895348,9.797490,54.894035,9.790916
1390145341,3,0,0.0,0,-1,-4,0,160,156,-0.0292,278.9589,6.8213,0.4212,54.890888,9.788010,108.3,5.845,1.85,335.95,54.895348,9.797490,54.894035,9.790916
1390145342,3,0,0.0,0,-1,0,0,160,168,-0.0292,279.2922,6.8213,0.4212,54.890888,9.787988,108.3,5.845,1.85,335.95,54.895348,9.797490,54.894035,9.790916
1390145342,3,0,0.0,0,-1,-4,0,160,156,-0.0292,279.6255,6.8213,0.4212,54.890888,9.787967,108.3,5.845,1.85,335.95,54.895348,9.797490,54.894035,9.790916
1390145342,3,0,0.0,0,0,0,0,160,168,-0.0292,279.6255,6.8213,0.4212,54.890888,9.787945,108.3,5.845,1.85,335.95,54.895348,9.797490,54.894035,9.790916
1390145342,3,0,0.0,0,0,4,0,160,156,-0.0292,279.6255,6.8213,0.4212,54.890888,9.787924,108.3,5.845,1.85,335.95,54.895348,9.797490,54.894035,9.790916
1390145343,3,0,0.0,0,0,0,0,180,168,-0.0292,279.6255,6.8213,0.4212,54.890888,9.787902,108.3,5.845,1.85,335.95,54.895348,9.797490,54.894035,9.790916
1390145343,3,0,0.0,0,0,4,0,180,180,-0.0292,279.6255,6.8213,0.4212,54.890888,9.787880,108.3,5.845,1.85,335.95,54.895348,9.797490,54.894035,9.790916
1390145343,3,0,0.0,0,0,0,0,180,180,-0.0292,279.6255,6.8213,0.4212,54.890888,9.787858,108.3,5.845,1.85,335.95,54.895348,9.797490,54.894035,9.790916
1390145343,3,0,0.0,0,0,4,0,180,180,-0.0292,279.6255,6.8213,0.4212,54.890888,9.787836,108.3,5.845,1.85,335.95,54.895348,9.797490,54.894035,9.790916
1390145344,3,0,0.0,0,0,0,0,180,180,-0.0292,279.6255,6.8213,0.4212,54.890888,9.787814,108.3,5.845,1.85,335.95,54.895348,9.797490,54.894035,9.790916
1390145344,3,0,0.0,0,0,4,0,180,180,-0.0292,279.6255,6.8213,0.4212,54.890888,9.787792,108.3,5.845,1.85,335.95,54.895348,9.797490,54.894035,9.790916
1390145344,3,0,0.0,0,0,0,0,180,180,-0.0292,279.6255,6.8213,0.4212,54.890888,9.787770,108.3,5.845,1.85,335.95,54.895348,9.797490,54.894035,9.790916
1390145344,3,0,0.0,0,0,4,0,180,180,-0.0292,279.6255,6.8213,0.4212,54.890888,9.787748,108.3,5.845,1.85,335.95,54.895348,9.797490,54.894035,9.790916
1390145345,3,0,0.0,0,0,0,0,180,180,-0.0292,279.6255,6.8213,0.4212,54.890888,9.787726,108.3,5.845,1.85,335.95,54.895348,9.797490,54.894035,9.790916
1390145345,3,0,0.0,0,0,4,0,180,180,-0.0292,279.6255,6.8213,0.4212,54.890888,9.787704,108.3,5.845,1.85,335.95,54.895348,9.797490,54.894035,9.790916
1390145345,3,0,0.0,0,-10,0,0,180,180,-0.0292,282.9589,6.8213,0.4212,54.890888,9.787683,108.3,5.845,1.85,335.95,54.895348,9.797490,54.894035,9.790916
1390145345,3,0,0.0,0,-7,-4,0,180,180,-0.0292,285.2922,6.8213,0.4212,54.890888,9.787663,108.3,5.845,1.85,335.95,54.895348,9.797490,54.894035,9.790916
1390145346,3,0,0.0,0,-5,-8,0,180,180,-0.0292,286.9589,6.8213,0.4212,54.890888,9.787643,108.3,5.845,1.85,335.95,54.895348,9.797490,54.894035,9.790916
1390145346,3,0,0.0,0,-3,-4,0,180,180,-0.0292,287.9589,6.8213,0.4212,54.890888,9.787624,108.3,5.845,1.85,335.95,54.895348,9.797490,54.894035,9.790916
1390145346,3,0,0.0,0,-2,0,0,180,180,-0.0292,288.6255,6.8213,0.4212,54.890888,9.787604,108.3,5.845,1.85,335.95,54.895348,9.797490,54.894035,9.790916
1390145346,3,0,0.0,0,-1,-4,0,180,180,-0.0292,288.9589,6.8213,0.4212,54.890888,9.787585,108.3,5.845,1.85,335.95,54.895348,9.797490,54.894035,9.790916
1390145347,3,0,0.0,0,-1,0,0,180,180,-0.0292,289.2922,6.8213,0.4212,54.890888,9.787566,108.3,5.845,1.85,335.95,54.895348,9.797490,54.894035,9.790916
1390145347,3,0,0.0,0,-1,-4,0,180,180,-0.0292,289.6256,6.8213,0.4212,54.890888,9.787547,108.3,5.845,1.85,335.95,54.895348,9.797490,54.894035,9.790916
1390145347,3,0,0.0,0,0,0,0,180,180,-0.0292,289.6256,6.8213,0.4212,54.890888,9.787528,108.3,5.845,1.85,335.95,54.895348,9.797490,54.894035,9.790916
1390145347,3,0,0.0,0,0,4,0,180,180,-0.0292,289.6256,6.8213,0.4212,54.890888,9.787509,108.3,5.845,1.85,335.95,54.895348,9.797490,54.894035,9.790916
1390145348,3,0,0.0,0,0,0,0,160,168,-0.0292,289.6256,6.8213,0.4212,54.890888,9.787490,108.3,5.845,1.85,335.95,54.895348,9.797490,54.894035,9.790916
1390145348,3,0,0.0,0,0,4,0,160,156,-0.0292,289.6256,6.8213,0.4212,54.890888,9.787471,108.3,5.845,1.85,335.95,54.895348,9.797490,54.894035,9.790916
1390145348,3,0,0.0,0,0,0,0,160,168,-0.0292,289.6256,6.8213,0.4212,54.890888,9.787452,108.3,5.845,1.85,335.95,54.895348,9.797490,54.894035,9.790916
1390145348,3,0,0.0,0,0,4,0,160,156,-0.0292,289.6256,6.8213,0.4212,54.890888,9.787433,108.3,5.845,1.85,335.95,54.895348,9.797490,54.894035,9.790916
1390145349,3,0,0.0,0,0,0,0,160,168,-0.0292,289.6256,6.8213,0.4212,54.890888,9.787414,108.3,5.845,1.85,335.95,54.895348,9.797490,54.894035,9.790916
1390145349,3,0,0.0,0,0,4,0,160,156,-0.0292,289.6256,6.8213,0.4212,54.890888,9.787395,108.3,5.845,1.85,335.95,54.895348,9.797490,54.894035,9.790916
1390145349,3,0,0.0,0,0,0,0,160,168,-0.0292,289.6256,6.8213,0.4212,54.890888,9.787375,108.3,5.845,1.85,335.95,54.895348,9.797490,54.894035,9.790916
1390145349,3,0,0.0,0,0,4,0,160,156,-0.0292,289.6256,6.8213,0.4212,54.890888,9.787356,108.3,5.845,1.85,335.95,54.895348,9.797490,54.894035,9.790916
1390145350,3,0,0.0,0,0,0,0,160,168,-0.0292,289.6256,6.8213,0.4212,54.890888,9.787338,108.3,5.845,1.85,335.95,54.895348,9.797490,54.894035,9.790916
1390145350,3,0,0.0,0,0,4,0,160,156,-0.0292,289.6256,6.8213,0.4212,54.890888,9.787319,108.3,5.845,1.85,335.95,54.895348,9.797490,54.894035,9.790916
1390145350,3,0,0.0,0,-10,0,0,160,168,-0.0292,292.9589,6.8213,0.4212,54.890892,9.787301,108.3,5.845,1.85,335.95,54.895348,9.797490,54.894035,9.790916
1390145350,3,0,0.0,0,-7,-4,0,160,156,-0.0292,295.2923,6.8213,0.4212,54.890896,9.787284,108.3,5.845,1.85,335.95,54.895348,9.797490,54.894035,9.790916
1390145351,3,0,0.0,0,-5,-8,0,160,168,-0.0292,296.9589,6.8213,0.4212,54.890900,9.787267,108.3,5.845,1.85,335.95,54.895348,9.797490,54.894035,9.790916
1390145351,3,0,0.0,0,-3,-4,0,160,156,-0.0292,297.9589,6.8213,0.4212,54.890903,9.787251,108.3,5.845,1.85,335.95,54.895348,9.797490,54.894035,9.790916
1390145351,3,0,0.0,0,-2,0,0,160,168,-0.0292,298.6256,6.8213,0.4212,54.890907,9.787235,108.3,5.845,1.85,335.95,54.895348,9.797490,54.894035,9.790916
1390145351,3,0,0.0,0,-1,-4,0,160,156,-0.0292,298.9589,6.8213,0.4212,54.890915,9.787219,108.3,5.845,1.85,335.95,54.895348,9.797490,54.894035,9.790916
1390145352,3,0,0.0,0,-1,0,0,160,168,-0.0292,299.2923,6.8213,0.4212,54.890919,9.787204,108.3,5.845,1.85,335.95,54.895348,9.797490,54.894035,9.790916
1390145352,3,0,0.0,0,-1,-4,0,160,156,-0.0292,299.6256,6.8213,0.4212,54.890923,9.787189,108.3,5.845,1.85,335.95,54.895348,9.797490,54.894035,9.790916
1390145352,3,0,0.0,0,0,0,0,160,168,-0.0292,299.6256,6.8213,0.4212,54.890926,9.787172,108.3,5.845,1.85,335.95,54.895348,9.797490,54.894035,9.790916
1390145352,3,0,0.0,0,0,4,0,160,156,-0.0292,299.6256,6.8213,0.4212,54.890930,9.787157,108.3,5.845,1.85,335.95,54.895348,9.797490,54.894035,9.790916
1390145353,3,0,0.0,0,0,0,0,180,168,-0.0292,299.6256,6.8213,0.4212,54.890938,9.787141,108.3,5.845,1.85,335.95,54.895348,9.797490,54.894035,9.790916
1390145353,3,0,0.0,0,0,4,0,180,180,-0.0292,299.6256,6.8213,0.4212,54.890942,9.787126,108.3,5.845,1.85,335.95,54.895348,9.797490,54.894035,9.790916
1390145353,3,0,0.0,0,0,0,0,180,180,-0.0292,299.6256,6.8213,0.4212,54.890945,9.787110,108.3,5.845,1.85,335.95,54.895348,9.797490,54.894035,9.790916
1390145353,3,0,0.0,0,0,4,0,180,180,-0.0292,299.6256,6.8213,0.4212,54.890949,9.787094,108.3,5.845,1.85,335.95,54.895348,9.797490,54.894035,9.790916
1390145354,3,0,0.0,0,0,0,0,180,180,-0.0292,299.6256,6.8213,0.4212,54.890953,9.787079,108.3,5.845,1.85,335.95,54.895348,9.797490,54.894035,9.790916
1390145354,3,0,0.0,0,0,4,0,180,180,-0.0292,299.6256,6.8213,0.4212,54.890961,9.787063,108.3,5.845,1.85,335.95,54.895348,9.797490,54.894035,9.790916
1390145354,3,0,0.0,0,0,0,0,180,180,-0.0292,299.6256,6.8213,0.4212,54.890968,9.787046,108.3,5.845,1.85,335.95,54.895348,9.797490,54.894035,9.790916
1390145355,3,0,0.0,0,0,4,0,180,180,-0.0292,299.6256,6.8213,0.4212,54.890972,9.787031,108.3,5.845,1.85,335.95,54.895348,9.797490,54.894035,9.790916
1390145355,3,0,0.0,0,0,0,0,180,180,-0.0292,299.6256,6.8213,0.4212,54.890976,9.787015,108.3,5.845,1.85,335.95,54.895348,9.797490,54.894035,9.790916
1390145355,3,0,0.0,0,0,4,0,180,180,-0.0292,299.6256,6.8213,0.4212,54.890980,9.787000,108.3,5.845,1.85,335.95,54.895348,9.797490,54.894035,9.790916
1390145355,3,0,0.0,0,-10,0,0,180,180,-0.0292,302.9590,6.8213,0.4212,54.890987,9.786985,108.3,5.845,1.85,335.95,54.895348,9.797490,54.894035,9.790916
1390145356,3,0,0.0,0,-7,-4,0,180,180,-0.0292,305.2923,6.8213,0.4212,54.890991,9.786971,108.3,5.845,1.85,335.95,54.895348,9.797490,54.894035,9.790916
1390145356,3,0,0.0,0,-5,-8,0,180,180,-0.0292,306.9590,6.8213,0.4212,54.890995,9.786959,108.3,5.845,1.85,335.95,54.895348,9.797490,54.894035,9.790916
1390145356,3,0,0.0,0,-3,-4,0,180,180,-0.0292,307.9590,6.8213,0.4212,54.890999,9.786946,108.3,5.845,1.85,335.95,54.895348,9.797490,54.894035,9.790916
1390145356,3,0,0.0,0,-2,0,0,180,180,-0.0292,308.6256,6.8213,0.4212,54.891006,9.786934,108.3,5.845,1.85,335.95,54.895348,9.797490,54.894035,9.790916
1390145357,3,0,0.0,0,-1,-4,0,180,180,-0.0292,308.9590,6.8213,0.4212,54.891014,9.786922,108.3,5.845,1.85,335.95,54.895348,9.797490,54.894035,9.790916
1390145357,3,0,0.0,0,-1,0,0,180,180,-0.0292,309.2923,6.8213,0.4212,54.891018,9.786909,108.3,5.845,1.85,335.95,54.895348,9.797490,54.894035,9.790916
1390145357,3,0,0.0,0,-1,-4,0,180,180,-0.0292,309.6256,6.8213,0.4212,54.891022,9.786897,108.3,5.845,1.85,335.95,54.895348,9.797490,54.894035,9.790916
1390145357,3,0,0.0,0,0,0,0,180,180,-0.0292,309.6256,6.8213,0.4212,54.891026,9.786884,108.3,5.845,1.85,335.95,54.895348,9.797490,54.894035,9.790916
