MCU_timestamp,Navigation_System,Manual_Control,Guidance_Heading,Manual_Ctrl_Rudder,Rudder_Desired_Angle,Rudder_Feedback,Manual_Ctrl_Sail,Sail_Desired_Pos,Sail_Feedback,Rate,Heading,Pitch,Roll,Latitude,Longitude,COG,SOG,Wind_Speed,Wind_Angle,Point_Start_Lat,Point_Start_Lon,Point_End_Lat,Point_End_Lon
1386962337,0,0,0.0,0,0,4,0,0,0,-0.0292,5095.4961,6.8213,0.4212,54.894855,9.789441,108.3,5.845,1.85,0.00,0.000000,0.000000,0.000000,0.000000
1386962337,0,0,0.0,0,0,4,0,0,0,-0.0292,5095.4961,6.8213,0.4212,54.894855,9.789441,108.3,5.845,1.85,0.00,0.000000,0.000000,0.000000,0.000000
1386962338,0,0,0.0,0,0,4,0,0,0,-0.0292,5095.4961,6.8213,0.4212,54.894855,9.789441,108.3,5.845,1.85,0.00,0.000000,0.000000,0.000000,0.000000
1386962338,0,0,0.0,0,0,4,0,0,0,-0.0292,5095.4961,6.8213,0.4212,54.894855,9.789441,108.3,5.845,1.85,0.00,0.000000,0.000000,0.000000,0.000000
1386962338,0,0,0.0,0,0,4,0,0,0,-0.0292,5095.4961,6.8213,0.4212,54.894855,9.789441,108.3,5.845,1.85,0.00,0.000000,0.000000,0.000000,0.000000
1386962338,0,0,0.0,0,0,4,0,0,0,-0.0292,5095.4961,6.8213,0.4212,54.894855,9.789441,108.3,5.845,1.85,0.00,0.000000,0.000000,0.000000,0.000000
1386962339,0,0,0.0,0,0,4,0,0,0,-0.0292,5095.4961,6.8213,0.4212,54.894855,9.789441,108.3,5.845,1.85,0.00,0.000000,0.000000,0.000000,0.000000
1386962339,0,0,0.0,0,0,4,0,0,0,-0.0292,5095.4961,6.8213,0.4212,54.894855,9.789441,108.3,5.845,1.85,0.00,0.000000,0.000000,0.000000,0.000000
1386962339,0,0,0.0,0,0,4,0,0,0,-0.0292,5095.4961,6.8213,0.4212,54.894855,9.789441,108.3,5.845,1.85,0.00,0.000000,0.000000,0.000000,0.000000
1386962339,0,0,0.0,0,0,4,0,0,0,-0.0292,5095.4961,6.8213,0.4212,54.894855,9.789441,108.3,5.845,1.85,0.00,0.000000,0.000000,0.000000,0.000000
1386962340,4,0,0.0,0,0,4,0,0,0,-0.0292,5095.4961,6.8213,0.4212,54.894855,9.789441,108.3,5.845,1.85,0.00,0.000000,0.000000,0.000000,0.000000
1386962340,1,0,85.1,0,-30,0,0,0,0,-0.0292,5105.4961,6.8213,0.4212,54.894863,9.789470,108.3,5.845,1.85,0.00,54.894855,9.789441,54.895069,9.793790
1386962340,1,0,85.3,0,-20,-4,0,54,50,-0.0292,5112.1626,6.8213,0.4212,54.894871,9.789499,108.3,5.845,1.85,0.00,54.894855,9.789441,54.895069,9.793790
1386962340,1,0,85.4,0,-13,-8,0,131,100,-0.0292,5116.4961,6.8213,0.4212,54.894878,9.789530,108.3,5.845,1.85,0.00,54.894855,9.789441,54.895069,9.793790
1386962341,1,0,85.6,0,-9,-12,0,191,150,-0.0292,5119.4961,6.8213,0.4212,54.894882,9.789560,108.3,5.845,1.85,0.00,54.894855,9.789441,54.895069,9.793790
1386962341,1,0,85.6,0,-6,-8,0,235,200,-0.0292,5121.4961,6.8213,0.4212,54.894886,9.789591,108.3,5.845,1.85,0.00,54.894855,9.789441,54.895069,9.793790
1386962341,1,0,85.7,0,-4,-4,0,265,250,-0.0292,5122.8296,6.8213,0.4212,54.894890,9.789621,108.3,5.845,1.85,0.00,54.894855,9.789441,54.895069,9.793790
1386962341,1,0,85.7,0,-3,0,0,286,300,-0.0292,5123.8296,6.8213,0.4212,54.894894,9.789653,108.3,5.845,1.85,0.00,54.894855,9.789441,54.895069,9.793790
1386962342,1,0,85.8,0,-2,-4,0,302,350,-0.0292,5124.4961,6.8213,0.4212,54.894897,9.789684,108.3,5.845,1.85,0.00,54.894855,9.789441,54.895069,9.793790
1386962342,1,0,85.9,0,-1,0,0,312,300,-0.0292,5124.8296,6.8213,0.4212,54.894897,9.789715,108.3,5.845,1.85,0.00,54.894855,9.789441,54.895069,9.793790
1386962342,1,0,85.8,0,-1,-4,0,317,350,-0.0292,5125.1631,6.8213,0.4212,54.894897,9.789746,108.3,5.845,1.85,0.00,54.894855,9.789441,54.895069,9.793790
1386962342,1,0,85.8,0,-1,0,0,322,300,-0.0292,5125.4966,6.8213,0.4212,54.894897,9.789778,108.3,5.845,1.85,0.00,54.894855,9.789441,54.895069,9.793790
1386962343,1,0,85.8,0,0,4,0,328,350,-0.0292,5125.4966,6.8213,0.4212,54.894897,9.789809,108.3,5.845,1.85,0.00,54.894855,9.789441,54.895069,9.793790
1386962343,1,0,85.7,0,0,0,0,328,300,-0.0292,5125.4966,6.8213,0.4212,54.894897,9.789840,108.3,5.845,1.85,0.00,54.894855,9.789441,54.895069,9.793790
1386962343,1,0,85.7,0,0,4,0,328,350,-0.0292,5125.4966,6.8213,0.4212,54.894897,9.789871,108.3,5.845,1.85,0.00,54.894855,9.789441,54.895069,9.793790
1386962343,1,0,85.7,0,0,0,0,328,300,-0.0292,5125.4966,6.8213,0.4212,54.894897,9.789903,108.3,5.845,1.85,0.00,54.894855,9.789441,54.895069,9.793790
1386962344,1,0,85.6,0,0,4,0,328,350,-0.0292,5125.4966,6.8213,0.4212,54.894897,9.789933,108.3,5.845,1.85,0.00,54.894855,9.789441,54.895069,9.793790
1386962344,1,0,85.6,0,0,0,0,328,300,-0.0292,5125.4966,6.8213,0.4212,54.894897,9.789964,108.3,5.845,1.85,0.00,54.894855,9.789441,54.895069,9.793790
1386962344,1,0,85.6,0,0,4,0,328,350,-0.0292,5125.4966,6.8213,0.4212,54.894897,9.789995,108.3,5.845,1.85,0.00,54.894855,9.789441,54.895069,9.793790
1386962344,1,0,85.5,0,0,0,0,328,300,-0.0292,5125.4966,6.8213,0.4212,54.894897,9.790027,108.3,5.845,1.85,0.00,54.894855,9.789441,54.895069,9.793790
1386962345,1,0,85.5,0,0,4,0,328,350,-0.0292,5125.4966,6.8213,0.4212,54.894897,9.790057,108.3,5.845,1.85,0.00,54.894855,9.789441,54.895069,9.793790
1386962345,1,0,85.5,0,0,0,0,328,300,-0.0292,5125.4966,6.8213,0.4212,54.894897,9.790089,108.3,5.845,1.85,0.00,54.894855,9.789441,54.895069,9.793790
1386962345,1,0,85.4,0,0,4,0,328,350,-0.0292,5125.4966,6.8213,0.4212,54.894897,9.790120,108.3,5.845,1.85,0.00,54.894855,9.789441,54.895069,9.793790
1386962345,1,0,85.4,0,0,0,0,328,300,-0.0292,5125.4966,6.8213,0.4212,54.894897,9.790152,108.3,5.845,1.85,0.00,54.894855,9.789441,54.895069,9.793790
1386962346,1,0,85.3,0,0,4,0,328,350,-0.0292,5125.4966,6.8213,0.4212,54.894897,9.790182,108.3,5.845,1.85,0.00,54.894855,9.789441,54.895069,9.793790
1386962346,1,0,85.3,0,0,0,0,328,300,-0.0292,5125.4966,6.8213,0.4212,54.894897,9.790214,108.3,5.845,1.85,0.00,54.894855,9.789441,54.895069,9.793790
1386962346,1,0,85.3,0,0,4,0,328,350,-0.0292,5125.4966,6.8213,0.4212,54.894897,9.790245,108.3,5.845,1.85,0.00,54.894855,9.789441,54.895069,9.793790
1386962346,1,0,85.2,0,0,0,0,328,300,-0.0292,5125.4966,6.8213,0.4212,54.894897,9.790276,108.3,5.845,1.85,0.00,54.894855,9.789441,54.895069,9.793790
1386962347,1,0,85.2,0,0,4,0,328,350,-0.0292,5125.4966,6.8213,0.4212,54.894897,9.790306,108.3,5.845,1.85,0.00,54.894855,9.789441,54.895069,9.793790
1386962347,1,0,85.1,0,0,0,0,328,300,-0.0292,5125.4966,6.8213,0.4212,54.894897,9.790338,108.3,5.845,1.85,0.00,54.894855,9.789441,54.895069,9.793790
1386962347,1,0,85.1,0,0,4,0,328,350,-0.0292,5125.4966,6.8213,0.4212,54.894897,9.790369,108.3,5.845,1.85,0.00,54.894855,9.789441,54.895069,9.793790
1386962347,1,0,85.0,0,0,0,0,328,300,-0.0292,5125.4966,6.8213,0.4212,54.894897,9.790400,108.3,5.845,1.85,0.00,54.894855,9.789441,54.895069,9.793790
1386962348,1,0,85.0,0,0,4,0,328,350,-0.0292,5125.4966,6.8213,0.4212,54.894897,9.790431,108.3,5.845,1.85,0.00,54.894855,9.789441,54.895069,9.793790
1386962348,1,0,85.0,0,1,0,0,328,300,-0.0292,5125.1631,6.8213,0.4212,54.894897,9.790462,108.3,5.845,1.85,0.00,54.894855,9.789441,54.895069,9.793790
1386962348,1,0,84.9,0,0,4,0,322,350,-0.0292,5125.1631,6.8213,0.4212,54.894897,9.790494,108.3,5.845,1.85,0.00,54.894855,9.789441,54.895069,9.793790
1386962349,1,0,84.9,0,0,0,0,322,300,-0.0292,5125.1631,6.8213,0.4212,54.894897,9.790524,108.3,5.845,1.85,0.00,54.894855,9.789441,54.895069,9.793790
1386962349,1,0,84.8,0,0,4,0,322,350,-0.0292,5125.1631,6.8213,0.4212,54.894897,9.790556,108.3,5.845,1.85,0.00,54.894855,9.789441,54.895069,9.793790
1386962349,1,0,84.8,0,0,0,0,322,300,-0.0292,5125.1631,6.8213,0.4212,54.894897,9.790587,108.3,5.845,1.85,0.00,54.894855,9.789441,54.895069,9.793790
1386962349,1,0,84.7,0,0,4,0,322,350,-0.0292,5125.1631,6.8213,0.4212,54.894897,9.790618,108.3,5.845,1.85,0.00,54.894855,9.789441,54.895069,9.793790
1386962350,1,0,84.7,0,1,0,0,322,300,-0.0292,5124.8296,6.8213,0.4212,54.894897,9.790648,108.3,5.845,1.85,0.00,54.894855,9.789441,54.895069,9.793790
1386962350,1,0,84.6,0,0,4,0,317,350,-0.0292,5124.8296,6.8213,0.4212,54.894897,9.790680,108.3,5.845,1.85,0.00,54.894855,9.789441,54.895069,9.793790
1386962350,1,0,84.6,0,0,0,0,317,300,-0.0292,5124.8296,6.8213,0.4212,54.894897,9.790711,108.3,5.845,1.85,0.00,54.894855,9.789441,54.895069,9.793790
1386962350,1,0,84.5,0,0,4,0,317,350,-0.0292,5124.8296,6.8213,0.4212,54.894897,9.790742,108.3,5.845,1.85,0.00,54.894855,9.789441,54.895069,9.793790
1386962351,1,0,84.4,0,0,0,0,317,300,-0.0292,5124.8296,6.8213,0.4212,54.894897,9.790773,108.3,5.845,1.85,0.00,54.894855,9.789441,54.895069,9.793790
1386962351,1,0,84.4,0,0,4,0,317,350,-0.0292,5124.8296,6.8213,0.4212,54.894897,9.790805,108.3,5.845,1.85,0.00,54.894855,9.789441,54.895069,9.793790
1386962351,1,0,84.3,0,1,0,0,317,300,-0.0292,5124.4961,6.8213,0.4212,54.894897,9.790835,108.3,5.845,1.85,0.00,54.894855,9.789441,54.895069,9.793790
1386962351,1,0,84.3,0,0,4,0,312,350,-0.0292,5124.4961,6.8213,0.4212,54.894897,9.790866,108.3,5.845,1.85,0.00,54.894855,9.789441,54.895069,9.793790
1386962352,1,0,84.2,0,0,0,0,312,300,-0.0292,5124.4961,6.8213,0.4212,54.894897,9.790897,108.3,5.845,1.85,0.00,54.894855,9.789441,54.895069,9.793790
1386962352,1,0,84.1,0,0,4,0,312,350,-0.0292,5124.4961,6.8213,0.4212,54.894897,9.790929,108.3,5.845,1.85,0.00,54.894855,9.789441,54.895069,9.793790
1386962352,1,0,84.1,0,0,0,0,312,300,-0.0292,5124.4961,6.8213,0.4212,54.894897,9.790959,108.3,5.845,1.85,0.00,54.894855,9.789441,54.895069,9.793790
1386962352,1,0,84.0,0,0,4,0,312,350,-0.0292,5124.4961,6.8213,0.4212,54.894897,9.790991,108.3,5.845,1.85,0.00,54.894855,9.789441,54.895069,9.793790
1386962353,1,0,83.9,0,1,0,0,312,300,-0.0292,5124.1626,6.8213,0.4212,54.894897,9.791022,108.3,5.845,1.85,0.00,54.894855,9.789441,54.895069,9.793790
1386962353,1,0,83.9,0,0,4,0,307,350,-0.0292,5124.1626,6.8213,0.4212,54.894897,9.791054,108.3,5.845,1.85,0.00,54.894855,9.789441,54.895069,9.793790
1386962353,1,0,83.8,0,0,0,0,307,300,-0.0292,5124.1626,6.8213,0.4212,54.894897,9.791084,108.3,5.845,1.85,0.00,54.894855,9.789441,54.895069,9.793790
1386962353,1,0,83.7,0,0,4,0,307,350,-0.0292,5124.1626,6.8213,0.4212,54.894897,9.791116,108.3,5.845,1.85,0.00,54.894855,9.789441,54.895069,9.793790
1386962354,1,0,83.7,0,0,0,0,307,300,-0.0292,5124.1626,6.8213,0.4212,54.894897,9.791147,108.3,5.845,1.85,0.00,54.894855,9.789441,54.895069,9.793790
1386962354,1,0,83.6,0,1,4,0,307,350,-0.0292,5123.8291,6.8213,0.4212,54.894897,9.791178,108.3,5.845,1.85,0.00,54.894855,9.789441,54.895069,9.793790
1386962354,1,0,83.5,0,0,0,0,301,300,-0.0292,5123.8291,6.8213,0.4212,54.894897,9.791208,108.3,5.845,1.85,0.00,54.894855,9.789441,54.895069,9.793790
1386962354,1,0,83.4,0,0,4,0,301,350,-0.0292,5123.8291,6.8213,0.4212,54.894897,9.791240,108.3,5.845,1.85,0.00,54.894855,9.789441,54.895069,9.793790
1386962355,1,0,83.4,0,0,0,0,301,300,-0.0292,5123.8291,6.8213,0.4212,54.894897,9.791271,108.3,5.845,1.85,0.00,54.894855,9.789441,54.895069,9.793790
1386962355,1,0,83.3,0,1,4,0,301,350,-0.0292,5123.4956,6.8213,0.4212,54.894897,9.791302,108.3,5.845,1.85,0.00,54.894855,9.789441,54.895069,9.793790
1386962355,1,0,83.2,0,0,0,0,296,300,-0.0292,5123.4956,6.8213,0.4212,54.894897,9.791333,108.3,5.845,1.85,0.00,54.894855,9.789441,54.895069,9.793790
1386962355,1,0,83.1,0,0,4,0,296,250,-0.0292,5123.4956,6.8213,0.4212,54.894897,9.791365,108.3,5.845,1.85,0.00,54.894855,9.789441,54.895069,9.793790
1386962356,1,0,83.0,0,0,0,0,296,300,-0.0292,5123.4956,6.8213,0.4212,54.894897,9.791395,108.3,5.845,1.85,0.00,54.894855,9.789441,54.895069,9.793790
1386962356,1,0,82.9,0,1,4,0,296,250,-0.0292,5123.1621,6.8213,0.4212,54.894897,9.791426,108.3,5.845,1.85,0.00,54.894855,9.789441,54.895069,9.793790
1386962356,1,0,82.8,0,0,0,0,291,300,-0.0292,5123.1621,6.8213,0.4212,54.894897,9.791457,108.3,5.845,1.85,0.00,54.894855,9.789441,54.895069,9.793790
1386962356,1,0,82.8,0,0,4,0,291,250,-0.0292,5123.1621,6.8213,0.4212,54.894897,9.791489,108.3,5.845,1.85,0.00,54.894855,9.789441,54.895069,9.793790
1386962357,1,0,82.7,0,1,0,0,291,300,-0.0292,5122.8286,6.8213,0.4212,54.894897,9.791519,108.3,5.845,1.85,0.00,54.894855,9.789441,54.895069,9.793790
1386962357,1,0,82.6,0,0,4,0,286,250,-0.0292,5122.8286,6.8213,0.4212,54.894897,9.791550,108.3,5.845,1.85,0.00,54.894855,9.789441,54.895069,9.793790
1386962357,1,0,82.5,0,0,0,0,286,300,-0.0292,5122.8286,6.8213,0.4212,54.894897,9.791581,108.3,5.845,1.85,0.00,54.894855,9.789441,54.895069,9.793790
1386962357,1,0,82.3,0,0,4,0,286,250,-0.0292,5122.8286,6.8213,0.4212,54.894897,9.791612,108.3,5.845,1.85,0.00,54.894855,9.789441,54.895069,9.793790
1386962358,1,0,82.2,0,1,0,0,286,300,-0.0292,5122.4951,6.8213,0.4212,54.894897,9.791642,108.3,5.845,1.85,0.00,54.894855,9.789441,54.895069,9.793790
1386962358,1,0,82.1,0,0,4,0,281,250,-0.0292,5122.4951,6.8213,0.4212,54.894897,9.791674,108.3,5.845,1.85,0.00,54.894855,9.789441,54.895069,9.793790
1386962358,1,0,82.0,0,0,0,0,281,300,-0.0292,5122.4951,6.8213,0.4212,54.894897,9.791705,108.3,5.845,1.85,0.00,54.894855,9.789441,54.895069,9.793790
1386962358,1,0,81.9,0,1,4,0,281,250,-0.0292,5122.1616,6.8213,0.4212,54.894897,9.791736,108.3,5.845,1.85,0.00,54.894855,9.789441,54.895069,9.793790
1386962359,1,0,81.8,0,0,0,0,276,300,-0.0292,5122.1616,6.8213,0.4212,54.894897,9.791766,108.3,5.845,1.85,0.00,54.894855,9.789441,54.895069,9.793790
1386962359,1,0,81.7,0,1,4,0,276,250,-0.0292,5121.8281,6.8213,0.4212,54.894897,9.791798,108.3,5.845,1.85,0.00,54.894855,9.789441,54.895069,9.793790
1386962359,1,0,81.5,0,0,0,0,271,300,-0.0292,5121.8281,6.8213,0.4212,54.894897,9.791828,108.3,5.845,1.85,0.00,54.894855,9.789441,54.895069,9.793790
1386962359,1,0,81.4,0,0,4,0,271,250,-0.0292,5121.8281,6.8213,0.4212,54.894897,9.791859,108.3,5.845,1.85,0.00,54.894855,9.789441,54.895069,9.793790
1386962360,1,0,81.3,0,1,0,0,271,300,-0.0292,5121.4946,6.8213,0.4212,54.894897,9.791890,108.3,5.845,1.85,0.00,54.894855,9.789441,54.895069,9.793790
1386962360,1,0,81.1,0,0,4,0,265,250,-0.0292,5121.4946,6.8213,0.4212,54.894897,9.791922,108.3,5.845,1.85,0.00,54.894855,9.789441,54.895069,9.793790
1386962360,1,0,81.0,0,1,0,0,265,300,-0.0292,5121.1611,6.8213,0.4212,54.894897,9.791952,108.3,5.845,1.85,0.00,54.894855,9.789441,54.895069,9.793790
1386962360,1,0,80.8,0,0,4,0,260,250,-0.0292,5121.1611,6.8213,0.4212,54.894897,9.791983,108.3,5.845,1.85,0.00,54.894855,9.789441,54.895069,9.793790
1386962361,1,0,80.7,0,0,0,0,260,300,-0.0292,5121.1611,6.8213,0.4212,54.894897,9.792014,108.3,5.845,1.85,0.00,54.894855,9.789441,54.895069,9.793790
1386962361,1,0,80.5,0,1,4,0,260,250,-0.0292,5120.8276,6.8213,0.4212,54.894897,9.792045,108.3,5.845,1.85,0.00,54.894855,9.789441,54.895069,9.793790
1386962361,1,0,80.4,0,0,0,0,255,300,-0.0292,5120.8276,6.8213,0.4212,54.894897,9.792075,108.3,5.845,1.85,0.00,54.894855,9.789441,54.895069,9.793790
1386962361,1,0,80.2,0,1,4,0,255,250,-0.0292,5120.4941,6.8213,0.4212,54.894897,9.792106,108.3,5.845,1.85,0.00,54.894855,9.789441,54.895069,9.793790
1386962362,1,0,80.0,0,0,0,0,250,250,-0.0292,5120.4941,6.8213,0.4212,54.894897,9.792137,108.3,5.845,1.85,0.00,54.894855,9.789441,54.895069,9.793790
1386962362,1,0,79.8,0,1,4,0,250,250,-0.0292,5120.1606,6.8213,0.4212,54.894897,9.792168,108.3,5.845,1.85,0.00,54.894855,9.789441,54.895069,9.793790
1386962362,1,0,79.6,0,1,0,0,245,200,-0.0292,5119.8271,6.8213,0.4212,54.894897,9.792198,108.3,5.845,1.85,0.00,54.894855,9.789441,54.895069,9.793790
1386962362,1,0,79.4,0,0,4,0,240,250,-0.0292,5119.8271,6.8213,0.4212,54.894897,9.792230,108.3,5.845,1.85,0.00,54.894855,9.789441,54.895069,9.793790
1386962363,1,0,79.2,0,1,0,0,240,200,-0.0292,5119.4937,6.8213,0.4212,54.894897,9.792260,108.3,5.845,1.85,0.00,54.894855,9.789441,54.895069,9.793790
1386962363,1,0,79.0,0,0,4,0,235,250,-0.0292,5119.4937,6.8213,0.4212,54.894897,9.792291,108.3,5.845,1.85,0.00,54.894855,9.789441,54.895069,9.793790
1386962363,1,0,78.8,0,1,0,0,235,200,-0.0292,5119.1602,6.8213,0.4212,54.894897,9.792321,108.3,5.845,1.85,0.00,54.894855,9.789441,54.895069,9.793790
1386962363,1,0,78.6,0,1,4,0,230,250,-0.0292,5118.8267,6.8213,0.4212,54.894897,9.792352,108.3,5.845,1.85,0.00,54.894855,9.789441,54.895069,9.793790
1386962364,1,0,78.3,0,0,0,0,225,200,-0.0292,5118.8267,6.8213,0.4212,54.894897,9.792382,108.3,5.845,1.85,0.00,54.894855,9.789441,54.895069,9.793790
1386962364,1,0,78.1,0,1,4,0,225,250,-0.0292,5118.4932,6.8213,0.4212,54.894897,9.792413,108.3,5.845,1.85,0.00,54.894855,9.789441,54.895069,9.793790
1386962364,1,0,77.8,0,1,0,0,220,200,-0.0292,5118.1597,6.8213,0.4212,54.894897,9.792443,108.3,5.845,1.85,0.00,54.894855,9.789441,54.895069,9.793790
1386962364,1,0,77.6,0,1,4,0,215,250,-0.0292,5117.8262,6.8213,0.4212,54.894897,9.792474,108.3,5.845,1.85,0.00,54.894855,9.789441,54.895069,9.793790
1386962365,1,0,77.3,0,1,0,0,210,200,-0.0292,5117.4927,6.8213,0.4212,54.894897,9.792504,108.3,5.845,1.85,0.00,54.894855,9.789441,54.895069,9.793790
1386962365,1,0,77.0,0,0,4,0,205,250,-0.0292,5117.4927,6.8213,0.4212,54.894897,9.792534,108.3,5.845,1.85,0.00,54.894855,9.789441,54.895069,9.793790
1386962365,1,0,76.7,0,1,0,0,205,200,-0.0292,5117.1592,6.8213,0.4212,54.894897,9.792564,108.3,5.845,1.85,0.00,54.894855,9.789441,54.895069,9.793790
1386962365,1,0,76.4,0,1,4,0,200,200,-0.0292,5116.8257,6.8213,0.4212,54.894901,9.792595,108.3,5.845,1.85,0.00,54.894855,9.789441,54.895069,9.793790
1386962366,1,0,76.4,0,0,0,0,196,150,-0.0292,5116.8257,6.8213,0.4212,54.894905,9.792625,108.3,5.845,1.85,0.00,54.894855,9.789441,54.895069,9.793790
1386962366,1,0,76.3,0,1,4,0,196,200,-0.0292,5116.4922,6.8213,0.4212,54.894909,9.792656,108.3,5.845,1.85,0.00,54.894855,9.789441,54.895069,9.793790
1386962366,1,0,76.3,0,0,0,0,191,150,-0.0292,5116.4922,6.8213,0.4212,54.894913,9.792686,108.3,5.845,1.85,0.00,54.894855,9.789441,54.895069,9.793790
1386962366,1,0,76.2,0,0,4,0,191,200,-0.0292,5116.4922,6.8213,0.4212,54.894917,9.792717,108.3,5.845,1.85,0.00,54.894855,9.789441,54.895069,9.793790
1386962367,1,0,76.2,0,0,0,0,191,150,-0.0292,5116.4922,6.8213,0.4212,54.894920,9.792747,108.3,5.845,1.85,0.00,54.894855,9.789441,54.895069,9.793790
1386962367,1,0,76.2,0,0,4,0,191,200,-0.0292,5116.4922,6.8213,0.4212,54.894928,9.792777,108.3,5.845,1.85,0.00,54.894855,9.789441,54.895069,9.793790
1386962367,1,0,76.5,0,0,0,0,191,150,-0.0292,5116.4922,6.8213,0.4212,54.894932,9.792808,108.3,5.845,1.85,0.00,54.894855,9.789441,54.895069,9.793790
1386962367,1,0,76.4,0,0,4,0,191,200,-0.0292,5116.4922,6.8213,0.4212,54.894936,9.792837,108.3,5.845,1.85,0.00,54.894855,9.789441,54.895069,9.793790
1386962368,1,0,76.4,0,0,0,0,191,150,-0.0292,5116.4922,6.8213,0.4212,54.894939,9.792868,108.3,5.845,1.85,0.00,54.894855,9.789441,54.895069,9.793790
1386962368,1,0,76.3,0,0,4,0,191,200,-0.0292,5116.4922,6.8213,0.4212,54.894943,9.792898,108.3,5.845,1.85,0.00,54.894855,9.789441,54.895069,9.793790
1386962368,1,0,76.3,0,0,0,0,191,150,-0.0292,5116.4922,6.8213,0.4212,54.894951,9.792929,108.3,5.845,1.85,0.00,54.894855,9.789441,54.895069,9.793790
1386962368,1,0,76.6,0,0,4,0,191,200,-0.0292,5116.4922,6.8213,0.4212,54.894955,9.792959,108.3,5.845,1.85,0.00,54.894855,9.789441,54.895069,9.793790
1386962369,1,0,76.6,0,0,0,0,191,150,-0.0292,5116.4922,6.8213,0.4212,54.894958,9.792990,108.3,5.845,1.85,0.00,54.894855,9.789441,54.895069,9.793790
1386962369,1,0,76.6,0,0,4,0,191,200,-0.0292,5116.4922,6.8213,0.4212,54.894962,9.793020,108.3,5.845,1.85,0.00,54.894855,9.789441,54.895069,9.793790
1386962369,1,0,76.5,0,0,0,0,191,150,-0.0292,5116.4922,6.8213,0.4212,54.894966,9.793050,108.3,5.845,1.85,0.00,54.894855,9.789441,54.895069,9.793790
1386962369,1,0,76.5,0,0,4,0,191,200,-0.0292,5116.4922,6.8213,0.4212,54.894970,9.793080,108.3,5.845,1.85,0.00,54.894855,9.789441,54.895069,9.793790
1386962370,1,0,76.4,0,0,0,0,191,150,-0.0292,5116.4922,6.8213,0.4212,54.894978,9.793111,108.3,5.845,1.85,0.00,54.894855,9.789441,54.895069,9.793790
1386962370,1,0,76.9,0,0,4,0,191,200,-0.0292,5116.4922,6.8213,0.4212,54.894981,9.793141,108.3,5.845,1.85,0.00,54.894855,9.789441,54.895069,9.793790
1386962370,1,0,76.8,0,0,0,0,191,150,-0.0292,5116.4922,6.8213,0.4212,54.894985,9.793172,108.3,5.845,1.85,0.00,54.894855,9.789441,54.895069,9.793790
1386962370,1,0,76.8,0,0,4,0,191,200,-0.0292,5116.4922,6.8213,0.4212,54.894989,9.793202,108.3,5.845,1.85,0.00,54.894855,9.789441,54.895069,9.793790
1386962371,1,0,76.7,0,0,0,0,191,150,-0.0292,5116.4922,6.8213,0.4212,54.894993,9.793233,108.3,5.845,1.85,0.00,54.894855,9.789441,54.895069,9.793790
1386962371,1,0,76.7,0,0,4,0,191,200,-0.0292,5116.4922,6.8213,0.4212,54.895000,9.793262,108.3,5.845,1.85,0.00,54.894855,9.789441,54.895069,9.793790
1386962371,1,0,77.3,0,-1,0,0,191,150,-0.0292,5116.8257,6.8213,0.4212,54.895004,9.793293,108.3,5.845,1.85,0.00,54.894855,9.789441,54.895069,9.793790
1386962371,1,0,77.3,0,0,4,0,196,200,-0.0292,5116.8257,6.8213,0.4212,54.895008,9.793324,108.3,5.845,1.85,0.00,54.894855,9.789441,54.895069,9.793790
1386962372,1,0,77.3,0,0,0,0,196,150,-0.0292,5116.8257,6.8213,0.4212,54.895012,9.793354,108.3,5.845,1.85,0.00,54.894855,9.789441,54.895069,9.793790
1386962372,1,0,77.2,0,0,4,0,196,200,-0.0292,5116.8257,6.8213,0.4212,54.895016,9.793385,108.3,5.845,1.85,0.00,54.894855,9.789441,54.895069,9.793790
1386962372,1,0,77.2,0,0,0,0,196,150,-0.0292,5116.8257,6.8213,0.4212,54.895020,9.793415,108.3,5.845,1.85,0.00,54.894855,9.789441,54.895069,9.793790
1386962372,1,0,77.1,0,0,4,0,196,200,-0.0292,5116.8257,6.8213,0.4212,54.895027,9.793446,108.3,5.845,1.85,0.00,54.894855,9.789441,54.895069,9.793790
1386962373,1,0,78.1,0,-1,0,0,196,150,-0.0292,5117.1592,6.8213,0.4212,54.895031,9.793476,108.3,5.845,1.85,0.00,54.894855,9.789441,54.895069,9.793790
1386962373,1,0,78.1,0,-1,-4,0,200,200,-0.0292,5117.4927,6.8213,0.4212,54.895035,9.793507,108.3,5.845,1.85,0.00,54.894855,9.789441,54.895069,9.793790
1386962373,1,0,78.2,0,-1,0,0,205,250,-0.0292,5117.8262,6.8213,0.4212,54.895039,9.793537,108.3,5.845,1.85,0.00,54.894855,9.789441,54.895069,9.793790
1386962373,1,0,78.2,0,0,4,0,210,200,-0.0292,5117.8262,6.8213,0.4212,54.895042,9.793568,108.3,5.845,1.85,0.00,54.894855,9.789441,54.895069,9.793790
1386962374,1,0,78.3,0,0,0,0,210,250,-0.0292,5117.8262,6.8213,0.4212,54.895050,9.793598,108.3,5.845,1.85,0.00,54.894855,9.789441,54.895069,9.793790
1386962374,1,0,80.2,0,-2,-4,0,210,200,-0.0292,5118.4927,6.8213,0.4212,54.895054,9.793629,108.3,5.845,1.85,0.00,54.894855,9.789441,54.895069,9.793790
1386962374,1,0,80.7,0,-2,0,0,220,250,-0.0292,5119.1592,6.8213,0.4212,54.895058,9.793659,108.3,5.845,1.85,0.00,54.894855,9.789441,54.895069,9.793790
1386962374,1,0,81.4,0,-2,-4,0,230,200,-0.0292,5119.8257,6.8213,0.4212,54.895061,9.793691,108.3,5.845,1.85,0.00,54.894855,9.789441,54.895069,9.793790
1386962375,1,0,82.4,0,-3,0,0,240,250,-0.0292,5120.8257,6.8213,0.4212,54.895065,9.793722,108.3,5.845,1.85,0.00,54.894855,9.789441,54.895069,9.793790
1386962375,1,0,84.4,0,-4,-4,0,255,300,-0.0292,5122.1592,6.8213,0.4212,54.895069,9.793753,108.3,5.845,1.85,0.00,54.895069,9.793790,54.895348,9.797490
1386962375,1,0,82.7,0,-1,0,0,276,250,-0.0292,5122.4927,6.8213,0.4212,54.895069,9.793783,108.3,5.845,1.85,0.00,54.895069,9.793790,54.895348,9.797490
1386962375,1,0,82.6,0,0,4,0,281,300,-0.0292,5122.4927,6.8213,0.4212,54.895069,9.793815,108.3,5.845,1.85,0.00,54.895069,9.793790,54.895348,9.797490
1386962376,1,0,82.5,0,0,0,0,281,250,-0.0292,5122.4927,6.8213,0.4212,54.895069,9.793846,108.3,5.845,1.85,0.00,54.895069,9.793790,54.895348,9.797490
1386962376,1,0,82.5,0,0,4,0,281,300,-0.0292,5122.4927,6.8213,0.4212,54.895069,9.793877,108.3,5.845,1.85,0.00,54.895069,9.793790,54.895348,9.797490
1386962376,1,0,82.4,0,0,0,0,281,250,-0.0292,5122.4927,6.8213,0.4212,54.895069,9.793907,108.3,5.845,1.85,0.00,54.895069,9.793790,54.895348,9.797490
1386962376,1,0,82.3,0,0,4,0,281,300,-0.0292,5122.4927,6.8213,0.4212,54.895069,9.793939,108.3,5.845,1.85,0.00,54.895069,9.793790,54.895348,9.797490
1386962377,1,0,82.3,0,0,0,0,281,250,-0.0292,5122.4927,6.8213,0.4212,54.895069,9.793969,108.3,5.845,1.85,0.00,54.895069,9.793790,54.895348,9.797490
1386962377,1,0,82.2,0,0,4,0,281,300,-0.0292,5122.4927,6.8213,0.4212,54.895069,9.794000,108.3,5.845,1.85,0.00,54.895069,9.793790,54.895348,9.797490
1386962377,1,0,82.1,0,0,0,0,281,250,-0.0292,5122.4927,6.8213,0.4212,54.895069,9.794031,108.3,5.845,1.85,0.00,54.895069,9.793790,54.895348,9.797490
1386962377,1,0,82.1,0,0,4,0,281,300,-0.0292,5122.4927,6.8213,0.4212,54.895069,9.794063,108.3,5.845,1.85,0.00,54.895069,9.793790,54.895348,9.797490
1386962378,1,0,82.0,0,0,0,0,281,250,-0.0292,5122.4927,6.8213,0.4212,54.895069,9.794093,108.3,5.845,1.85,0.00,54.895069,9.793790,54.895348,9.797490
1386962378,1,0,81.9,0,1,4,0,281,300,-0.0292,5122.1592,6.8213,0.4212,54.895069,9.794124,108.3,5.845,1.85,0.00,54.895069,9.793790,54.895348,9.797490
1386962378,1,0,81.9,0,0,0,0,276,250,-0.0292,5122.1592,6.8213,0.4212,54.895069,9.794155,108.3,5.845,1.85,0.00,54.895069,9.793790,54.895348,9.797490
1386962378,1,0,81.8,0,0,4,0,276,300,-0.0292,5122.1592,6.8213,0.4212,54.895069,9.794186,108.3,5.845,1.85,0.00,54.895069,9.793790,54.895348,9.797490
1386962379,1,0,81.7,0,0,0,0,276,250,-0.0292,5122.1592,6.8213,0.4212,54.895069,9.794216,108.3,5.845,1.85,0.00,54.895069,9.793790,54.895348,9.797490
1386962379,1,0,81.6,0,1,4,0,276,300,-0.0292,5121.8257,6.8213,0.4212,54.895069,9.794248,108.3,5.845,1.85,0.00,54.895069,9.793790,54.895348,9.797490
1386962379,1,0,81.6,0,0,0,0,270,250,-0.0292,5121.8257,6.8213,0.4212,54.895069,9.794279,108.3,5.845,1.85,0.00,54.895069,9.793790,54.895348,9.797490
1386962379,1,0,81.5,0,0,4,0,270,300,-0.0292,5121.8257,6.8213,0.4212,54.895069,9.794310,108.3,5.845,1.85,0.00,54.895069,9.793790,54.895348,9.797490
1386962380,1,0,81.4,0,0,0,0,270,250,-0.0292,5121.8257,6.8213,0.4212,54.895069,9.794340,108.3,5.845,1.85,0.00,54.895069,9.793790,54.895348,9.797490
1386962380,1,0,81.3,0,1,4,0,270,300,-0.0292,5121.4922,6.8213,0.4212,54.895069,9.794372,108.3,5.845,1.85,0.00,54.895069,9.793790,54.895348,9.797490
1386962380,1,0,81.2,0,0,0,0,265,250,-0.0292,5121.4922,6.8213,0.4212,54.895069,9.794402,108.3,5.845,1.85,0.00,54.895069,9.793790,54.895348,9.797490
1386962380,1,0,81.1,0,0,4,0,265,300,-0.0292,5121.4922,6.8213,0.4212,54.895069,9.794433,108.3,5.845,1.85,0.00,54.895069,9.793790,54.895348,9.797490
1386962381,1,0,81.1,0,0,0,0,265,250,-0.0292,5121.4922,6.8213,0.4212,54.895069,9.794463,108.3,5.845,1.85,0.00,54.895069,9.793790,54.895348,9.797490
1386962381,1,0,81.0,0,1,4,0,265,300,-0.0292,5121.1587,6.8213,0.4212,54.895069,9.794495,108.3,5.845,1.85,0.00,54.895069,9.793790,54.895348,9.797490
1386962381,1,0,80.9,0,0,0,0,260,250,-0.0292,5121.1587,6.8213,0.4212,54.895069,9.794525,108.3,5.845,1.85,0.00,54.895069,9.793790,54.895348,9.797490
1386962381,1,0,80.8,0,0,4,0,260,300,-0.0292,5121.1587,6.8213,0.4212,54.895069,9.794556,108.3,5.845,1.85,0.00,54.895069,9.793790,54.895348,9.797490
1386962382,1,0,80.7,0,0,0,0,260,250,-0.0292,5121.1587,6.8213,0.4212,54.895069,9.794587,108.3,5.845,1.85,0.00,54.895069,9.793790,54.895348,9.797490
1386962382,1,0,80.6,0,1,4,0,260,300,-0.0292,5120.8252,6.8213,0.4212,54.895069,9.794618,108.3,5.845,1.85,0.00,54.895069,9.793790,54.895348,9.797490
1386962382,1,0,80.5,0,0,0,0,255,250,-0.0292,5120.8252,6.8213,0.4212,54.895069,9.794648,108.3,5.845,1.85,0.00,54.895069,9.793790,54.895348,9.797490
1386962382,1,0,80.4,0,0,4,0,255,300,-0.0292,5120.8252,6.8213,0.4212,54.895069,9.794679,108.3,5.845,1.85,0.00,54.895069,9.793790,54.895348,9.797490
1386962383,1,0,80.3,0,1,0,0,255,250,-0.0292,5120.4917,6.8213,0.4212,54.895069,9.794710,108.3,5.845,1.85,0.00,54.895069,9.793790,54.895348,9.797490
1386962383,1,0,80.2,0,0,4,0,250,250,-0.0292,5120.4917,6.8213,0.4212,54.895069,9.794741,108.3,5.845,1.85,0.00,54.895069,9.793790,54.895348,9.797490
1386962383,1,0,80.1,0,0,0,0,250,250,-0.0292,5120.4917,6.8213,0.4212,54.895069,9.794771,108.3,5.845,1.85,0.00,54.895069,9.793790,54.895348,9.797490
1386962383,1,0,80.0,0,1,4,0,250,250,-0.0292,5120.1582,6.8213,0.4212,54.895069,9.794803,108.3,5.845,1.85,0.00,54.895069,9.793790,54.895348,9.797490
1386962384,1,0,79.8,0,0,0,0,245,200,-0.0292,5120.1582,6.8213,0.4212,54.895069,9.794833,108.3,5.845,1.85,0.00,54.895069,9.793790,54.895348,9.797490
1386962384,1,0,79.7,0,0,4,0,245,250,-0.0292,5120.1582,6.8213,0.4212,54.895069,9.794864,108.3,5.845,1.85,0.00,54.895069,9.793790,54.895348,9.797490
1386962384,1,0,79.6,0,1,0,0,245,200,-0.0292,5119.8247,6.8213,0.4212,54.895069,9.794894,108.3,5.845,1.85,0.00,54.895069,9.793790,54.895348,9.797490
1386962385,1,0,79.5,0,0,4,0,240,250,-0.0292,5119.8247,6.8213,0.4212,54.895069,9.794926,108.3,5.845,1.85,0.00,54.895069,9.793790,54.895348,9.797490
1386962385,1,0,79.4,0,0,0,0,240,200,-0.0292,5119.8247,6.8213,0.4212,54.895069,9.794956,108.3,5.845,1.85,0.00,54.895069,9.793790,54.895348,9.797490
1386962385,1,0,79.2,0,1,4,0,240,250,-0.0292,5119.4912,6.8213,0.4212,54.895069,9.794987,108.3,5.845,1.85,0.00,54.895069,9.793790,54.895348,9.797490
1386962385,1,0,79.1,0,0,0,0,235,200,-0.0292,5119.4912,6.8213,0.4212,54.895069,9.795018,108.3,5.845,1.85,0.00,54.895069,9.793790,54.895348,9.797490
1386962386,1,0,79.0,0,1,4,0,235,250,-0.0292,5119.1577,6.8213,0.4212,54.895069,9.795049,108.3,5.845,1.85,0.00,54.895069,9.793790,54.895348,9.797490
1386962386,1,0,78.8,0,0,0,0,230,200,-0.0292,5119.1577,6.8213,0.4212,54.895069,9.795079,108.3,5.845,1.85,0.00,54.895069,9.793790,54.895348,9.797490
1386962386,1,0,78.7,0,0,4,0,230,250,-0.0292,5119.1577,6.8213,0.4212,54.895069,9.795110,108.3,5.845,1.85,0.00,54.895069,9.793790,54.895348,9.797490
1386962386,1,0,78.6,0,1,0,0,230,200,-0.0292,5118.8242,6.8213,0.4212,54.895069,9.795140,108.3,5.845,1.85,0.00,54.895069,9.793790,54.895348,9.797490
1386962387,1,0,78.4,0,0,4,0,225,250,-0.0292,5118.8242,6.8213,0.4212,54.895069,9.795171,108.3,5.845,1.85,0.00,54.895069,9.793790,54.895348,9.797490
1386962387,1,0,78.3,0,1,0,0,225,200,-0.0292,5118.4907,6.8213,0.4212,54.895069,9.795201,108.3,5.845,1.85,0.00,54.895069,9.793790,54.895348,9.797490
1386962387,1,0,78.1,0,0,4,0,220,250,-0.0292,5118.4907,6.8213,0.4212,54.895069,9.795233,108.3,5.845,1.85,0.00,54.895069,9.793790,54.895348,9.797490
1386962387,1,0,78.0,0,1,0,0,220,200,-0.0292,5118.1572,6.8213,0.4212,54.895069,9.795263,108.3,5.845,1.85,0.00,54.895069,9.793790,54.895348,9.797490
1386962388,1,0,77.8,0,0,4,0,215,250,-0.0292,5118.1572,6.8213,0.4212,54.895069,9.795294,108.3,5.845,1.85,0.00,54.895069,9.793790,54.895348,9.797490
1386962388,1,0,77.6,0,1,0,0,215,200,-0.0292,5117.8237,6.8213,0.4212,54.895069,9.795324,108.3,5.845,1.85,0.00,54.895069,9.793790,54.895348,9.797490
1386962388,1,0,77.5,0,0,4,0,210,250,-0.0292,5117.8237,6.8213,0.4212,54.895069,9.795355,108.3,5.845,1.85,0.00,54.895069,9.793790,54.895348,9.797490
1386962388,1,0,77.3,0,1,0,0,210,200,-0.0292,5117.4902,6.8213,0.4212,54.895069,9.795385,108.3,5.845,1.85,0.00,54.895069,9.793790,54.895348,9.797490
1386962389,1,0,77.1,0,0,4,0,205,250,-0.0292,5117.4902,6.8213,0.4212,54.895069,9.795416,108.3,5.845,1.85,0.00,54.895069,9.793790,54.895348,9.797490
1386962389,1,0,76.9,0,1,0,0,205,200,-0.0292,5117.1567,6.8213,0.4212,54.895069,9.795446,108.3,5.845,1.85,0.00,54.895069,9.793790,54.895348,9.797490
1386962389,1,0,76.7,0,0,4,0,200,200,-0.0292,5117.1567,6.8213,0.4212,54.895069,9.795477,108.3,5.845,1.85,0.00,54.895069,9.793790,54.895348,9.797490
1386962389,1,0,76.6,0,1,0,0,200,200,-0.0292,5116.8232,6.8213,0.4212,54.895069,9.795507,108.3,5.845,1.85,0.00,54.895069,9.793790,54.895348,9.797490
1386962390,1,0,76.4,0,0,4,0,196,150,-0.0292,5116.8232,6.8213,0.4212,54.895069,9.795537,108.3,5.845,1.85,0.00,54.895069,9.793790,54.895348,9.797490
1386962390,1,0,76.2,0,1,0,0,196,200,-0.0292,5116.4897,6.8213,0.4212,54.895073,9.795568,108.3,5.845,1.85,0.00,54.895069,9.793790,54.895348,9.797490
1386962390,1,0,76.1,0,0,4,0,191,150,-0.0292,5116.4897,6.8213,0.4212,54.895077,9.795598,108.3,5.845,1.85,0.00,54.895069,9.793790,54.895348,9.797490
1386962390,1,0,76.1,0,0,0,0,191,200,-0.0292,5116.4897,6.8213,0.4212,54.895081,9.795629,108.3,5.845,1.85,0.00,54.895069,9.793790,54.895348,9.797490
1386962391,1,0,76.1,0,0,4,0,191,150,-0.0292,5116.4897,6.8213,0.4212,54.895084,9.795659,108.3,5.845,1.85,0.00,54.895069,9.793790,54.895348,9.797490
1386962391,1,0,76.0,0,0,0,0,191,200,-0.0292,5116.4897,6.8213,0.4212,54.895088,9.795690,108.3,5.845,1.85,0.00,54.895069,9.793790,54.895348,9.797490
1386962391,1,0,76.0,0,0,4,0,191,150,-0.0292,5116.4897,6.8213,0.4212,54.895092,9.795720,108.3,5.845,1.85,0.00,54.895069,9.793790,54.895348,9.797490
1386962391,1,0,76.0,0,1,0,0,191,200,-0.0292,5116.1562,6.8213,0.4212,54.895100,9.795750,108.3,5.845,1.85,0.00,54.895069,9.793790,54.895348,9.797490
1386962392,1,0,76.2,0,0,4,0,186,150,-0.0292,5116.1562,6.8213,0.4212,54.895103,9.795780,108.3,5.845,1.85,0.00,54.895069,9.793790,54.895348,9.797490
1386962392,1,0,76.1,0,0,0,0,186,200,-0.0292,5116.1562,6.8213,0.4212,54.895107,9.795811,108.3,5.845,1.85,0.00,54.895069,9.793790,54.895348,9.797490
1386962392,1,0,76.1,0,0,4,0,186,150,-0.0292,5116.1562,6.8213,0.4212,54.895111,9.795840,108.3,5.845,1.85,0.00,54.895069,9.793790,54.895348,9.797490
1386962392,1,0,76.1,0,0,0,0,186,200,-0.0292,5116.1562,6.8213,0.4212,54.895115,9.795871,108.3,5.845,1.85,0.00,54.895069,9.793790,54.895348,9.797490
1386962393,1,0,76.1,0,0,4,0,186,150,-0.0292,5116.1562,6.8213,0.4212,54.895123,9.795901,108.3,5.845,1.85,0.00,54.895069,9.793790,54.895348,9.797490
1386962393,1,0,76.2,0,0,0,0,186,200,-0.0292,5116.1562,6.8213,0.4212,54.895126,9.795932,108.3,5.845,1.85,0.00,54.895069,9.793790,54.895348,9.797490
1386962393,1,0,76.2,0,0,4,0,186,150,-0.0292,5116.1562,6.8213,0.4212,54.895130,9.795962,108.3,5.845,1.85,0.00,54.895069,9.793790,54.895348,9.797490
1386962393,1,0,76.2,0,0,0,0,186,200,-0.0292,5116.1562,6.8213,0.4212,54.895134,9.795993,108.3,5.845,1.85,0.00,54.895069,9.793790,54.895348,9.797490
1386962394,1,0,76.1,0,0,4,0,186,150,-0.0292,5116.1562,6.8213,0.4212,54.895138,9.796023,108.3,5.845,1.85,0.00,54.895069,9.793790,54.895348,9.797490
1386962394,1,0,76.1,0,0,0,0,186,200,-0.0292,5116.1562,6.8213,0.4212,54.895142,9.796053,108.3,5.845,1.85,0.00,54.895069,9.793790,54.895348,9.797490
1386962394,1,0,76.1,0,0,4,0,186,150,-0.0292,5116.1562,6.8213,0.4212,54.895149,9.796083,108.3,5.845,1.85,0.00,54.895069,9.793790,54.895348,9.797490
1386962394,1,0,76.3,0,0,0,0,186,200,-0.0292,5116.1562,6.8213,0.4212,54.895153,9.796114,108.3,5.845,1.85,0.00,54.895069,9.793790,54.895348,9.797490
1386962395,1,0,76.3,0,0,4,0,186,150,-0.0292,5116.1562,6.8213,0.4212,54.895157,9.796144,108.3,5.845,1.85,0.00,54.895069,9.793790,54.895348,9.797490
1386962395,1,0,76.2,0,0,0,0,186,200,-0.0292,5116.1562,6.8213,0.4212,54.895161,9.796175,108.3,5.845,1.85,0.00,54.895069,9.793790,54.895348,9.797490
1386962395,1,0,76.2,0,0,4,0,186,150,-0.0292,5116.1562,6.8213,0.4212,54.895164,9.796206,108.3,5.845,1.85,0.00,54.895069,9.793790,54.895348,9.797490
1386962395,1,0,76.2,0,0,0,0,186,200,-0.0292,5116.1562,6.8213,0.4212,54.895172,9.796236,108.3,5.845,1.85,0.00,54.895069,9.793790,54.895348,9.797490
1386962396,1,0,76.4,0,0,4,0,186,150,-0.0292,5116.1562,6.8213,0.4212,54.895176,9.796266,108.3,5.845,1.85,0.00,54.895069,9.793790,54.895348,9.797490
1386962396,1,0,76.4,0,0,0,0,186,200,-0.0292,5116.1562,6.8213,0.4212,54.895180,9.796296,108.3,5.845,1.85,0.00,54.895069,9.793790,54.895348,9.797490
1386962396,1,0,76.3,0,0,4,0,186,150,-0.0292,5116.1562,6.8213,0.4212,54.895184,9.796327,108.3,5.845,1.85,0.00,54.895069,9.793790,54.895348,9.797490
1386962396,1,0,76.3,0,0,0,0,186,200,-0.0292,5116.1562,6.8213,0.4212,54.895187,9.796356,108.3,5.845,1.85,0.00,54.895069,9.793790,54.895348,9.797490
1386962397,1,0,76.3,0,0,4,0,186,150,-0.0292,5116.1562,6.8213,0.4212,54.895195,9.796387,108.3,5.845,1.85,0.00,54.895069,9.793790,54.895348,9.797490
1386962397,1,0,76.6,0,0,0,0,186,200,-0.0292,5116.1562,6.8213,0.4212,54.895199,9.796417,108.3,5.845,1.85,0.00,54.895069,9.793790,54.895348,9.797490
1386962397,1,0,76.5,0,0,4,0,186,150,-0.0292,5116.1562,6.8213,0.4212,54.895203,9.796448,108.3,5.845,1.85,0.00,54.895069,9.793790,54.895348,9.797490
1386962397,1,0,76.5,0,0,0,0,186,200,-0.0292,5116.1562,6.8213,0.4212,54.895206,9.796477,108.3,5.845,1.85,0.00,54.895069,9.793790,54.895348,9.797490
1386962398,1,0,76.5,0,0,4,0,186,150,-0.0292,5116.1562,6.8213,0.4212,54.895210,9.796508,108.3,5.845,1.85,0.00,54.895069,9.793790,54.895348,9.797490
1386962398,1,0,76.4,0,0,0,0,186,200,-0.0292,5116.1562,6.8213,0.4212,54.895214,9.796538,108.3,5.845,1.85,0.00,54.895069,9.793790,54.895348,9.797490
1386962398,1,0,76.4,0,0,4,0,186,150,-0.0292,5116.1562,6.8213,0.4212,54.895222,9.796568,108.3,5.845,1.85,0.00,54.895069,9.793790,54.895348,9.797490
1386962398,1,0,76.7,0,-1,0,0,186,200,-0.0292,5116.4897,6.8213,0.4212,54.895226,9.796598,108.3,5.845,1.85,0.00,54.895069,9.793790,54.895348,9.797490
1386962399,1,0,76.7,0,0,4,0,191,150,-0.0292,5116.4897,6.8213,0.4212,54.895229,9.796629,108.3,5.845,1.85,0.00,54.895069,9.793790,54.895348,9.797490
1386962399,1,0,76.6,0,0,0,0,191,200,-0.0292,5116.4897,6.8213,0.4212,54.895233,9.796659,108.3,5.845,1.85,0.00,54.895069,9.793790,54.895348,9.797490
1386962399,1,0,76.6,0,0,4,0,191,150,-0.0292,5116.4897,6.8213,0.4212,54.895237,9.796690,108.3,5.845,1.85,0.00,54.895069,9.793790,54.895348,9.797490
1386962399,1,0,76.6,0,0,0,0,191,200,-0.0292,5116.4897,6.8213,0.4212,54.895245,9.796721,108.3,5.845,1.85,0.00,54.895069,9.793790,54.895348,9.797490
1386962400,1,0,77.0,0,0,4,0,191,150,-0.0292,5116.4897,6.8213,0.4212,54.895248,9.796751,108.3,5.845,1.85,0.00,54.895069,9.793790,54.895348,9.797490
1386962400,1,0,76.9,0,0,0,0,191,200,-0.0292,5116.4897,6.8213,0.4212,54.895252,9.796781,108.3,5.845,1.85,0.00,54.895069,9.793790,54.895348,9.797490
1386962400,1,0,76.9,0,0,4,0,191,150,-0.0292,5116.4897,6.8213,0.4212,54.895256,9.796811,108.3,5.845,1.85,0.00,54.895069,9.793790,54.895348,9.797490
1386962400,1,0,76.9,0,0,0,0,191,200,-0.0292,5116.4897,6.8213,0.4212,54.895260,9.796842,108.3,5.845,1.85,0.00,54.895069,9.793790,54.895348,9.797490
1386962401,1,0,76.8,0,0,4,0,191,150,-0.0292,5116.4897,6.8213,0.4212,54.895264,9.796872,108.3,5.845,1.85,0.00,54.895069,9.793790,54.895348,9.797490
1386962401,1,0,76.8,0,0,0,0,191,200,-0.0292,5116.4897,6.8213,0.4212,54.895271,9.796903,108.3,5.845,1.85,0.00,54.895069,9.793790,54.895348,9.797490
1386962401,1,0,77.3,0,-1,-4,0,191,150,-0.0292,5116.8232,6.8213,0.4212,54.895275,9.796933,108.3,5.845,1.85,0.00,54.895069,9.793790,54.895348,9.797490
1386962401,1,0,77.3,0,-1,0,0,196,200,-0.0292,5117.1567,6.8213,0.4212,54.895279,9.796964,108.3,5.845,1.85,0.00,54.895069,9.793790,54.895348,9.797490
1386962402,1,0,77.3,0,0,4,0,200,200,-0.0292,5117.1567,6.8213,0.4212,54.895283,9.796993,108.3,5.845,1.85,0.00,54.895069,9.793790,54.895348,9.797490
1386962402,1,0,77.3,0,0,0,0,200,200,-0.0292,5117.1567,6.8213,0.4212,54.895287,9.797024,108.3,5.845,1.85,0.00,54.895069,9.793790,54.895348,9.797490
1386962402,1,0,77.3,0,0,4,0,200,200,-0.0292,5117.1567,6.8213,0.4212,54.895290,9.797054,108.3,5.845,1.85,0.00,54.895069,9.793790,54.895348,9.797490
1386962402,1,0,77.2,0,0,0,0,200,200,-0.0292,5117.1567,6.8213,0.4212,54.895290,9.797085,108.3,5.845,1.85,0.00,54.895069,9.793790,54.895348,9.797490
1386962403,1,0,76.3,0,1,4,0,200,200,-0.0292,5116.8232,6.8213,0.4212,54.895290,9.797115,108.3,5.845,1.85,0.00,54.895069,9.793790,54.895348,9.797490
1386962403,1,0,75.2,0,2,0,0,196,150,-0.0292,5116.1567,6.8213,0.4212,54.895294,9.797146,108.3,5.845,1.85,0.00,54.895069,9.793790,54.895348,9.797490
1386962403,1,0,55.0,0,21,4,0,186,200,-0.0292,5109.1567,6.8213,0.4212,54.895298,9.797174,108.3,5.845,1.85,0.00,54.895069,9.793790,54.895348,9.797490
1386962403,1,0,55.0,0,14,8,0,94,150,-0.0292,5104.4902,6.8213,0.4212,54.895306,9.797203,108.3,5.845,1.85,0.00,54.895069,9.793790,54.895348,9.797490
1386962404,1,0,75.8,0,-11,4,0,45,100,-0.0292,5108.1567,6.8213,0.4212,54.895313,9.797233,108.3,5.845,1.85,0.00,54.895069,9.793790,54.895348,9.797490
1386962404,1,0,77.0,0,-9,0,0,82,50,-0.0292,5111.1567,6.8213,0.4212,54.895321,9.797262,108.3,5.845,1.85,0.00,54.895069,9.793790,54.895348,9.797490
1386962404,1,0,78.6,0,-7,-4,0,118,100,-0.0292,5113.4902,6.8213,0.4212,54.895325,9.797292,108.3,5.845,1.85,0.00,54.895069,9.793790,54.895348,9.797490
1386962404,1,0,78.7,0,-5,-8,0,149,150,-0.0292,5115.1567,6.8213,0.4212,54.895329,9.797322,108.3,5.845,1.85,0.00,54.895069,9.793790,54.895348,9.797490
1386962405,1,0,78.9,0,-4,-4,0,172,200,-0.0292,5116.4902,6.8213,0.4212,54.895332,9.797353,108.3,5.845,1.85,0.00,54.895069,9.793790,54.895348,9.797490
1386962405,1,0,79.1,0,-3,0,0,191,150,-0.0292,5117.4902,6.8213,0.4212,54.895336,9.797383,108.3,5.845,1.85,0.00,54.895069,9.793790,54.895348,9.797490
1386962405,1,0,79.5,0,-2,-4,0,205,200,-0.0292,5118.1567,6.8213,0.4212,54.895340,9.797414,108.3,5.845,1.85,0.00,54.895069,9.793790,54.895348,9.797490
1386962405,1,0,80.2,0,-2,0,0,215,250,-0.0292,5118.8232,6.8213,0.4212,54.895340,9.797444,108.3,5.845,1.85,0.00,54.895348,9.797490,54.894039,9.801540
1386962406,1,0,118.8,0,-35,-4,0,225,200,-0.0292,5130.4897,6.8213,0.4212,54.895336,9.797476,108.3,5.845,1.85,0.00,54.895348,9.797490,54.894039,9.801540
1386962406,1,0,118.9,0,-28,-8,0,407,250,-0.0292,5139.8232,6.8213,0.4212,54.895336,9.797506,108.3,5.845,1.85,0.00,54.895348,9.797490,54.894039,9.801540
1386962406,1,0,119.1,0,-19,-12,0,556,300,-0.0292,5146.1567,6.8213,0.4212,54.895332,9.797537,108.3,5.845,1.85,0.00,54.895348,9.797490,54.894039,9.801540
1386962406,1,0,119.2,0,-13,-16,0,655,350,-0.0292,5150.4902,6.8213,0.4212,54.895329,9.797566,108.3,5.845,1.85,0.00,54.895348,9.797490,54.894039,9.801540
1386962407,1,0,119.3,0,-9,-12,0,721,400,-0.0292,5153.4902,6.8213,0.4212,54.895321,9.797595,108.3,5.845,1.85,0.00,54.895348,9.797490,54.894039,9.801540
1386962407,1,0,119.3,0,-6,-8,0,765,450,-0.0292,5155.4902,6.8213,0.4212,54.895313,9.797624,108.3,5.845,1.85,0.00,54.895348,9.797490,54.894039,9.801540
1386962407,1,0,119.3,0,-4,-4,0,795,500,-0.0292,5156.8237,6.8213,0.4212,54.895306,9.797651,108.3,5.845,1.85,0.00,54.895348,9.797490,54.894039,9.801540
1386962407,1,0,119.4,0,-3,0,0,814,550,-0.0292,5157.8237,6.8213,0.4212,54.895298,9.797679,108.3,5.845,1.85,0.00,54.895348,9.797490,54.894039,9.801540
1386962408,1,0,119.4,0,-2,-4,0,828,600,-0.0292,5158.4902,6.8213,0.4212,54.895290,9.797707,108.3,5.845,1.85,0.00,54.895348,9.797490,54.894039,9.801540
1386962408,1,0,119.4,0,-1,0,0,838,650,-0.0292,5158.8237,6.8213,0.4212,54.895279,9.797734,108.3,5.845,1.85,0.00,54.895348,9.797490,54.894039,9.801540
1386962408,1,0,119.4,0,-1,-4,0,843,700,-0.0292,5159.1572,6.8213,0.4212,54.895271,9.797761,108.3,5.845,1.85,0.00,54.895348,9.797490,54.894039,9.801540
1386962408,1,0,119.4,0,0,0,0,847,750,-0.0292,5159.1572,6.8213,0.4212,54.895260,9.797789,108.3,5.845,1.85,0.00,54.895348,9.797490,54.894039,9.801540
1386962409,1,0,119.3,0,0,4,0,847,800,-0.0292,5159.1572,6.8213,0.4212,54.895252,9.797815,108.3,5.845,1.85,0.00,54.895348,9.797490,54.894039,9.801540
1386962409,1,0,119.4,0,0,0,0,847,850,-0.0292,5159.1572,6.8213,0.4212,54.895245,9.797843,108.3,5.845,1.85,0.00,54.895348,9.797490,54.894039,9.801540
1386962409,1,0,119.4,0,0,4,0,847,800,-0.0292,5159.1572,6.8213,0.4212,54.895233,9.797871,108.3,5.845,1.85,0.00,54.895348,9.797490,54.894039,9.801540
1386962409,1,0,119.3,0,0,0,0,847,850,-0.0292,5159.1572,6.8213,0.4212,54.895226,9.797897,108.3,5.845,1.85,0.00,54.895348,9.797490,54.894039,9.801540
1386962410,1,0,119.4,0,0,4,0,847,800,-0.0292,5159.1572,6.8213,0.4212,54.895218,9.797925,108.3,5.845,1.85,0.00,54.895348,9.797490,54.894039,9.801540
1386962410,1,0,119.4,0,0,0,0,847,850,-0.0292,5159.1572,6.8213,0.4212,54.895206,9.797953,108.3,5.845,1.85,0.00,54.895348,9.797490,54.894039,9.801540
1386962410,1,0,119.3,0,0,4,0,847,800,-0.0292,5159.1572,6.8213,0.4212,54.895199,9.797979,108.3,5.845,1.85,0.00,54.895348,9.797490,54.894039,9.801540
1386962410,1,0,119.4,0,0,0,0,847,850,-0.0292,5159.1572,6.8213,0.4212,54.895187,9.798007,108.3,5.845,1.85,0.00,54.895348,9.797490,54.894039,9.801540
1386962411,1,0,119.3,0,0,4,0,847,800,-0.0292,5159.1572,6.8213,0.4212,54.895180,9.798034,108.3,5.845,1.85,0.00,54.895348,9.797490,54.894039,9.801540
1386962411,1,0,119.3,0,0,0,0,847,850,-0.0292,5159.1572,6.8213,0.4212,54.895172,9.798060,108.3,5.845,1.85,0.00,54.895348,9.797490,54.894039,9.801540
1386962411,1,0,119.4,0,0,4,0,847,800,-0.0292,5159.1572,6.8213,0.4212,54.895161,9.798088,108.3,5.845,1.85,0.00,54.895348,9.797490,54.894039,9.801540
1386962411,1,0,119.3,0,0,0,0,847,850,-0.0292,5159.1572,6.8213,0.4212,54.895153,9.798115,108.3,5.845,1.85,0.00,54.895348,9.797490,54.894039,9.801540
1386962412,1,0,119.3,0,0,4,0,847,800,-0.0292,5159.1572,6.8213,0.4212,54.895145,9.798142,108.3,5.845,1.85,0.00,54.895348,9.797490,54.894039,9.801540
1386962412,1,0,119.4,0,0,0,0,847,850,-0.0292,5159.1572,6.8213,0.4212,54.895134,9.798170,108.3,5.845,1.85,0.00,54.895348,9.797490,54.894039,9.801540
1386962412,1,0,119.3,0,0,4,0,847,800,-0.0292,5159.1572,6.8213,0.4212,54.895126,9.798197,108.3,5.845,1.85,0.00,54.895348,9.797490,54.894039,9.801540
1386962412,1,0,119.3,0,0,0,0,847,850,-0.0292,5159.1572,6.8213,0.4212,54.895119,9.798224,108.3,5.845,1.85,0.00,54.895348,9.797490,54.894039,9.801540
1386962413,1,0,119.4,0,0,4,0,847,800,-0.0292,5159.1572,6.8213,0.4212,54.895107,9.798252,108.3,5.845,1.85,0.00,54.895348,9.797490,54.894039,9.801540
1386962413,1,0,119.3,0,0,0,0,847,850,-0.0292,5159.1572,6.8213,0.4212,54.895100,9.798279,108.3,5.845,1.85,0.00,54.895348,9.797490,54.894039,9.801540
1386962413,1,0,119.3,0,0,4,0,847,800,-0.0292,5159.1572,6.8213,0.4212,54.895088,9.798306,108.3,5.845,1.85,0.00,54.895348,9.797490,54.894039,9.801540
1386962413,1,0,119.3,0,0,0,0,847,850,-0.0292,5159.1572,6.8213,0.4212,54.895081,9.798333,108.3,5.845,1.85,0.00,54.895348,9.797490,54.894039,9.801540
1386962414,1,0,119.3,0,0,4,0,847,800,-0.0292,5159.1572,6.8213,0.4212,54.895073,9.798360,108.3,5.845,1.85,0.00,54.895348,9.797490,54.894039,9.801540
1386962414,1,0,119.3,0,0,0,0,847,850,-0.0292,5159.1572,6.8213,0.4212,54.895061,9.798388,108.3,5.845,1.85,0.00,54.895348,9.797490,54.894039,9.801540
1386962414,1,0,119.3,0,0,4,0,847,800,-0.0292,5159.1572,6.8213,0.4212,54.895054,9.798414,108.3,5.845,1.85,0.00,54.895348,9.797490,54.894039,9.801540
1386962414,1,0,119.3,0,0,0,0,847,850,-0.0292,5159.1572,6.8213,0.4212,54.895046,9.798442,108.3,5.845,1.85,0.00,54.895348,9.797490,54.894039,9.801540
1386962415,1,0,119.3,0,0,4,0,847,800,-0.0292,5159.1572,6.8213,0.4212,54.895035,9.798470,108.3,5.845,1.85,0.00,54.895348,9.797490,54.894039,9.801540
1386962415,1,0,119.3,0,0,0,0,847,850,-0.0292,5159.1572,6.8213,0.4212,54.895027,9.798496,108.3,5.845,1.85,0.00,54.895348,9.797490,54.894039,9.801540
1386962415,1,0,119.3,0,0,4,0,847,800,-0.0292,5159.1572,6.8213,0.4212,54.895016,9.798524,108.3,5.845,1.85,0.00,54.895348,9.797490,54.894039,9.801540
1386962415,1,0,119.2,0,0,0,0,847,850,-0.0292,5159.1572,6.8213,0.4212,54.895008,9.798552,108.3,5.845,1.85,0.00,54.895348,9.797490,54.894039,9.801540
1386962416,1,0,119.3,0,0,4,0,847,800,-0.0292,5159.1572,6.8213,0.4212,54.895000,9.798578,108.3,5.845,1.85,0.00,54.895348,9.797490,54.894039,9.801540
1386962416,1,0,119.3,0,0,0,0,847,850,-0.0292,5159.1572,6.8213,0.4212,54.894989,9.798606,108.3,5.845,1.85,0.00,54.895348,9.797490,54.894039,9.801540
1386962416,1,0,119.2,0,0,4,0,847,800,-0.0292,5159.1572,6.8213,0.4212,54.894981,9.798633,108.3,5.845,1.85,0.00,54.895348,9.797490,54.894039,9.801540
1386962416,1,0,119.2,0,0,0,0,847,850,-0.0292,5159.1572,6.8213,0.4212,54.894974,9.798659,108.3,5.845,1.85,0.00,54.895348,9.797490,54.894039,9.801540
1386962417,1,0,119.3,0,0,4,0,847,800,-0.0292,5159.1572,6.8213,0.4212,54.894962,9.798687,108.3,5.845,1.85,0.00,54.895348,9.797490,54.894039,9.801540
1386962417,1,0,119.2,0,0,0,0,847,850,-0.0292,5159.1572,6.8213,0.4212,54.894955,9.798714,108.3,5.845,1.85,0.00,54.895348,9.797490,54.894039,9.801540
1386962417,1,0,119.2,0,0,4,0,847,800,-0.0292,5159.1572,6.8213,0.4212,54.894947,9.798741,108.3,5.845,1.85,0.00,54.895348,9.797490,54.894039,9.801540
1386962418,1,0,119.3,0,0,0,0,847,850,-0.0292,5159.1572,6.8213,0.4212,54.894936,9.798769,108.3,5.845,1.85,0.00,54.895348,9.797490,54.894039,9.801540
1386962418,1,0,119.2,0,0,4,0,847,800,-0.0292,5159.1572,6.8213,0.4212,54.894928,9.798796,108.3,5.845,1.85,0.00,54.895348,9.797490,54.894039,9.801540
1386962418,1,0,119.2,0,0,0,0,847,850,-0.0292,5159.1572,6.8213,0.4212,54.894917,9.798823,108.3,5.845,1.85,0.00,54.895348,9.797490,54.894039,9.801540
1386962418,1,0,119.2,0,0,4,0,847,800,-0.0292,5159.1572,6.8213,0.4212,54.894909,9.798851,108.3,5.845,1.85,0.00,54.895348,9.797490,54.894039,9.801540
1386962419,1,0,119.2,0,0,0,0,847,850,-0.0292,5159.1572,6.8213,0.4212,54.894901,9.798878,108.3,5.845,1.85,0.00,54.895348,9.797490,54.894039,9.801540
1386962419,1,0,119.2,0,0,4,0,847,800,-0.0292,5159.1572,6.8213,0.4212,54.894890,9.798905,108.3,5.845,1.85,0.00,54.895348,9.797490,54.894039,9.801540
1386962419,1,0,119.2,0,0,0,0,847,850,-0.0292,5159.1572,6.8213,0.4212,54.894882,9.798932,108.3,5.845,1.85,0.00,54.895348,9.797490,54.894039,9.801540
1386962419,1,0,119.2,0,0,4,0,847,800,-0.0292,5159.1572,6.8213,0.4212,54.894875,9.798960,108.3,5.845,1.85,0.00,54.895348,9.797490,54.894039,9.801540
1386962420,1,0,119.2,0,0,0,0,847,850,-0.0292,5159.1572,6.8213,0.4212,54.894863,9.798987,108.3,5.845,1.85,0.00,54.895348,9.797490,54.894039,9.801540
1386962420,1,0,119.2,0,0,4,0,847,800,-0.0292,5159.1572,6.8213,0.4212,54.894855,9.799014,108.3,5.845,1.85,0.00,54.895348,9.797490,54.894039,9.801540
1386962420,1,0,119.2,0,0,0,0,847,850,-0.0292,5159.1572,6.8213,0.4212,54.894844,9.799042,108.3,5.845,1.85,0.00,54.895348,9.797490,54.894039,9.801540
1386962420,1,0,119.1,0,0,4,0,847,800,-0.0292,5159.1572,6.8213,0.4212,54.894836,9.799069,108.3,5.845,1.85,0.00,54.895348,9.797490,54.894039,9.801540
1386962421,1,0,119.1,0,0,0,0,847,850,-0.0292,5159.1572,6.8213,0.4212,54.894829,9.799096,108.3,5.845,1.85,0.00,54.895348,9.797490,54.894039,9.801540
1386962421,1,0,119.2,0,0,4,0,847,800,-0.0292,5159.1572,6.8213,0.4212,54.894817,9.799124,108.3,5.845,1.85,0.00,54.895348,9.797490,54.894039,9.801540
1386962421,1,0,119.1,0,0,0,0,847,850,-0.0292,5159.1572,6.8213,0.4212,54.894810,9.799151,108.3,5.845,1.85,0.00,54.895348,9.797490,54.894039,9.801540
1386962421,1,0,119.1,0,0,4,0,847,800,-0.0292,5159.1572,6.8213,0.4212,54.894802,9.799178,108.3,5.845,1.85,0.00,54.895348,9.797490,54.894039,9.801540
1386962422,1,0,119.2,0,0,0,0,847,850,-0.0292,5159.1572,6.8213,0.4212,54.894791,9.799206,108.3,5.845,1.85,0.00,54.895348,9.797490,54.894039,9.801540
1386962422,1,0,119.1,0,0,4,0,847,800,-0.0292,5159.1572,6.8213,0.4212,54.894783,9.799232,108.3,5.845,1.85,0.00,54.895348,9.797490,54.894039,9.801540
1386962422,1,0,119.1,0,0,0,0,847,850,-0.0292,5159.1572,6.8213,0.4212,54.894775,9.799260,108.3,5.845,1.85,0.00,54.895348,9.797490,54.894039,9.801540
1386962422,1,0,119.2,0,0,4,0,847,800,-0.0292,5159.1572,6.8213,0.4212,54.894764,9.799288,108.3,5.845,1.85,0.00,54.895348,9.797490,54.894039,9.801540
1386962423,1,0,119.1,0,0,0,0,847,850,-0.0292,5159.1572,6.8213,0.4212,54.894756,9.799314,108.3,5.845,1.85,0.00,54.895348,9.797490,54.894039,9.801540
1386962423,1,0,119.1,0,0,4,0,847,800,-0.0292,5159.1572,6.8213,0.4212,54.894745,9.799342,108.3,5.845,1.85,0.00,54.895348,9.797490,54.894039,9.801540
1386962423,1,0,119.0,0,0,0,0,847,850,-0.0292,5159.1572,6.8213,0.4212,54.894737,9.799370,108.3,5.845,1.85,0.00,54.895348,9.797490,54.894039,9.801540
1386962423,1,0,119.1,0,0,4,0,847,800,-0.0292,5159.1572,6.8213,0.4212,54.894730,9.799397,108.3,5.845,1.85,0.00,54.895348,9.797490,54.894039,9.801540
1386962424,1,0,119.1,0,0,0,0,847,850,-0.0292,5159.1572,6.8213,0.4212,54.894718,9.799424,108.3,5.845,1.85,0.00,54.895348,9.797490,54.894039,9.801540
1386962424,1,0,119.0,0,0,4,0,847,800,-0.0292,5159.1572,6.8213,0.4212,54.894711,9.799452,108.3,5.845,1.85,0.00,54.895348,9.797490,54.894039,9.801540
1386962424,1,0,119.1,0,0,0,0,847,850,-0.0292,5159.1572,6.8213,0.4212,54.894703,9.799479,108.3,5.845,1.85,0.00,54.895348,9.797490,54.894039,9.801540
1386962424,1,0,119.1,0,0,4,0,847,800,-0.0292,5159.1572,6.8213,0.4212,54.894691,9.799506,108.3,5.845,1.85,0.00,54.895348,9.797490,54.894039,9.801540
1386962425,1,0,119.0,0,0,0,0,847,850,-0.0292,5159.1572,6.8213,0.4212,54.894684,9.799533,108.3,5.845,1.85,0.00,54.895348,9.797490,54.894039,9.801540
1386962425,1,0,119.0,0,0,4,0,847,800,-0.0292,5159.1572,6.8213,0.4212,54.894676,9.799560,108.3,5.845,1.85,0.00,54.895348,9.797490,54.894039,9.801540
1386962425,1,0,119.1,0,0,0,0,847,850,-0.0292,5159.1572,6.8213,0.4212,54.894665,9.799587,108.3,5.845,1.85,0.00,54.895348,9.797490,54.894039,9.801540
1386962425,1,0,119.0,0,0,4,0,847,800,-0.0292,5159.1572,6.8213,0.4212,54.894657,9.799614,108.3,5.845,1.85,0.00,54.895348,9.797490,54.894039,9.801540
1386962426,1,0,119.0,0,0,0,0,847,850,-0.0292,5159.1572,6.8213,0.4212,54.894646,9.799642,108.3,5.845,1.85,0.00,54.895348,9.797490,54.894039,9.801540
1386962426,1,0,118.9,0,0,4,0,847,800,-0.0292,5159.1572,6.8213,0.4212,54.894638,9.799669,108.3,5.845,1.85,0.00,54.895348,9.797490,54.894039,9.801540
1386962426,1,0,119.0,0,0,0,0,847,850,-0.0292,5159.1572,6.8213,0.4212,54.894630,9.799696,108.3,5.845,1.85,0.00,54.895348,9.797490,54.894039,9.801540
1386962426,1,0,119.0,0,0,4,0,847,800,-0.0292,5159.1572,6.8213,0.4212,54.894619,9.799724,108.3,5.845,1.85,0.00,54.895348,9.797490,54.894039,9.801540
1386962427,1,0,118.9,0,0,0,0,847,850,-0.0292,5159.1572,6.8213,0.4212,54.894611,9.799751,108.3,5.845,1.85,0.00,54.895348,9.797490,54.894039,9.801540
1386962427,1,0,118.9,0,0,4,0,847,800,-0.0292,5159.1572,6.8213,0.4212,54.894604,9.799778,108.3,5.845,1.85,0.00,54.895348,9.797490,54.894039,9.801540
1386962427,1,0,119.0,0,0,0,0,847,850,-0.0292,5159.1572,6.8213,0.4212,54.894592,9.799806,108.3,5.845,1.85,0.00,54.895348,9.797490,54.894039,9.801540
1386962427,1,0,118.9,0,0,4,0,847,800,-0.0292,5159.1572,6.8213,0.4212,54.894585,9.799832,108.3,5.845,1.85,0.00,54.895348,9.797490,54.894039,9.801540
1386962428,1,0,118.9,0,0,0,0,847,850,-0.0292,5159.1572,6.8213,0.4212,54.894573,9.799860,108.3,5.845,1.85,0.00,54.895348,9.797490,54.894039,9.801540
1386962428,1,0,118.8,0,0,4,0,847,800,-0.0292,5159.1572,6.8213,0.4212,54.894566,9.799888,108.3,5.845,1.85,0.00,54.895348,9.797490,54.894039,9.801540
1386962428,1,0,118.8,0,0,0,0,847,850,-0.0292,5159.1572,6.8213,0.4212,54.894558,9.799914,108.3,5.845,1.85,0.00,54.895348,9.797490,54.894039,9.801540
1386962428,1,0,118.9,0,0,4,0,847,800,-0.0292,5159.1572,6.8213,0.4212,54.894547,9.799942,108.3,5.845,1.85,0.00,54.895348,9.797490,54.894039,9.801540
1386962429,1,0,118.7,0,0,0,0,847,850,-0.0292,5159.1572,6.8213,0.4212,54.894539,9.799970,108.3,5.845,1.85,0.00,54.895348,9.797490,54.894039,9.801540
1386962429,1,0,118.8,0,0,4,0,847,800,-0.0292,5159.1572,6.8213,0.4212,54.894531,9.799996,108.3,5.845,1.85,0.00,54.895348,9.797490,54.894039,9.801540
1386962429,1,0,118.8,0,0,0,0,847,850,-0.0292,5159.1572,6.8213,0.4212,54.894520,9.800024,108.3,5.845,1.85,0.00,54.895348,9.797490,54.894039,9.801540
1386962429,1,0,118.7,0,0,4,0,847,800,-0.0292,5159.1572,6.8213,0.4212,54.894512,9.800052,108.3,5.845,1.85,0.00,54.895348,9.797490,54.894039,9.801540
1386962430,1,0,118.8,0,0,0,0,847,850,-0.0292,5159.1572,6.8213,0.4212,54.894505,9.800078,108.3,5.845,1.85,0.00,54.895348,9.797490,54.894039,9.801540
1386962430,1,0,118.8,0,0,4,0,847,800,-0.0292,5159.1572,6.8213,0.4212,54.894493,9.800106,108.3,5.845,1.85,0.00,54.895348,9.797490,54.894039,9.801540
1386962430,1,0,118.7,0,0,0,0,847,850,-0.0292,5159.1572,6.8213,0.4212,54.894485,9.800133,108.3,5.845,1.85,0.00,54.895348,9.797490,54.894039,9.801540
1386962430,1,0,118.7,0,0,4,0,847,800,-0.0292,5159.1572,6.8213,0.4212,54.894474,9.800160,108.3,5.845,1.85,0.00,54.895348,9.797490,54.894039,9.801540
1386962431,1,0,118.6,0,1,0,0,847,850,-0.0292,5158.8237,6.8213,0.4212,54.894466,9.800188,108.3,5.845,1.85,0.00,54.895348,9.797490,54.894039,9.801540
1386962431,1,0,118.6,0,0,4,0,843,800,-0.0292,5158.8237,6.8213,0.4212,54.894459,9.800215,108.3,5.845,1.85,0.00,54.895348,9.797490,54.894039,9.801540
1386962431,1,0,118.7,0,0,0,0,843,850,-0.0292,5158.8237,6.8213,0.4212,54.894447,9.800242,108.3,5.845,1.85,0.00,54.895348,9.797490,54.894039,9.801540
1386962431,1,0,118.5,0,0,4,0,843,800,-0.0292,5158.8237,6.8213,0.4212,54.894440,9.800270,108.3,5.845,1.85,0.00,54.895348,9.797490,54.894039,9.801540
1386962432,1,0,118.6,0,0,0,0,843,850,-0.0292,5158.8237,6.8213,0.4212,54.894432,9.800297,108.3,5.845,1.85,0.00,54.895348,9.797490,54.894039,9.801540
1386962432,1,0,118.6,0,0,4,0,843,800,-0.0292,5158.8237,6.8213,0.4212,54.894421,9.800324,108.3,5.845,1.85,0.00,54.895348,9.797490,54.894039,9.801540
1386962432,1,0,118.5,0,0,0,0,843,850,-0.0292,5158.8237,6.8213,0.4212,54.894413,9.800352,108.3,5.845,1.85,0.00,54.895348,9.797490,54.894039,9.801540
1386962432,1,0,118.5,0,0,4,0,843,800,-0.0292,5158.8237,6.8213,0.4212,54.894405,9.800379,108.3,5.845,1.85,0.00,54.895348,9.797490,54.894039,9.801540
1386962433,1,0,118.6,0,0,0,0,843,850,-0.0292,5158.8237,6.8213,0.4212,54.894394,9.800406,108.3,5.845,1.85,0.00,54.895348,9.797490,54.894039,9.801540
1386962433,1,0,118.4,0,0,4,0,843,800,-0.0292,5158.8237,6.8213,0.4212,54.894386,9.800434,108.3,5.845,1.85,0.00,54.895348,9.797490,54.894039,9.801540
1386962433,1,0,118.5,0,0,0,0,843,850,-0.0292,5158.8237,6.8213,0.4212,54.894375,9.800461,108.3,5.845,1.85,0.00,54.895348,9.797490,54.894039,9.801540
1386962433,1,0,118.3,0,1,4,0,843,800,-0.0292,5158.4902,6.8213,0.4212,54.894367,9.800488,108.3,5.845,1.85,0.00,54.895348,9.797490,54.894039,9.801540
1386962434,1,0,118.3,0,0,0,0,838,850,-0.0292,5158.4902,6.8213,0.4212,54.894360,9.800516,108.3,5.845,1.85,0.00,54.895348,9.797490,54.894039,9.801540
1386962434,1,0,118.4,0,0,4,0,838,800,-0.0292,5158.4902,6.8213,0.4212,54.894348,9.800544,108.3,5.845,1.85,0.00,54.895348,9.797490,54.894039,9.801540
1386962434,1,0,118.2,0,0,0,0,838,850,-0.0292,5158.4902,6.8213,0.4212,54.894341,9.800571,108.3,5.845,1.85,0.00,54.895348,9.797490,54.894039,9.801540
1386962434,1,0,118.3,0,0,4,0,838,800,-0.0292,5158.4902,6.8213,0.4212,54.894333,9.800598,108.3,5.845,1.85,0.00,54.895348,9.797490,54.894039,9.801540
1386962435,1,0,118.3,0,0,0,0,838,850,-0.0292,5158.4902,6.8213,0.4212,54.894321,9.800626,108.3,5.845,1.85,0.00,54.895348,9.797490,54.894039,9.801540
1386962435,1,0,118.1,0,0,4,0,838,800,-0.0292,5158.4902,6.8213,0.4212,54.894314,9.800653,108.3,5.845,1.85,0.00,54.895348,9.797490,54.894039,9.801540
1386962435,1,0,118.2,0,0,0,0,838,850,-0.0292,5158.4902,6.8213,0.4212,54.894306,9.800680,108.3,5.845,1.85,0.00,54.895348,9.797490,54.894039,9.801540
1386962435,1,0,118.2,0,0,4,0,838,800,-0.0292,5158.4902,6.8213,0.4212,54.894299,9.800708,108.3,5.845,1.85,0.00,54.895348,9.797490,54.894039,9.801540
1386962436,1,0,118.3,0,0,0,0,838,850,-0.0292,5158.4902,6.8213,0.4212,54.894291,9.800735,108.3,5.845,1.85,0.00,54.895348,9.797490,54.894039,9.801540
1386962436,1,0,118.4,0,0,4,0,838,800,-0.0292,5158.4902,6.8213,0.4212,54.894283,9.800762,108.3,5.845,1.85,0.00,54.895348,9.797490,54.894039,9.801540
1386962436,1,0,118.5,0,0,0,0,838,850,-0.0292,5158.4902,6.8213,0.4212,54.894272,9.800790,108.3,5.845,1.85,0.00,54.895348,9.797490,54.894039,9.801540
1386962436,1,0,118.2,0,0,4,0,838,800,-0.0292,5158.4902,6.8213,0.4212,54.894264,9.800817,108.3,5.845,1.85,0.00,54.895348,9.797490,54.894039,9.801540
1386962437,1,0,118.3,0,0,0,0,838,850,-0.0292,5158.4902,6.8213,0.4212,54.894253,9.800845,108.3,5.845,1.85,0.00,54.895348,9.797490,54.894039,9.801540
1386962437,1,0,118.0,0,1,4,0,838,800,-0.0292,5158.1567,6.8213,0.4212,54.894245,9.800873,108.3,5.845,1.85,0.00,54.895348,9.797490,54.894039,9.801540
1386962437,1,0,118.1,0,0,0,0,833,850,-0.0292,5158.1567,6.8213,0.4212,54.894238,9.800900,108.3,5.845,1.85,0.00,54.895348,9.797490,54.894039,9.801540
1386962437,1,0,118.2,0,0,4,0,833,800,-0.0292,5158.1567,6.8213,0.4212,54.894226,9.800928,108.3,5.845,1.85,0.00,54.895348,9.797490,54.894039,9.801540
1386962438,1,0,117.8,0,0,0,0,833,850,-0.0292,5158.1567,6.8213,0.4212,54.894218,9.800956,108.3,5.845,1.85,0.00,54.895348,9.797490,54.894039,9.801540
1386962438,1,0,117.9,0,0,4,0,833,800,-0.0292,5158.1567,6.8213,0.4212,54.894211,9.800983,108.3,5.845,1.85,0.00,54.895348,9.797490,54.894039,9.801540
1386962438,1,0,118.0,0,0,0,0,833,850,-0.0292,5158.1567,6.8213,0.4212,54.894199,9.801011,108.3,5.845,1.85,0.00,54.895348,9.797490,54.894039,9.801540
1386962438,1,0,117.6,0,1,4,0,833,800,-0.0292,5157.8232,6.8213,0.4212,54.894192,9.801039,108.3,5.845,1.85,0.00,54.895348,9.797490,54.894039,9.801540
1386962439,1,0,117.7,0,0,0,0,828,850,-0.0292,5157.8232,6.8213,0.4212,54.894184,9.801066,108.3,5.845,1.85,0.00,54.895348,9.797490,54.894039,9.801540
1386962439,1,0,117.9,0,0,4,0,828,800,-0.0292,5157.8232,6.8213,0.4212,54.894173,9.801094,108.3,5.845,1.85,0.00,54.895348,9.797490,54.894039,9.801540
