MCU_timestamp,Navigation_System,Manual_Control,Guidance_Heading,Manual_Ctrl_Rudder,Rudder_Desired_Angle,Rudder_Feedback,Manual_Ctrl_Sail,Sail_Desired_Pos,Sail_Feedback,Rate,Heading,Pitch,Roll,Latitude,Longitude,COG,SOG,Wind_Speed,Wind_Angle,Point_Start_Lat,Point_Start_Lon,Point_End_Lat,Point_End_Lon
1386921435,0,0,0.0,0,0,0,0,0,0,-0.0292,-1376.6426,6.8213,0.4212,54.894932,9.796066,108.3,5.845,1.85,335.95,0.000000,0.000000,0.000000,0.000000
1386921435,0,0,0.0,0,0,0,0,0,0,-0.0292,-1376.6426,6.8213,0.4212,54.894932,9.796066,108.3,5.845,1.85,335.95,0.000000,0.000000,0.000000,0.000000
1386921435,0,0,0.0,0,0,0,0,0,0,-0.0292,-1376.6426,6.8213,0.4212,54.894932,9.796066,108.3,5.845,1.85,335.95,0.000000,0.000000,0.000000,0.000000
1386921436,0,0,0.0,0,0,0,0,0,0,-0.0292,-1376.6426,6.8213,0.4212,54.894932,9.796066,108.3,5.845,1.85,335.95,0.000000,0.000000,0.000000,0.000000
1386921436,0,0,0.0,0,0,0,0,0,0,-0.0292,-1376.6426,6.8213,0.4212,54.894932,9.796066,108.3,5.845,1.85,335.95,0.000000,0.000000,0.000000,0.000000
1386921436,0,0,0.0,0,0,0,0,0,0,-0.0292,-1376.6426,6.8213,0.4212,54.894932,9.796066,108.3,5.845,1.85,335.95,0.000000,0.000000,0.000000,0.000000
1386921436,0,0,0.0,0,0,0,0,0,0,-0.0292,-1376.6426,6.8213,0.4212,54.894932,9.796066,108.3,5.845,1.85,335.95,0.000000,0.000000,0.000000,0.000000
1386921437,0,0,0.0,0,0,0,0,0,0,-0.0292,-1376.6426,6.8213,0.4212,54.894932,9.796066,108.3,5.845,1.85,335.95,0.000000,0.000000,0.000000,0.000000
1386921437,0,0,0.0,0,0,0,0,0,0,-0.0292,-1376.6426,6.8213,0.4212,54.894932,9.796066,108.3,5.845,1.85,335.95,0.000000,0.000000,0.000000,0.000000
1386921437,0,0,0.0,0,0,0,0,0,0,-0.0292,-1376.6426,6.8213,0.4212,54.894932,9.796066,108.3,5.845,1.85,335.95,0.000000,0.000000,0.000000,0.000000
1386921437,0,0,0.0,0,0,0,0,0,0,-0.0292,-1376.6426,6.8213,0.4212,54.894932,9.796066,108.3,5.845,1.85,335.95,0.000000,0.000000,0.000000,0.000000
1386921438,0,0,0.0,0,0,0,0,0,0,-0.0292,-1376.6426,6.8213,0.4212,54.894932,9.796066,108.3,5.845,1.85,335.95,0.000000,0.000000,0.000000,0.000000
1386921438,0,0,0.0,0,0,0,0,0,0,-0.0292,-1376.6426,6.8213,0.4212,54.894932,9.796066,108.3,5.845,1.85,335.95,0.000000,0.000000,0.000000,0.000000
1386921438,0,0,0.0,0,0,0,0,0,0,-0.0292,-1376.6426,6.8213,0.4212,54.894932,9.796066,108.3,5.845,1.85,335.95,0.000000,0.000000,0.000000,0.000000
1386921438,0,0,0.0,0,0,0,0,0,0,-0.0292,-1376.6426,6.8213,0.4212,54.894932,9.796066,108.3,5.845,1.85,335.95,0.000000,0.000000,0.000000,0.000000
1386921439,0,0,0.0,0,0,0,0,0,0,-0.0292,-1376.6426,6.8213,0.4212,54.894932,9.796066,108.3,5.845,1.85,335.95,0.000000,0.000000,0.000000,0.000000
1386921439,0,0,0.0,0,0,0,0,0,0,-0.0292,-1376.6426,6.8213,0.4212,54.894932,9.796066,108.3,5.845,1.85,335.95,0.000000,0.000000,0.000000,0.000000
1386921439,0,0,0.0,0,0,0,0,0,0,-0.0292,-1376.6426,6.8213,0.4212,54.894932,9.796066,108.3,5.845,1.85,335.95,0.000000,0.000000,0.000000,0.000000
1386921439,0,0,0.0,0,0,0,0,0,0,-0.0292,-1376.6426,6.8213,0.4212,54.894932,9.796066,108.3,5.845,1.85,335.95,0.000000,0.000000,0.000000,0.000000
1386921440,0,0,0.0,0,0,0,0,0,0,-0.0292,-1376.6426,6.8213,0.4212,54.894932,9.796066,108.3,5.845,1.85,335.95,0.000000,0.000000,0.000000,0.000000
1386921440,0,0,0.0,0,0,0,0,0,0,-0.0292,-1376.6426,6.8213,0.4212,54.894932,9.796066,108.3,5.845,1.85,335.95,0.000000,0.000000,0.000000,0.000000
1386921440,0,0,0.0,0,0,0,0,0,0,-0.0292,-1376.6426,6.8213,0.4212,54.894932,9.796066,108.3,5.845,1.85,335.95,0.000000,0.000000,0.000000,0.000000
1386921440,0,0,0.0,0,0,0,0,0,0,-0.0292,-1376.6426,6.8213,0.4212,54.894932,9.796066,108.3,5.845,1.85,335.95,0.000000,0.000000,0.000000,0.000000
1386921441,0,0,0.0,0,0,0,0,0,0,-0.0292,-1376.6426,6.8213,0.4212,54.894932,9.796066,108.3,5.845,1.85,335.95,0.000000,0.000000,0.000000,0.000000
1386921441,0,0,0.0,0,0,0,0,0,0,-0.0292,-1376.6426,6.8213,0.4212,54.894932,9.796066,108.3,5.845,1.85,335.95,0.000000,0.000000,0.000000,0.000000
1386921441,0,0,0.0,0,0,0,0,0,0,-0.0292,-1376.6426,6.8213,0.4212,54.894932,9.796066,108.3,5.845,1.85,335.95,0.000000,0.000000,0.000000,0.000000
1386921441,0,0,0.0,0,0,0,0,0,0,-0.0292,-1376.6426,6.8213,0.4212,54.894932,9.796066,108.3,5.845,1.85,335.95,0.000000,0.000000,0.000000,0.000000
1386921442,0,0,0.0,0,0,0,0,0,0,-0.0292,-1376.6426,6.8213,0.4212,54.894932,9.796066,108.3,5.845,1.85,335.95,0.000000,0.000000,0.000000,0.000000
1386921442,0,0,0.0,0,0,0,0,0,0,-0.0292,-1376.6426,6.8213,0.4212,54.894932,9.796066,108.3,5.845,1.85,335.95,0.000000,0.000000,0.000000,0.000000
1386921442,0,0,0.0,0,0,0,0,0,0,-0.0292,-1376.6426,6.8213,0.4212,54.894932,9.796066,108.3,5.845,1.85,335.95,0.000000,0.000000,0.000000,0.000000
1386921442,0,0,0.0,0,0,0,0,0,0,-0.0292,-1376.6426,6.8213,0.4212,54.894932,9.796066,108.3,5.845,1.85,335.95,0.000000,0.000000,0.000000,0.000000
1386921443,0,0,0.0,0,0,0,0,0,0,-0.0292,-1376.6426,6.8213,0.4212,54.894932,9.796066,108.3,5.845,1.85,335.95,0.000000,0.000000,0.000000,0.000000
1386921443,0,0,0.0,0,0,0,0,0,0,-0.0292,-1376.6426,6.8213,0.4212,54.894932,9.796066,108.3,5.845,1.85,335.95,0.000000,0.000000,0.000000,0.000000
1386921443,0,0,0.0,0,0,0,0,0,0,-0.0292,-1376.6426,6.8213,0.4212,54.894932,9.796066,108.3,5.845,1.85,335.95,0.000000,0.000000,0.000000,0.000000
1386921443,0,0,0.0,0,0,0,0,0,0,-0.0292,-1376.6426,6.8213,0.4212,54.896461,9.792917,108.3,5.845,1.85,335.95,0.000000,0.000000,0.000000,0.000000
1386921444,0,0,0.0,0,0,0,0,0,0,-0.0292,-1376.6426,6.8213,0.4212,54.896461,9.792917,108.3,5.845,1.85,335.95,0.000000,0.000000,0.000000,0.000000
1386921444,0,0,0.0,0,0,0,0,0,0,-0.0292,-1376.6426,6.8213,0.4212,54.896461,9.792917,108.3,5.845,1.85,335.95,0.000000,0.000000,0.000000,0.000000
1386921444,0,0,0.0,0,0,0,0,0,0,-0.0292,-1376.6426,6.8213,0.4212,54.896461,9.792917,108.3,5.845,1.85,335.95,0.000000,0.000000,0.000000,0.000000
1386921444,0,0,0.0,0,0,0,0,0,0,-0.0292,-1376.6426,6.8213,0.4212,54.896461,9.792917,108.3,5.845,1.85,335.95,0.000000,0.000000,0.000000,0.000000
1386921445,0,0,0.0,0,0,0,0,0,0,-0.0292,-1376.6426,6.8213,0.4212,54.896461,9.792917,108.3,5.845,1.85,335.95,0.000000,0.000000,0.000000,0.000000
1386921445,0,0,0.0,0,0,0,0,0,0,-0.0292,-1376.6426,6.8213,0.4212,54.896557,9.792928,108.3,5.845,1.85,335.95,0.000000,0.000000,0.000000,0.000000
1386921445,0,0,0.0,0,0,0,0,0,0,-0.0292,-1376.6426,6.8213,0.4212,54.896557,9.792928,108.3,5.845,1.85,335.95,0.000000,0.000000,0.000000,0.000000
1386921445,0,0,0.0,0,0,0,0,0,0,-0.0292,-1376.6426,6.8213,0.4212,54.896557,9.792928,108.3,5.845,1.85,335.95,0.000000,0.000000,0.000000,0.000000
1386921446,0,0,0.0,0,0,0,0,0,0,-0.0292,-1376.6426,6.8213,0.4212,54.896557,9.792928,108.3,5.845,1.85,335.95,0.000000,0.000000,0.000000,0.000000
1386921446,0,0,0.0,0,0,0,0,0,0,-0.0292,-1376.6426,6.8213,0.4212,54.896557,9.792928,108.3,5.845,1.85,335.95,0.000000,0.000000,0.000000,0.000000
1386921446,0,0,0.0,0,0,0,0,0,0,-0.0292,-1376.6426,6.8213,0.4212,54.896557,9.792928,108.3,5.845,1.85,335.95,0.000000,0.000000,0.000000,0.000000
1386921446,0,0,0.0,0,0,0,0,0,0,-0.0292,-1376.6426,6.8213,0.4212,54.896557,9.792928,108.3,5.845,1.85,335.95,0.000000,0.000000,0.000000,0.000000
1386921447,0,0,0.0,0,0,0,0,0,0,-0.0292,-1376.6426,6.8213,0.4212,54.896557,9.792928,108.3,5.845,1.85,335.95,0.000000,0.000000,0.000000,0.000000
1386921447,0,0,0.0,0,0,0,0,0,0,-0.0292,-1376.6426,6.8213,0.4212,54.896557,9.792928,108.3,5.845,1.85,335.95,0.000000,0.000000,0.000000,0.000000
1386921447,0,0,0.0,0,0,0,0,0,0,-0.0292,-1376.6426,6.8213,0.4212,54.896557,9.792928,108.3,5.845,1.85,335.95,0.000000,0.000000,0.000000,0.000000
1386921447,0,0,0.0,0,0,0,0,0,0,-0.0292,-1376.6426,6.8213,0.4212,54.896557,9.792928,108.3,5.845,1.85,335.95,0.000000,0.000000,0.000000,0.000000
1386921448,0,0,0.0,0,0,0,0,0,0,-0.0292,-1376.6426,6.8213,0.4212,54.896557,9.792928,108.3,5.845,1.85,335.95,0.000000,0.000000,0.000000,0.000000
1386921448,0,0,0.0,0,0,0,0,0,0,-0.0292,-1376.6426,6.8213,0.4212,54.896557,9.792928,108.3,5.845,1.85,335.95,0.000000,0.000000,0.000000,0.000000
1386921448,0,0,0.0,0,0,0,0,0,0,-0.0292,-1376.6426,6.8213,0.4212,54.896557,9.792928,108.3,5.845,1.85,335.95,0.000000,0.000000,0.000000,0.000000
1386921448,0,0,0.0,0,0,0,0,0,0,-0.0292,-1376.6426,6.8213,0.4212,54.896557,9.792928,108.3,5.845,1.85,335.95,0.000000,0.000000,0.000000,0.000000
1386921449,4,0,0.0,0,0,0,0,0,0,-0.0292,-1376.6426,6.8213,0.4212,54.896557,9.792928,108.3,5.845,1.85,335.95,0.000000,0.000000,0.000000,0.000000
1386921449,1,0,485.9,0,-35,-4,0,357,400,-0.0292,-1367.3092,6.8213,0.4212,54.896561,9.792958,108.3,5.845,1.85,335.95,54.896557,9.792928,54.895069,9.793790
1386921449,1,0,485.9,0,-35,-8,0,506,450,-0.0292,-1357.9758,6.8213,0.4212,54.896564,9.792990,108.3,5.845,1.85,335.95,54.896557,9.792928,54.895069,9.793790
1386921449,1,0,485.9,0,-35,-12,0,653,500,-0.0292,-1348.6425,6.8213,0.4212,54.896564,9.793021,108.3,5.845,1.85,335.95,54.896557,9.792928,54.895069,9.793790
1386921450,1,0,485.9,0,-35,-16,0,793,550,-0.0292,-1339.3091,6.8213,0.4212,54.896561,9.793052,108.3,5.845,1.85,335.95,54.896557,9.792928,54.895069,9.793790
1386921450,1,0,485.9,0,-25,-20,0,870,600,-0.0292,-1332.6425,6.8213,0.4212,54.896557,9.793082,108.3,5.845,1.85,335.95,54.896557,9.792928,54.895069,9.793790
1386921450,1,0,485.9,0,-19,-16,0,870,650,-0.0292,-1327.5758,6.8213,0.4212,54.896549,9.793111,108.3,5.845,1.85,335.95,54.896557,9.792928,54.895069,9.793790
1386921450,1,0,485.9,0,-14,-12,0,713,700,-0.0292,-1323.8425,6.8213,0.4212,54.896542,9.793139,108.3,5.845,1.85,335.95,54.896557,9.792928,54.895069,9.793790
1386921451,1,0,485.9,0,-10,-8,0,713,750,-0.0292,-1321.1759,6.8213,0.4212,54.896534,9.793166,108.3,5.845,1.85,335.95,54.896557,9.792928,54.895069,9.793790
1386921451,1,0,485.9,0,-7,-4,0,713,700,-0.0292,-1319.3092,6.8213,0.4212,54.896526,9.793193,108.3,5.845,1.85,335.95,54.896557,9.792928,54.895069,9.793790
1386921451,1,0,485.9,0,-5,-8,0,713,750,-0.0292,-1317.9758,6.8213,0.4212,54.896515,9.793219,108.3,5.845,1.85,335.95,54.896557,9.792928,54.895069,9.793790
1386921451,1,0,485.9,0,-4,-4,0,713,700,-0.0292,-1316.9092,6.8213,0.4212,54.896507,9.793245,108.3,5.845,1.85,335.95,54.896557,9.792928,54.895069,9.793790
1386921452,1,0,485.9,0,-3,0,0,0,650,-0.0292,-1316.1091,6.8213,0.4212,54.896496,9.793271,108.3,5.845,1.85,335.95,54.896557,9.792928,54.895069,9.793790
1386921452,1,0,485.9,0,-2,-4,0,0,600,-0.0292,-1315.5758,6.8213,0.4212,54.896484,9.793297,108.3,5.845,1.85,335.95,54.896557,9.792928,54.895069,9.793790
1386921452,1,0,485.9,0,-2,0,0,0,550,-0.0292,-1315.0425,6.8213,0.4212,54.896473,9.793323,108.3,5.845,1.85,335.95,54.896557,9.792928,54.895069,9.793790
1386921452,1,0,485.9,0,-1,-4,0,0,500,-0.0292,-1314.7758,6.8213,0.4212,54.896461,9.793347,108.3,5.845,1.85,335.95,54.896557,9.792928,54.895069,9.793790
1386921453,1,0,485.9,0,-1,0,0,0,450,-0.0292,-1314.5090,6.8213,0.4212,54.896450,9.793373,108.3,5.845,1.85,335.95,54.896557,9.792928,54.895069,9.793790
1386921453,1,0,485.9,0,0,4,0,0,400,-0.0292,-1314.5090,6.8213,0.4212,54.896439,9.793398,108.3,5.845,1.85,335.95,54.896557,9.792928,54.895069,9.793790
1386921453,1,0,485.9,0,0,0,0,0,350,-0.0292,-1314.5090,6.8213,0.4212,54.896427,9.793424,108.3,5.845,1.85,335.95,54.896557,9.792928,54.895069,9.793790
1386921453,1,0,485.9,0,0,4,0,0,300,-0.0292,-1314.5090,6.8213,0.4212,54.896416,9.793449,108.3,5.845,1.85,335.95,54.896557,9.792928,54.895069,9.793790
1386921454,1,0,485.9,0,0,0,0,0,250,-0.0292,-1314.5090,6.8213,0.4212,54.896408,9.793474,108.3,5.845,1.85,335.95,54.896557,9.792928,54.895069,9.793790
1386921454,1,0,485.9,0,0,4,0,0,200,-0.0292,-1314.5090,6.8213,0.4212,54.896397,9.793500,108.3,5.845,1.85,335.95,54.896557,9.792928,54.895069,9.793790
1386921454,1,0,485.9,0,0,0,0,0,150,-0.0292,-1314.5090,6.8213,0.4212,54.896389,9.793525,108.3,5.845,1.85,335.95,54.896557,9.792928,54.895069,9.793790
1386921454,1,0,485.9,0,0,4,0,0,100,-0.0292,-1314.5090,6.8213,0.4212,54.896378,9.793550,108.3,5.845,1.85,335.95,54.896557,9.792928,54.895069,9.793790
1386921455,1,0,485.9,0,0,0,0,0,50,-0.0292,-1314.5090,6.8213,0.4212,54.896366,9.793576,108.3,5.845,1.85,335.95,54.896557,9.792928,54.895069,9.793790
1386921455,1,0,485.9,0,0,4,0,0,0,-0.0292,-1314.5090,6.8213,0.4212,54.896358,9.793601,108.3,5.845,1.85,335.95,54.896557,9.792928,54.895069,9.793790
1386921455,1,0,485.9,0,0,0,0,0,50,-0.0292,-1314.5090,6.8213,0.4212,54.896347,9.793627,108.3,5.845,1.85,335.95,54.896557,9.792928,54.895069,9.793790
1386921455,1,0,545.9,0,-35,-4,0,0,0,-0.0292,-1305.1757,6.8213,0.4212,54.896336,9.793649,108.3,5.845,1.85,335.95,54.896557,9.792928,54.895069,9.793790
1386921456,1,0,545.9,0,-35,-8,0,0,50,-0.0292,-1295.8423,6.8213,0.4212,54.896320,9.793667,108.3,5.845,1.85,335.95,54.896557,9.792928,54.895069,9.793790
1386921456,1,0,545.9,0,-35,-12,0,0,0,-0.0292,-1286.5089,6.8213,0.4212,54.896305,9.793680,108.3,5.845,1.85,335.95,54.896557,9.792928,54.895069,9.793790
1386921456,1,0,545.9,0,-32,-16,0,0,50,-0.0292,-1277.9756,6.8213,0.4212,54.896286,9.793690,108.3,5.845,1.85,335.95,54.896557,9.792928,54.895069,9.793790
1386921457,1,0,545.9,0,-24,-20,0,0,0,-0.0292,-1271.5756,6.8213,0.4212,54.896267,9.793696,108.3,5.845,1.85,335.95,54.896557,9.792928,54.895069,9.793790
1386921457,1,0,545.9,0,-18,-16,0,0,50,-0.0292,-1266.7755,6.8213,0.4212,54.896252,9.793700,108.3,5.845,1.85,335.95,54.896557,9.792928,54.895069,9.793790
1386921457,1,0,545.9,0,-13,-12,0,0,0,-0.0292,-1263.3088,6.8213,0.4212,54.896233,9.793702,108.3,5.845,1.85,335.95,54.896557,9.792928,54.895069,9.793790
1386921457,1,0,545.9,0,-9,-8,0,0,50,-0.0292,-1260.9088,6.8213,0.4212,54.896214,9.793703,108.3,5.845,1.85,335.95,54.896557,9.792928,54.895069,9.793790
1386921458,1,0,545.9,0,-7,-4,0,0,0,-0.0292,-1259.0421,6.8213,0.4212,54.896194,9.793702,108.3,5.845,1.85,335.95,54.896557,9.792928,54.895069,9.793790
1386921458,1,0,545.9,0,-5,-8,0,0,50,-0.0292,-1257.7087,6.8213,0.4212,54.896179,9.793701,108.3,5.845,1.85,335.95,54.896557,9.792928,54.895069,9.793790
1386921458,1,0,545.9,0,-4,-4,0,713,100,-0.0292,-1256.6421,6.8213,0.4212,54.896160,9.793700,108.3,5.845,1.85,335.95,54.896557,9.792928,54.895069,9.793790
1386921458,1,0,545.9,0,-3,0,0,713,150,-0.0292,-1255.8420,6.8213,0.4212,54.896141,9.793698,108.3,5.845,1.85,335.95,54.896557,9.792928,54.895069,9.793790
1386921459,1,0,545.9,0,-2,-4,0,713,200,-0.0292,-1255.3087,6.8213,0.4212,54.896122,9.793696,108.3,5.845,1.85,335.95,54.896557,9.792928,54.895069,9.793790
1386921459,1,0,545.9,0,-1,0,0,713,250,-0.0292,-1255.0420,6.8213,0.4212,54.896107,9.793694,108.3,5.845,1.85,335.95,54.896557,9.792928,54.895069,9.793790
1386921459,1,0,545.9,0,-1,-4,0,713,300,-0.0292,-1254.7753,6.8213,0.4212,54.896088,9.793692,108.3,5.845,1.85,335.95,54.896557,9.792928,54.895069,9.793790
1386921459,1,0,545.9,0,-1,0,0,713,350,-0.0292,-1254.5085,6.8213,0.4212,54.896069,9.793689,108.3,5.845,1.85,335.95,54.896557,9.792928,54.895069,9.793790
1386921460,1,0,545.9,0,0,4,0,713,400,-0.0292,-1254.5085,6.8213,0.4212,54.896049,9.793686,108.3,5.845,1.85,335.95,54.896557,9.792928,54.895069,9.793790
1386921460,1,0,545.9,0,0,0,0,713,450,-0.0292,-1254.5085,6.8213,0.4212,54.896034,9.793683,108.3,5.845,1.85,335.95,54.896557,9.792928,54.895069,9.793790
1386921460,1,0,545.9,0,0,4,0,713,500,-0.0292,-1254.5085,6.8213,0.4212,54.896015,9.793680,108.3,5.845,1.85,335.95,54.896557,9.792928,54.895069,9.793790
1386921460,1,0,545.9,0,0,0,0,713,550,-0.0292,-1254.5085,6.8213,0.4212,54.895996,9.793677,108.3,5.845,1.85,335.95,54.896557,9.792928,54.895069,9.793790
1386921461,1,0,545.9,0,0,4,0,713,600,-0.0292,-1254.5085,6.8213,0.4212,54.895981,9.793674,108.3,5.845,1.85,335.95,54.896557,9.792928,54.895069,9.793790
1386921461,1,0,545.9,0,0,0,0,713,650,-0.0292,-1254.5085,6.8213,0.4212,54.895962,9.793672,108.3,5.845,1.85,335.95,54.896557,9.792928,54.895069,9.793790
1386921461,1,0,545.9,0,0,4,0,713,700,-0.0292,-1254.5085,6.8213,0.4212,54.895943,9.793669,108.3,5.845,1.85,335.95,54.896557,9.792928,54.895069,9.793790
1386921461,1,0,545.9,0,0,0,0,713,750,-0.0292,-1254.5085,6.8213,0.4212,54.895924,9.793666,108.3,5.845,1.85,335.95,54.896557,9.792928,54.895069,9.793790
1386921462,1,0,545.9,0,0,4,0,713,700,-0.0292,-1254.5085,6.8213,0.4212,54.895908,9.793662,108.3,5.845,1.85,335.95,54.896557,9.792928,54.895069,9.793790
1386921462,1,0,545.9,0,0,0,0,713,750,-0.0292,-1254.5085,6.8213,0.4212,54.895889,9.793658,108.3,5.845,1.85,335.95,54.896557,9.792928,54.895069,9.793790
1386921462,1,0,545.9,0,0,4,0,713,700,-0.0292,-1254.5085,6.8213,0.4212,54.895870,9.793655,108.3,5.845,1.85,335.95,54.896557,9.792928,54.895069,9.793790
1386921462,1,0,545.9,0,0,0,0,713,750,-0.0292,-1254.5085,6.8213,0.4212,54.895851,9.793653,108.3,5.845,1.85,335.95,54.896557,9.792928,54.895069,9.793790
1386921463,1,0,545.9,0,0,4,0,713,700,-0.0292,-1254.5085,6.8213,0.4212,54.895836,9.793650,108.3,5.845,1.85,335.95,54.896557,9.792928,54.895069,9.793790
1386921463,1,0,545.9,0,0,0,0,713,750,-0.0292,-1254.5085,6.8213,0.4212,54.895817,9.793647,108.3,5.845,1.85,335.95,54.896557,9.792928,54.895069,9.793790
1386921463,1,0,545.9,0,0,4,0,713,700,-0.0292,-1254.5085,6.8213,0.4212,54.895798,9.793644,108.3,5.845,1.85,335.95,54.896557,9.792928,54.895069,9.793790
1386921463,1,0,545.9,0,0,0,0,713,750,-0.0292,-1254.5085,6.8213,0.4212,54.895779,9.793641,108.3,5.845,1.85,335.95,54.896557,9.792928,54.895069,9.793790
1386921464,1,0,545.9,0,0,4,0,713,700,-0.0292,-1254.5085,6.8213,0.4212,54.895763,9.793638,108.3,5.845,1.85,335.95,54.896557,9.792928,54.895069,9.793790
1386921464,1,0,545.9,0,0,0,0,713,750,-0.0292,-1254.5085,6.8213,0.4212,54.895744,9.793635,108.3,5.845,1.85,335.95,54.896557,9.792928,54.895069,9.793790
1386921464,1,0,545.9,0,0,4,0,713,700,-0.0292,-1254.5085,6.8213,0.4212,54.895725,9.793633,108.3,5.845,1.85,335.95,54.896557,9.792928,54.895069,9.793790
1386921464,1,0,545.9,0,0,0,0,713,750,-0.0292,-1254.5085,6.8213,0.4212,54.895710,9.793630,108.3,5.845,1.85,335.95,54.896557,9.792928,54.895069,9.793790
1386921465,1,0,545.9,0,0,4,0,713,700,-0.0292,-1254.5085,6.8213,0.4212,54.895691,9.793627,108.3,5.845,1.85,335.95,54.896557,9.792928,54.895069,9.793790
1386921465,1,0,545.9,0,0,0,0,713,750,-0.0292,-1254.5085,6.8213,0.4212,54.895672,9.793624,108.3,5.845,1.85,335.95,54.896557,9.792928,54.895069,9.793790
1386921465,1,0,545.9,0,0,4,0,713,700,-0.0292,-1254.5085,6.8213,0.4212,54.895653,9.793621,108.3,5.845,1.85,335.95,54.896557,9.792928,54.895069,9.793790
1386921465,1,0,545.9,0,0,0,0,713,750,-0.0292,-1254.5085,6.8213,0.4212,54.895638,9.793617,108.3,5.845,1.85,335.95,54.896557,9.792928,54.895069,9.793790
1386921466,1,0,545.9,0,0,4,0,713,700,-0.0292,-1254.5085,6.8213,0.4212,54.895618,9.793613,108.3,5.845,1.85,335.95,54.896557,9.792928,54.895069,9.793790
1386921466,1,0,545.9,0,0,0,0,713,750,-0.0292,-1254.5085,6.8213,0.4212,54.895599,9.793611,108.3,5.845,1.85,335.95,54.896557,9.792928,54.895069,9.793790
1386921466,1,0,545.9,0,0,4,0,713,700,-0.0292,-1254.5085,6.8213,0.4212,54.895580,9.793608,108.3,5.845,1.85,335.95,54.896557,9.792928,54.895069,9.793790
1386921466,1,0,545.9,0,0,0,0,713,750,-0.0292,-1254.5085,6.8213,0.4212,54.895565,9.793605,108.3,5.845,1.85,335.95,54.896557,9.792928,54.895069,9.793790
1386921467,1,0,545.9,0,0,4,0,713,700,-0.0292,-1254.5085,6.8213,0.4212,54.895546,9.793602,108.3,5.845,1.85,335.95,54.896557,9.792928,54.895069,9.793790
1386921467,1,0,545.9,0,0,0,0,713,750,-0.0292,-1254.5085,6.8213,0.4212,54.895527,9.793599,108.3,5.845,1.85,335.95,54.896557,9.792928,54.895069,9.793790
1386921467,1,0,545.9,0,0,4,0,713,700,-0.0292,-1254.5085,6.8213,0.4212,54.895508,9.793596,108.3,5.845,1.85,335.95,54.896557,9.792928,54.895069,9.793790
1386921467,1,0,545.9,0,0,0,0,713,750,-0.0292,-1254.5085,6.8213,0.4212,54.895493,9.793593,108.3,5.845,1.85,335.95,54.896557,9.792928,54.895069,9.793790
1386921468,1,0,545.9,0,0,4,0,713,700,-0.0292,-1254.5085,6.8213,0.4212,54.895473,9.793591,108.3,5.845,1.85,335.95,54.896557,9.792928,54.895069,9.793790
1386921468,1,0,545.9,0,0,0,0,713,750,-0.0292,-1254.5085,6.8213,0.4212,54.895454,9.793588,108.3,5.845,1.85,335.95,54.896557,9.792928,54.895069,9.793790
1386921468,1,0,545.9,0,0,4,0,713,700,-0.0292,-1254.5085,6.8213,0.4212,54.895435,9.793585,108.3,5.845,1.85,335.95,54.896557,9.792928,54.895069,9.793790
1386921468,1,0,545.9,0,0,0,0,713,750,-0.0292,-1254.5085,6.8213,0.4212,54.895420,9.793582,108.3,5.845,1.85,335.95,54.896557,9.792928,54.895069,9.793790
1386921469,1,0,545.9,0,0,4,0,713,700,-0.0292,-1254.5085,6.8213,0.4212,54.895401,9.793579,108.3,5.845,1.85,335.95,54.896557,9.792928,54.895069,9.793790
1386921469,1,0,545.9,0,0,0,0,713,750,-0.0292,-1254.5085,6.8213,0.4212,54.895382,9.793575,108.3,5.845,1.85,335.95,54.896557,9.792928,54.895069,9.793790
1386921469,1,0,545.9,0,0,4,0,713,700,-0.0292,-1254.5085,6.8213,0.4212,54.895367,9.793571,108.3,5.845,1.85,335.95,54.896557,9.792928,54.895069,9.793790
1386921469,1,0,545.9,0,0,0,0,713,750,-0.0292,-1254.5085,6.8213,0.4212,54.895348,9.793569,108.3,5.845,1.85,335.95,54.896557,9.792928,54.895069,9.793790
1386921470,1,0,545.9,0,0,4,0,713,700,-0.0292,-1254.5085,6.8213,0.4212,54.895329,9.793566,108.3,5.845,1.85,335.95,54.896557,9.792928,54.895069,9.793790
1386921470,1,0,545.9,0,0,0,0,713,750,-0.0292,-1254.5085,6.8213,0.4212,54.895309,9.793563,108.3,5.845,1.85,335.95,54.896557,9.792928,54.895069,9.793790
1386921470,1,0,545.9,0,0,4,0,713,700,-0.0292,-1254.5085,6.8213,0.4212,54.895294,9.793560,108.3,5.845,1.85,335.95,54.896557,9.792928,54.895069,9.793790
1386921470,1,0,545.9,0,0,0,0,713,750,-0.0292,-1254.5085,6.8213,0.4212,54.895275,9.793557,108.3,5.845,1.85,335.95,54.896557,9.792928,54.895069,9.793790
1386921471,0,0,545.9,0,0,0,0,713,750,-0.0292,-1254.5085,6.8213,0.4212,54.895275,9.793557,108.3,5.845,1.85,335.95,54.896557,9.792928,54.895069,9.793790
1386921471,0,0,545.9,0,0,0,0,713,750,-0.0292,-1254.5085,6.8213,0.4212,54.895275,9.793557,108.3,5.845,1.85,335.95,54.896557,9.792928,54.895069,9.793790
1386921471,0,0,545.9,0,0,0,0,713,750,-0.0292,-1254.5085,6.8213,0.4212,54.895275,9.793557,108.3,5.845,1.85,335.95,54.896557,9.792928,54.895069,9.793790
1386921471,0,0,545.9,0,0,0,0,713,750,-0.0292,-1254.5085,6.8213,0.4212,54.895275,9.793557,108.3,5.845,1.85,335.95,54.896557,9.792928,54.895069,9.793790
1386921472,0,0,545.9,0,0,0,0,713,750,-0.0292,-1254.5085,6.8213,0.4212,54.895275,9.793557,108.3,5.845,1.85,335.95,54.896557,9.792928,54.895069,9.793790
1386921472,0,0,545.9,0,0,0,0,713,750,-0.0292,-1254.5085,6.8213,0.4212,54.895275,9.793557,108.3,5.845,1.85,335.95,54.896557,9.792928,54.895069,9.793790
1386921472,0,0,545.9,0,0,0,0,713,750,-0.0292,-1254.5085,6.8213,0.4212,54.895275,9.793557,108.3,5.845,1.85,335.95,54.896557,9.792928,54.895069,9.793790
1386921472,0,0,545.9,0,0,0,0,713,750,-0.0292,-1254.5085,6.8213,0.4212,54.895275,9.793557,108.3,5.845,1.85,335.95,54.896557,9.792928,54.895069,9.793790
1386921473,0,0,545.9,0,0,0,0,713,750,-0.0292,-1254.5085,6.8213,0.4212,54.895275,9.793557,108.3,5.845,1.85,335.95,54.896557,9.792928,54.895069,9.793790
1386921473,0,0,545.9,0,0,0,0,713,750,-0.0292,-1254.5085,6.8213,0.4212,54.895275,9.793557,108.3,5.845,1.85,335.95,54.896557,9.792928,54.895069,9.793790
1386921473,0,0,545.9,0,0,0,0,713,750,-0.0292,-1254.5085,6.8213,0.4212,54.895275,9.793557,108.3,5.845,1.85,335.95,54.896557,9.792928,54.895069,9.793790
1386921473,0,0,545.9,0,0,0,0,713,750,-0.0292,-1254.5085,6.8213,0.4212,54.895275,9.793557,108.3,5.845,1.85,335.95,54.896557,9.792928,54.895069,9.793790
1386921474,0,0,545.9,0,0,0,0,713,750,-0.0292,-1254.5085,6.8213,0.4212,54.895275,9.793557,108.3,5.845,1.85,335.95,54.896557,9.792928,54.895069,9.793790
1386921474,0,0,545.9,0,0,0,0,713,750,-0.0292,-1254.5085,6.8213,0.4212,54.895275,9.793557,108.3,5.845,1.85,335.95,54.896557,9.792928,54.895069,9.793790
1386921474,0,0,545.9,0,0,0,0,713,750,-0.0292,-1254.5085,6.8213,0.4212,54.895275,9.793557,108.3,5.845,1.85,335.95,54.896557,9.792928,54.895069,9.793790
1386921474,0,0,545.9,0,0,0,0,713,750,-0.0292,-1254.5085,6.8213,0.4212,54.895275,9.793557,108.3,5.845,1.85,335.95,54.896557,9.792928,54.895069,9.793790
1386921475,0,0,545.9,0,0,0,0,713,750,-0.0292,-1254.5085,6.8213,0.4212,54.895275,9.793557,108.3,5.845,1.85,335.95,54.896557,9.792928,54.895069,9.793790
1386921475,0,0,545.9,0,0,0,0,713,750,-0.0292,-1254.5085,6.8213,0.4212,54.895275,9.793557,108.3,5.845,1.85,335.95,54.896557,9.792928,54.895069,9.793790
1386921475,0,0,545.9,0,0,0,0,713,750,-0.0292,-1254.5085,6.8213,0.4212,54.895275,9.793557,108.3,5.845,1.85,335.95,54.896557,9.792928,54.895069,9.793790
1386921475,0,0,545.9,0,0,0,0,713,750,-0.0292,-1254.5085,6.8213,0.4212,54.895275,9.793557,108.3,5.845,1.85,335.95,54.896557,9.792928,54.895069,9.793790
1386921476,0,0,545.9,0,0,0,0,713,750,-0.0292,-1254.5085,6.8213,0.4212,54.895275,9.793557,108.3,5.845,1.85,335.95,54.896557,9.792928,54.895069,9.793790
1386921476,0,0,545.9,0,0,0,0,713,750,-0.0292,-1254.5085,6.8213,0.4212,54.895275,9.793557,108.3,5.845,1.85,335.95,54.896557,9.792928,54.895069,9.793790
1386921476,0,0,545.9,0,0,0,0,713,750,-0.0292,-1254.5085,6.8213,0.4212,54.895275,9.793557,108.3,5.845,1.85,335.95,54.896557,9.792928,54.895069,9.793790
1386921476,0,0,545.9,0,0,0,0,713,750,-0.0292,-1254.5085,6.8213,0.4212,54.895275,9.793557,108.3,5.845,1.85,335.95,54.896557,9.792928,54.895069,9.793790
1386921477,0,0,545.9,0,0,0,0,713,750,-0.0292,-1254.5085,6.8213,0.4212,54.895275,9.793557,108.3,5.845,1.85,335.95,54.896557,9.792928,54.895069,9.793790
1386921477,0,0,545.9,0,0,0,0,713,750,-0.0292,-1254.5085,6.8213,0.4212,54.895275,9.793557,108.3,5.845,1.85,335.95,54.896557,9.792928,54.895069,9.793790
1386921477,0,0,545.9,0,0,0,0,713,750,-0.0292,-1254.5085,6.8213,0.4212,54.895275,9.793557,108.3,5.845,1.85,335.95,54.896557,9.792928,54.895069,9.793790
1386921477,0,0,545.9,0,0,0,0,713,750,-0.0292,-1254.5085,6.8213,0.4212,54.895275,9.793557,108.3,5.845,1.85,335.95,54.896557,9.792928,54.895069,9.793790
1386921478,0,0,545.9,0,0,0,0,713,750,-0.0292,-1254.5085,6.8213,0.4212,54.895275,9.793557,108.3,5.845,1.85,335.95,54.896557,9.792928,54.895069,9.793790
1386921478,0,0,545.9,0,0,0,0,713,750,-0.0292,-1254.5085,6.8213,0.4212,54.895275,9.793557,108.3,5.845,1.85,335.95,54.896557,9.792928,54.895069,9.793790
1386921478,0,0,545.9,0,0,0,0,713,750,-0.0292,-1254.5085,6.8213,0.4212,54.895275,9.793557,108.3,5.845,1.85,335.95,54.896557,9.792928,54.895069,9.793790
1386921478,0,0,545.9,0,0,0,0,713,750,-0.0292,-1254.5085,6.8213,0.4212,54.895275,9.793557,108.3,5.845,1.85,335.95,54.896557,9.792928,54.895069,9.793790
1386921479,0,0,545.9,0,0,0,0,713,750,-0.0292,-1254.5085,6.8213,0.4212,54.895275,9.793557,108.3,5.845,1.85,335.95,54.896557,9.792928,54.895069,9.793790
1386921479,0,0,545.9,0,0,0,0,713,750,-0.0292,-1254.5085,6.8213,0.4212,54.895275,9.793557,108.3,5.845,1.85,335.95,54.896557,9.792928,54.895069,9.793790
1386921479,0,0,545.9,0,0,0,0,713,750,-0.0292,-1254.5085,6.8213,0.4212,54.895275,9.793557,108.3,5.845,1.85,335.95,54.896557,9.792928,54.895069,9.793790
1386921479,0,0,545.9,0,0,0,0,713,750,-0.0292,-1254.5085,6.8213,0.4212,54.895275,9.793557,108.3,5.845,1.85,335.95,54.896557,9.792928,54.895069,9.793790
1386921480,0,0,545.9,0,0,0,0,713,750,-0.0292,-1254.5085,6.8213,0.4212,54.895275,9.793557,108.3,5.845,1.85,335.95,54.896557,9.792928,54.895069,9.793790
1386921480,0,0,545.9,0,0,0,0,713,750,-0.0292,-1254.5085,6.8213,0.4212,54.895275,9.793557,108.3,5.845,1.85,335.95,54.896557,9.792928,54.895069,9.793790
1386921480,0,0,545.9,0,0,0,0,713,750,-0.0292,-1254.5085,6.8213,0.4212,54.895275,9.793557,108.3,5.845,1.85,335.95,54.896557,9.792928,54.895069,9.793790
1386921480,0,0,545.9,0,0,0,0,713,750,-0.0292,-1254.5085,6.8213,0.4212,54.895275,9.793557,108.3,5.845,1.85,335.95,54.896557,9.792928,54.895069,9.793790
1386921481,0,0,545.9,0,0,0,0,713,750,-0.0292,-1254.5085,6.8213,0.4212,54.895275,9.793557,108.3,5.845,1.85,335.95,54.896557,9.792928,54.895069,9.793790
1386921481,0,0,545.9,0,0,0,0,713,750,-0.0292,-1254.5085,6.8213,0.4212,54.895275,9.793557,108.3,5.845,1.85,335.95,54.896557,9.792928,54.895069,9.793790
1386921481,0,0,545.9,0,0,0,0,713,750,-0.0292,-1254.5085,6.8213,0.4212,54.895275,9.793557,108.3,5.845,1.85,335.95,54.896557,9.792928,54.895069,9.793790
1386921481,0,0,545.9,0,0,0,0,713,750,-0.0292,-1254.5085,6.8213,0.4212,54.895275,9.793557,108.3,5.845,1.85,335.95,54.896557,9.792928,54.895069,9.793790
1386921482,0,0,545.9,0,0,0,0,713,750,-0.0292,-1254.5085,6.8213,0.4212,54.895275,9.793557,108.3,5.845,1.85,335.95,54.896557,9.792928,54.895069,9.793790
