MCU_timestamp,Navigation_System,Manual_Control,Guidance_Heading,Manual_Ctrl_Rudder,Rudder_Desired_Angle,Rudder_Feedback,Manual_Ctrl_Sail,Sail_Desired_Pos,Sail_Feedback,Rate,Heading,Pitch,Roll,Latitude,Longitude,COG,SOG,Wind_Speed,Wind_Angle,Point_Start_Lat,Point_Start_Lon,Point_End_Lat,Point_End_Lon
1387091038,1,0,180.0,0,35,4,0,152,100,-0.0292,304.6254,6.8213,0.4212,54.895409,9.797734,108.3,5.845,1.85,30.00,54.895397,9.797760,0.000000,0.000000
1387091039,1,0,180.0,0,35,8,0,326,150,-0.0292,292.9588,6.8213,0.4212,54.895416,9.797705,108.3,5.845,1.85,30.00,54.895397,9.797760,0.000000,0.000000
1387091039,1,0,180.0,0,35,12,0,512,200,-0.0292,281.2921,6.8213,0.4212,54.895416,9.797674,108.3,5.845,1.85,30.00,54.895397,9.797760,0.000000,0.000000
1387091039,1,0,180.0,0,35,16,0,694,250,-0.0292,269.6255,6.8213,0.4212,54.895416,9.797643,108.3,5.845,1.85,30.00,54.895397,9.797760,0.000000,0.000000
1387091039,1,0,180.0,0,35,20,0,864,300,-0.0292,257.9588,6.8213,0.4212,54.895412,9.797612,108.3,5.845,1.85,30.00,54.895397,9.797760,0.000000,0.000000
1387091040,1,0,180.0,0,35,24,0,870,350,-0.0292,246.2921,6.8213,0.4212,54.895409,9.797584,108.3,5.845,1.85,30.00,54.895397,9.797760,0.000000,0.000000
1387091040,1,0,180.0,0,35,28,0,713,400,-0.0292,234.6255,6.8213,0.4212,54.895401,9.797558,108.3,5.845,1.85,30.00,54.895397,9.797760,0.000000,0.000000
1387091040,1,0,180.0,0,35,32,0,713,450,-0.0292,222.9588,6.8213,0.4212,54.895390,9.797537,108.3,5.845,1.85,30.00,54.895397,9.797760,0.000000,0.000000
1387091040,1,0,180.0,0,35,36,0,713,500,-0.0292,211.2921,6.8213,0.4212,54.895370,9.797521,108.3,5.845,1.85,30.00,54.895397,9.797760,0.000000,0.000000
1387091041,1,0,180.0,0,31,32,0,0,450,-0.0292,200.9588,6.8213,0.4212,54.895351,9.797509,108.3,5.845,1.85,30.00,54.895397,9.797760,0.000000,0.000000
1387091041,1,0,180.0,0,21,28,0,0,400,-0.0292,193.9588,6.8213,0.4212,54.895332,9.797502,108.3,5.845,1.85,30.00,54.895397,9.797760,0.000000,0.000000
1387091041,1,0,180.0,0,14,24,0,713,450,-0.0292,189.2921,6.8213,0.4212,54.895317,9.797497,108.3,5.845,1.85,30.00,54.895397,9.797760,0.000000,0.000000
1387091041,1,0,180.0,0,9,20,0,713,500,-0.0292,186.2921,6.8213,0.4212,54.895298,9.797493,108.3,5.845,1.85,30.00,54.895397,9.797760,0.000000,0.000000
1387091042,1,0,180.0,0,6,16,0,713,550,-0.0292,184.2921,6.8213,0.4212,54.895279,9.797490,108.3,5.845,1.85,30.00,54.895397,9.797760,0.000000,0.000000
1387091042,1,0,180.0,0,4,12,0,713,600,-0.0292,182.9588,6.8213,0.4212,54.895260,9.797488,108.3,5.845,1.85,30.00,54.895397,9.797760,0.000000,0.000000
1387091042,1,0,180.0,0,3,8,0,713,650,-0.0292,181.9588,6.8213,0.4212,54.895245,9.797487,108.3,5.845,1.85,30.00,54.895397,9.797760,0.000000,0.000000
1387091042,1,0,180.0,0,2,4,0,713,700,-0.0292,181.2921,6.8213,0.4212,54.895226,9.797486,108.3,5.845,1.85,30.00,54.895397,9.797760,0.000000,0.000000
1387091043,1,0,180.0,0,1,0,0,713,750,-0.0292,180.9588,6.8213,0.4212,54.895206,9.797485,108.3,5.845,1.85,30.00,54.895397,9.797760,0.000000,0.000000
1387091043,1,0,180.0,0,1,4,0,713,700,-0.0292,180.6255,6.8213,0.4212,54.895187,9.797484,108.3,5.845,1.85,30.00,54.895397,9.797760,0.000000,0.000000
1387091043,1,0,180.0,0,1,0,0,713,750,-0.0292,180.2921,6.8213,0.4212,54.895172,9.797484,108.3,5.845,1.85,30.00,54.895397,9.797760,0.000000,0.000000
1387091043,1,0,180.0,0,0,4,0,713,700,-0.0292,180.2921,6.8213,0.4212,54.895153,9.797484,108.3,5.845,1.85,30.00,54.895397,9.797760,0.000000,0.000000
1387091044,1,0,180.0,0,0,0,0,713,750,-0.0292,180.2921,6.8213,0.4212,54.895134,9.797484,108.3,5.845,1.85,30.00,54.895397,9.797760,0.000000,0.000000
1387091044,1,0,180.0,0,0,4,0,713,700,-0.0292,180.2921,6.8213,0.4212,54.895115,9.797484,108.3,5.845,1.85,30.00,54.895397,9.797760,0.000000,0.000000
1387091044,1,0,180.0,0,0,0,0,713,750,-0.0292,180.2921,6.8213,0.4212,54.895100,9.797484,108.3,5.845,1.85,30.00,54.895397,9.797760,0.000000,0.000000
1387091044,1,0,180.0,0,0,4,0,713,700,-0.0292,180.2921,6.8213,0.4212,54.895081,9.797484,108.3,5.845,1.85,30.00,54.895397,9.797760,0.000000,0.000000
1387091045,1,0,180.0,0,0,0,0,713,750,-0.0292,180.2921,6.8213,0.4212,54.895061,9.797484,108.3,5.845,1.85,30.00,54.895397,9.797760,0.000000,0.000000
1387091045,1,0,180.0,0,0,4,0,713,700,-0.0292,180.2921,6.8213,0.4212,54.895046,9.797484,108.3,5.845,1.85,30.00,54.895397,9.797760,0.000000,0.000000
1387091045,1,0,180.0,0,0,0,0,713,750,-0.0292,180.2921,6.8213,0.4212,54.895027,9.797484,108.3,5.845,1.85,30.00,54.895397,9.797760,0.000000,0.000000
1387091045,1,0,180.0,0,0,4,0,713,700,-0.0292,180.2921,6.8213,0.4212,54.895008,9.797484,108.3,5.845,1.85,30.00,54.895397,9.797760,0.000000,0.000000
1387091046,1,0,180.0,0,0,0,0,713,750,-0.0292,180.2921,6.8213,0.4212,54.894989,9.797484,108.3,5.845,1.85,30.00,54.895397,9.797760,0.000000,0.000000
1387091046,1,0,180.0,0,0,4,0,713,700,-0.0292,180.2921,6.8213,0.4212,54.894974,9.797484,108.3,5.845,1.85,30.00,54.895397,9.797760,0.000000,0.000000
1387091046,1,0,180.0,0,0,0,0,713,750,-0.0292,180.2921,6.8213,0.4212,54.894955,9.797484,108.3,5.845,1.85,30.00,54.895397,9.797760,0.000000,0.000000
1387091046,1,0,180.0,0,0,4,0,713,700,-0.0292,180.2921,6.8213,0.4212,54.894936,9.797484,108.3,5.845,1.85,30.00,54.895397,9.797760,0.000000,0.000000
1387091047,1,0,180.0,0,0,0,0,713,750,-0.0292,180.2921,6.8213,0.4212,54.894917,9.797484,108.3,5.845,1.85,30.00,54.895397,9.797760,0.000000,0.000000
1387091047,1,0,180.0,0,0,4,0,713,700,-0.0292,180.2921,6.8213,0.4212,54.894901,9.797484,108.3,5.845,1.85,30.00,54.895397,9.797760,0.000000,0.000000
1387091047,1,0,180.0,0,0,0,0,713,750,-0.0292,180.2921,6.8213,0.4212,54.894882,9.797484,108.3,5.845,1.85,30.00,54.895397,9.797760,0.000000,0.000000
1387091047,1,0,180.0,0,0,4,0,713,700,-0.0292,180.2921,6.8213,0.4212,54.894863,9.797484,108.3,5.845,1.85,30.00,54.895397,9.797760,0.000000,0.000000
1387091048,1,0,180.0,0,0,0,0,713,750,-0.0292,180.2921,6.8213,0.4212,54.894844,9.797484,108.3,5.845,1.85,30.00,54.895397,9.797760,0.000000,0.000000
1387091048,1,0,180.0,0,0,4,0,713,700,-0.0292,180.2921,6.8213,0.4212,54.894829,9.797484,108.3,5.845,1.85,30.00,54.895397,9.797760,0.000000,0.000000
1387091048,1,0,180.0,0,0,0,0,713,750,-0.0292,180.2921,6.8213,0.4212,54.894810,9.797484,108.3,5.845,1.85,30.00,54.895397,9.797760,0.000000,0.000000
1387091048,1,0,180.0,0,0,4,0,713,700,-0.0292,180.2921,6.8213,0.4212,54.894791,9.797484,108.3,5.845,1.85,30.00,54.895397,9.797760,0.000000,0.000000
1387091049,1,0,180.0,0,0,0,0,713,750,-0.0292,180.2921,6.8213,0.4212,54.894772,9.797484,108.3,5.845,1.85,30.00,54.895397,9.797760,0.000000,0.000000
1387091049,1,0,180.0,0,0,4,0,713,700,-0.0292,180.2921,6.8213,0.4212,54.894756,9.797484,108.3,5.845,1.85,30.00,54.895397,9.797760,0.000000,0.000000
1387091049,1,0,180.0,0,0,0,0,713,750,-0.0292,180.2921,6.8213,0.4212,54.894737,9.797484,108.3,5.845,1.85,30.00,54.895397,9.797760,0.000000,0.000000
