MCU_timestamp,Navigation_System,Manual_Control,Guidance_Heading,Manual_Ctrl_Rudder,Rudder_Desired_Angle,Rudder_Feedback,Manual_Ctrl_Sail,Sail_Desired_Pos,Sail_Feedback,Rate,Heading,Pitch,Roll,Latitude,Longitude,COG,SOG,Wind_Speed,Wind_Angle,Point_Start_Lat,Point_Start_Lon,Point_End_Lat,Point_End_Lon
1386961996,1,0,150.0,0,-35,-4,0,0,0,-0.0292,5103.8291,6.8213,0.4212,54.892200,9.791297,108.3,5.845,1.85,0.00,54.892193,9.791269,0.000000,0.000000
1386961996,1,0,150.0,0,-35,-8,0,39,50,-0.0292,5115.4956,6.8213,0.4212,54.892204,9.791327,108.3,5.845,1.85,0.00,54.892193,9.791269,0.000000,0.000000
1386961996,1,0,150.0,0,-35,-12,0,177,100,-0.0292,5127.1621,6.8213,0.4212,54.892204,9.791359,108.3,5.845,1.85,0.00,54.892193,9.791269,0.000000,0.000000
1386961997,1,0,150.0,0,-35,-16,0,354,150,-0.0292,5138.8286,6.8213,0.4212,54.892200,9.791389,108.3,5.845,1.85,0.00,54.892193,9.791269,0.000000,0.000000
1386961997,1,0,150.0,0,-35,-20,0,540,200,-0.0292,5150.4951,6.8213,0.4212,54.892193,9.791418,108.3,5.845,1.85,0.00,54.892193,9.791269,0.000000,0.000000
1386961997,1,0,150.0,0,-35,-24,0,721,250,-0.0292,5162.1616,6.8213,0.4212,54.892181,9.791445,108.3,5.845,1.85,0.00,54.892193,9.791269,0.000000,0.000000
1386961997,1,0,150.0,0,-28,-28,0,870,300,-0.0292,5171.4951,6.8213,0.4212,54.892170,9.791468,108.3,5.845,1.85,0.00,54.892193,9.791269,0.000000,0.000000
1386961998,1,0,150.0,0,-19,-24,0,870,350,-0.0292,5177.8286,6.8213,0.4212,54.892155,9.791489,108.3,5.845,1.85,0.00,54.892193,9.791269,0.000000,0.000000
1386961998,1,0,150.0,0,-12,-20,0,713,400,-0.0292,5181.8286,6.8213,0.4212,54.892139,9.791508,108.3,5.845,1.85,0.00,54.892193,9.791269,0.000000,0.000000
1386961998,1,0,150.0,0,-8,-16,0,713,450,-0.0292,5184.4951,6.8213,0.4212,54.892128,9.791526,108.3,5.845,1.85,0.00,54.892193,9.791269,0.000000,0.000000
1386961998,1,0,150.0,0,-6,-12,0,713,500,-0.0292,5186.4951,6.8213,0.4212,54.892113,9.791543,108.3,5.845,1.85,0.00,54.892193,9.791269,0.000000,0.000000
1386961999,1,0,150.0,0,-4,-8,0,713,550,-0.0292,5187.8286,6.8213,0.4212,54.892097,9.791560,108.3,5.845,1.85,0.00,54.892193,9.791269,0.000000,0.000000
1386961999,1,0,150.0,0,-2,-4,0,0,500,-0.0292,5188.4951,6.8213,0.4212,54.892082,9.791576,108.3,5.845,1.85,0.00,54.892193,9.791269,0.000000,0.000000
1386961999,1,0,150.0,0,-2,0,0,0,450,-0.0292,5189.1616,6.8213,0.4212,54.892067,9.791593,108.3,5.845,1.85,0.00,54.892193,9.791269,0.000000,0.000000
1386961999,1,0,150.0,0,-1,-4,0,0,400,-0.0292,5189.4951,6.8213,0.4212,54.892052,9.791609,108.3,5.845,1.85,0.00,54.892193,9.791269,0.000000,0.000000
1386962000,1,0,150.0,0,-1,0,0,0,350,-0.0292,5189.8286,6.8213,0.4212,54.892036,9.791624,108.3,5.845,1.85,0.00,54.892193,9.791269,0.000000,0.000000
1386962000,1,0,150.0,0,0,4,0,0,300,-0.0292,5189.8286,6.8213,0.4212,54.892021,9.791639,108.3,5.845,1.85,0.00,54.892193,9.791269,0.000000,0.000000
1386962000,1,0,150.0,0,0,0,0,0,250,-0.0292,5189.8286,6.8213,0.4212,54.892002,9.791656,108.3,5.845,1.85,0.00,54.892193,9.791269,0.000000,0.000000
1386962000,0,0,150.0,0,0,0,0,0,250,-0.0292,5189.8286,6.8213,0.4212,54.892002,9.791656,108.3,5.845,1.85,0.00,54.892193,9.791269,0.000000,0.000000
1386962001,0,0,150.0,0,0,0,0,0,250,-0.0292,5189.8286,6.8213,0.4212,54.892002,9.791656,108.3,5.845,1.85,0.00,54.892193,9.791269,0.000000,0.000000
1386962001,0,0,150.0,0,0,0,0,0,250,-0.0292,5189.8286,6.8213,0.4212,54.892002,9.791656,108.3,5.845,1.85,0.00,54.892193,9.791269,0.000000,0.000000
1386962001,0,0,150.0,0,0,0,0,0,250,-0.0292,5189.8286,6.8213,0.4212,54.892002,9.791656,108.3,5.845,1.85,0.00,54.892193,9.791269,0.000000,0.000000
1386962001,0,0,150.0,0,0,0,0,0,250,-0.0292,5189.8286,6.8213,0.4212,54.892002,9.791656,108.3,5.845,1.85,0.00,54.892193,9.791269,0.000000,0.000000
1386962002,0,0,150.0,0,0,0,0,0,250,-0.0292,5189.8286,6.8213,0.4212,54.892002,9.791656,108.3,5.845,1.85,0.00,54.892193,9.791269,0.000000,0.000000
1386962002,0,0,150.0,0,0,0,0,0,250,-0.0292,5189.8286,6.8213,0.4212,54.892002,9.791656,108.3,5.845,1.85,0.00,54.892193,9.791269,0.000000,0.000000
1386962002,0,0,150.0,0,0,0,0,0,250,-0.0292,5189.8286,6.8213,0.4212,54.892002,9.791656,108.3,5.845,1.85,0.00,54.892193,9.791269,0.000000,0.000000
1386962002,0,0,150.0,0,0,0,0,0,250,-0.0292,5189.8286,6.8213,0.4212,54.892002,9.791656,108.3,5.845,1.85,0.00,54.892193,9.791269,0.000000,0.000000
1386962003,0,0,150.0,0,0,0,0,0,250,-0.0292,5189.8286,6.8213,0.4212,54.892002,9.791656,108.3,5.845,1.85,0.00,54.892193,9.791269,0.000000,0.000000
1386962003,0,0,150.0,0,0,0,0,0,250,-0.0292,5189.8286,6.8213,0.4212,54.892002,9.791656,108.3,5.845,1.85,0.00,54.892193,9.791269,0.000000,0.000000
1386962003,4,0,150.0,0,0,0,0,0,250,-0.0292,5189.8286,6.8213,0.4212,54.892002,9.791656,108.3,5.845,1.85,0.00,54.892193,9.791269,0.000000,0.000000
1386962003,1,0,150.0,0,0,4,0,0,200,-0.0292,5189.8286,6.8213,0.4212,54.891987,9.791671,108.3,5.845,1.85,0.00,54.892002,9.791656,54.895069,9.793790
1386962004,1,0,150.0,0,0,0,0,0,150,-0.0292,5189.8286,6.8213,0.4212,54.891972,9.791687,108.3,5.845,1.85,0.00,54.892002,9.791656,54.895069,9.793790
1386962004,1,0,150.0,0,0,4,0,0,100,-0.0292,5189.8286,6.8213,0.4212,54.891953,9.791703,108.3,5.845,1.85,0.00,54.892002,9.791656,54.895069,9.793790
1386962004,1,0,150.0,0,0,0,0,0,50,-0.0292,5189.8286,6.8213,0.4212,54.891937,9.791718,108.3,5.845,1.85,0.00,54.892002,9.791656,54.895069,9.793790
1386962004,1,0,150.0,0,0,4,0,0,0,-0.0292,5189.8286,6.8213,0.4212,54.891922,9.791735,108.3,5.845,1.85,0.00,54.892002,9.791656,54.895069,9.793790
1386962005,1,0,150.0,0,0,0,0,0,0,-0.0292,5189.8286,6.8213,0.4212,54.891903,9.791750,108.3,5.845,1.85,0.00,54.892002,9.791656,54.895069,9.793790
1386962005,1,0,210.0,0,-35,-4,0,0,0,-0.0292,5201.4951,6.8213,0.4212,54.891884,9.791759,108.3,5.845,1.85,0.00,54.892002,9.791656,54.895069,9.793790
1386962005,1,0,210.0,0,-35,-8,0,0,0,-0.0292,5213.1616,6.8213,0.4212,54.891865,9.791763,108.3,5.845,1.85,0.00,54.892002,9.791656,54.895069,9.793790
1386962005,1,0,210.0,0,-35,-12,0,0,0,-0.0292,5224.8281,6.8213,0.4212,54.891850,9.791761,108.3,5.845,1.85,0.00,54.892002,9.791656,54.895069,9.793790
1386962006,1,0,210.0,0,-25,-16,0,0,0,-0.0292,5233.1616,6.8213,0.4212,54.891830,9.791755,108.3,5.845,1.85,0.00,54.892002,9.791656,54.895069,9.793790
1386962006,1,0,210.0,0,-17,-20,0,0,0,-0.0292,5238.8281,6.8213,0.4212,54.891811,9.791744,108.3,5.845,1.85,0.00,54.892002,9.791656,54.895069,9.793790
1386962006,1,0,210.0,0,-11,-16,0,0,0,-0.0292,5242.4946,6.8213,0.4212,54.891796,9.791732,108.3,5.845,1.85,0.00,54.892002,9.791656,54.895069,9.793790
1386962006,1,0,210.0,0,-8,-12,0,0,0,-0.0292,5245.1611,6.8213,0.4212,54.891781,9.791718,108.3,5.845,1.85,0.00,54.892002,9.791656,54.895069,9.793790
1386962007,1,0,210.0,0,-5,-8,0,0,0,-0.0292,5246.8276,6.8213,0.4212,54.891766,9.791704,108.3,5.845,1.85,0.00,54.892002,9.791656,54.895069,9.793790
1386962007,1,0,210.0,0,-3,-4,0,713,50,-0.0292,5247.8276,6.8213,0.4212,54.891750,9.791690,108.3,5.845,1.85,0.00,54.892002,9.791656,54.895069,9.793790
1386962007,1,0,210.0,0,-2,0,0,713,100,-0.0292,5248.4941,6.8213,0.4212,54.891731,9.791675,108.3,5.845,1.85,0.00,54.892002,9.791656,54.895069,9.793790
1386962007,1,0,210.0,0,-2,-4,0,713,150,-0.0292,5249.1606,6.8213,0.4212,54.891716,9.791659,108.3,5.845,1.85,0.00,54.892002,9.791656,54.895069,9.793790
1386962008,1,0,210.0,0,-1,0,0,713,200,-0.0292,5249.4941,6.8213,0.4212,54.891701,9.791644,108.3,5.845,1.85,0.00,54.892002,9.791656,54.895069,9.793790
1386962008,1,0,210.0,0,-1,-4,0,713,250,-0.0292,5249.8276,6.8213,0.4212,54.891682,9.791629,108.3,5.845,1.85,0.00,54.892002,9.791656,54.895069,9.793790
1386962008,1,0,210.0,0,0,0,0,713,300,-0.0292,5249.8276,6.8213,0.4212,54.891666,9.791614,108.3,5.845,1.85,0.00,54.892002,9.791656,54.895069,9.793790
1386962008,1,0,210.0,0,0,4,0,713,350,-0.0292,5249.8276,6.8213,0.4212,54.891651,9.791597,108.3,5.845,1.85,0.00,54.892002,9.791656,54.895069,9.793790
1386962009,1,0,210.0,0,0,0,0,713,400,-0.0292,5249.8276,6.8213,0.4212,54.891632,9.791582,108.3,5.845,1.85,0.00,54.892002,9.791656,54.895069,9.793790
1386962009,1,0,210.0,0,0,4,0,713,450,-0.0292,5249.8276,6.8213,0.4212,54.891617,9.791567,108.3,5.845,1.85,0.00,54.892002,9.791656,54.895069,9.793790
1386962009,1,0,210.0,0,0,0,0,0,400,-0.0292,5249.8276,6.8213,0.4212,54.891602,9.791551,108.3,5.845,1.85,0.00,54.892002,9.791656,54.895069,9.793790
1386962009,1,0,210.0,0,0,4,0,0,350,-0.0292,5249.8276,6.8213,0.4212,54.891582,9.791535,108.3,5.845,1.85,0.00,54.892002,9.791656,54.895069,9.793790
1386962010,1,0,210.0,0,0,0,0,0,300,-0.0292,5249.8276,6.8213,0.4212,54.891567,9.791520,108.3,5.845,1.85,0.00,54.892002,9.791656,54.895069,9.793790
1386962010,1,0,210.0,0,0,4,0,0,250,-0.0292,5249.8276,6.8213,0.4212,54.891552,9.791504,108.3,5.845,1.85,0.00,54.892002,9.791656,54.895069,9.793790
1386962010,1,0,210.0,0,0,0,0,0,200,-0.0292,5249.8276,6.8213,0.4212,54.891533,9.791489,108.3,5.845,1.85,0.00,54.892002,9.791656,54.895069,9.793790
1386962011,1,0,210.0,0,0,4,0,0,150,-0.0292,5249.8276,6.8213,0.4212,54.891518,9.791473,108.3,5.845,1.85,0.00,54.892002,9.791656,54.895069,9.793790
1386962011,1,0,210.0,0,0,0,0,0,100,-0.0292,5249.8276,6.8213,0.4212,54.891502,9.791458,108.3,5.845,1.85,0.00,54.892002,9.791656,54.895069,9.793790
1386962011,1,0,210.0,0,0,4,0,0,50,-0.0292,5249.8276,6.8213,0.4212,54.891487,9.791443,108.3,5.845,1.85,0.00,54.892002,9.791656,54.895069,9.793790
1386962011,1,0,210.0,0,0,0,0,0,0,-0.0292,5249.8276,6.8213,0.4212,54.891472,9.791427,108.3,5.845,1.85,0.00,54.892002,9.791656,54.895069,9.793790
1386962012,1,0,210.0,0,0,4,0,0,0,-0.0292,5249.8276,6.8213,0.4212,54.891457,9.791411,108.3,5.845,1.85,0.00,54.892002,9.791656,54.895069,9.793790
1386962012,1,0,150.0,0,35,8,0,0,0,-0.0292,5238.1611,6.8213,0.4212,54.891438,9.791402,108.3,5.845,1.85,0.00,54.892002,9.791656,54.895069,9.793790
1386962012,1,0,150.0,0,35,12,0,0,0,-0.0292,5226.4946,6.8213,0.4212,54.891418,9.791398,108.3,5.845,1.85,0.00,54.892002,9.791656,54.895069,9.793790
1386962012,1,0,150.0,0,35,16,0,0,0,-0.0292,5214.8281,6.8213,0.4212,54.891399,9.791401,108.3,5.845,1.85,0.00,54.892002,9.791656,54.895069,9.793790
1386962013,1,0,150.0,0,25,20,0,0,0,-0.0292,5206.4946,6.8213,0.4212,54.891384,9.791408,108.3,5.845,1.85,0.00,54.892002,9.791656,54.895069,9.793790
1386962013,1,0,150.0,0,16,16,0,0,0,-0.0292,5201.1611,6.8213,0.4212,54.891365,9.791418,108.3,5.845,1.85,0.00,54.892002,9.791656,54.895069,9.793790
1386962013,1,0,150.0,0,11,12,0,0,0,-0.0292,5197.4946,6.8213,0.4212,54.891350,9.791430,108.3,5.845,1.85,0.00,54.892002,9.791656,54.895069,9.793790
1386962013,1,0,150.0,0,7,8,0,0,0,-0.0292,5195.1611,6.8213,0.4212,54.891335,9.791444,108.3,5.845,1.85,0.00,54.892002,9.791656,54.895069,9.793790
1386962014,1,0,150.0,0,5,4,0,0,0,-0.0292,5193.4946,6.8213,0.4212,54.891315,9.791457,108.3,5.845,1.85,0.00,54.892002,9.791656,54.895069,9.793790
1386962014,1,0,150.0,0,3,0,0,0,0,-0.0292,5192.4946,6.8213,0.4212,54.891300,9.791471,108.3,5.845,1.85,0.00,54.892002,9.791656,54.895069,9.793790
1386962014,1,0,150.0,0,2,4,0,713,50,-0.0292,5191.8281,6.8213,0.4212,54.891285,9.791487,108.3,5.845,1.85,0.00,54.892002,9.791656,54.895069,9.793790
1386962014,1,0,150.0,0,2,0,0,713,100,-0.0292,5191.1616,6.8213,0.4212,54.891266,9.791502,108.3,5.845,1.85,0.00,54.892002,9.791656,54.895069,9.793790
1386962015,1,0,150.0,0,1,4,0,713,150,-0.0292,5190.8281,6.8213,0.4212,54.891251,9.791517,108.3,5.845,1.85,0.00,54.892002,9.791656,54.895069,9.793790
1386962015,0,0,150.0,0,1,4,0,713,150,-0.0292,5190.8281,6.8213,0.4212,54.891251,9.791517,108.3,5.845,1.85,0.00,54.892002,9.791656,54.895069,9.793790
1386962015,0,0,150.0,0,1,4,0,713,150,-0.0292,5190.8281,6.8213,0.4212,54.891251,9.791517,108.3,5.845,1.85,0.00,54.892002,9.791656,54.895069,9.793790
1386962015,0,0,150.0,0,1,4,0,713,150,-0.0292,5190.8281,6.8213,0.4212,54.891251,9.791517,108.3,5.845,1.85,0.00,54.892002,9.791656,54.895069,9.793790
1386962016,0,0,150.0,0,1,4,0,713,150,-0.0292,5190.8281,6.8213,0.4212,54.891251,9.791517,108.3,5.845,1.85,0.00,54.892002,9.791656,54.895069,9.793790
1386962016,0,0,150.0,0,1,4,0,713,150,-0.0292,5190.8281,6.8213,0.4212,54.891251,9.791517,108.3,5.845,1.85,0.00,54.892002,9.791656,54.895069,9.793790
1386962016,0,0,150.0,0,1,4,0,713,150,-0.0292,5190.8281,6.8213,0.4212,54.891251,9.791517,108.3,5.845,1.85,0.00,54.892002,9.791656,54.895069,9.793790
1386962016,0,0,150.0,0,1,4,0,713,150,-0.0292,5190.8281,6.8213,0.4212,54.891251,9.791517,108.3,5.845,1.85,0.00,54.892002,9.791656,54.895069,9.793790
1386962017,0,0,150.0,0,1,4,0,713,150,-0.0292,5190.8281,6.8213,0.4212,54.891251,9.791517,108.3,5.845,1.85,0.00,54.892002,9.791656,54.895069,9.793790
1386962017,0,0,150.0,0,1,4,0,713,150,-0.0292,5190.8281,6.8213,0.4212,54.891251,9.791517,108.3,5.845,1.85,0.00,54.892002,9.791656,54.895069,9.793790
1386962017,0,0,150.0,0,1,4,0,713,150,-0.0292,5190.8281,6.8213,0.4212,54.891251,9.791517,108.3,5.845,1.85,0.00,54.892002,9.791656,54.895069,9.793790
1386962017,0,0,150.0,0,1,4,0,713,150,-0.0292,5190.8281,6.8213,0.4212,54.891251,9.791517,108.3,5.845,1.85,0.00,54.892002,9.791656,54.895069,9.793790
1386962018,0,0,150.0,0,1,4,0,713,150,-0.0292,5190.8281,6.8213,0.4212,54.891251,9.791517,108.3,5.845,1.85,0.00,54.892002,9.791656,54.895069,9.793790
1386962018,0,0,150.0,0,1,4,0,713,150,-0.0292,5190.8281,6.8213,0.4212,54.891251,9.791517,108.3,5.845,1.85,0.00,54.892002,9.791656,54.895069,9.793790
1386962018,0,0,150.0,0,1,4,0,713,150,-0.0292,5190.8281,6.8213,0.4212,54.891251,9.791517,108.3,5.845,1.85,0.00,54.892002,9.791656,54.895069,9.793790
1386962018,0,0,150.0,0,1,4,0,713,150,-0.0292,5190.8281,6.8213,0.4212,54.891251,9.791517,108.3,5.845,1.85,0.00,54.892002,9.791656,54.895069,9.793790
1386962019,0,0,150.0,0,1,4,0,713,150,-0.0292,5190.8281,6.8213,0.4212,54.891251,9.791517,108.3,5.845,1.85,0.00,54.892002,9.791656,54.895069,9.793790
1386962019,0,0,150.0,0,1,4,0,713,150,-0.0292,5190.8281,6.8213,0.4212,54.891251,9.791517,108.3,5.845,1.85,0.00,54.892002,9.791656,54.895069,9.793790
1386962019,0,0,150.0,0,1,4,0,713,150,-0.0292,5190.8281,6.8213,0.4212,54.891251,9.791517,108.3,5.845,1.85,0.00,54.892002,9.791656,54.895069,9.793790
1386962019,0,0,150.0,0,1,4,0,713,150,-0.0292,5190.8281,6.8213,0.4212,54.891251,9.791517,108.3,5.845,1.85,0.00,54.892002,9.791656,54.895069,9.793790
1386962020,0,0,150.0,0,1,4,0,713,150,-0.0292,5190.8281,6.8213,0.4212,54.891251,9.791517,108.3,5.845,1.85,0.00,54.892002,9.791656,54.895069,9.793790
1386962020,0,0,150.0,0,1,4,0,713,150,-0.0292,5190.8281,6.8213,0.4212,54.891251,9.791517,108.3,5.845,1.85,0.00,54.892002,9.791656,54.895069,9.793790
1386962020,0,0,150.0,0,1,4,0,713,150,-0.0292,5190.8281,6.8213,0.4212,54.891251,9.791517,108.3,5.845,1.85,0.00,54.892002,9.791656,54.895069,9.793790
1386962020,0,0,150.0,0,1,4,0,713,150,-0.0292,5190.8281,6.8213,0.4212,54.891251,9.791517,108.3,5.845,1.85,0.00,54.892002,9.791656,54.895069,9.793790
1386962021,0,0,150.0,0,1,4,0,713,150,-0.0292,5190.8281,6.8213,0.4212,54.891251,9.791517,108.3,5.845,1.85,0.00,54.892002,9.791656,54.895069,9.793790
1386962021,0,0,150.0,0,1,4,0,713,150,-0.0292,5190.8281,6.8213,0.4212,54.891251,9.791517,108.3,5.845,1.85,0.00,54.892002,9.791656,54.895069,9.793790
1386962021,4,0,150.0,0,1,4,0,713,150,-0.0292,5190.8281,6.8213,0.4212,54.891251,9.791517,108.3,5.845,1.85,0.00,54.892002,9.791656,54.895069,9.793790
1386962021,1,0,150.0,0,1,0,0,713,200,-0.0292,5190.4946,6.8213,0.4212,54.891235,9.791533,108.3,5.845,1.85,0.00,54.891251,9.791517,54.895069,9.793790
1386962022,1,0,150.0,0,0,4,0,713,250,-0.0292,5190.4946,6.8213,0.4212,54.891216,9.791548,108.3,5.845,1.85,0.00,54.891251,9.791517,54.895069,9.793790
1386962022,1,0,150.0,0,0,0,0,713,300,-0.0292,5190.4946,6.8213,0.4212,54.891201,9.791563,108.3,5.845,1.85,0.00,54.891251,9.791517,54.895069,9.793790
1386962022,1,0,150.0,0,0,4,0,713,350,-0.0292,5190.4946,6.8213,0.4212,54.891186,9.791578,108.3,5.845,1.85,0.00,54.891251,9.791517,54.895069,9.793790
1386962022,1,0,55.0,0,35,8,0,713,400,-0.0292,5178.8281,6.8213,0.4212,54.891171,9.791598,108.3,5.845,1.85,0.00,54.891251,9.791517,54.895069,9.793790
1386962023,1,0,55.0,0,35,12,0,713,450,-0.0292,5167.1616,6.8213,0.4212,54.891159,9.791623,108.3,5.845,1.85,0.00,54.891251,9.791517,54.895069,9.793790
1386962023,1,0,55.0,0,35,16,0,870,500,-0.0292,5155.4951,6.8213,0.4212,54.891148,9.791652,108.3,5.845,1.85,0.00,54.891251,9.791517,54.895069,9.793790
1386962023,1,0,55.0,0,35,20,0,795,550,-0.0292,5143.8286,6.8213,0.4212,54.891144,9.791681,108.3,5.845,1.85,0.00,54.891251,9.791517,54.895069,9.793790
1386962023,1,0,55.0,0,35,24,0,619,600,-0.0292,5132.1621,6.8213,0.4212,54.891144,9.791713,108.3,5.845,1.85,0.00,54.891251,9.791517,54.895069,9.793790
1386962024,1,0,55.0,0,35,28,0,434,550,-0.0292,5120.4956,6.8213,0.4212,54.891148,9.791743,108.3,5.845,1.85,0.00,54.891251,9.791517,54.895069,9.793790
1386962024,1,0,55.0,0,25,24,0,250,500,-0.0292,5112.1621,6.8213,0.4212,54.891155,9.791773,108.3,5.845,1.85,0.00,54.891251,9.791517,54.895069,9.793790
1386962024,1,0,55.0,0,17,20,0,131,450,-0.0292,5106.4956,6.8213,0.4212,54.891163,9.791802,108.3,5.845,1.85,0.00,54.891251,9.791517,54.895069,9.793790
1386962024,0,0,55.0,0,17,20,0,131,450,-0.0292,5106.4956,6.8213,0.4212,54.891163,9.791802,108.3,5.845,1.85,0.00,54.891251,9.791517,54.895069,9.793790
1386962025,0,0,55.0,0,17,20,0,131,450,-0.0292,5106.4956,6.8213,0.4212,54.891163,9.791802,108.3,5.845,1.85,0.00,54.891251,9.791517,54.895069,9.793790
1386962025,0,0,55.0,0,17,20,0,131,450,-0.0292,5106.4956,6.8213,0.4212,54.891163,9.791802,108.3,5.845,1.85,0.00,54.891251,9.791517,54.895069,9.793790
1386962025,4,0,55.0,0,17,20,0,131,450,-0.0292,5106.4956,6.8213,0.4212,54.891163,9.791802,108.3,5.845,1.85,0.00,54.891251,9.791517,54.895069,9.793790
1386962025,1,0,55.0,0,11,16,0,64,400,-0.0292,5102.8291,6.8213,0.4212,54.891171,9.791830,108.3,5.845,1.85,0.00,54.891163,9.791802,54.895069,9.793790
1386962026,1,0,55.0,0,8,12,0,31,350,-0.0292,5100.1626,6.8213,0.4212,54.891178,9.791857,108.3,5.845,1.85,0.00,54.891163,9.791802,54.895069,9.793790
1386962026,1,0,55.0,0,5,8,0,14,300,-0.0292,5098.4961,6.8213,0.4212,54.891190,9.791883,108.3,5.845,1.85,0.00,54.891163,9.791802,54.895069,9.793790
1386962026,1,0,55.0,0,3,4,0,6,250,-0.0292,5097.4961,6.8213,0.4212,54.891197,9.791910,108.3,5.845,1.85,0.00,54.891163,9.791802,54.895069,9.793790
1386962026,1,0,55.0,0,2,0,0,3,200,-0.0292,5096.8296,6.8213,0.4212,54.891209,9.791936,108.3,5.845,1.85,0.00,54.891163,9.791802,54.895069,9.793790
1386962027,1,0,55.0,0,2,4,0,2,150,-0.0292,5096.1631,6.8213,0.4212,54.891216,9.791962,108.3,5.845,1.85,0.00,54.891163,9.791802,54.895069,9.793790
1386962027,1,0,55.0,0,1,0,0,1,100,-0.0292,5095.8296,6.8213,0.4212,54.891224,9.791987,108.3,5.845,1.85,0.00,54.891163,9.791802,54.895069,9.793790
1386962027,1,0,55.0,0,1,4,0,0,50,-0.0292,5095.4961,6.8213,0.4212,54.891235,9.792013,108.3,5.845,1.85,0.00,54.891163,9.791802,54.895069,9.793790
1386962027,1,0,55.0,0,0,0,0,0,0,-0.0292,5095.4961,6.8213,0.4212,54.891243,9.792039,108.3,5.845,1.85,0.00,54.891163,9.791802,54.895069,9.793790
1386962028,1,0,55.0,0,0,4,0,0,0,-0.0292,5095.4961,6.8213,0.4212,54.891254,9.792065,108.3,5.845,1.85,0.00,54.891163,9.791802,54.895069,9.793790
1386962028,1,0,55.0,0,0,0,0,0,0,-0.0292,5095.4961,6.8213,0.4212,54.891266,9.792090,108.3,5.845,1.85,0.00,54.891163,9.791802,54.895069,9.793790
1386962028,1,0,55.0,0,0,4,0,0,0,-0.0292,5095.4961,6.8213,0.4212,54.891277,9.792116,108.3,5.845,1.85,0.00,54.891163,9.791802,54.895069,9.793790
1386962028,1,0,55.0,0,0,0,0,0,0,-0.0292,5095.4961,6.8213,0.4212,54.891289,9.792142,108.3,5.845,1.85,0.00,54.891163,9.791802,54.895069,9.793790
1386962029,1,0,55.0,0,0,4,0,0,0,-0.0292,5095.4961,6.8213,0.4212,54.891296,9.792168,108.3,5.845,1.85,0.00,54.891163,9.791802,54.895069,9.793790
1386962029,1,0,55.0,0,0,0,0,0,0,-0.0292,5095.4961,6.8213,0.4212,54.891308,9.792193,108.3,5.845,1.85,0.00,54.891163,9.791802,54.895069,9.793790
1386962029,1,0,55.0,0,0,4,0,0,0,-0.0292,5095.4961,6.8213,0.4212,54.891315,9.792219,108.3,5.845,1.85,0.00,54.891163,9.791802,54.895069,9.793790
1386962029,1,0,55.0,0,0,0,0,0,0,-0.0292,5095.4961,6.8213,0.4212,54.891327,9.792245,108.3,5.845,1.85,0.00,54.891163,9.791802,54.895069,9.793790
1386962030,1,0,55.0,0,0,4,0,0,0,-0.0292,5095.4961,6.8213,0.4212,54.891338,9.792271,108.3,5.845,1.85,0.00,54.891163,9.791802,54.895069,9.793790
1386962030,1,0,55.0,0,0,0,0,0,0,-0.0292,5095.4961,6.8213,0.4212,54.891346,9.792296,108.3,5.845,1.85,0.00,54.891163,9.791802,54.895069,9.793790
1386962030,1,0,55.0,0,0,4,0,0,0,-0.0292,5095.4961,6.8213,0.4212,54.891357,9.792322,108.3,5.845,1.85,0.00,54.891163,9.791802,54.895069,9.793790
1386962030,1,0,55.0,0,0,0,0,0,0,-0.0292,5095.4961,6.8213,0.4212,54.891365,9.792348,108.3,5.845,1.85,0.00,54.891163,9.791802,54.895069,9.793790
1386962031,1,0,55.0,0,0,4,0,0,0,-0.0292,5095.4961,6.8213,0.4212,54.891376,9.792374,108.3,5.845,1.85,0.00,54.891163,9.791802,54.895069,9.793790
1386962031,1,0,55.0,0,0,0,0,0,0,-0.0292,5095.4961,6.8213,0.4212,54.891388,9.792399,108.3,5.845,1.85,0.00,54.891163,9.791802,54.895069,9.793790
1386962031,1,0,55.0,0,0,4,0,0,0,-0.0292,5095.4961,6.8213,0.4212,54.891396,9.792425,108.3,5.845,1.85,0.00,54.891163,9.791802,54.895069,9.793790
1386962031,1,0,55.0,0,0,0,0,0,0,-0.0292,5095.4961,6.8213,0.4212,54.891407,9.792451,108.3,5.845,1.85,0.00,54.891163,9.791802,54.895069,9.793790
1386962032,1,0,55.0,0,0,4,0,0,0,-0.0292,5095.4961,6.8213,0.4212,54.891415,9.792477,108.3,5.845,1.85,0.00,54.891163,9.791802,54.895069,9.793790
1386962032,1,0,55.0,0,0,0,0,0,0,-0.0292,5095.4961,6.8213,0.4212,54.891426,9.792502,108.3,5.845,1.85,0.00,54.891163,9.791802,54.895069,9.793790
1386962032,1,0,55.0,0,0,4,0,0,0,-0.0292,5095.4961,6.8213,0.4212,54.891438,9.792528,108.3,5.845,1.85,0.00,54.891163,9.791802,54.895069,9.793790
1386962032,1,0,55.0,0,0,0,0,0,0,-0.0292,5095.4961,6.8213,0.4212,54.891449,9.792554,108.3,5.845,1.85,0.00,54.891163,9.791802,54.895069,9.793790
1386962033,1,0,55.0,0,0,4,0,0,0,-0.0292,5095.4961,6.8213,0.4212,54.891460,9.792580,108.3,5.845,1.85,0.00,54.891163,9.791802,54.895069,9.793790
1386962033,1,0,55.0,0,0,0,0,0,0,-0.0292,5095.4961,6.8213,0.4212,54.891468,9.792605,108.3,5.845,1.85,0.00,54.891163,9.791802,54.895069,9.793790
1386962033,1,0,55.0,0,0,4,0,0,0,-0.0292,5095.4961,6.8213,0.4212,54.891479,9.792631,108.3,5.845,1.85,0.00,54.891163,9.791802,54.895069,9.793790
