MCU_timestamp,Navigation_System,Manual_Control,Guidance_Heading,Manual_Ctrl_Rudder,Rudder_Desired_Angle,Rudder_Feedback,Manual_Ctrl_Sail,Sail_Desired_Pos,Sail_Feedback,Rate,Heading,Pitch,Roll,Latitude,Longitude,COG,SOG,Wind_Speed,Wind_Angle,Point_Start_Lat,Point_Start_Lon,Point_End_Lat,Point_End_Lon
1386863974,0,0,0.0,0,0,28,0,0,0,-0.0292,60.1589,6.8213,0.4212,54.897141,9.797179,108.3,5.845,1.85,335.95,0.000000,0.000000,0.000000,0.000000
1386863974,0,0,0.0,0,0,28,0,0,0,-0.0292,60.1589,6.8213,0.4212,54.897141,9.797179,108.3,5.845,1.85,335.95,0.000000,0.000000,0.000000,0.000000
1386863974,0,0,0.0,0,0,28,0,0,0,-0.0292,60.1589,6.8213,0.4212,54.897141,9.797179,108.3,5.845,1.85,335.95,0.000000,0.000000,0.000000,0.000000
1386863974,0,0,0.0,0,0,28,0,0,0,-0.0292,60.1589,6.8213,0.4212,54.897141,9.797179,108.3,5.845,1.85,335.95,0.000000,0.000000,0.000000,0.000000
1386863975,0,0,0.0,0,0,28,0,0,0,-0.0292,60.1589,6.8213,0.4212,54.897141,9.797179,108.3,5.845,1.85,335.95,0.000000,0.000000,0.000000,0.000000
1386863975,0,0,0.0,0,0,28,0,0,0,-0.0292,60.1589,6.8213,0.4212,54.897141,9.797179,108.3,5.845,1.85,335.95,0.000000,0.000000,0.000000,0.000000
1386863975,0,0,0.0,0,0,28,0,0,0,-0.0292,60.1589,6.8213,0.4212,54.897141,9.797179,108.3,5.845,1.85,335.95,0.000000,0.000000,0.000000,0.000000
1386863975,0,0,0.0,0,0,28,0,0,0,-0.0292,60.1589,6.8213,0.4212,54.897141,9.797179,108.3,5.845,1.85,335.95,0.000000,0.000000,0.000000,0.000000
1386863976,0,0,0.0,0,0,28,0,0,0,-0.0292,60.1589,6.8213,0.4212,54.897141,9.797179,108.3,5.845,1.85,335.95,0.000000,0.000000,0.000000,0.000000
1386863976,0,0,0.0,0,0,28,0,0,0,-0.0292,60.1589,6.8213,0.4212,54.897141,9.797179,108.3,5.845,1.85,335.95,0.000000,0.000000,0.000000,0.000000
1386863976,0,0,0.0,0,0,28,0,0,0,-0.0292,60.1589,6.8213,0.4212,54.897141,9.797179,108.3,5.845,1.85,335.95,0.000000,0.000000,0.000000,0.000000
1386863976,0,0,0.0,0,0,28,0,0,0,-0.0292,60.1589,6.8213,0.4212,54.897141,9.797179,108.3,5.845,1.85,335.95,0.000000,0.000000,0.000000,0.000000
1386863977,0,0,0.0,0,0,28,0,0,0,-0.0292,60.1589,6.8213,0.4212,54.897141,9.797179,108.3,5.845,1.85,335.95,0.000000,0.000000,0.000000,0.000000
1386863977,0,0,0.0,0,0,28,0,0,0,-0.0292,60.1589,6.8213,0.4212,54.897141,9.797179,108.3,5.845,1.85,335.95,0.000000,0.000000,0.000000,0.000000
1386863977,0,0,0.0,0,0,28,0,0,0,-0.0292,60.1589,6.8213,0.4212,54.897141,9.797179,108.3,5.845,1.85,335.95,0.000000,0.000000,0.000000,0.000000
1386863977,0,0,0.0,0,0,28,0,0,0,-0.0292,60.1589,6.8213,0.4212,54.897141,9.797179,108.3,5.845,1.85,335.95,0.000000,0.000000,0.000000,0.000000
1386863978,0,0,0.0,0,0,28,0,0,0,-0.0292,60.1589,6.8213,0.4212,54.896843,9.791983,108.3,5.845,1.85,335.95,0.000000,0.000000,0.000000,0.000000
1386863978,0,0,0.0,0,0,28,0,0,0,-0.0292,60.1589,6.8213,0.4212,54.896843,9.791983,108.3,5.845,1.85,335.95,0.000000,0.000000,0.000000,0.000000
1386863978,0,0,0.0,0,0,28,0,0,0,-0.0292,60.1589,6.8213,0.4212,54.896843,9.791983,108.3,5.845,1.85,335.95,0.000000,0.000000,0.000000,0.000000
1386863978,0,0,0.0,0,0,28,0,0,0,-0.0292,60.1589,6.8213,0.4212,54.896843,9.791983,108.3,5.845,1.85,335.95,0.000000,0.000000,0.000000,0.000000
1386863979,0,0,0.0,0,0,28,0,0,0,-0.0292,60.1589,6.8213,0.4212,54.896843,9.791983,108.3,5.845,1.85,335.95,0.000000,0.000000,0.000000,0.000000
1386863979,0,0,0.0,0,0,28,0,0,0,-0.0292,60.1589,6.8213,0.4212,54.896843,9.791983,108.3,5.845,1.85,335.95,0.000000,0.000000,0.000000,0.000000
1386863979,0,0,0.0,0,0,28,0,0,0,-0.0292,60.1589,6.8213,0.4212,54.896843,9.791983,108.3,5.845,1.85,335.95,0.000000,0.000000,0.000000,0.000000
1386863979,0,0,0.0,0,0,28,0,0,0,-0.0292,60.1589,6.8213,0.4212,54.896843,9.791983,108.3,5.845,1.85,335.95,0.000000,0.000000,0.000000,0.000000
1386863980,0,0,0.0,0,0,28,0,0,0,-0.0292,60.1589,6.8213,0.4212,54.896843,9.791983,108.3,5.845,1.85,335.95,0.000000,0.000000,0.000000,0.000000
1386863980,4,0,0.0,0,0,28,0,0,0,-0.0292,60.1589,6.8213,0.4212,54.896843,9.791983,108.3,5.845,1.85,335.95,0.000000,0.000000,0.000000,0.000000
1386863980,1,0,485.9,0,-35,24,0,176,25,-0.0292,69.4922,6.8213,0.4212,54.896847,9.792012,108.3,5.845,1.85,335.95,54.896843,9.791983,54.895069,9.793790
1386863980,1,0,485.9,0,-35,20,0,261,50,-0.0292,78.8255,6.8213,0.4212,54.896851,9.792043,108.3,5.845,1.85,335.95,54.896843,9.791983,54.895069,9.793790
1386863981,1,0,485.9,0,-35,16,0,346,75,-0.0292,88.1589,6.8213,0.4212,54.896851,9.792073,108.3,5.845,1.85,335.95,54.896843,9.791983,54.895069,9.793790
1386863981,1,0,485.9,0,-35,12,0,429,100,-0.0292,97.4922,6.8213,0.4212,54.896847,9.792105,108.3,5.845,1.85,335.95,54.896843,9.791983,54.895069,9.793790
1386863981,1,0,485.9,0,-28,8,0,506,125,-0.0292,104.9589,6.8213,0.4212,54.896843,9.792135,108.3,5.845,1.85,335.95,54.896843,9.791983,54.895069,9.793790
1386863981,1,0,485.9,0,-21,4,0,563,150,-0.0292,110.5589,6.8213,0.4212,54.896835,9.792165,108.3,5.845,1.85,335.95,54.896843,9.791983,54.895069,9.793790
1386863982,1,0,485.9,0,-15,0,0,578,175,-0.0292,114.5589,6.8213,0.4212,54.896828,9.792192,108.3,5.845,1.85,335.95,54.896843,9.791983,54.895069,9.793790
1386863982,1,0,485.9,0,-11,-4,0,409,200,-0.0292,117.4922,6.8213,0.4212,54.896820,9.792220,108.3,5.845,1.85,335.95,54.896843,9.791983,54.895069,9.793790
1386863982,1,0,485.9,0,-8,-8,0,409,225,-0.0292,119.6255,6.8213,0.4212,54.896809,9.792247,108.3,5.845,1.85,335.95,54.896843,9.791983,54.895069,9.793790
1386863982,1,0,485.9,0,-6,-4,0,409,250,-0.0292,121.2255,6.8213,0.4212,54.896801,9.792274,108.3,5.845,1.85,335.95,54.896843,9.791983,54.895069,9.793790
1386863983,1,0,485.9,0,-5,-8,0,409,275,-0.0292,122.5589,6.8213,0.4212,54.896790,9.792300,108.3,5.845,1.85,335.95,54.896843,9.791983,54.895069,9.793790
1386863983,1,0,485.9,0,-3,-4,0,409,300,-0.0292,123.3589,6.8213,0.4212,54.896782,9.792326,108.3,5.845,1.85,335.95,54.896843,9.791983,54.895069,9.793790
1386863983,1,0,485.9,0,-3,0,0,409,325,-0.0292,124.1589,6.8213,0.4212,54.896774,9.792352,108.3,5.845,1.85,335.95,54.896843,9.791983,54.895069,9.793790
1386863983,1,0,485.9,0,-2,-4,0,409,350,-0.0292,124.6922,6.8213,0.4212,54.896763,9.792377,108.3,5.845,1.85,335.95,54.896843,9.791983,54.895069,9.793790
1386863984,1,0,485.9,0,-1,0,0,409,375,-0.0292,124.9589,6.8213,0.4212,54.896755,9.792402,108.3,5.845,1.85,335.95,54.896843,9.791983,54.895069,9.793790
1386863984,1,0,485.9,0,-1,-4,0,409,400,-0.0292,125.2256,6.8213,0.4212,54.896744,9.792428,108.3,5.845,1.85,335.95,54.896843,9.791983,54.895069,9.793790
1386863984,1,0,485.9,0,-1,0,0,409,425,-0.0292,125.4922,6.8213,0.4212,54.896732,9.792453,108.3,5.845,1.85,335.95,54.896843,9.791983,54.895069,9.793790
1386863984,1,0,485.9,0,0,4,0,409,400,-0.0292,125.4922,6.8213,0.4212,54.896721,9.792479,108.3,5.845,1.85,335.95,54.896843,9.791983,54.895069,9.793790
1386863985,1,0,485.9,0,0,0,0,409,425,-0.0292,125.4922,6.8213,0.4212,54.896709,9.792504,108.3,5.845,1.85,335.95,54.896843,9.791983,54.895069,9.793790
1386863985,1,0,485.9,0,0,4,0,409,400,-0.0292,125.4922,6.8213,0.4212,54.896698,9.792529,108.3,5.845,1.85,335.95,54.896843,9.791983,54.895069,9.793790
1386863985,1,0,485.9,0,0,0,0,409,425,-0.0292,125.4922,6.8213,0.4212,54.896687,9.792555,108.3,5.845,1.85,335.95,54.896843,9.791983,54.895069,9.793790
1386863985,1,0,485.9,0,0,4,0,409,400,-0.0292,125.4922,6.8213,0.4212,54.896679,9.792580,108.3,5.845,1.85,335.95,54.896843,9.791983,54.895069,9.793790
1386863986,1,0,485.9,0,0,0,0,409,425,-0.0292,125.4922,6.8213,0.4212,54.896667,9.792605,108.3,5.845,1.85,335.95,54.896843,9.791983,54.895069,9.793790
1386863986,1,0,485.9,0,0,4,0,409,400,-0.0292,125.4922,6.8213,0.4212,54.896660,9.792631,108.3,5.845,1.85,335.95,54.896843,9.791983,54.895069,9.793790
1386863986,1,0,485.9,0,0,0,0,409,425,-0.0292,125.4922,6.8213,0.4212,54.896648,9.792657,108.3,5.845,1.85,335.95,54.896843,9.791983,54.895069,9.793790
1386863986,1,0,485.9,0,0,4,0,409,400,-0.0292,125.4922,6.8213,0.4212,54.896637,9.792683,108.3,5.845,1.85,335.95,54.896843,9.791983,54.895069,9.793790
1386863987,1,0,485.9,0,0,0,0,409,425,-0.0292,125.4922,6.8213,0.4212,54.896629,9.792707,108.3,5.845,1.85,335.95,54.896843,9.791983,54.895069,9.793790
1386863987,1,0,485.9,0,0,4,0,409,400,-0.0292,125.4922,6.8213,0.4212,54.896618,9.792733,108.3,5.845,1.85,335.95,54.896843,9.791983,54.895069,9.793790
1386863987,1,0,485.9,0,0,0,0,409,425,-0.0292,125.4922,6.8213,0.4212,54.896610,9.792759,108.3,5.845,1.85,335.95,54.896843,9.791983,54.895069,9.793790
1386863987,1,0,485.9,0,0,4,0,409,400,-0.0292,125.4922,6.8213,0.4212,54.896599,9.792785,108.3,5.845,1.85,335.95,54.896843,9.791983,54.895069,9.793790
1386863988,1,0,485.9,0,0,0,0,409,425,-0.0292,125.4922,6.8213,0.4212,54.896587,9.792810,108.3,5.845,1.85,335.95,54.896843,9.791983,54.895069,9.793790
1386863988,1,0,485.9,0,0,4,0,409,400,-0.0292,125.4922,6.8213,0.4212,54.896580,9.792835,108.3,5.845,1.85,335.95,54.896843,9.791983,54.895069,9.793790
1386863988,1,0,485.9,0,0,0,0,409,425,-0.0292,125.4922,6.8213,0.4212,54.896568,9.792861,108.3,5.845,1.85,335.95,54.896843,9.791983,54.895069,9.793790
1386863988,1,0,485.9,0,0,4,0,409,400,-0.0292,125.4922,6.8213,0.4212,54.896561,9.792887,108.3,5.845,1.85,335.95,54.896843,9.791983,54.895069,9.793790
1386863989,1,0,485.9,0,0,0,0,409,425,-0.0292,125.4922,6.8213,0.4212,54.896549,9.792912,108.3,5.845,1.85,335.95,54.896843,9.791983,54.895069,9.793790
1386863989,1,0,485.9,0,0,4,0,409,400,-0.0292,125.4922,6.8213,0.4212,54.896538,9.792938,108.3,5.845,1.85,335.95,54.896843,9.791983,54.895069,9.793790
1386863989,1,0,485.9,0,0,0,0,409,425,-0.0292,125.4922,6.8213,0.4212,54.896530,9.792963,108.3,5.845,1.85,335.95,54.896843,9.791983,54.895069,9.793790
1386863989,1,0,485.9,0,0,4,0,409,400,-0.0292,125.4922,6.8213,0.4212,54.896519,9.792989,108.3,5.845,1.85,335.95,54.896843,9.791983,54.895069,9.793790
1386863990,1,0,485.9,0,0,0,0,409,425,-0.0292,125.4922,6.8213,0.4212,54.896511,9.793014,108.3,5.845,1.85,335.95,54.896843,9.791983,54.895069,9.793790
1386863990,1,0,485.9,0,0,4,0,409,400,-0.0292,125.4922,6.8213,0.4212,54.896500,9.793039,108.3,5.845,1.85,335.95,54.896843,9.791983,54.895069,9.793790
1386863990,1,0,485.9,0,0,0,0,409,425,-0.0292,125.4922,6.8213,0.4212,54.896488,9.793065,108.3,5.845,1.85,335.95,54.896843,9.791983,54.895069,9.793790
1386863990,1,0,485.9,0,0,4,0,409,400,-0.0292,125.4922,6.8213,0.4212,54.896477,9.793090,108.3,5.845,1.85,335.95,54.896843,9.791983,54.895069,9.793790
1386863991,1,0,485.9,0,0,0,0,409,425,-0.0292,125.4922,6.8213,0.4212,54.896465,9.793116,108.3,5.845,1.85,335.95,54.896843,9.791983,54.895069,9.793790
1386863991,1,0,485.9,0,0,4,0,409,400,-0.0292,125.4922,6.8213,0.4212,54.896458,9.793140,108.3,5.845,1.85,335.95,54.896843,9.791983,54.895069,9.793790
1386863991,1,0,485.9,0,0,0,0,409,425,-0.0292,125.4922,6.8213,0.4212,54.896446,9.793166,108.3,5.845,1.85,335.95,54.896843,9.791983,54.895069,9.793790
1386863991,1,0,485.9,0,0,4,0,409,400,-0.0292,125.4922,6.8213,0.4212,54.896435,9.793192,108.3,5.845,1.85,335.95,54.896843,9.791983,54.895069,9.793790
1386863992,1,0,485.9,0,0,0,0,409,425,-0.0292,125.4922,6.8213,0.4212,54.896423,9.793217,108.3,5.845,1.85,335.95,54.896843,9.791983,54.895069,9.793790
1386863992,1,0,485.9,0,0,4,0,409,400,-0.0292,125.4922,6.8213,0.4212,54.896412,9.793242,108.3,5.845,1.85,335.95,54.896843,9.791983,54.895069,9.793790
1386863992,1,0,485.9,0,0,0,0,409,425,-0.0292,125.4922,6.8213,0.4212,54.896400,9.793267,108.3,5.845,1.85,335.95,54.896843,9.791983,54.895069,9.793790
1386863992,1,0,485.9,0,0,4,0,409,400,-0.0292,125.4922,6.8213,0.4212,54.896389,9.793293,108.3,5.845,1.85,335.95,54.896843,9.791983,54.895069,9.793790
1386863993,1,0,485.9,0,0,0,0,409,425,-0.0292,125.4922,6.8213,0.4212,54.896378,9.793319,108.3,5.845,1.85,335.95,54.896843,9.791983,54.895069,9.793790
1386863993,1,0,485.9,0,0,4,0,409,400,-0.0292,125.4922,6.8213,0.4212,54.896366,9.793344,108.3,5.845,1.85,335.95,54.896843,9.791983,54.895069,9.793790
1386863993,1,0,485.9,0,0,0,0,409,425,-0.0292,125.4922,6.8213,0.4212,54.896358,9.793369,108.3,5.845,1.85,335.95,54.896843,9.791983,54.895069,9.793790
1386863993,1,0,485.9,0,0,4,0,409,400,-0.0292,125.4922,6.8213,0.4212,54.896347,9.793394,108.3,5.845,1.85,335.95,54.896843,9.791983,54.895069,9.793790
1386863994,1,0,485.9,0,0,0,0,409,425,-0.0292,125.4922,6.8213,0.4212,54.896339,9.793420,108.3,5.845,1.85,335.95,54.896843,9.791983,54.895069,9.793790
1386863994,1,0,485.9,0,0,4,0,409,400,-0.0292,125.4922,6.8213,0.4212,54.896328,9.793446,108.3,5.845,1.85,335.95,54.896843,9.791983,54.895069,9.793790
1386863994,1,0,485.9,0,0,0,0,409,425,-0.0292,125.4922,6.8213,0.4212,54.896317,9.793471,108.3,5.845,1.85,335.95,54.896843,9.791983,54.895069,9.793790
1386863994,1,0,485.9,0,0,4,0,409,400,-0.0292,125.4922,6.8213,0.4212,54.896309,9.793497,108.3,5.845,1.85,335.95,54.896843,9.791983,54.895069,9.793790
1386863995,1,0,485.9,0,0,0,0,409,425,-0.0292,125.4922,6.8213,0.4212,54.896297,9.793522,108.3,5.845,1.85,335.95,54.896843,9.791983,54.895069,9.793790
1386863995,1,0,485.9,0,0,4,0,409,400,-0.0292,125.4922,6.8213,0.4212,54.896290,9.793548,108.3,5.845,1.85,335.95,54.896843,9.791983,54.895069,9.793790
1386863995,1,0,485.9,0,0,0,0,409,425,-0.0292,125.4922,6.8213,0.4212,54.896278,9.793573,108.3,5.845,1.85,335.95,54.896843,9.791983,54.895069,9.793790
1386863995,1,0,485.9,0,0,4,0,409,400,-0.0292,125.4922,6.8213,0.4212,54.896267,9.793599,108.3,5.845,1.85,335.95,54.896843,9.791983,54.895069,9.793790
1386863996,1,0,485.9,0,0,0,0,409,425,-0.0292,125.4922,6.8213,0.4212,54.896259,9.793625,108.3,5.845,1.85,335.95,54.896843,9.791983,54.895069,9.793790
1386863996,1,0,485.9,0,0,4,0,409,400,-0.0292,125.4922,6.8213,0.4212,54.896248,9.793650,108.3,5.845,1.85,335.95,54.896843,9.791983,54.895069,9.793790
1386863996,1,0,485.9,0,0,0,0,409,425,-0.0292,125.4922,6.8213,0.4212,54.896240,9.793675,108.3,5.845,1.85,335.95,54.896843,9.791983,54.895069,9.793790
1386863997,1,0,485.9,0,0,4,0,409,400,-0.0292,125.4922,6.8213,0.4212,54.896229,9.793701,108.3,5.845,1.85,335.95,54.896843,9.791983,54.895069,9.793790
1386863997,1,0,485.9,0,0,0,0,409,425,-0.0292,125.4922,6.8213,0.4212,54.896217,9.793727,108.3,5.845,1.85,335.95,54.896843,9.791983,54.895069,9.793790
1386863997,1,0,485.9,0,0,4,0,409,400,-0.0292,125.4922,6.8213,0.4212,54.896206,9.793753,108.3,5.845,1.85,335.95,54.896843,9.791983,54.895069,9.793790
1386863997,1,0,485.9,0,0,0,0,409,425,-0.0292,125.4922,6.8213,0.4212,54.896194,9.793777,108.3,5.845,1.85,335.95,54.896843,9.791983,54.895069,9.793790
1386863998,1,0,485.9,0,0,4,0,409,400,-0.0292,125.4922,6.8213,0.4212,54.896187,9.793803,108.3,5.845,1.85,335.95,54.896843,9.791983,54.895069,9.793790
1386863998,1,0,485.9,0,0,0,0,409,425,-0.0292,125.4922,6.8213,0.4212,54.896175,9.793828,108.3,5.845,1.85,335.95,54.896843,9.791983,54.895069,9.793790
1386863998,1,0,485.9,0,0,4,0,409,400,-0.0292,125.4922,6.8213,0.4212,54.896168,9.793854,108.3,5.845,1.85,335.95,54.896843,9.791983,54.895069,9.793790
1386863998,1,0,485.9,0,0,0,0,409,425,-0.0292,125.4922,6.8213,0.4212,54.896156,9.793880,108.3,5.845,1.85,335.95,54.896843,9.791983,54.895069,9.793790
1386863999,1,0,485.9,0,0,4,0,409,400,-0.0292,125.4922,6.8213,0.4212,54.896145,9.793904,108.3,5.845,1.85,335.95,54.896843,9.791983,54.895069,9.793790
1386863999,1,0,485.9,0,0,0,0,409,425,-0.0292,125.4922,6.8213,0.4212,54.896137,9.793930,108.3,5.845,1.85,335.95,54.896843,9.791983,54.895069,9.793790
1386863999,1,0,485.9,0,0,4,0,409,400,-0.0292,125.4922,6.8213,0.4212,54.896126,9.793955,108.3,5.845,1.85,335.95,54.896843,9.791983,54.895069,9.793790
1386863999,1,0,485.9,0,0,0,0,409,425,-0.0292,125.4922,6.8213,0.4212,54.896118,9.793981,108.3,5.845,1.85,335.95,54.896843,9.791983,54.895069,9.793790
1386864000,1,0,485.9,0,0,4,0,409,400,-0.0292,125.4922,6.8213,0.4212,54.896107,9.794006,108.3,5.845,1.85,335.95,54.896843,9.791983,54.895069,9.793790
1386864000,1,0,485.9,0,0,0,0,0,375,-0.0292,125.4922,6.8213,0.4212,54.896095,9.794031,108.3,5.845,1.85,335.95,54.896843,9.791983,54.895069,9.793790
1386864000,1,0,485.9,0,0,4,0,0,350,-0.0292,125.4922,6.8213,0.4212,54.896088,9.794057,108.3,5.845,1.85,335.95,54.896843,9.791983,54.895069,9.793790
1386864000,1,0,485.9,0,0,0,0,0,325,-0.0292,125.4922,6.8213,0.4212,54.896076,9.794082,108.3,5.845,1.85,335.95,54.896843,9.791983,54.895069,9.793790
1386864001,1,0,485.9,0,0,4,0,0,300,-0.0292,125.4922,6.8213,0.4212,54.896069,9.794107,108.3,5.845,1.85,335.95,54.896843,9.791983,54.895069,9.793790
1386864001,1,0,485.9,0,0,0,0,0,275,-0.0292,125.4922,6.8213,0.4212,54.896057,9.794133,108.3,5.845,1.85,335.95,54.896843,9.791983,54.895069,9.793790
1386864001,1,0,485.9,0,0,4,0,0,250,-0.0292,125.4922,6.8213,0.4212,54.896046,9.794158,108.3,5.845,1.85,335.95,54.896843,9.791983,54.895069,9.793790
1386864001,1,0,485.9,0,0,0,0,0,225,-0.0292,125.4922,6.8213,0.4212,54.896038,9.794184,108.3,5.845,1.85,335.95,54.896843,9.791983,54.895069,9.793790
1386864002,1,0,485.9,0,0,4,0,0,200,-0.0292,125.4922,6.8213,0.4212,54.896027,9.794209,108.3,5.845,1.85,335.95,54.896843,9.791983,54.895069,9.793790
1386864002,1,0,485.9,0,0,0,0,0,175,-0.0292,125.4922,6.8213,0.4212,54.896019,9.794234,108.3,5.845,1.85,335.95,54.896843,9.791983,54.895069,9.793790
1386864002,1,0,485.9,0,0,4,0,0,150,-0.0292,125.4922,6.8213,0.4212,54.896008,9.794260,108.3,5.845,1.85,335.95,54.896843,9.791983,54.895069,9.793790
1386864002,1,0,485.9,0,0,0,0,0,125,-0.0292,125.4922,6.8213,0.4212,54.895996,9.794286,108.3,5.845,1.85,335.95,54.896843,9.791983,54.895069,9.793790
1386864003,1,0,485.9,0,0,4,0,0,100,-0.0292,125.4922,6.8213,0.4212,54.895985,9.794312,108.3,5.845,1.85,335.95,54.896843,9.791983,54.895069,9.793790
1386864003,1,0,485.9,0,0,0,0,0,75,-0.0292,125.4922,6.8213,0.4212,54.895973,9.794336,108.3,5.845,1.85,335.95,54.896843,9.791983,54.895069,9.793790
1386864003,1,0,485.9,0,0,4,0,0,50,-0.0292,125.4922,6.8213,0.4212,54.895966,9.794362,108.3,5.845,1.85,335.95,54.896843,9.791983,54.895069,9.793790
1386864003,1,0,485.9,0,0,0,0,0,25,-0.0292,125.4922,6.8213,0.4212,54.895954,9.794388,108.3,5.845,1.85,335.95,54.896843,9.791983,54.895069,9.793790
1386864004,1,0,485.9,0,0,4,0,0,0,-0.0292,125.4922,6.8213,0.4212,54.895947,9.794414,108.3,5.845,1.85,335.95,54.896843,9.791983,54.895069,9.793790
1386864004,1,0,485.9,0,0,0,0,0,25,-0.0292,125.4922,6.8213,0.4212,54.895935,9.794439,108.3,5.845,1.85,335.95,54.896843,9.791983,54.895069,9.793790
1386864004,1,0,545.9,0,-35,-4,0,0,0,-0.0292,134.8256,6.8213,0.4212,54.895920,9.794461,108.3,5.845,1.85,335.95,54.896843,9.791983,54.895069,9.793790
1386864004,1,0,545.9,0,-35,-8,0,0,25,-0.0292,144.1589,6.8213,0.4212,54.895905,9.794479,108.3,5.845,1.85,335.95,54.896843,9.791983,54.895069,9.793790
1386864005,1,0,545.9,0,-35,-12,0,0,0,-0.0292,153.4922,6.8213,0.4212,54.895889,9.794493,108.3,5.845,1.85,335.95,54.896843,9.791983,54.895069,9.793790
1386864005,1,0,545.9,0,-32,-16,0,0,25,-0.0292,162.0256,6.8213,0.4212,54.895870,9.794502,108.3,5.845,1.85,335.95,54.896843,9.791983,54.895069,9.793790
1386864005,1,0,545.9,0,-24,-20,0,0,0,-0.0292,168.4256,6.8213,0.4212,54.895851,9.794509,108.3,5.845,1.85,335.95,54.896843,9.791983,54.895069,9.793790
1386864005,1,0,545.9,0,-18,-16,0,0,25,-0.0292,173.2256,6.8213,0.4212,54.895836,9.794513,108.3,5.845,1.85,335.95,54.896843,9.791983,54.895069,9.793790
1386864006,1,0,545.9,0,-13,-12,0,0,0,-0.0292,176.6922,6.8213,0.4212,54.895817,9.794515,108.3,5.845,1.85,335.95,54.896843,9.791983,54.895069,9.793790
1386864006,1,0,545.9,0,-9,-8,0,0,25,-0.0292,179.0922,6.8213,0.4212,54.895798,9.794516,108.3,5.845,1.85,335.95,54.896843,9.791983,54.895069,9.793790
1386864006,1,0,545.9,0,-7,-4,0,409,50,-0.0292,180.9589,6.8213,0.4212,54.895779,9.794516,108.3,5.845,1.85,335.95,54.896843,9.791983,54.895069,9.793790
1386864006,1,0,545.9,0,-5,-8,0,409,75,-0.0292,182.2922,6.8213,0.4212,54.895763,9.794515,108.3,5.845,1.85,335.95,54.896843,9.791983,54.895069,9.793790
1386864007,1,0,545.9,0,-4,-4,0,409,100,-0.0292,183.3589,6.8213,0.4212,54.895744,9.794514,108.3,5.845,1.85,335.95,54.896843,9.791983,54.895069,9.793790
1386864007,1,0,545.9,0,-3,0,0,409,125,-0.0292,184.1589,6.8213,0.4212,54.895725,9.794512,108.3,5.845,1.85,335.95,54.896843,9.791983,54.895069,9.793790
1386864007,1,0,545.9,0,-2,-4,0,409,150,-0.0292,184.6922,6.8213,0.4212,54.895710,9.794510,108.3,5.845,1.85,335.95,54.896843,9.791983,54.895069,9.793790
1386864007,1,0,545.9,0,-1,0,0,409,175,-0.0292,184.9589,6.8213,0.4212,54.895691,9.794508,108.3,5.845,1.85,335.95,54.896843,9.791983,54.895069,9.793790
1386864008,1,0,545.9,0,-1,-4,0,409,200,-0.0292,185.2255,6.8213,0.4212,54.895672,9.794505,108.3,5.845,1.85,335.95,54.896843,9.791983,54.895069,9.793790
1386864008,1,0,545.9,0,-1,0,0,409,225,-0.0292,185.4922,6.8213,0.4212,54.895653,9.794502,108.3,5.845,1.85,335.95,54.896843,9.791983,54.895069,9.793790
1386864008,1,0,545.9,0,0,4,0,409,250,-0.0292,185.4922,6.8213,0.4212,54.895638,9.794499,108.3,5.845,1.85,335.95,54.896843,9.791983,54.895069,9.793790
1386864008,1,0,545.9,0,0,0,0,409,275,-0.0292,185.4922,6.8213,0.4212,54.895618,9.794497,108.3,5.845,1.85,335.95,54.896843,9.791983,54.895069,9.793790
1386864009,1,0,545.9,0,0,4,0,409,300,-0.0292,185.4922,6.8213,0.4212,54.895599,9.794494,108.3,5.845,1.85,335.95,54.896843,9.791983,54.895069,9.793790
1386864009,1,0,545.9,0,0,0,0,409,325,-0.0292,185.4922,6.8213,0.4212,54.895580,9.794491,108.3,5.845,1.85,335.95,54.896843,9.791983,54.895069,9.793790
1386864009,1,0,546.0,0,-1,-4,0,409,350,-0.0292,185.7589,6.8213,0.4212,54.895565,9.794488,108.3,5.845,1.85,335.95,54.896843,9.791983,54.895069,9.793790
1386864009,1,0,579.2,0,-33,-8,0,409,375,-0.0292,194.5589,6.8213,0.4212,54.895546,9.794480,108.3,5.845,1.85,335.95,54.896843,9.791983,54.895069,9.793790
1386864010,1,0,580.0,0,-25,-12,0,409,400,-0.0292,201.2255,6.8213,0.4212,54.895527,9.794469,108.3,5.845,1.85,335.95,54.896843,9.791983,54.895069,9.793790
1386864010,1,0,580.6,0,-19,-16,0,578,425,-0.0292,206.2922,6.8213,0.4212,54.895512,9.794456,108.3,5.845,1.85,335.95,54.896843,9.791983,54.895069,9.793790
1386864010,1,0,581.0,0,-15,-12,0,567,450,-0.0292,210.2922,6.8213,0.4212,54.895493,9.794440,108.3,5.845,1.85,335.95,54.896843,9.791983,54.895069,9.793790
1386864010,1,0,581.6,0,-11,-8,0,538,475,-0.0292,213.2255,6.8213,0.4212,54.895477,9.794423,108.3,5.845,1.85,335.95,54.896843,9.791983,54.895069,9.793790
1386864011,1,0,581.9,0,-9,-12,0,515,500,-0.0292,215.6255,6.8213,0.4212,54.895462,9.794405,108.3,5.845,1.85,335.95,54.896843,9.791983,54.895069,9.793790
1386864011,1,0,582.2,0,-7,-8,0,496,475,-0.0292,217.4922,6.8213,0.4212,54.895451,9.794386,108.3,5.845,1.85,335.95,54.896843,9.791983,54.895069,9.793790
1386864011,1,0,582.1,0,-5,-4,0,481,500,-0.0292,218.8255,6.8213,0.4212,54.895435,9.794367,108.3,5.845,1.85,335.95,54.896843,9.791983,54.895069,9.793790
1386864011,1,0,582.4,0,-4,0,0,470,475,-0.0292,219.8922,6.8213,0.4212,54.895424,9.794347,108.3,5.845,1.85,335.95,54.896843,9.791983,54.895069,9.793790
1386864012,1,0,582.3,0,-2,-4,0,461,450,-0.0292,220.4255,6.8213,0.4212,54.895409,9.794326,108.3,5.845,1.85,335.95,54.896843,9.791983,54.895069,9.793790
1386864012,1,0,582.4,0,-2,0,0,456,475,-0.0292,220.9589,6.8213,0.4212,54.895397,9.794306,108.3,5.845,1.85,335.95,54.896843,9.791983,54.895069,9.793790
1386864012,1,0,582.3,0,-1,-4,0,452,450,-0.0292,221.2255,6.8213,0.4212,54.895382,9.794285,108.3,5.845,1.85,335.95,54.896843,9.791983,54.895069,9.793790
1386864012,1,0,582.5,0,-1,0,0,450,475,-0.0292,221.4922,6.8213,0.4212,54.895370,9.794264,108.3,5.845,1.85,335.95,54.896843,9.791983,54.895069,9.793790
1386864013,1,0,582.3,0,-1,-4,0,448,450,-0.0292,221.7589,6.8213,0.4212,54.895355,9.794243,108.3,5.845,1.85,335.95,54.896843,9.791983,54.895069,9.793790
1386864013,1,0,582.5,0,-1,0,0,445,425,-0.0292,222.0255,6.8213,0.4212,54.895344,9.794222,108.3,5.845,1.85,335.95,54.896843,9.791983,54.895069,9.793790
1386864013,1,0,582.3,0,0,4,0,443,450,-0.0292,222.0255,6.8213,0.4212,54.895329,9.794201,108.3,5.845,1.85,335.95,54.896843,9.791983,54.895069,9.793790
1386864013,1,0,582.5,0,0,0,0,443,425,-0.0292,222.0255,6.8213,0.4212,54.895317,9.794180,108.3,5.845,1.85,335.95,54.896843,9.791983,54.895069,9.793790
1386864014,1,0,582.3,0,0,4,0,443,450,-0.0292,222.0255,6.8213,0.4212,54.895302,9.794159,108.3,5.845,1.85,335.95,54.896843,9.791983,54.895069,9.793790
1386864014,1,0,582.5,0,-1,0,0,443,425,-0.0292,222.2922,6.8213,0.4212,54.895287,9.794138,108.3,5.845,1.85,335.95,54.896843,9.791983,54.895069,9.793790
1386864014,1,0,582.8,0,-1,-4,0,441,450,-0.0292,222.5589,6.8213,0.4212,54.895275,9.794117,108.3,5.845,1.85,335.95,54.896843,9.791983,54.895069,9.793790
1386864014,1,0,582.6,0,0,0,0,439,425,-0.0292,222.5589,6.8213,0.4212,54.895260,9.794096,108.3,5.845,1.85,335.95,54.896843,9.791983,54.895069,9.793790
1386864015,1,0,582.9,0,0,4,0,439,450,-0.0292,222.5589,6.8213,0.4212,54.895248,9.794075,108.3,5.845,1.85,335.95,54.896843,9.791983,54.895069,9.793790
1386864015,1,0,582.6,0,0,0,0,439,425,-0.0292,222.5589,6.8213,0.4212,54.895233,9.794054,108.3,5.845,1.85,335.95,54.896843,9.791983,54.895069,9.793790
1386864015,1,0,583.0,0,0,4,0,439,450,-0.0292,222.5589,6.8213,0.4212,54.895222,9.794033,108.3,5.845,1.85,335.95,54.896843,9.791983,54.895069,9.793790
1386864015,1,0,582.7,0,0,0,0,439,425,-0.0292,222.5589,6.8213,0.4212,54.895206,9.794012,108.3,5.845,1.85,335.95,54.896843,9.791983,54.895069,9.793790
1386864016,1,0,583.1,0,-1,-4,0,439,450,-0.0292,222.8255,6.8213,0.4212,54.895195,9.793990,108.3,5.845,1.85,335.95,54.896843,9.791983,54.895069,9.793790
1386864016,1,0,582.6,0,0,0,0,436,425,-0.0292,222.8255,6.8213,0.4212,54.895180,9.793969,108.3,5.845,1.85,335.95,54.896843,9.791983,54.895069,9.793790
1386864016,1,0,583.2,0,0,4,0,436,450,-0.0292,222.8255,6.8213,0.4212,54.895168,9.793947,108.3,5.845,1.85,335.95,54.896843,9.791983,54.895069,9.793790
1386864016,1,0,582.6,0,0,0,0,436,425,-0.0292,222.8255,6.8213,0.4212,54.895153,9.793926,108.3,5.845,1.85,335.95,54.896843,9.791983,54.895069,9.793790
1386864017,1,0,583.2,0,0,4,0,436,450,-0.0292,222.8255,6.8213,0.4212,54.895138,9.793904,108.3,5.845,1.85,335.95,54.896843,9.791983,54.895069,9.793790
1386864017,1,0,584.0,0,-1,0,0,436,425,-0.0292,223.0922,6.8213,0.4212,54.895126,9.793883,108.3,5.845,1.85,335.95,54.896843,9.791983,54.895069,9.793790
1386864017,1,0,583.4,0,0,4,0,434,450,-0.0292,223.0922,6.8213,0.4212,54.895111,9.793861,108.3,5.845,1.85,335.95,54.896843,9.791983,54.895069,9.793790
1386864017,1,0,584.6,0,-2,0,0,434,425,-0.0292,223.6255,6.8213,0.4212,54.895100,9.793840,108.3,5.845,1.85,335.95,54.896843,9.791983,54.895069,9.793790
1386864018,1,0,583.8,0,0,4,0,429,450,-0.0292,223.6255,6.8213,0.4212,54.895084,9.793818,108.3,5.845,1.85,335.95,54.895069,9.793790,54.895348,9.797490
1386864018,1,0,545.9,0,35,8,0,429,425,-0.0292,214.2922,6.8213,0.4212,54.895069,9.793801,108.3,5.845,1.85,335.95,54.895069,9.793790,54.895348,9.797490
1386864018,1,0,545.9,0,28,12,0,506,450,-0.0292,206.8255,6.8213,0.4212,54.895050,9.793787,108.3,5.845,1.85,335.95,54.895069,9.793790,54.895348,9.797490
1386864018,1,0,545.9,0,21,16,0,563,475,-0.0292,201.2255,6.8213,0.4212,54.895031,9.793777,108.3,5.845,1.85,335.95,54.895069,9.793790,54.895348,9.797490
1386864019,1,0,545.9,0,15,12,0,578,500,-0.0292,197.2255,6.8213,0.4212,54.895012,9.793768,108.3,5.845,1.85,335.95,54.895069,9.793790,54.895348,9.797490
1386864019,1,0,545.9,0,11,8,0,409,475,-0.0292,194.2922,6.8213,0.4212,54.894997,9.793760,108.3,5.845,1.85,335.95,54.895069,9.793790,54.895348,9.797490
1386864019,1,0,545.9,0,8,12,0,409,450,-0.0292,192.1589,6.8213,0.4212,54.894978,9.793754,108.3,5.845,1.85,335.95,54.895069,9.793790,54.895348,9.797490
1386864019,1,0,545.9,0,6,8,0,0,425,-0.0292,190.5589,6.8213,0.4212,54.894958,9.793748,108.3,5.845,1.85,335.95,54.895069,9.793790,54.895348,9.797490
1386864020,1,0,545.9,0,5,4,0,0,400,-0.0292,189.2255,6.8213,0.4212,54.894939,9.793742,108.3,5.845,1.85,335.95,54.895069,9.793790,54.895348,9.797490
1386864020,1,0,545.9,0,3,0,0,0,375,-0.0292,188.4255,6.8213,0.4212,54.894924,9.793738,108.3,5.845,1.85,335.95,54.895069,9.793790,54.895348,9.797490
1386864020,1,0,545.9,0,2,4,0,0,350,-0.0292,187.8922,6.8213,0.4212,54.894905,9.793735,108.3,5.845,1.85,335.95,54.895069,9.793790,54.895348,9.797490
1386864020,1,0,545.9,0,2,0,0,0,325,-0.0292,187.3588,6.8213,0.4212,54.894886,9.793731,108.3,5.845,1.85,335.95,54.895069,9.793790,54.895348,9.797490
1386864021,1,0,545.9,0,1,4,0,0,300,-0.0292,187.0922,6.8213,0.4212,54.894867,9.793727,108.3,5.845,1.85,335.95,54.895069,9.793790,54.895348,9.797490
1386864021,1,0,545.9,0,1,0,0,0,275,-0.0292,186.8255,6.8213,0.4212,54.894852,9.793723,108.3,5.845,1.85,335.95,54.895069,9.793790,54.895348,9.797490
1386864021,1,0,545.9,0,1,4,0,0,250,-0.0292,186.5589,6.8213,0.4212,54.894833,9.793719,108.3,5.845,1.85,335.95,54.895069,9.793790,54.895348,9.797490
1386864021,1,0,545.9,0,1,0,0,0,225,-0.0292,186.2922,6.8213,0.4212,54.894814,9.793715,108.3,5.845,1.85,335.95,54.895069,9.793790,54.895348,9.797490
1386864022,1,0,545.9,0,0,4,0,0,200,-0.0292,186.2922,6.8213,0.4212,54.894794,9.793712,108.3,5.845,1.85,335.95,54.895069,9.793790,54.895348,9.797490
1386864022,1,0,545.9,0,0,0,0,0,175,-0.0292,186.2922,6.8213,0.4212,54.894779,9.793708,108.3,5.845,1.85,335.95,54.895069,9.793790,54.895348,9.797490
1386864022,1,0,545.9,0,0,4,0,0,150,-0.0292,186.2922,6.8213,0.4212,54.894760,9.793704,108.3,5.845,1.85,335.95,54.895069,9.793790,54.895348,9.797490
1386864022,1,0,545.9,0,0,0,0,0,125,-0.0292,186.2922,6.8213,0.4212,54.894741,9.793700,108.3,5.845,1.85,335.95,54.895069,9.793790,54.895348,9.797490
1386864023,1,0,545.9,0,0,4,0,0,100,-0.0292,186.2922,6.8213,0.4212,54.894722,9.793697,108.3,5.845,1.85,335.95,54.895069,9.793790,54.895348,9.797490
1386864023,1,0,545.9,0,0,0,0,0,75,-0.0292,186.2922,6.8213,0.4212,54.894707,9.793694,108.3,5.845,1.85,335.95,54.895069,9.793790,54.895348,9.797490
1386864023,1,0,545.9,0,0,4,0,0,50,-0.0292,186.2922,6.8213,0.4212,54.894688,9.793692,108.3,5.845,1.85,335.95,54.895069,9.793790,54.895348,9.797490
1386864023,1,0,545.9,0,0,0,0,0,25,-0.0292,186.2922,6.8213,0.4212,54.894669,9.793689,108.3,5.845,1.85,335.95,54.895069,9.793790,54.895348,9.797490
1386864024,1,0,545.9,0,0,4,0,0,0,-0.0292,186.2922,6.8213,0.4212,54.894653,9.793686,108.3,5.845,1.85,335.95,54.895069,9.793790,54.895348,9.797490
1386864024,1,0,545.9,0,0,0,0,0,25,-0.0292,186.2922,6.8213,0.4212,54.894634,9.793683,108.3,5.845,1.85,335.95,54.895069,9.793790,54.895348,9.797490
1386864024,1,0,485.9,0,35,4,0,0,0,-0.0292,176.9589,6.8213,0.4212,54.894615,9.793685,108.3,5.845,1.85,335.95,54.895069,9.793790,54.895348,9.797490
1386864024,1,0,485.9,0,35,8,0,0,25,-0.0292,167.6255,6.8213,0.4212,54.894596,9.793692,108.3,5.845,1.85,335.95,54.895069,9.793790,54.895348,9.797490
1386864025,1,0,485.9,0,35,12,0,0,0,-0.0292,158.2922,6.8213,0.4212,54.894581,9.793703,108.3,5.845,1.85,335.95,54.895069,9.793790,54.895348,9.797490
1386864025,1,0,485.9,0,32,16,0,0,25,-0.0292,149.7589,6.8213,0.4212,54.894566,9.793718,108.3,5.845,1.85,335.95,54.895069,9.793790,54.895348,9.797490
1386864025,1,0,485.9,0,24,20,0,0,0,-0.0292,143.3589,6.8213,0.4212,54.894550,9.793736,108.3,5.845,1.85,335.95,54.895069,9.793790,54.895348,9.797490
1386864025,1,0,485.9,0,17,16,0,0,25,-0.0292,138.8255,6.8213,0.4212,54.894539,9.793757,108.3,5.845,1.85,335.95,54.895069,9.793790,54.895348,9.797490
1386864026,1,0,485.9,0,13,12,0,0,0,-0.0292,135.3589,6.8213,0.4212,54.894527,9.793779,108.3,5.845,1.85,335.95,54.895069,9.793790,54.895348,9.797490
1386864026,1,0,485.9,0,9,8,0,0,25,-0.0292,132.9589,6.8213,0.4212,54.894516,9.793802,108.3,5.845,1.85,335.95,54.895069,9.793790,54.895348,9.797490
1386864026,1,0,485.9,0,7,4,0,409,50,-0.0292,131.0922,6.8213,0.4212,54.894505,9.793825,108.3,5.845,1.85,335.95,54.895069,9.793790,54.895348,9.797490
1386864026,1,0,485.9,0,5,8,0,409,75,-0.0292,129.7589,6.8213,0.4212,54.894489,9.793850,108.3,5.845,1.85,335.95,54.895069,9.793790,54.895348,9.797490
1386864027,1,0,485.9,0,4,4,0,409,100,-0.0292,128.6922,6.8213,0.4212,54.894478,9.793874,108.3,5.845,1.85,335.95,54.895069,9.793790,54.895348,9.797490
1386864027,1,0,485.9,0,3,0,0,409,125,-0.0292,127.8922,6.8213,0.4212,54.894470,9.793899,108.3,5.845,1.85,335.95,54.895069,9.793790,54.895348,9.797490
1386864027,1,0,485.9,0,2,4,0,409,150,-0.0292,127.3589,6.8213,0.4212,54.894459,9.793923,108.3,5.845,1.85,335.95,54.895069,9.793790,54.895348,9.797490
1386864027,1,0,485.9,0,1,0,0,409,175,-0.0292,127.0922,6.8213,0.4212,54.894447,9.793948,108.3,5.845,1.85,335.95,54.895069,9.793790,54.895348,9.797490
1386864028,1,0,485.9,0,1,4,0,409,200,-0.0292,126.8255,6.8213,0.4212,54.894436,9.793973,108.3,5.845,1.85,335.95,54.895069,9.793790,54.895348,9.797490
1386864028,1,0,485.9,0,1,0,0,409,225,-0.0292,126.5589,6.8213,0.4212,54.894424,9.793998,108.3,5.845,1.85,335.95,54.895069,9.793790,54.895348,9.797490
1386864028,1,0,485.9,0,1,4,0,409,250,-0.0292,126.2922,6.8213,0.4212,54.894417,9.794024,108.3,5.845,1.85,335.95,54.895069,9.793790,54.895348,9.797490
1386864028,1,0,485.9,0,0,0,0,409,275,-0.0292,126.2922,6.8213,0.4212,54.894405,9.794048,108.3,5.845,1.85,335.95,54.895069,9.793790,54.895348,9.797490
1386864029,1,0,485.9,0,0,4,0,409,300,-0.0292,126.2922,6.8213,0.4212,54.894394,9.794073,108.3,5.845,1.85,335.95,54.895069,9.793790,54.895348,9.797490
1386864029,1,0,485.9,0,0,0,0,409,325,-0.0292,126.2922,6.8213,0.4212,54.894382,9.794099,108.3,5.845,1.85,335.95,54.895069,9.793790,54.895348,9.797490
1386864029,1,0,442.9,0,35,4,0,409,350,-0.0292,116.9589,6.8213,0.4212,54.894371,9.794127,108.3,5.845,1.85,335.95,54.895069,9.793790,54.895348,9.797490
1386864030,1,0,423.4,0,35,8,0,409,375,-0.0292,107.6255,6.8213,0.4212,54.894367,9.794157,108.3,5.845,1.85,335.95,54.895069,9.793790,54.895348,9.797490
1386864030,1,0,423.1,0,35,12,0,578,400,-0.0292,98.2922,6.8213,0.4212,54.894363,9.794188,108.3,5.845,1.85,335.95,54.895069,9.793790,54.895348,9.797490
1386864030,1,0,422.8,0,35,16,0,512,425,-0.0292,88.9589,6.8213,0.4212,54.894363,9.794219,108.3,5.845,1.85,335.95,54.895069,9.793790,54.895348,9.797490
1386864030,1,0,422.5,0,26,20,0,435,450,-0.0292,82.0255,6.8213,0.4212,54.894363,9.794250,108.3,5.845,1.85,335.95,54.895069,9.793790,54.895348,9.797490
1386864031,1,0,422.3,0,20,24,0,375,425,-0.0292,76.6922,6.8213,0.4212,54.894367,9.794280,108.3,5.845,1.85,335.95,54.895069,9.793790,54.895348,9.797490
1386864031,1,0,422.2,0,15,20,0,327,400,-0.0292,72.6922,6.8213,0.4212,54.894371,9.794310,108.3,5.845,1.85,335.95,54.895069,9.793790,54.895348,9.797490
1386864031,1,0,422.0,0,11,16,0,291,375,-0.0292,69.7589,6.8213,0.4212,54.894379,9.794338,108.3,5.845,1.85,335.95,54.895069,9.793790,54.895348,9.797490
1386864031,1,0,422.0,0,8,12,0,264,350,-0.0292,67.6255,6.8213,0.4212,54.894386,9.794368,108.3,5.845,1.85,335.95,54.895069,9.793790,54.895348,9.797490
1386864032,1,0,422.0,0,6,8,0,244,325,-0.0292,66.0255,6.8213,0.4212,54.894394,9.794396,108.3,5.845,1.85,335.95,54.895069,9.793790,54.895348,9.797490
1386864032,1,0,422.0,0,4,4,0,230,300,-0.0292,64.9589,6.8213,0.4212,54.894402,9.794424,108.3,5.845,1.85,335.95,54.895069,9.793790,54.895348,9.797490
1386864032,1,0,421.9,0,3,0,0,220,275,-0.0292,64.1589,6.8213,0.4212,54.894409,9.794453,108.3,5.845,1.85,335.95,54.895069,9.793790,54.895348,9.797490
1386864032,1,0,421.9,0,2,4,0,213,250,-0.0292,63.6255,6.8213,0.4212,54.894417,9.794480,108.3,5.845,1.85,335.95,54.895069,9.793790,54.895348,9.797490
1386864033,1,0,421.9,0,2,0,0,208,225,-0.0292,63.0922,6.8213,0.4212,54.894424,9.794508,108.3,5.845,1.85,335.95,54.895069,9.793790,54.895348,9.797490
1386864033,1,0,421.9,0,1,4,0,203,200,-0.0292,62.8255,6.8213,0.4212,54.894436,9.794536,108.3,5.845,1.85,335.95,54.895069,9.793790,54.895348,9.797490
1386864033,1,0,421.9,0,1,0,0,200,225,-0.0292,62.5589,6.8213,0.4212,54.894444,9.794563,108.3,5.845,1.85,335.95,54.895069,9.793790,54.895348,9.797490
1386864033,1,0,421.9,0,1,4,0,198,200,-0.0292,62.2922,6.8213,0.4212,54.894451,9.794591,108.3,5.845,1.85,335.95,54.895069,9.793790,54.895348,9.797490
1386864034,1,0,421.9,0,0,0,0,195,175,-0.0292,62.2922,6.8213,0.4212,54.894463,9.794619,108.3,5.845,1.85,335.95,54.895069,9.793790,54.895348,9.797490
1386864034,1,0,422.0,0,0,4,0,195,200,-0.0292,62.2922,6.8213,0.4212,54.894470,9.794646,108.3,5.845,1.85,335.95,54.895069,9.793790,54.895348,9.797490
1386864034,1,0,421.9,0,0,0,0,195,175,-0.0292,62.2922,6.8213,0.4212,54.894478,9.794673,108.3,5.845,1.85,335.95,54.895069,9.793790,54.895348,9.797490
1386864034,1,0,421.9,0,0,4,0,195,200,-0.0292,62.2922,6.8213,0.4212,54.894489,9.794701,108.3,5.845,1.85,335.95,54.895069,9.793790,54.895348,9.797490
1386864035,1,0,422.0,0,0,0,0,195,175,-0.0292,62.2922,6.8213,0.4212,54.894497,9.794728,108.3,5.845,1.85,335.95,54.895069,9.793790,54.895348,9.797490
1386864035,1,0,422.0,0,0,4,0,195,200,-0.0292,62.2922,6.8213,0.4212,54.894505,9.794756,108.3,5.845,1.85,335.95,54.895069,9.793790,54.895348,9.797490
1386864035,1,0,421.9,0,0,0,0,195,175,-0.0292,62.2922,6.8213,0.4212,54.894512,9.794784,108.3,5.845,1.85,335.95,54.895069,9.793790,54.895348,9.797490
1386864035,1,0,421.9,0,0,4,0,195,200,-0.0292,62.2922,6.8213,0.4212,54.894520,9.794811,108.3,5.845,1.85,335.95,54.895069,9.793790,54.895348,9.797490
1386864036,1,0,421.9,0,0,0,0,195,175,-0.0292,62.2922,6.8213,0.4212,54.894527,9.794839,108.3,5.845,1.85,335.95,54.895069,9.793790,54.895348,9.797490
1386864036,1,0,421.9,0,0,4,0,195,200,-0.0292,62.2922,6.8213,0.4212,54.894539,9.794867,108.3,5.845,1.85,335.95,54.895069,9.793790,54.895348,9.797490
1386864036,1,0,422.0,0,0,0,0,195,175,-0.0292,62.2922,6.8213,0.4212,54.894547,9.794894,108.3,5.845,1.85,335.95,54.895069,9.793790,54.895348,9.797490
1386864036,1,0,421.9,0,0,4,0,195,200,-0.0292,62.2922,6.8213,0.4212,54.894558,9.794922,108.3,5.845,1.85,335.95,54.895069,9.793790,54.895348,9.797490
1386864037,1,0,422.0,0,0,0,0,195,175,-0.0292,62.2922,6.8213,0.4212,54.894566,9.794950,108.3,5.845,1.85,335.95,54.895069,9.793790,54.895348,9.797490
1386864037,1,0,422.0,0,0,4,0,195,200,-0.0292,62.2922,6.8213,0.4212,54.894573,9.794977,108.3,5.845,1.85,335.95,54.895069,9.793790,54.895348,9.797490
1386864037,1,0,422.0,0,0,0,0,195,175,-0.0292,62.2922,6.8213,0.4212,54.894585,9.795005,108.3,5.845,1.85,335.95,54.895069,9.793790,54.895348,9.797490
1386864037,1,0,422.1,0,0,4,0,195,200,-0.0292,62.2922,6.8213,0.4212,54.894592,9.795033,108.3,5.845,1.85,335.95,54.895069,9.793790,54.895348,9.797490
1386864038,1,0,422.0,0,0,0,0,195,175,-0.0292,62.2922,6.8213,0.4212,54.894600,9.795059,108.3,5.845,1.85,335.95,54.895069,9.793790,54.895348,9.797490
1386864038,1,0,422.0,0,0,4,0,195,200,-0.0292,62.2922,6.8213,0.4212,54.894611,9.795087,108.3,5.845,1.85,335.95,54.895069,9.793790,54.895348,9.797490
1386864038,1,0,422.1,0,0,0,0,195,175,-0.0292,62.2922,6.8213,0.4212,54.894619,9.795115,108.3,5.845,1.85,335.95,54.895069,9.793790,54.895348,9.797490
1386864038,1,0,422.1,0,0,4,0,195,200,-0.0292,62.2922,6.8213,0.4212,54.894627,9.795142,108.3,5.845,1.85,335.95,54.895069,9.793790,54.895348,9.797490
1386864039,1,0,422.0,0,0,0,0,195,175,-0.0292,62.2922,6.8213,0.4212,54.894634,9.795170,108.3,5.845,1.85,335.95,54.895069,9.793790,54.895348,9.797490
1386864039,1,0,422.0,0,0,4,0,195,200,-0.0292,62.2922,6.8213,0.4212,54.894642,9.795197,108.3,5.845,1.85,335.95,54.895069,9.793790,54.895348,9.797490
1386864039,1,0,422.0,0,0,0,0,195,175,-0.0292,62.2922,6.8213,0.4212,54.894650,9.795225,108.3,5.845,1.85,335.95,54.895069,9.793790,54.895348,9.797490
1386864039,1,0,422.0,0,0,4,0,195,200,-0.0292,62.2922,6.8213,0.4212,54.894661,9.795253,108.3,5.845,1.85,335.95,54.895069,9.793790,54.895348,9.797490
1386864040,1,0,422.1,0,0,0,0,195,175,-0.0292,62.2922,6.8213,0.4212,54.894669,9.795280,108.3,5.845,1.85,335.95,54.895069,9.793790,54.895348,9.797490
1386864040,1,0,422.0,0,0,4,0,195,200,-0.0292,62.2922,6.8213,0.4212,54.894676,9.795308,108.3,5.845,1.85,335.95,54.895069,9.793790,54.895348,9.797490
1386864040,1,0,422.0,0,0,0,0,195,175,-0.0292,62.2922,6.8213,0.4212,54.894684,9.795336,108.3,5.845,1.85,335.95,54.895069,9.793790,54.895348,9.797490
1386864040,1,0,422.0,0,0,4,0,195,200,-0.0292,62.2922,6.8213,0.4212,54.894691,9.795363,108.3,5.845,1.85,335.95,54.895069,9.793790,54.895348,9.797490
1386864041,1,0,421.9,0,0,0,0,195,175,-0.0292,62.2922,6.8213,0.4212,54.894699,9.795391,108.3,5.845,1.85,335.95,54.895069,9.793790,54.895348,9.797490
1386864041,1,0,421.9,0,0,4,0,195,200,-0.0292,62.2922,6.8213,0.4212,54.894711,9.795419,108.3,5.845,1.85,335.95,54.895069,9.793790,54.895348,9.797490
1386864041,1,0,422.0,0,0,0,0,195,175,-0.0292,62.2922,6.8213,0.4212,54.894718,9.795445,108.3,5.845,1.85,335.95,54.895069,9.793790,54.895348,9.797490
1386864041,1,0,422.0,0,0,4,0,195,200,-0.0292,62.2922,6.8213,0.4212,54.894726,9.795473,108.3,5.845,1.85,335.95,54.895069,9.793790,54.895348,9.797490
1386864042,1,0,422.0,0,0,0,0,195,175,-0.0292,62.2922,6.8213,0.4212,54.894733,9.795501,108.3,5.845,1.85,335.95,54.895069,9.793790,54.895348,9.797490
1386864042,1,0,421.9,0,0,4,0,195,200,-0.0292,62.2922,6.8213,0.4212,54.894741,9.795528,108.3,5.845,1.85,335.95,54.895069,9.793790,54.895348,9.797490
1386864042,1,0,421.9,0,0,0,0,195,175,-0.0292,62.2922,6.8213,0.4212,54.894749,9.795556,108.3,5.845,1.85,335.95,54.895069,9.793790,54.895348,9.797490
1386864042,1,0,421.8,0,0,4,0,195,200,-0.0292,62.2922,6.8213,0.4212,54.894760,9.795584,108.3,5.845,1.85,335.95,54.895069,9.793790,54.895348,9.797490
1386864043,1,0,422.0,0,0,0,0,195,175,-0.0292,62.2922,6.8213,0.4212,54.894768,9.795611,108.3,5.845,1.85,335.95,54.895069,9.793790,54.895348,9.797490
1386864043,1,0,421.9,0,0,4,0,195,200,-0.0292,62.2922,6.8213,0.4212,54.894779,9.795639,108.3,5.845,1.85,335.95,54.895069,9.793790,54.895348,9.797490
1386864043,1,0,422.0,0,0,0,0,195,175,-0.0292,62.2922,6.8213,0.4212,54.894787,9.795667,108.3,5.845,1.85,335.95,54.895069,9.793790,54.895348,9.797490
1386864043,1,0,422.0,0,0,4,0,195,200,-0.0292,62.2922,6.8213,0.4212,54.894794,9.795694,108.3,5.845,1.85,335.95,54.895069,9.793790,54.895348,9.797490
1386864044,1,0,422.0,0,0,0,0,195,175,-0.0292,62.2922,6.8213,0.4212,54.894806,9.795722,108.3,5.845,1.85,335.95,54.895069,9.793790,54.895348,9.797490
1386864044,1,0,422.1,0,0,4,0,195,200,-0.0292,62.2922,6.8213,0.4212,54.894814,9.795750,108.3,5.845,1.85,335.95,54.895069,9.793790,54.895348,9.797490
1386864044,1,0,422.1,0,0,0,0,195,175,-0.0292,62.2922,6.8213,0.4212,54.894821,9.795777,108.3,5.845,1.85,335.95,54.895069,9.793790,54.895348,9.797490
1386864044,1,0,422.0,0,0,4,0,195,200,-0.0292,62.2922,6.8213,0.4212,54.894833,9.795805,108.3,5.845,1.85,335.95,54.895069,9.793790,54.895348,9.797490
1386864045,1,0,422.2,0,0,0,0,195,175,-0.0292,62.2922,6.8213,0.4212,54.894840,9.795833,108.3,5.845,1.85,335.95,54.895069,9.793790,54.895348,9.797490
1386864045,1,0,422.1,0,0,4,0,195,200,-0.0292,62.2922,6.8213,0.4212,54.894848,9.795860,108.3,5.845,1.85,335.95,54.895069,9.793790,54.895348,9.797490
1386864045,1,0,422.1,0,0,0,0,195,175,-0.0292,62.2922,6.8213,0.4212,54.894855,9.795888,108.3,5.845,1.85,335.95,54.895069,9.793790,54.895348,9.797490
1386864045,1,0,422.0,0,0,4,0,195,200,-0.0292,62.2922,6.8213,0.4212,54.894863,9.795916,108.3,5.845,1.85,335.95,54.895069,9.793790,54.895348,9.797490
1386864046,1,0,422.0,0,0,0,0,195,175,-0.0292,62.2922,6.8213,0.4212,54.894871,9.795943,108.3,5.845,1.85,335.95,54.895069,9.793790,54.895348,9.797490
1386864046,1,0,422.0,0,0,4,0,195,200,-0.0292,62.2922,6.8213,0.4212,54.894882,9.795971,108.3,5.845,1.85,335.95,54.895069,9.793790,54.895348,9.797490
1386864046,1,0,422.1,0,0,0,0,195,175,-0.0292,62.2922,6.8213,0.4212,54.894890,9.795999,108.3,5.845,1.85,335.95,54.895069,9.793790,54.895348,9.797490
1386864046,1,0,422.1,0,0,4,0,195,200,-0.0292,62.2922,6.8213,0.4212,54.894897,9.796026,108.3,5.845,1.85,335.95,54.895069,9.793790,54.895348,9.797490
1386864047,1,0,422.0,0,0,0,0,195,175,-0.0292,62.2922,6.8213,0.4212,54.894905,9.796054,108.3,5.845,1.85,335.95,54.895069,9.793790,54.895348,9.797490
1386864047,1,0,422.0,0,0,4,0,195,200,-0.0292,62.2922,6.8213,0.4212,54.894913,9.796082,108.3,5.845,1.85,335.95,54.895069,9.793790,54.895348,9.797490
1386864047,1,0,421.9,0,0,0,0,195,175,-0.0292,62.2922,6.8213,0.4212,54.894920,9.796109,108.3,5.845,1.85,335.95,54.895069,9.793790,54.895348,9.797490
1386864047,1,0,421.9,0,0,4,0,195,200,-0.0292,62.2922,6.8213,0.4212,54.894932,9.796137,108.3,5.845,1.85,335.95,54.895069,9.793790,54.895348,9.797490
1386864048,1,0,422.0,0,0,0,0,195,175,-0.0292,62.2922,6.8213,0.4212,54.894939,9.796165,108.3,5.845,1.85,335.95,54.895069,9.793790,54.895348,9.797490
1386864048,1,0,422.0,0,0,4,0,195,200,-0.0292,62.2922,6.8213,0.4212,54.894947,9.796192,108.3,5.845,1.85,335.95,54.895069,9.793790,54.895348,9.797490
1386864048,1,0,421.9,0,0,0,0,195,175,-0.0292,62.2922,6.8213,0.4212,54.894955,9.796220,108.3,5.845,1.85,335.95,54.895069,9.793790,54.895348,9.797490
1386864048,1,0,421.9,0,0,4,0,195,200,-0.0292,62.2922,6.8213,0.4212,54.894962,9.796247,108.3,5.845,1.85,335.95,54.895069,9.793790,54.895348,9.797490
1386864049,1,0,421.8,0,0,0,0,195,175,-0.0292,62.2922,6.8213,0.4212,54.894970,9.796275,108.3,5.845,1.85,335.95,54.895069,9.793790,54.895348,9.797490
1386864049,1,0,421.8,0,1,4,0,195,200,-0.0292,62.0255,6.8213,0.4212,54.894981,9.796302,108.3,5.845,1.85,335.95,54.895069,9.793790,54.895348,9.797490
1386864049,1,0,422.0,0,0,0,0,193,175,-0.0292,62.0255,6.8213,0.4212,54.894989,9.796329,108.3,5.845,1.85,335.95,54.895069,9.793790,54.895348,9.797490
1386864049,1,0,421.9,0,0,4,0,193,200,-0.0292,62.0255,6.8213,0.4212,54.895000,9.796357,108.3,5.845,1.85,335.95,54.895069,9.793790,54.895348,9.797490
1386864050,1,0,422.1,0,0,0,0,193,175,-0.0292,62.0255,6.8213,0.4212,54.895008,9.796385,108.3,5.845,1.85,335.95,54.895069,9.793790,54.895348,9.797490
1386864050,1,0,422.0,0,0,4,0,193,200,-0.0292,62.0255,6.8213,0.4212,54.895016,9.796412,108.3,5.845,1.85,335.95,54.895069,9.793790,54.895348,9.797490
1386864050,1,0,422.0,0,0,0,0,193,175,-0.0292,62.0255,6.8213,0.4212,54.895027,9.796440,108.3,5.845,1.85,335.95,54.895069,9.793790,54.895348,9.797490
1386864050,1,0,422.2,0,0,4,0,193,200,-0.0292,62.0255,6.8213,0.4212,54.895035,9.796468,108.3,5.845,1.85,335.95,54.895069,9.793790,54.895348,9.797490
1386864051,1,0,422.1,0,0,0,0,193,175,-0.0292,62.0255,6.8213,0.4212,54.895042,9.796495,108.3,5.845,1.85,335.95,54.895069,9.793790,54.895348,9.797490
1386864051,1,0,422.1,0,0,4,0,193,200,-0.0292,62.0255,6.8213,0.4212,54.895054,9.796523,108.3,5.845,1.85,335.95,54.895069,9.793790,54.895348,9.797490
1386864051,1,0,422.3,0,0,0,0,193,175,-0.0292,62.0255,6.8213,0.4212,54.895061,9.796551,108.3,5.845,1.85,335.95,54.895069,9.793790,54.895348,9.797490
1386864051,1,0,422.2,0,0,4,0,193,200,-0.0292,62.0255,6.8213,0.4212,54.895069,9.796578,108.3,5.845,1.85,335.95,54.895069,9.793790,54.895348,9.797490
1386864052,1,0,422.2,0,0,0,0,193,175,-0.0292,62.0255,6.8213,0.4212,54.895077,9.796605,108.3,5.845,1.85,335.95,54.895069,9.793790,54.895348,9.797490
1386864052,1,0,422.1,0,0,4,0,193,200,-0.0292,62.0255,6.8213,0.4212,54.895084,9.796633,108.3,5.845,1.85,335.95,54.895069,9.793790,54.895348,9.797490
1386864052,1,0,422.1,0,0,0,0,193,175,-0.0292,62.0255,6.8213,0.4212,54.895092,9.796660,108.3,5.845,1.85,335.95,54.895069,9.793790,54.895348,9.797490
1386864052,1,0,422.0,0,0,4,0,193,200,-0.0292,62.0255,6.8213,0.4212,54.895103,9.796688,108.3,5.845,1.85,335.95,54.895069,9.793790,54.895348,9.797490
1386864053,1,0,422.3,0,0,0,0,193,175,-0.0292,62.0255,6.8213,0.4212,54.895111,9.796716,108.3,5.845,1.85,335.95,54.895069,9.793790,54.895348,9.797490
1386864053,1,0,422.2,0,0,4,0,193,200,-0.0292,62.0255,6.8213,0.4212,54.895119,9.796743,108.3,5.845,1.85,335.95,54.895069,9.793790,54.895348,9.797490
1386864053,1,0,422.1,0,0,0,0,193,175,-0.0292,62.0255,6.8213,0.4212,54.895126,9.796771,108.3,5.845,1.85,335.95,54.895069,9.793790,54.895348,9.797490
1386864053,1,0,422.0,0,0,4,0,193,200,-0.0292,62.0255,6.8213,0.4212,54.895134,9.796799,108.3,5.845,1.85,335.95,54.895069,9.793790,54.895348,9.797490
1386864054,1,0,421.9,0,0,0,0,193,175,-0.0292,62.0255,6.8213,0.4212,54.895142,9.796826,108.3,5.845,1.85,335.95,54.895069,9.793790,54.895348,9.797490
1386864054,1,0,421.8,0,0,4,0,193,200,-0.0292,62.0255,6.8213,0.4212,54.895153,9.796854,108.3,5.845,1.85,335.95,54.895069,9.793790,54.895348,9.797490
1386864054,1,0,422.1,0,0,0,0,193,175,-0.0292,62.0255,6.8213,0.4212,54.895161,9.796882,108.3,5.845,1.85,335.95,54.895069,9.793790,54.895348,9.797490
1386864054,1,0,422.0,0,0,4,0,193,200,-0.0292,62.0255,6.8213,0.4212,54.895168,9.796909,108.3,5.845,1.85,335.95,54.895069,9.793790,54.895348,9.797490
1386864055,1,0,421.9,0,0,0,0,193,175,-0.0292,62.0255,6.8213,0.4212,54.895176,9.796937,108.3,5.845,1.85,335.95,54.895069,9.793790,54.895348,9.797490
1386864055,1,0,421.8,0,0,4,0,193,200,-0.0292,62.0255,6.8213,0.4212,54.895184,9.796965,108.3,5.845,1.85,335.95,54.895069,9.793790,54.895348,9.797490
1386864055,1,0,421.7,0,0,0,0,193,175,-0.0292,62.0255,6.8213,0.4212,54.895191,9.796991,108.3,5.845,1.85,335.95,54.895069,9.793790,54.895348,9.797490
1386864055,1,0,421.5,0,0,4,0,193,200,-0.0292,62.0255,6.8213,0.4212,54.895203,9.797019,108.3,5.845,1.85,335.95,54.895069,9.793790,54.895348,9.797490
1386864056,1,0,422.0,0,0,0,0,193,175,-0.0292,62.0255,6.8213,0.4212,54.895210,9.797047,108.3,5.845,1.85,335.95,54.895069,9.793790,54.895348,9.797490
1386864056,1,0,421.8,0,0,4,0,193,200,-0.0292,62.0255,6.8213,0.4212,54.895222,9.797073,108.3,5.845,1.85,335.95,54.895069,9.793790,54.895348,9.797490
1386864056,1,0,422.4,0,0,0,0,193,175,-0.0292,62.0255,6.8213,0.4212,54.895229,9.797101,108.3,5.845,1.85,335.95,54.895069,9.793790,54.895348,9.797490
1386864056,1,0,422.3,0,0,4,0,193,200,-0.0292,62.0255,6.8213,0.4212,54.895237,9.797129,108.3,5.845,1.85,335.95,54.895069,9.793790,54.895348,9.797490
1386864057,1,0,422.1,0,0,0,0,193,175,-0.0292,62.0255,6.8213,0.4212,54.895248,9.797156,108.3,5.845,1.85,335.95,54.895069,9.793790,54.895348,9.797490
1386864057,1,0,422.8,0,-1,-4,0,193,200,-0.0292,62.2922,6.8213,0.4212,54.895256,9.797184,108.3,5.845,1.85,335.95,54.895069,9.793790,54.895348,9.797490
1386864057,1,0,422.7,0,0,0,0,195,175,-0.0292,62.2922,6.8213,0.4212,54.895264,9.797212,108.3,5.845,1.85,335.95,54.895069,9.793790,54.895348,9.797490
1386864057,1,0,422.5,0,0,4,0,195,200,-0.0292,62.2922,6.8213,0.4212,54.895275,9.797239,108.3,5.845,1.85,335.95,54.895069,9.793790,54.895348,9.797490
1386864058,1,0,423.5,0,-1,0,0,195,175,-0.0292,62.5589,6.8213,0.4212,54.895283,9.797267,108.3,5.845,1.85,335.95,54.895069,9.793790,54.895348,9.797490
1386864058,1,0,423.3,0,-1,-4,0,198,200,-0.0292,62.8255,6.8213,0.4212,54.895290,9.797295,108.3,5.845,1.85,335.95,54.895069,9.793790,54.895348,9.797490
1386864058,1,0,423.2,0,0,0,0,200,225,-0.0292,62.8255,6.8213,0.4212,54.895298,9.797322,108.3,5.845,1.85,335.95,54.895069,9.793790,54.895348,9.797490
1386864058,1,0,423.0,0,0,4,0,200,200,-0.0292,62.8255,6.8213,0.4212,54.895306,9.797350,108.3,5.845,1.85,335.95,54.895069,9.793790,54.895348,9.797490
1386864059,1,0,422.6,0,0,0,0,200,225,-0.0292,62.8255,6.8213,0.4212,54.895313,9.797378,108.3,5.845,1.85,335.95,54.895069,9.793790,54.895348,9.797490
1386864059,1,0,422.2,0,1,4,0,200,200,-0.0292,62.5589,6.8213,0.4212,54.895325,9.797405,108.3,5.845,1.85,335.95,54.895069,9.793790,54.895348,9.797490
1386864059,1,0,425.0,0,-2,0,0,198,175,-0.0292,63.0922,6.8213,0.4212,54.895332,9.797433,108.3,5.845,1.85,335.95,54.895069,9.793790,54.895348,9.797490
1386864059,1,0,425.3,0,-2,-4,0,203,200,-0.0292,63.6255,6.8213,0.4212,54.895340,9.797461,108.3,5.845,1.85,335.95,54.895348,9.797490,54.894039,9.801540
1386864060,1,0,478.9,0,-35,-8,0,208,225,-0.0292,72.9589,6.8213,0.4212,54.895344,9.797490,108.3,5.845,1.85,335.95,54.895348,9.797490,54.894039,9.801540
1386864060,1,0,479.1,0,-35,-12,0,293,250,-0.0292,82.2922,6.8213,0.4212,54.895344,9.797521,108.3,5.845,1.85,335.95,54.895348,9.797490,54.894039,9.801540
1386864060,1,0,479.3,0,-35,-16,0,377,275,-0.0292,91.6255,6.8213,0.4212,54.895340,9.797551,108.3,5.845,1.85,335.95,54.895348,9.797490,54.894039,9.801540
1386864060,1,0,479.4,0,-28,-20,0,458,300,-0.0292,99.0922,6.8213,0.4212,54.895336,9.797583,108.3,5.845,1.85,335.95,54.895348,9.797490,54.894039,9.801540
1386864061,1,0,479.5,0,-20,-16,0,518,325,-0.0292,104.4255,6.8213,0.4212,54.895332,9.797613,108.3,5.845,1.85,335.95,54.895348,9.797490,54.894039,9.801540
1386864061,1,0,479.6,0,-15,-12,0,559,350,-0.0292,108.4255,6.8213,0.4212,54.895329,9.797643,108.3,5.845,1.85,335.95,54.895348,9.797490,54.894039,9.801540
1386864061,1,0,479.8,0,-11,-8,0,578,375,-0.0292,111.3589,6.8213,0.4212,54.895321,9.797672,108.3,5.845,1.85,335.95,54.895348,9.797490,54.894039,9.801540
1386864061,1,0,479.8,0,-8,-4,0,409,400,-0.0292,113.4922,6.8213,0.4212,54.895313,9.797701,108.3,5.845,1.85,335.95,54.895348,9.797490,54.894039,9.801540
1386864062,1,0,479.8,0,-6,-8,0,409,425,-0.0292,115.0922,6.8213,0.4212,54.895309,9.797729,108.3,5.845,1.85,335.95,54.895348,9.797490,54.894039,9.801540
1386864062,1,0,479.9,0,-5,-4,0,409,400,-0.0292,116.4255,6.8213,0.4212,54.895302,9.797757,108.3,5.845,1.85,335.95,54.895348,9.797490,54.894039,9.801540
1386864062,1,0,480.0,0,-4,0,0,409,425,-0.0292,117.4922,6.8213,0.4212,54.895294,9.797785,108.3,5.845,1.85,335.95,54.895348,9.797490,54.894039,9.801540
1386864062,1,0,480.0,0,-3,-4,0,409,400,-0.0292,118.2922,6.8213,0.4212,54.895283,9.797812,108.3,5.845,1.85,335.95,54.895348,9.797490,54.894039,9.801540
1386864063,1,0,480.0,0,-2,0,0,409,425,-0.0292,118.8255,6.8213,0.4212,54.895275,9.797840,108.3,5.845,1.85,335.95,54.895348,9.797490,54.894039,9.801540
1386864063,1,0,480.0,0,-1,-4,0,409,400,-0.0292,119.0922,6.8213,0.4212,54.895267,9.797868,108.3,5.845,1.85,335.95,54.895348,9.797490,54.894039,9.801540
1386864063,1,0,480.0,0,-1,0,0,409,425,-0.0292,119.3589,6.8213,0.4212,54.895256,9.797894,108.3,5.845,1.85,335.95,54.895348,9.797490,54.894039,9.801540
1386864064,1,0,480.0,0,-1,-4,0,409,400,-0.0292,119.6255,6.8213,0.4212,54.895248,9.797922,108.3,5.845,1.85,335.95,54.895348,9.797490,54.894039,9.801540
1386864064,1,0,480.0,0,0,0,0,409,425,-0.0292,119.6255,6.8213,0.4212,54.895237,9.797949,108.3,5.845,1.85,335.95,54.895348,9.797490,54.894039,9.801540
1386864064,1,0,480.0,0,0,4,0,409,400,-0.0292,119.6255,6.8213,0.4212,54.895229,9.797976,108.3,5.845,1.85,335.95,54.895348,9.797490,54.894039,9.801540
1386864064,1,0,480.0,0,0,0,0,409,425,-0.0292,119.6255,6.8213,0.4212,54.895222,9.798003,108.3,5.845,1.85,335.95,54.895348,9.797490,54.894039,9.801540
1386864065,1,0,480.0,0,0,4,0,409,400,-0.0292,119.6255,6.8213,0.4212,54.895210,9.798030,108.3,5.845,1.85,335.95,54.895348,9.797490,54.894039,9.801540
1386864065,1,0,480.0,0,0,0,0,409,425,-0.0292,119.6255,6.8213,0.4212,54.895203,9.798058,108.3,5.845,1.85,335.95,54.895348,9.797490,54.894039,9.801540
1386864065,1,0,480.0,0,0,4,0,409,400,-0.0292,119.6255,6.8213,0.4212,54.895195,9.798085,108.3,5.845,1.85,335.95,54.895348,9.797490,54.894039,9.801540
1386864065,1,0,480.0,0,0,0,0,409,425,-0.0292,119.6255,6.8213,0.4212,54.895184,9.798112,108.3,5.845,1.85,335.95,54.895348,9.797490,54.894039,9.801540
1386864066,1,0,480.0,0,0,4,0,409,400,-0.0292,119.6255,6.8213,0.4212,54.895176,9.798140,108.3,5.845,1.85,335.95,54.895348,9.797490,54.894039,9.801540
1386864066,1,0,480.0,0,0,0,0,409,425,-0.0292,119.6255,6.8213,0.4212,54.895164,9.798166,108.3,5.845,1.85,335.95,54.895348,9.797490,54.894039,9.801540
1386864066,1,0,480.0,0,0,4,0,409,400,-0.0292,119.6255,6.8213,0.4212,54.895157,9.798193,108.3,5.845,1.85,335.95,54.895348,9.797490,54.894039,9.801540
1386864066,1,0,480.0,0,0,0,0,409,425,-0.0292,119.6255,6.8213,0.4212,54.895149,9.798221,108.3,5.845,1.85,335.95,54.895348,9.797490,54.894039,9.801540
1386864067,1,0,480.0,0,0,4,0,409,400,-0.0292,119.6255,6.8213,0.4212,54.895138,9.798247,108.3,5.845,1.85,335.95,54.895348,9.797490,54.894039,9.801540
1386864067,1,0,480.0,0,0,0,0,409,425,-0.0292,119.6255,6.8213,0.4212,54.895130,9.798274,108.3,5.845,1.85,335.95,54.895348,9.797490,54.894039,9.801540
1386864067,1,0,480.0,0,0,4,0,409,400,-0.0292,119.6255,6.8213,0.4212,54.895123,9.798302,108.3,5.845,1.85,335.95,54.895348,9.797490,54.894039,9.801540
1386864067,1,0,480.0,0,0,0,0,409,425,-0.0292,119.6255,6.8213,0.4212,54.895111,9.798328,108.3,5.845,1.85,335.95,54.895348,9.797490,54.894039,9.801540
1386864068,1,0,480.0,0,0,4,0,409,400,-0.0292,119.6255,6.8213,0.4212,54.895103,9.798356,108.3,5.845,1.85,335.95,54.895348,9.797490,54.894039,9.801540
1386864068,1,0,480.0,0,0,0,0,409,425,-0.0292,119.6255,6.8213,0.4212,54.895096,9.798384,108.3,5.845,1.85,335.95,54.895348,9.797490,54.894039,9.801540
1386864068,1,0,480.1,0,0,4,0,409,400,-0.0292,119.6255,6.8213,0.4212,54.895084,9.798410,108.3,5.845,1.85,335.95,54.895348,9.797490,54.894039,9.801540
1386864068,1,0,480.0,0,0,0,0,409,425,-0.0292,119.6255,6.8213,0.4212,54.895077,9.798438,108.3,5.845,1.85,335.95,54.895348,9.797490,54.894039,9.801540
1386864069,1,0,480.0,0,0,4,0,409,400,-0.0292,119.6255,6.8213,0.4212,54.895065,9.798465,108.3,5.845,1.85,335.95,54.895348,9.797490,54.894039,9.801540
1386864069,1,0,480.0,0,0,0,0,409,425,-0.0292,119.6255,6.8213,0.4212,54.895058,9.798491,108.3,5.845,1.85,335.95,54.895348,9.797490,54.894039,9.801540
1386864069,1,0,480.0,0,0,4,0,409,400,-0.0292,119.6255,6.8213,0.4212,54.895050,9.798519,108.3,5.845,1.85,335.95,54.895348,9.797490,54.894039,9.801540
1386864069,1,0,480.0,0,0,0,0,409,425,-0.0292,119.6255,6.8213,0.4212,54.895039,9.798546,108.3,5.845,1.85,335.95,54.895348,9.797490,54.894039,9.801540
1386864070,1,0,480.0,0,0,4,0,409,400,-0.0292,119.6255,6.8213,0.4212,54.895031,9.798573,108.3,5.845,1.85,335.95,54.895348,9.797490,54.894039,9.801540
1386864070,1,0,480.0,0,0,0,0,409,425,-0.0292,119.6255,6.8213,0.4212,54.895023,9.798601,108.3,5.845,1.85,335.95,54.895348,9.797490,54.894039,9.801540
1386864070,1,0,480.1,0,0,4,0,409,400,-0.0292,119.6255,6.8213,0.4212,54.895012,9.798628,108.3,5.845,1.85,335.95,54.895348,9.797490,54.894039,9.801540
1386864070,1,0,480.0,0,0,0,0,409,425,-0.0292,119.6255,6.8213,0.4212,54.895004,9.798656,108.3,5.845,1.85,335.95,54.895348,9.797490,54.894039,9.801540
1386864071,1,0,480.0,0,0,4,0,409,400,-0.0292,119.6255,6.8213,0.4212,54.894997,9.798682,108.3,5.845,1.85,335.95,54.895348,9.797490,54.894039,9.801540
1386864071,1,0,480.1,0,0,0,0,409,425,-0.0292,119.6255,6.8213,0.4212,54.894985,9.798709,108.3,5.845,1.85,335.95,54.895348,9.797490,54.894039,9.801540
1386864071,1,0,480.0,0,0,4,0,409,400,-0.0292,119.6255,6.8213,0.4212,54.894978,9.798737,108.3,5.845,1.85,335.95,54.895348,9.797490,54.894039,9.801540
1386864071,1,0,480.0,0,0,0,0,409,425,-0.0292,119.6255,6.8213,0.4212,54.894966,9.798763,108.3,5.845,1.85,335.95,54.895348,9.797490,54.894039,9.801540
1386864072,1,0,480.0,0,0,4,0,409,400,-0.0292,119.6255,6.8213,0.4212,54.894958,9.798790,108.3,5.845,1.85,335.95,54.895348,9.797490,54.894039,9.801540
1386864072,1,0,480.0,0,0,0,0,409,425,-0.0292,119.6255,6.8213,0.4212,54.894951,9.798818,108.3,5.845,1.85,335.95,54.895348,9.797490,54.894039,9.801540
1386864072,1,0,480.1,0,0,4,0,409,400,-0.0292,119.6255,6.8213,0.4212,54.894939,9.798844,108.3,5.845,1.85,335.95,54.895348,9.797490,54.894039,9.801540
1386864072,1,0,480.0,0,0,0,0,409,425,-0.0292,119.6255,6.8213,0.4212,54.894932,9.798872,108.3,5.845,1.85,335.95,54.895348,9.797490,54.894039,9.801540
1386864073,1,0,480.0,0,0,4,0,409,400,-0.0292,119.6255,6.8213,0.4212,54.894924,9.798900,108.3,5.845,1.85,335.95,54.895348,9.797490,54.894039,9.801540
1386864073,1,0,480.1,0,0,0,0,409,425,-0.0292,119.6255,6.8213,0.4212,54.894913,9.798926,108.3,5.845,1.85,335.95,54.895348,9.797490,54.894039,9.801540
1386864073,1,0,480.0,0,0,4,0,409,400,-0.0292,119.6255,6.8213,0.4212,54.894905,9.798954,108.3,5.845,1.85,335.95,54.895348,9.797490,54.894039,9.801540
1386864073,1,0,480.1,0,0,0,0,409,425,-0.0292,119.6255,6.8213,0.4212,54.894894,9.798981,108.3,5.845,1.85,335.95,54.895348,9.797490,54.894039,9.801540
1386864074,1,0,480.0,0,0,4,0,409,400,-0.0292,119.6255,6.8213,0.4212,54.894886,9.799007,108.3,5.845,1.85,335.95,54.895348,9.797490,54.894039,9.801540
1386864074,1,0,480.0,0,0,0,0,409,425,-0.0292,119.6255,6.8213,0.4212,54.894878,9.799035,108.3,5.845,1.85,335.95,54.895348,9.797490,54.894039,9.801540
1386864074,1,0,480.1,0,0,4,0,409,400,-0.0292,119.6255,6.8213,0.4212,54.894867,9.799062,108.3,5.845,1.85,335.95,54.895348,9.797490,54.894039,9.801540
1386864074,1,0,480.0,0,0,0,0,409,425,-0.0292,119.6255,6.8213,0.4212,54.894859,9.799088,108.3,5.845,1.85,335.95,54.895348,9.797490,54.894039,9.801540
1386864075,1,0,480.0,0,0,4,0,409,400,-0.0292,119.6255,6.8213,0.4212,54.894852,9.799116,108.3,5.845,1.85,335.95,54.895348,9.797490,54.894039,9.801540
