MCU_timestamp,Navigation_System,Manual_Control,Guidance_Heading,Manual_Ctrl_Rudder,Rudder_Desired_Angle,Rudder_Feedback,Manual_Ctrl_Sail,Sail_Desired_Pos,Sail_Feedback,Rate,Heading,Pitch,Roll,Latitude,Longitude,COG,SOG,Wind_Speed,Wind_Angle,Point_Start_Lat,Point_Start_Lon,Point_End_Lat,Point_End_Lon
1386926228,0,0,0.0,0,0,0,0,0,0,-0.0292,-2636.3718,6.8213,0.4212,54.895290,9.794522,108.3,5.845,1.85,335.95,0.000000,0.000000,0.000000,0.000000
1386926228,0,0,0.0,0,0,0,0,0,0,-0.0292,-2636.3718,6.8213,0.4212,54.895290,9.794522,108.3,5.845,1.85,335.95,0.000000,0.000000,0.000000,0.000000
1386926228,0,0,0.0,0,0,0,0,0,0,-0.0292,-2636.3718,6.8213,0.4212,54.895290,9.794522,108.3,5.845,1.85,335.95,0.000000,0.000000,0.000000,0.000000
1386926228,0,0,0.0,0,0,0,0,0,0,-0.0292,-2636.3718,6.8213,0.4212,54.895290,9.794522,108.3,5.845,1.85,335.95,0.000000,0.000000,0.000000,0.000000
1386926229,0,0,0.0,0,0,0,0,0,0,-0.0292,-2636.3718,6.8213,0.4212,54.895290,9.794522,108.3,5.845,1.85,335.95,0.000000,0.000000,0.000000,0.000000
1386926229,0,0,0.0,0,0,0,0,0,0,-0.0292,-2636.3718,6.8213,0.4212,54.895290,9.794522,108.3,5.845,1.85,335.95,0.000000,0.000000,0.000000,0.000000
1386926229,0,0,0.0,0,0,0,0,0,0,-0.0292,-2636.3718,6.8213,0.4212,54.895290,9.794522,108.3,5.845,1.85,335.95,0.000000,0.000000,0.000000,0.000000
1386926229,0,0,0.0,0,0,0,0,0,0,-0.0292,-2636.3718,6.8213,0.4212,54.895290,9.794522,108.3,5.845,1.85,335.95,0.000000,0.000000,0.000000,0.000000
1386926230,0,0,0.0,0,0,0,0,0,0,-0.0292,-2636.3718,6.8213,0.4212,54.895290,9.794522,108.3,5.845,1.85,335.95,0.000000,0.000000,0.000000,0.000000
1386926230,0,0,0.0,0,0,0,0,0,0,-0.0292,-2636.3718,6.8213,0.4212,54.895290,9.794522,108.3,5.845,1.85,335.95,0.000000,0.000000,0.000000,0.000000
1386926230,0,0,0.0,0,0,0,0,0,0,-0.0292,-2636.3718,6.8213,0.4212,54.895290,9.794522,108.3,5.845,1.85,335.95,0.000000,0.000000,0.000000,0.000000
1386926230,0,0,0.0,0,0,0,0,0,0,-0.0292,-2636.3718,6.8213,0.4212,54.895290,9.794522,108.3,5.845,1.85,335.95,0.000000,0.000000,0.000000,0.000000
1386926231,0,0,0.0,0,0,0,0,0,0,-0.0292,-2636.3718,6.8213,0.4212,54.895290,9.794522,108.3,5.845,1.85,335.95,0.000000,0.000000,0.000000,0.000000
1386926231,0,0,0.0,0,0,0,0,0,0,-0.0292,-2636.3718,6.8213,0.4212,54.895290,9.794522,108.3,5.845,1.85,335.95,0.000000,0.000000,0.000000,0.000000
1386926231,0,0,0.0,0,0,0,0,0,0,-0.0292,-2636.3718,6.8213,0.4212,54.896835,9.792048,108.3,5.845,1.85,335.95,0.000000,0.000000,0.000000,0.000000
1386926231,0,0,0.0,0,0,0,0,0,0,-0.0292,-2636.3718,6.8213,0.4212,54.896835,9.792048,108.3,5.845,1.85,335.95,0.000000,0.000000,0.000000,0.000000
1386926232,0,0,0.0,0,0,0,0,0,0,-0.0292,-2636.3718,6.8213,0.4212,54.896835,9.792048,108.3,5.845,1.85,335.95,0.000000,0.000000,0.000000,0.000000
1386926232,0,0,0.0,0,0,0,0,0,0,-0.0292,-2636.3718,6.8213,0.4212,54.896835,9.792048,108.3,5.845,1.85,335.95,0.000000,0.000000,0.000000,0.000000
1386926232,0,0,0.0,0,0,0,0,0,0,-0.0292,-2636.3718,6.8213,0.4212,54.896835,9.792048,108.3,5.845,1.85,335.95,0.000000,0.000000,0.000000,0.000000
1386926232,4,0,0.0,0,0,0,0,0,0,-0.0292,-2636.3718,6.8213,0.4212,54.896835,9.792048,108.3,5.845,1.85,335.95,0.000000,0.000000,0.000000,0.000000
1386926233,1,0,485.9,0,35,4,0,436,400,-0.0292,-2645.7051,6.8213,0.4212,54.896828,9.792023,108.3,5.845,1.85,335.95,54.896835,9.792048,54.895069,9.793790
1386926233,1,0,485.9,0,35,8,0,584,450,-0.0292,-2655.0383,6.8213,0.4212,54.896816,9.792001,108.3,5.845,1.85,335.95,54.896835,9.792048,54.895069,9.793790
1386926233,1,0,485.9,0,35,12,0,728,500,-0.0292,-2664.3716,6.8213,0.4212,54.896801,9.791983,108.3,5.845,1.85,335.95,54.896835,9.792048,54.895069,9.793790
1386926233,1,0,485.9,0,35,16,0,863,550,-0.0292,-2673.7048,6.8213,0.4212,54.896786,9.791969,108.3,5.845,1.85,335.95,54.896835,9.792048,54.895069,9.793790
1386926234,1,0,485.9,0,35,20,0,870,600,-0.0292,-2683.0381,6.8213,0.4212,54.896770,9.791961,108.3,5.845,1.85,335.95,54.896835,9.792048,54.895069,9.793790
1386926234,1,0,485.9,0,35,24,0,713,650,-0.0292,-2692.3713,6.8213,0.4212,54.896751,9.791957,108.3,5.845,1.85,335.95,54.896835,9.792048,54.895069,9.793790
1386926234,1,0,485.9,0,35,28,0,713,700,-0.0292,-2701.7046,6.8213,0.4212,54.896732,9.791958,108.3,5.845,1.85,335.95,54.896835,9.792048,54.895069,9.793790
1386926234,1,0,485.9,0,35,32,0,713,750,-0.0292,-2711.0378,6.8213,0.4212,54.896717,9.791964,108.3,5.845,1.85,335.95,54.896835,9.792048,54.895069,9.793790
1386926235,1,0,485.9,0,35,36,0,713,700,-0.0292,-2720.3711,6.8213,0.4212,54.896698,9.791974,108.3,5.845,1.85,335.95,54.896835,9.792048,54.895069,9.793790
1386926235,1,0,485.9,0,34,32,0,0,650,-0.0292,-2729.4377,6.8213,0.4212,54.896683,9.791989,108.3,5.845,1.85,335.95,54.896835,9.792048,54.895069,9.793790
1386926235,0,0,485.9,0,34,32,0,0,650,-0.0292,-2729.4377,6.8213,0.4212,54.896683,9.791989,108.3,5.845,1.85,335.95,54.896835,9.792048,54.895069,9.793790
1386926235,0,0,485.9,0,34,32,0,0,650,-0.0292,-2729.4377,6.8213,0.4212,54.896683,9.791989,108.3,5.845,1.85,335.95,54.896835,9.792048,54.895069,9.793790
1386926236,0,0,485.9,0,34,32,0,0,650,-0.0292,-2729.4377,6.8213,0.4212,54.896683,9.791989,108.3,5.845,1.85,335.95,54.896835,9.792048,54.895069,9.793790
1386926236,0,0,485.9,0,34,32,0,0,650,-0.0292,-2729.4377,6.8213,0.4212,54.896683,9.791989,108.3,5.845,1.85,335.95,54.896835,9.792048,54.895069,9.793790
1386926236,0,0,485.9,0,34,32,0,0,650,-0.0292,-2729.4377,6.8213,0.4212,54.896683,9.791989,108.3,5.845,1.85,335.95,54.896835,9.792048,54.895069,9.793790
1386926236,0,0,485.9,0,34,32,0,0,650,-0.0292,-2729.4377,6.8213,0.4212,54.896683,9.791989,108.3,5.845,1.85,335.95,54.896835,9.792048,54.895069,9.793790
1386926237,0,0,485.9,0,34,32,0,0,650,-0.0292,-2729.4377,6.8213,0.4212,54.896683,9.791989,108.3,5.845,1.85,335.95,54.896835,9.792048,54.895069,9.793790
1386926237,4,0,485.9,0,34,32,0,0,650,-0.0292,-2729.4377,6.8213,0.4212,54.896683,9.791989,108.3,5.845,1.85,335.95,54.896835,9.792048,54.895069,9.793790
1386926237,1,0,485.9,0,25,28,0,0,600,-0.0292,-2736.1045,6.8213,0.4212,54.896667,9.792007,108.3,5.845,1.85,335.95,54.896683,9.791989,54.895069,9.793790
1386926237,1,0,485.9,0,18,24,0,713,650,-0.0292,-2740.9045,6.8213,0.4212,54.896656,9.792027,108.3,5.845,1.85,335.95,54.896683,9.791989,54.895069,9.793790
1386926238,1,0,485.9,0,13,20,0,713,700,-0.0292,-2744.3711,6.8213,0.4212,54.896645,9.792049,108.3,5.845,1.85,335.95,54.896683,9.791989,54.895069,9.793790
1386926238,1,0,485.9,0,10,16,0,713,750,-0.0292,-2747.0378,6.8213,0.4212,54.896629,9.792072,108.3,5.845,1.85,335.95,54.896683,9.791989,54.895069,9.793790
1386926238,1,0,485.9,0,7,12,0,713,700,-0.0292,-2748.9045,6.8213,0.4212,54.896618,9.792096,108.3,5.845,1.85,335.95,54.896683,9.791989,54.895069,9.793790
1386926238,1,0,485.9,0,5,8,0,713,750,-0.0292,-2750.2378,6.8213,0.4212,54.896610,9.792120,108.3,5.845,1.85,335.95,54.896683,9.791989,54.895069,9.793790
1386926239,1,0,485.9,0,4,4,0,713,700,-0.0292,-2751.3044,6.8213,0.4212,54.896599,9.792144,108.3,5.845,1.85,335.95,54.896683,9.791989,54.895069,9.793790
1386926239,1,0,485.9,0,3,0,0,713,750,-0.0292,-2752.1045,6.8213,0.4212,54.896587,9.792169,108.3,5.845,1.85,335.95,54.896683,9.791989,54.895069,9.793790
1386926239,1,0,485.9,0,2,4,0,713,700,-0.0292,-2752.6379,6.8213,0.4212,54.896576,9.792193,108.3,5.845,1.85,335.95,54.896683,9.791989,54.895069,9.793790
1386926239,1,0,485.9,0,1,0,0,713,750,-0.0292,-2752.9045,6.8213,0.4212,54.896564,9.792218,108.3,5.845,1.85,335.95,54.896683,9.791989,54.895069,9.793790
1386926240,1,0,485.9,0,1,4,0,713,700,-0.0292,-2753.1711,6.8213,0.4212,54.896557,9.792243,108.3,5.845,1.85,335.95,54.896683,9.791989,54.895069,9.793790
1386926240,1,0,485.9,0,1,0,0,713,750,-0.0292,-2753.4377,6.8213,0.4212,54.896545,9.792269,108.3,5.845,1.85,335.95,54.896683,9.791989,54.895069,9.793790
1386926240,1,0,485.9,0,1,4,0,713,700,-0.0292,-2753.7043,6.8213,0.4212,54.896534,9.792294,108.3,5.845,1.85,335.95,54.896683,9.791989,54.895069,9.793790
1386926240,1,0,485.9,0,0,0,0,713,750,-0.0292,-2753.7043,6.8213,0.4212,54.896523,9.792318,108.3,5.845,1.85,335.95,54.896683,9.791989,54.895069,9.793790
1386926241,1,0,485.9,0,0,4,0,713,700,-0.0292,-2753.7043,6.8213,0.4212,54.896511,9.792344,108.3,5.845,1.85,335.95,54.896683,9.791989,54.895069,9.793790
1386926241,1,0,485.9,0,0,0,0,713,750,-0.0292,-2753.7043,6.8213,0.4212,54.896500,9.792369,108.3,5.845,1.85,335.95,54.896683,9.791989,54.895069,9.793790
1386926241,1,0,485.9,0,0,4,0,713,700,-0.0292,-2753.7043,6.8213,0.4212,54.896488,9.792395,108.3,5.845,1.85,335.95,54.896683,9.791989,54.895069,9.793790
1386926241,1,0,485.9,0,0,0,0,713,750,-0.0292,-2753.7043,6.8213,0.4212,54.896477,9.792419,108.3,5.845,1.85,335.95,54.896683,9.791989,54.895069,9.793790
1386926242,1,0,485.9,0,0,4,0,713,700,-0.0292,-2753.7043,6.8213,0.4212,54.896465,9.792444,108.3,5.845,1.85,335.95,54.896683,9.791989,54.895069,9.793790
1386926242,1,0,485.9,0,0,0,0,713,750,-0.0292,-2753.7043,6.8213,0.4212,54.896458,9.792470,108.3,5.845,1.85,335.95,54.896683,9.791989,54.895069,9.793790
1386926242,1,0,485.9,0,0,4,0,713,700,-0.0292,-2753.7043,6.8213,0.4212,54.896446,9.792495,108.3,5.845,1.85,335.95,54.896683,9.791989,54.895069,9.793790
1386926242,1,0,485.9,0,0,0,0,713,750,-0.0292,-2753.7043,6.8213,0.4212,54.896435,9.792521,108.3,5.845,1.85,335.95,54.896683,9.791989,54.895069,9.793790
1386926243,1,0,485.9,0,0,4,0,713,700,-0.0292,-2753.7043,6.8213,0.4212,54.896423,9.792545,108.3,5.845,1.85,335.95,54.896683,9.791989,54.895069,9.793790
1386926243,1,0,485.9,0,0,0,0,713,750,-0.0292,-2753.7043,6.8213,0.4212,54.896412,9.792571,108.3,5.845,1.85,335.95,54.896683,9.791989,54.895069,9.793790
1386926243,1,0,485.9,0,0,4,0,713,700,-0.0292,-2753.7043,6.8213,0.4212,54.896400,9.792596,108.3,5.845,1.85,335.95,54.896683,9.791989,54.895069,9.793790
1386926243,1,0,485.9,0,0,0,0,713,750,-0.0292,-2753.7043,6.8213,0.4212,54.896389,9.792621,108.3,5.845,1.85,335.95,54.896683,9.791989,54.895069,9.793790
1386926244,1,0,485.9,0,0,4,0,713,700,-0.0292,-2753.7043,6.8213,0.4212,54.896378,9.792646,108.3,5.845,1.85,335.95,54.896683,9.791989,54.895069,9.793790
1386926244,1,0,485.9,0,0,0,0,713,750,-0.0292,-2753.7043,6.8213,0.4212,54.896366,9.792671,108.3,5.845,1.85,335.95,54.896683,9.791989,54.895069,9.793790
1386926244,1,0,485.9,0,0,4,0,713,700,-0.0292,-2753.7043,6.8213,0.4212,54.896355,9.792697,108.3,5.845,1.85,335.95,54.896683,9.791989,54.895069,9.793790
1386926244,1,0,485.9,0,0,0,0,713,750,-0.0292,-2753.7043,6.8213,0.4212,54.896343,9.792722,108.3,5.845,1.85,335.95,54.896683,9.791989,54.895069,9.793790
1386926245,1,0,485.9,0,0,4,0,713,700,-0.0292,-2753.7043,6.8213,0.4212,54.896336,9.792747,108.3,5.845,1.85,335.95,54.896683,9.791989,54.895069,9.793790
1386926245,1,0,485.9,0,0,0,0,713,750,-0.0292,-2753.7043,6.8213,0.4212,54.896324,9.792772,108.3,5.845,1.85,335.95,54.896683,9.791989,54.895069,9.793790
1386926245,1,0,485.9,0,0,4,0,713,700,-0.0292,-2753.7043,6.8213,0.4212,54.896313,9.792797,108.3,5.845,1.85,335.95,54.896683,9.791989,54.895069,9.793790
1386926245,1,0,485.9,0,0,0,0,713,750,-0.0292,-2753.7043,6.8213,0.4212,54.896301,9.792823,108.3,5.845,1.85,335.95,54.896683,9.791989,54.895069,9.793790
1386926246,1,0,485.9,0,0,4,0,713,700,-0.0292,-2753.7043,6.8213,0.4212,54.896290,9.792848,108.3,5.845,1.85,335.95,54.896683,9.791989,54.895069,9.793790
1386926246,1,0,485.9,0,0,0,0,713,750,-0.0292,-2753.7043,6.8213,0.4212,54.896278,9.792872,108.3,5.845,1.85,335.95,54.896683,9.791989,54.895069,9.793790
1386926246,1,0,485.9,0,0,4,0,713,700,-0.0292,-2753.7043,6.8213,0.4212,54.896267,9.792898,108.3,5.845,1.85,335.95,54.896683,9.791989,54.895069,9.793790
1386926246,1,0,485.9,0,0,0,0,713,750,-0.0292,-2753.7043,6.8213,0.4212,54.896255,9.792923,108.3,5.845,1.85,335.95,54.896683,9.791989,54.895069,9.793790
1386926247,1,0,485.9,0,0,4,0,713,700,-0.0292,-2753.7043,6.8213,0.4212,54.896244,9.792949,108.3,5.845,1.85,335.95,54.896683,9.791989,54.895069,9.793790
1386926247,1,0,485.9,0,0,0,0,713,750,-0.0292,-2753.7043,6.8213,0.4212,54.896236,9.792974,108.3,5.845,1.85,335.95,54.896683,9.791989,54.895069,9.793790
1386926247,1,0,485.9,0,0,4,0,713,700,-0.0292,-2753.7043,6.8213,0.4212,54.896225,9.792999,108.3,5.845,1.85,335.95,54.896683,9.791989,54.895069,9.793790
1386926247,1,0,485.9,0,0,0,0,713,750,-0.0292,-2753.7043,6.8213,0.4212,54.896214,9.793024,108.3,5.845,1.85,335.95,54.896683,9.791989,54.895069,9.793790
1386926248,1,0,485.9,0,0,4,0,713,700,-0.0292,-2753.7043,6.8213,0.4212,54.896202,9.793049,108.3,5.845,1.85,335.95,54.896683,9.791989,54.895069,9.793790
1386926248,1,0,485.9,0,0,0,0,713,750,-0.0292,-2753.7043,6.8213,0.4212,54.896191,9.793075,108.3,5.845,1.85,335.95,54.896683,9.791989,54.895069,9.793790
1386926248,1,0,485.9,0,0,4,0,713,700,-0.0292,-2753.7043,6.8213,0.4212,54.896179,9.793099,108.3,5.845,1.85,335.95,54.896683,9.791989,54.895069,9.793790
1386926248,1,0,485.9,0,0,0,0,713,750,-0.0292,-2753.7043,6.8213,0.4212,54.896168,9.793125,108.3,5.845,1.85,335.95,54.896683,9.791989,54.895069,9.793790
1386926249,1,0,485.9,0,0,4,0,713,700,-0.0292,-2753.7043,6.8213,0.4212,54.896156,9.793150,108.3,5.845,1.85,335.95,54.896683,9.791989,54.895069,9.793790
1386926249,1,0,485.9,0,0,0,0,713,750,-0.0292,-2753.7043,6.8213,0.4212,54.896145,9.793175,108.3,5.845,1.85,335.95,54.896683,9.791989,54.895069,9.793790
1386926249,1,0,485.9,0,0,4,0,713,700,-0.0292,-2753.7043,6.8213,0.4212,54.896133,9.793200,108.3,5.845,1.85,335.95,54.896683,9.791989,54.895069,9.793790
1386926249,1,0,485.9,0,0,0,0,713,750,-0.0292,-2753.7043,6.8213,0.4212,54.896122,9.793225,108.3,5.845,1.85,335.95,54.896683,9.791989,54.895069,9.793790
1386926250,1,0,485.9,0,0,4,0,713,700,-0.0292,-2753.7043,6.8213,0.4212,54.896114,9.793251,108.3,5.845,1.85,335.95,54.896683,9.791989,54.895069,9.793790
1386926250,1,0,485.9,0,0,0,0,713,750,-0.0292,-2753.7043,6.8213,0.4212,54.896103,9.793276,108.3,5.845,1.85,335.95,54.896683,9.791989,54.895069,9.793790
1386926250,1,0,485.9,0,0,4,0,713,700,-0.0292,-2753.7043,6.8213,0.4212,54.896091,9.793301,108.3,5.845,1.85,335.95,54.896683,9.791989,54.895069,9.793790
1386926250,1,0,485.9,0,0,0,0,713,750,-0.0292,-2753.7043,6.8213,0.4212,54.896080,9.793325,108.3,5.845,1.85,335.95,54.896683,9.791989,54.895069,9.793790
1386926251,1,0,485.9,0,0,4,0,713,700,-0.0292,-2753.7043,6.8213,0.4212,54.896069,9.793350,108.3,5.845,1.85,335.95,54.896683,9.791989,54.895069,9.793790
1386926251,1,0,485.9,0,0,0,0,713,750,-0.0292,-2753.7043,6.8213,0.4212,54.896057,9.793376,108.3,5.845,1.85,335.95,54.896683,9.791989,54.895069,9.793790
1386926251,1,0,485.9,0,0,4,0,713,700,-0.0292,-2753.7043,6.8213,0.4212,54.896046,9.793401,108.3,5.845,1.85,335.95,54.896683,9.791989,54.895069,9.793790
1386926252,1,0,485.9,0,0,0,0,713,750,-0.0292,-2753.7043,6.8213,0.4212,54.896034,9.793427,108.3,5.845,1.85,335.95,54.896683,9.791989,54.895069,9.793790
1386926252,1,0,485.9,0,0,4,0,713,700,-0.0292,-2753.7043,6.8213,0.4212,54.896023,9.793451,108.3,5.845,1.85,335.95,54.896683,9.791989,54.895069,9.793790
1386926252,1,0,485.9,0,0,0,0,713,750,-0.0292,-2753.7043,6.8213,0.4212,54.896015,9.793476,108.3,5.845,1.85,335.95,54.896683,9.791989,54.895069,9.793790
1386926252,1,0,485.9,0,0,4,0,713,700,-0.0292,-2753.7043,6.8213,0.4212,54.896004,9.793502,108.3,5.845,1.85,335.95,54.896683,9.791989,54.895069,9.793790
1386926253,1,0,485.9,0,0,0,0,713,750,-0.0292,-2753.7043,6.8213,0.4212,54.895992,9.793527,108.3,5.845,1.85,335.95,54.896683,9.791989,54.895069,9.793790
1386926253,1,0,485.9,0,0,4,0,713,700,-0.0292,-2753.7043,6.8213,0.4212,54.895981,9.793552,108.3,5.845,1.85,335.95,54.896683,9.791989,54.895069,9.793790
1386926253,1,0,485.9,0,0,0,0,713,750,-0.0292,-2753.7043,6.8213,0.4212,54.895969,9.793577,108.3,5.845,1.85,335.95,54.896683,9.791989,54.895069,9.793790
1386926253,1,0,485.9,0,0,4,0,713,700,-0.0292,-2753.7043,6.8213,0.4212,54.895958,9.793602,108.3,5.845,1.85,335.95,54.896683,9.791989,54.895069,9.793790
1386926254,1,0,485.9,0,0,0,0,713,750,-0.0292,-2753.7043,6.8213,0.4212,54.895947,9.793628,108.3,5.845,1.85,335.95,54.896683,9.791989,54.895069,9.793790
1386926254,1,0,485.9,0,0,4,0,713,700,-0.0292,-2753.7043,6.8213,0.4212,54.895935,9.793653,108.3,5.845,1.85,335.95,54.896683,9.791989,54.895069,9.793790
1386926254,1,0,485.9,0,0,0,0,713,750,-0.0292,-2753.7043,6.8213,0.4212,54.895924,9.793678,108.3,5.845,1.85,335.95,54.896683,9.791989,54.895069,9.793790
1386926254,1,0,485.9,0,0,4,0,713,700,-0.0292,-2753.7043,6.8213,0.4212,54.895912,9.793703,108.3,5.845,1.85,335.95,54.896683,9.791989,54.895069,9.793790
1386926255,1,0,485.9,0,0,0,0,713,750,-0.0292,-2753.7043,6.8213,0.4212,54.895901,9.793728,108.3,5.845,1.85,335.95,54.896683,9.791989,54.895069,9.793790
1386926255,1,0,485.9,0,0,4,0,713,700,-0.0292,-2753.7043,6.8213,0.4212,54.895893,9.793753,108.3,5.845,1.85,335.95,54.896683,9.791989,54.895069,9.793790
1386926255,1,0,485.9,0,0,0,0,713,750,-0.0292,-2753.7043,6.8213,0.4212,54.895882,9.793777,108.3,5.845,1.85,335.95,54.896683,9.791989,54.895069,9.793790
1386926255,1,0,485.9,0,0,4,0,713,700,-0.0292,-2753.7043,6.8213,0.4212,54.895870,9.793803,108.3,5.845,1.85,335.95,54.896683,9.791989,54.895069,9.793790
1386926256,1,0,485.9,0,0,0,0,713,750,-0.0292,-2753.7043,6.8213,0.4212,54.895859,9.793828,108.3,5.845,1.85,335.95,54.896683,9.791989,54.895069,9.793790
1386926256,1,0,485.9,0,0,4,0,713,700,-0.0292,-2753.7043,6.8213,0.4212,54.895847,9.793854,108.3,5.845,1.85,335.95,54.896683,9.791989,54.895069,9.793790
1386926256,1,0,485.9,0,0,0,0,713,750,-0.0292,-2753.7043,6.8213,0.4212,54.895836,9.793879,108.3,5.845,1.85,335.95,54.896683,9.791989,54.895069,9.793790
1386926256,1,0,485.9,0,0,4,0,713,700,-0.0292,-2753.7043,6.8213,0.4212,54.895824,9.793903,108.3,5.845,1.85,335.95,54.896683,9.791989,54.895069,9.793790
1386926257,1,0,485.9,0,0,0,0,713,750,-0.0292,-2753.7043,6.8213,0.4212,54.895813,9.793929,108.3,5.845,1.85,335.95,54.896683,9.791989,54.895069,9.793790
1386926257,1,0,485.9,0,0,4,0,713,700,-0.0292,-2753.7043,6.8213,0.4212,54.895802,9.793954,108.3,5.845,1.85,335.95,54.896683,9.791989,54.895069,9.793790
1386926257,1,0,485.9,0,0,0,0,0,650,-0.0292,-2753.7043,6.8213,0.4212,54.895794,9.793980,108.3,5.845,1.85,335.95,54.896683,9.791989,54.895069,9.793790
1386926257,1,0,485.9,0,0,4,0,0,600,-0.0292,-2753.7043,6.8213,0.4212,54.895782,9.794004,108.3,5.845,1.85,335.95,54.896683,9.791989,54.895069,9.793790
1386926258,1,0,485.9,0,0,0,0,0,550,-0.0292,-2753.7043,6.8213,0.4212,54.895771,9.794029,108.3,5.845,1.85,335.95,54.896683,9.791989,54.895069,9.793790
1386926258,1,0,485.9,0,0,4,0,0,500,-0.0292,-2753.7043,6.8213,0.4212,54.895760,9.794054,108.3,5.845,1.85,335.95,54.896683,9.791989,54.895069,9.793790
1386926258,1,0,485.9,0,0,0,0,0,450,-0.0292,-2753.7043,6.8213,0.4212,54.895748,9.794079,108.3,5.845,1.85,335.95,54.896683,9.791989,54.895069,9.793790
1386926258,1,0,485.9,0,0,4,0,0,400,-0.0292,-2753.7043,6.8213,0.4212,54.895737,9.794105,108.3,5.845,1.85,335.95,54.896683,9.791989,54.895069,9.793790
1386926259,1,0,485.9,0,0,0,0,0,350,-0.0292,-2753.7043,6.8213,0.4212,54.895725,9.794129,108.3,5.845,1.85,335.95,54.896683,9.791989,54.895069,9.793790
1386926259,1,0,485.9,0,0,4,0,0,300,-0.0292,-2753.7043,6.8213,0.4212,54.895714,9.794155,108.3,5.845,1.85,335.95,54.896683,9.791989,54.895069,9.793790
1386926259,1,0,485.9,0,0,0,0,0,250,-0.0292,-2753.7043,6.8213,0.4212,54.895702,9.794180,108.3,5.845,1.85,335.95,54.896683,9.791989,54.895069,9.793790
1386926259,1,0,485.9,0,0,4,0,0,200,-0.0292,-2753.7043,6.8213,0.4212,54.895695,9.794205,108.3,5.845,1.85,335.95,54.896683,9.791989,54.895069,9.793790
1386926260,1,0,485.9,0,0,0,0,0,150,-0.0292,-2753.7043,6.8213,0.4212,54.895683,9.794230,108.3,5.845,1.85,335.95,54.896683,9.791989,54.895069,9.793790
1386926260,1,0,485.9,0,0,4,0,0,100,-0.0292,-2753.7043,6.8213,0.4212,54.895676,9.794255,108.3,5.845,1.85,335.95,54.896683,9.791989,54.895069,9.793790
1386926260,1,0,485.9,0,0,0,0,0,50,-0.0292,-2753.7043,6.8213,0.4212,54.895664,9.794281,108.3,5.845,1.85,335.95,54.896683,9.791989,54.895069,9.793790
1386926260,1,0,485.9,0,0,4,0,0,0,-0.0292,-2753.7043,6.8213,0.4212,54.895653,9.794306,108.3,5.845,1.85,335.95,54.896683,9.791989,54.895069,9.793790
1386926261,1,0,485.9,0,0,0,0,0,0,-0.0292,-2753.7043,6.8213,0.4212,54.895641,9.794331,108.3,5.845,1.85,335.95,54.896683,9.791989,54.895069,9.793790
1386926261,1,0,545.9,0,-35,-4,0,0,0,-0.0292,-2744.3711,6.8213,0.4212,54.895626,9.794353,108.3,5.845,1.85,335.95,54.896683,9.791989,54.895069,9.793790
1386926261,1,0,545.9,0,-35,-8,0,0,0,-0.0292,-2735.0378,6.8213,0.4212,54.895611,9.794370,108.3,5.845,1.85,335.95,54.896683,9.791989,54.895069,9.793790
1386926261,1,0,545.9,0,-35,-12,0,0,0,-0.0292,-2725.7046,6.8213,0.4212,54.895592,9.794383,108.3,5.845,1.85,335.95,54.896683,9.791989,54.895069,9.793790
1386926262,1,0,545.9,0,-32,-16,0,0,0,-0.0292,-2717.1711,6.8213,0.4212,54.895573,9.794393,108.3,5.845,1.85,335.95,54.896683,9.791989,54.895069,9.793790
1386926262,1,0,545.9,0,-23,-20,0,0,0,-0.0292,-2711.0378,6.8213,0.4212,54.895554,9.794398,108.3,5.845,1.85,335.95,54.896683,9.791989,54.895069,9.793790
1386926262,1,0,545.9,0,-17,-16,0,0,0,-0.0292,-2706.5044,6.8213,0.4212,54.895538,9.794401,108.3,5.845,1.85,335.95,54.896683,9.791989,54.895069,9.793790
1386926262,1,0,545.9,0,-12,-12,0,0,0,-0.0292,-2703.3044,6.8213,0.4212,54.895519,9.794403,108.3,5.845,1.85,335.95,54.896683,9.791989,54.895069,9.793790
1386926263,1,0,545.9,0,-9,-8,0,0,0,-0.0292,-2700.9045,6.8213,0.4212,54.895500,9.794403,108.3,5.845,1.85,335.95,54.896683,9.791989,54.895069,9.793790
1386926263,1,0,545.9,0,-7,-4,0,0,0,-0.0292,-2699.0378,6.8213,0.4212,54.895481,9.794402,108.3,5.845,1.85,335.95,54.896683,9.791989,54.895069,9.793790
1386926263,1,0,545.9,0,-5,-8,0,0,0,-0.0292,-2697.7046,6.8213,0.4212,54.895466,9.794400,108.3,5.845,1.85,335.95,54.896683,9.791989,54.895069,9.793790
1386926263,1,0,545.9,0,-4,-4,0,713,50,-0.0292,-2696.6379,6.8213,0.4212,54.895447,9.794398,108.3,5.845,1.85,335.95,54.896683,9.791989,54.895069,9.793790
1386926264,1,0,545.9,0,-3,0,0,713,100,-0.0292,-2695.8379,6.8213,0.4212,54.895428,9.794395,108.3,5.845,1.85,335.95,54.896683,9.791989,54.895069,9.793790
1386926264,1,0,545.9,0,-2,-4,0,713,150,-0.0292,-2695.3044,6.8213,0.4212,54.895409,9.794393,108.3,5.845,1.85,335.95,54.896683,9.791989,54.895069,9.793790
1386926264,1,0,545.9,0,-1,0,0,713,200,-0.0292,-2695.0378,6.8213,0.4212,54.895393,9.794390,108.3,5.845,1.85,335.95,54.896683,9.791989,54.895069,9.793790
1386926264,1,0,545.9,0,-1,-4,0,713,250,-0.0292,-2694.7712,6.8213,0.4212,54.895374,9.794387,108.3,5.845,1.85,335.95,54.896683,9.791989,54.895069,9.793790
1386926265,1,0,545.9,0,-1,0,0,713,300,-0.0292,-2694.5046,6.8213,0.4212,54.895355,9.794384,108.3,5.845,1.85,335.95,54.896683,9.791989,54.895069,9.793790
1386926265,1,0,545.9,0,0,4,0,713,350,-0.0292,-2694.5046,6.8213,0.4212,54.895336,9.794381,108.3,5.845,1.85,335.95,54.896683,9.791989,54.895069,9.793790
1386926265,1,0,546.2,0,-1,0,0,713,400,-0.0292,-2694.2380,6.8213,0.4212,54.895321,9.794378,108.3,5.845,1.85,335.95,54.896683,9.791989,54.895069,9.793790
1386926265,1,0,593.5,0,-35,-4,0,713,450,-0.0292,-2684.9048,6.8213,0.4212,54.895302,9.794371,108.3,5.845,1.85,335.95,54.896683,9.791989,54.895069,9.793790
1386926266,1,0,595.3,0,-35,-8,0,713,500,-0.0292,-2675.5715,6.8213,0.4212,54.895287,9.794358,108.3,5.845,1.85,335.95,54.896683,9.791989,54.895069,9.793790
1386926266,1,0,596.5,0,-32,-12,0,870,550,-0.0292,-2667.0381,6.8213,0.4212,54.895271,9.794341,108.3,5.845,1.85,335.95,54.896683,9.791989,54.895069,9.793790
1386926266,1,0,597.6,0,-25,-16,0,870,600,-0.0292,-2660.3713,6.8213,0.4212,54.895256,9.794322,108.3,5.845,1.85,335.95,54.896683,9.791989,54.895069,9.793790
1386926266,1,0,598.7,0,-19,-20,0,806,650,-0.0292,-2655.3047,6.8213,0.4212,54.895245,9.794300,108.3,5.845,1.85,335.95,54.896683,9.791989,54.895069,9.793790
1386926267,1,0,599.3,0,-15,-16,0,732,700,-0.0292,-2651.3047,6.8213,0.4212,54.895229,9.794277,108.3,5.845,1.85,335.95,54.896683,9.791989,54.895069,9.793790
1386926267,1,0,600.4,0,-12,-12,0,671,650,-0.0292,-2648.1047,6.8213,0.4212,54.895218,9.794252,108.3,5.845,1.85,335.95,54.896683,9.791989,54.895069,9.793790
1386926267,1,0,600.9,0,-9,-8,0,622,600,-0.0292,-2645.7048,6.8213,0.4212,54.895206,9.794228,108.3,5.845,1.85,335.95,54.896683,9.791989,54.895069,9.793790
1386926267,1,0,601.5,0,-7,-4,0,584,550,-0.0292,-2643.8381,6.8213,0.4212,54.895195,9.794202,108.3,5.845,1.85,335.95,54.896683,9.791989,54.895069,9.793790
1386926268,1,0,602.2,0,-6,-8,0,555,600,-0.0292,-2642.2380,6.8213,0.4212,54.895184,9.794175,108.3,5.845,1.85,335.95,54.896683,9.791989,54.895069,9.793790
1386926268,1,0,602.8,0,-5,-4,0,529,550,-0.0292,-2640.9048,6.8213,0.4212,54.895176,9.794147,108.3,5.845,1.85,335.95,54.896683,9.791989,54.895069,9.793790
1386926268,1,0,602.7,0,-4,0,0,508,500,-0.0292,-2639.8381,6.8213,0.4212,54.895164,9.794120,108.3,5.845,1.85,335.95,54.896683,9.791989,54.895069,9.793790
1386926268,1,0,603.5,0,-3,-4,0,491,450,-0.0292,-2639.0381,6.8213,0.4212,54.895157,9.794093,108.3,5.845,1.85,335.95,54.896683,9.791989,54.895069,9.793790
1386926269,1,0,603.4,0,-2,0,0,478,500,-0.0292,-2638.5046,6.8213,0.4212,54.895149,9.794065,108.3,5.845,1.85,335.95,54.896683,9.791989,54.895069,9.793790
1386926269,1,0,603.3,0,-2,-4,0,470,450,-0.0292,-2637.9712,6.8213,0.4212,54.895142,9.794038,108.3,5.845,1.85,335.95,54.896683,9.791989,54.895069,9.793790
1386926269,1,0,603.2,0,-1,0,0,461,500,-0.0292,-2637.7046,6.8213,0.4212,54.895134,9.794010,108.3,5.845,1.85,335.95,54.896683,9.791989,54.895069,9.793790
1386926269,1,0,603.0,0,-1,-4,0,457,450,-0.0292,-2637.4380,6.8213,0.4212,54.895126,9.793983,108.3,5.845,1.85,335.95,54.896683,9.791989,54.895069,9.793790
1386926270,1,0,602.8,0,0,0,0,453,500,-0.0292,-2637.4380,6.8213,0.4212,54.895119,9.793955,108.3,5.845,1.85,335.95,54.896683,9.791989,54.895069,9.793790
1386926270,1,0,602.5,0,0,4,0,453,450,-0.0292,-2637.4380,6.8213,0.4212,54.895107,9.793927,108.3,5.845,1.85,335.95,54.896683,9.791989,54.895069,9.793790
1386926270,1,0,604.4,0,-2,0,0,453,500,-0.0292,-2636.9045,6.8213,0.4212,54.895100,9.793900,108.3,5.845,1.85,335.95,54.895069,9.793790,54.895348,9.797490
1386926270,1,0,545.9,0,35,4,0,444,450,-0.0292,-2646.2378,6.8213,0.4212,54.895088,9.793875,108.3,5.845,1.85,335.95,54.895069,9.793790,54.895348,9.797490
1386926271,1,0,545.9,0,35,8,0,592,500,-0.0292,-2655.5710,6.8213,0.4212,54.895077,9.793853,108.3,5.845,1.85,335.95,54.895069,9.793790,54.895348,9.797490
1386926271,1,0,545.9,0,35,12,0,736,550,-0.0292,-2664.9043,6.8213,0.4212,54.895061,9.793835,108.3,5.845,1.85,335.95,54.895069,9.793790,54.895348,9.797490
1386926271,1,0,545.9,0,29,16,0,870,600,-0.0292,-2672.6377,6.8213,0.4212,54.895046,9.793820,108.3,5.845,1.85,335.95,54.895069,9.793790,54.895348,9.797490
1386926271,1,0,545.9,0,21,20,0,870,650,-0.0292,-2678.2378,6.8213,0.4212,54.895027,9.793809,108.3,5.845,1.85,335.95,54.895069,9.793790,54.895348,9.797490
1386926272,1,0,545.9,0,16,16,0,870,700,-0.0292,-2682.5044,6.8213,0.4212,54.895008,9.793799,108.3,5.845,1.85,335.95,54.895069,9.793790,54.895348,9.797490
1386926272,1,0,545.9,0,12,12,0,713,750,-0.0292,-2685.7043,6.8213,0.4212,54.894989,9.793792,108.3,5.845,1.85,335.95,54.895069,9.793790,54.895348,9.797490
1386926272,1,0,545.9,0,8,8,0,713,700,-0.0292,-2687.8376,6.8213,0.4212,54.894974,9.793785,108.3,5.845,1.85,335.95,54.895069,9.793790,54.895348,9.797490
1386926272,1,0,545.9,0,6,4,0,713,750,-0.0292,-2689.4377,6.8213,0.4212,54.894955,9.793779,108.3,5.845,1.85,335.95,54.895069,9.793790,54.895348,9.797490
1386926273,1,0,545.9,0,5,8,0,713,700,-0.0292,-2690.7710,6.8213,0.4212,54.894936,9.793775,108.3,5.845,1.85,335.95,54.895069,9.793790,54.895348,9.797490
1386926273,1,0,545.9,0,3,4,0,0,650,-0.0292,-2691.5710,6.8213,0.4212,54.894917,9.793770,108.3,5.845,1.85,335.95,54.895069,9.793790,54.895348,9.797490
1386926273,1,0,545.9,0,2,0,0,0,600,-0.0292,-2692.1045,6.8213,0.4212,54.894901,9.793766,108.3,5.845,1.85,335.95,54.895069,9.793790,54.895348,9.797490
1386926273,1,0,545.9,0,2,4,0,0,550,-0.0292,-2692.6379,6.8213,0.4212,54.894882,9.793762,108.3,5.845,1.85,335.95,54.895069,9.793790,54.895348,9.797490
1386926274,1,0,545.9,0,1,0,0,0,500,-0.0292,-2692.9045,6.8213,0.4212,54.894863,9.793758,108.3,5.845,1.85,335.95,54.895069,9.793790,54.895348,9.797490
1386926274,1,0,545.9,0,1,4,0,0,450,-0.0292,-2693.1711,6.8213,0.4212,54.894844,9.793755,108.3,5.845,1.85,335.95,54.895069,9.793790,54.895348,9.797490
1386926274,1,0,545.9,0,1,0,0,0,400,-0.0292,-2693.4377,6.8213,0.4212,54.894829,9.793751,108.3,5.845,1.85,335.95,54.895069,9.793790,54.895348,9.797490
1386926274,1,0,545.9,0,1,4,0,0,350,-0.0292,-2693.7043,6.8213,0.4212,54.894810,9.793747,108.3,5.845,1.85,335.95,54.895069,9.793790,54.895348,9.797490
1386926275,1,0,545.9,0,0,0,0,0,300,-0.0292,-2693.7043,6.8213,0.4212,54.894791,9.793743,108.3,5.845,1.85,335.95,54.895069,9.793790,54.895348,9.797490
1386926275,1,0,545.9,0,0,4,0,0,250,-0.0292,-2693.7043,6.8213,0.4212,54.894775,9.793740,108.3,5.845,1.85,335.95,54.895069,9.793790,54.895348,9.797490
1386926275,1,0,545.9,0,0,0,0,0,200,-0.0292,-2693.7043,6.8213,0.4212,54.894756,9.793737,108.3,5.845,1.85,335.95,54.895069,9.793790,54.895348,9.797490
1386926275,1,0,545.9,0,0,4,0,0,150,-0.0292,-2693.7043,6.8213,0.4212,54.894737,9.793735,108.3,5.845,1.85,335.95,54.895069,9.793790,54.895348,9.797490
1386926276,1,0,545.9,0,0,0,0,0,100,-0.0292,-2693.7043,6.8213,0.4212,54.894718,9.793732,108.3,5.845,1.85,335.95,54.895069,9.793790,54.895348,9.797490
1386926276,1,0,545.9,0,0,4,0,0,50,-0.0292,-2693.7043,6.8213,0.4212,54.894703,9.793729,108.3,5.845,1.85,335.95,54.895069,9.793790,54.895348,9.797490
1386926276,1,0,545.9,0,0,0,0,0,0,-0.0292,-2693.7043,6.8213,0.4212,54.894684,9.793726,108.3,5.845,1.85,335.95,54.895069,9.793790,54.895348,9.797490
1386926276,1,0,545.9,0,0,4,0,0,0,-0.0292,-2693.7043,6.8213,0.4212,54.894665,9.793722,108.3,5.845,1.85,335.95,54.895069,9.793790,54.895348,9.797490
1386926277,1,0,485.9,0,35,8,0,0,0,-0.0292,-2703.0376,6.8213,0.4212,54.894646,9.793724,108.3,5.845,1.85,335.95,54.895069,9.793790,54.895348,9.797490
1386926277,1,0,485.9,0,35,12,0,0,0,-0.0292,-2712.3708,6.8213,0.4212,54.894630,9.793731,108.3,5.845,1.85,335.95,54.895069,9.793790,54.895348,9.797490
1386926277,1,0,485.9,0,35,16,0,0,0,-0.0292,-2721.7041,6.8213,0.4212,54.894611,9.793742,108.3,5.845,1.85,335.95,54.895069,9.793790,54.895348,9.797490
1386926277,1,0,485.9,0,32,20,0,0,0,-0.0292,-2730.2375,6.8213,0.4212,54.894596,9.793758,108.3,5.845,1.85,335.95,54.895069,9.793790,54.895348,9.797490
1386926278,1,0,485.9,0,24,24,0,0,0,-0.0292,-2736.6375,6.8213,0.4212,54.894585,9.793777,108.3,5.845,1.85,335.95,54.895069,9.793790,54.895348,9.797490
1386926278,1,0,485.9,0,17,20,0,0,0,-0.0292,-2741.1709,6.8213,0.4212,54.894569,9.793797,108.3,5.845,1.85,335.95,54.895069,9.793790,54.895348,9.797490
1386926278,1,0,485.9,0,13,16,0,0,0,-0.0292,-2744.6375,6.8213,0.4212,54.894558,9.793819,108.3,5.845,1.85,335.95,54.895069,9.793790,54.895348,9.797490
1386926278,1,0,485.9,0,9,12,0,0,0,-0.0292,-2747.0374,6.8213,0.4212,54.894543,9.793842,108.3,5.845,1.85,335.95,54.895069,9.793790,54.895348,9.797490
1386926279,1,0,485.9,0,7,8,0,0,0,-0.0292,-2748.9041,6.8213,0.4212,54.894531,9.793865,108.3,5.845,1.85,335.95,54.895069,9.793790,54.895348,9.797490
1386926279,1,0,485.9,0,5,4,0,0,0,-0.0292,-2750.2373,6.8213,0.4212,54.894520,9.793889,108.3,5.845,1.85,335.95,54.895069,9.793790,54.895348,9.797490
1386926279,1,0,485.9,0,4,8,0,0,0,-0.0292,-2751.3040,6.8213,0.4212,54.894508,9.793913,108.3,5.845,1.85,335.95,54.895069,9.793790,54.895348,9.797490
1386926279,1,0,485.9,0,3,4,0,713,50,-0.0292,-2752.1040,6.8213,0.4212,54.894497,9.793938,108.3,5.845,1.85,335.95,54.895069,9.793790,54.895348,9.797490
1386926280,1,0,485.9,0,2,0,0,713,100,-0.0292,-2752.6375,6.8213,0.4212,54.894485,9.793962,108.3,5.845,1.85,335.95,54.895069,9.793790,54.895348,9.797490
1386926280,1,0,485.9,0,1,4,0,713,150,-0.0292,-2752.9041,6.8213,0.4212,54.894474,9.793987,108.3,5.845,1.85,335.95,54.895069,9.793790,54.895348,9.797490
1386926280,1,0,485.9,0,1,0,0,713,200,-0.0292,-2753.1707,6.8213,0.4212,54.894466,9.794012,108.3,5.845,1.85,335.95,54.895069,9.793790,54.895348,9.797490
1386926280,1,0,485.9,0,1,4,0,713,250,-0.0292,-2753.4373,6.8213,0.4212,54.894455,9.794037,108.3,5.845,1.85,335.95,54.895069,9.793790,54.895348,9.797490
1386926281,1,0,485.9,0,1,0,0,713,300,-0.0292,-2753.7039,6.8213,0.4212,54.894444,9.794063,108.3,5.845,1.85,335.95,54.895069,9.793790,54.895348,9.797490
1386926281,1,0,485.9,0,0,4,0,713,350,-0.0292,-2753.7039,6.8213,0.4212,54.894432,9.794087,108.3,5.845,1.85,335.95,54.895069,9.793790,54.895348,9.797490
1386926281,1,0,443.2,0,35,8,0,713,400,-0.0292,-2763.0371,6.8213,0.4212,54.894421,9.794116,108.3,5.845,1.85,335.95,54.895069,9.793790,54.895348,9.797490
1386926281,1,0,424.6,0,35,12,0,713,450,-0.0292,-2772.3704,6.8213,0.4212,54.894417,9.794146,108.3,5.845,1.85,335.95,54.895069,9.793790,54.895348,9.797490
1386926282,1,0,424.3,0,35,16,0,870,500,-0.0292,-2781.7036,6.8213,0.4212,54.894413,9.794176,108.3,5.845,1.85,335.95,54.895069,9.793790,54.895348,9.797490
1386926282,1,0,424.0,0,34,20,0,870,550,-0.0292,-2790.7703,6.8213,0.4212,54.894413,9.794207,108.3,5.845,1.85,335.95,54.895069,9.793790,54.895348,9.797490
1386926282,1,0,423.8,0,25,24,0,762,600,-0.0292,-2797.4370,6.8213,0.4212,54.894413,9.794238,108.3,5.845,1.85,335.95,54.895069,9.793790,54.895348,9.797490
1386926282,1,0,423.6,0,19,20,0,661,650,-0.0292,-2802.5037,6.8213,0.4212,54.894417,9.794269,108.3,5.845,1.85,335.95,54.895069,9.793790,54.895348,9.797490
1386926283,1,0,423.5,0,14,16,0,582,600,-0.0292,-2806.2371,6.8213,0.4212,54.894421,9.794298,108.3,5.845,1.85,335.95,54.895069,9.793790,54.895348,9.797490
1386926283,1,0,423.3,0,10,12,0,523,550,-0.0292,-2808.9038,6.8213,0.4212,54.894428,9.794328,108.3,5.845,1.85,335.95,54.895069,9.793790,54.895348,9.797490
1386926283,1,0,423.3,0,8,8,0,481,500,-0.0292,-2811.0371,6.8213,0.4212,54.894436,9.794357,108.3,5.845,1.85,335.95,54.895069,9.793790,54.895348,9.797490
1386926283,1,0,423.3,0,6,4,0,447,450,-0.0292,-2812.6372,6.8213,0.4212,54.894444,9.794386,108.3,5.845,1.85,335.95,54.895069,9.793790,54.895348,9.797490
1386926284,1,0,423.3,0,4,8,0,421,400,-0.0292,-2813.7039,6.8213,0.4212,54.894451,9.794415,108.3,5.845,1.85,335.95,54.895069,9.793790,54.895348,9.797490
1386926284,1,0,423.3,0,3,4,0,404,450,-0.0292,-2814.5039,6.8213,0.4212,54.894459,9.794443,108.3,5.845,1.85,335.95,54.895069,9.793790,54.895348,9.797490
1386926284,1,0,423.2,0,2,0,0,391,400,-0.0292,-2815.0374,6.8213,0.4212,54.894466,9.794471,108.3,5.845,1.85,335.95,54.895069,9.793790,54.895348,9.797490
1386926284,1,0,423.2,0,2,4,0,383,350,-0.0292,-2815.5708,6.8213,0.4212,54.894474,9.794499,108.3,5.845,1.85,335.95,54.895069,9.793790,54.895348,9.797490
1386926285,1,0,423.2,0,1,0,0,374,400,-0.0292,-2815.8374,6.8213,0.4212,54.894482,9.794528,108.3,5.845,1.85,335.95,54.895069,9.793790,54.895348,9.797490
1386926285,1,0,423.2,0,1,4,0,370,350,-0.0292,-2816.1040,6.8213,0.4212,54.894489,9.794556,108.3,5.845,1.85,335.95,54.895069,9.793790,54.895348,9.797490
1386926285,1,0,423.2,0,1,0,0,366,400,-0.0292,-2816.3706,6.8213,0.4212,54.894497,9.794584,108.3,5.845,1.85,335.95,54.895069,9.793790,54.895348,9.797490
1386926285,1,0,423.2,0,0,4,0,362,350,-0.0292,-2816.3706,6.8213,0.4212,54.894505,9.794612,108.3,5.845,1.85,335.95,54.895069,9.793790,54.895348,9.797490
1386926286,1,0,423.2,0,0,0,0,362,400,-0.0292,-2816.3706,6.8213,0.4212,54.894512,9.794640,108.3,5.845,1.85,335.95,54.895069,9.793790,54.895348,9.797490
1386926286,1,0,423.1,0,0,4,0,362,350,-0.0292,-2816.3706,6.8213,0.4212,54.894520,9.794668,108.3,5.845,1.85,335.95,54.895069,9.793790,54.895348,9.797490
1386926286,1,0,423.1,0,1,0,0,362,400,-0.0292,-2816.6372,6.8213,0.4212,54.894527,9.794696,108.3,5.845,1.85,335.95,54.895069,9.793790,54.895348,9.797490
1386926286,1,0,423.1,0,0,4,0,357,350,-0.0292,-2816.6372,6.8213,0.4212,54.894539,9.794724,108.3,5.845,1.85,335.95,54.895069,9.793790,54.895348,9.797490
1386926287,1,0,423.2,0,0,0,0,357,400,-0.0292,-2816.6372,6.8213,0.4212,54.894547,9.794752,108.3,5.845,1.85,335.95,54.895069,9.793790,54.895348,9.797490
1386926287,1,0,423.2,0,0,4,0,357,350,-0.0292,-2816.6372,6.8213,0.4212,54.894554,9.794780,108.3,5.845,1.85,335.95,54.895069,9.793790,54.895348,9.797490
1386926287,1,0,423.2,0,0,0,0,357,400,-0.0292,-2816.6372,6.8213,0.4212,54.894562,9.794807,108.3,5.845,1.85,335.95,54.895069,9.793790,54.895348,9.797490
1386926287,1,0,423.1,0,0,4,0,357,350,-0.0292,-2816.6372,6.8213,0.4212,54.894569,9.794836,108.3,5.845,1.85,335.95,54.895069,9.793790,54.895348,9.797490
1386926288,1,0,423.1,0,0,0,0,357,400,-0.0292,-2816.6372,6.8213,0.4212,54.894577,9.794864,108.3,5.845,1.85,335.95,54.895069,9.793790,54.895348,9.797490
1386926288,1,0,423.1,0,0,4,0,357,350,-0.0292,-2816.6372,6.8213,0.4212,54.894585,9.794891,108.3,5.845,1.85,335.95,54.895069,9.793790,54.895348,9.797490
1386926288,1,0,423.1,0,0,0,0,357,400,-0.0292,-2816.6372,6.8213,0.4212,54.894592,9.794919,108.3,5.845,1.85,335.95,54.895069,9.793790,54.895348,9.797490
1386926289,1,0,423.1,0,0,4,0,357,350,-0.0292,-2816.6372,6.8213,0.4212,54.894600,9.794947,108.3,5.845,1.85,335.95,54.895069,9.793790,54.895348,9.797490
1386926289,1,0,423.1,0,0,0,0,357,400,-0.0292,-2816.6372,6.8213,0.4212,54.894611,9.794974,108.3,5.845,1.85,335.95,54.895069,9.793790,54.895348,9.797490
1386926289,1,0,423.2,0,0,4,0,357,350,-0.0292,-2816.6372,6.8213,0.4212,54.894619,9.795002,108.3,5.845,1.85,335.95,54.895069,9.793790,54.895348,9.797490
1386926289,1,0,423.2,0,0,0,0,357,400,-0.0292,-2816.6372,6.8213,0.4212,54.894627,9.795030,108.3,5.845,1.85,335.95,54.895069,9.793790,54.895348,9.797490
1386926290,1,0,423.1,0,0,4,0,357,350,-0.0292,-2816.6372,6.8213,0.4212,54.894634,9.795058,108.3,5.845,1.85,335.95,54.895069,9.793790,54.895348,9.797490
1386926290,1,0,423.1,0,0,0,0,357,400,-0.0292,-2816.6372,6.8213,0.4212,54.894642,9.795086,108.3,5.845,1.85,335.95,54.895069,9.793790,54.895348,9.797490
1386926290,1,0,423.1,0,0,4,0,357,350,-0.0292,-2816.6372,6.8213,0.4212,54.894650,9.795114,108.3,5.845,1.85,335.95,54.895069,9.793790,54.895348,9.797490
1386926290,1,0,423.1,0,0,0,0,357,400,-0.0292,-2816.6372,6.8213,0.4212,54.894661,9.795142,108.3,5.845,1.85,335.95,54.895069,9.793790,54.895348,9.797490
1386926291,1,0,423.2,0,0,4,0,357,350,-0.0292,-2816.6372,6.8213,0.4212,54.894669,9.795170,108.3,5.845,1.85,335.95,54.895069,9.793790,54.895348,9.797490
1386926291,1,0,423.2,0,0,0,0,357,400,-0.0292,-2816.6372,6.8213,0.4212,54.894676,9.795197,108.3,5.845,1.85,335.95,54.895069,9.793790,54.895348,9.797490
1386926291,1,0,423.2,0,0,4,0,357,350,-0.0292,-2816.6372,6.8213,0.4212,54.894684,9.795226,108.3,5.845,1.85,335.95,54.895069,9.793790,54.895348,9.797490
1386926291,1,0,423.1,0,0,0,0,357,400,-0.0292,-2816.6372,6.8213,0.4212,54.894691,9.795254,108.3,5.845,1.85,335.95,54.895069,9.793790,54.895348,9.797490
1386926292,1,0,423.1,0,0,4,0,357,350,-0.0292,-2816.6372,6.8213,0.4212,54.894699,9.795281,108.3,5.845,1.85,335.95,54.895069,9.793790,54.895348,9.797490
1386926292,1,0,423.1,0,0,0,0,357,400,-0.0292,-2816.6372,6.8213,0.4212,54.894711,9.795310,108.3,5.845,1.85,335.95,54.895069,9.793790,54.895348,9.797490
1386926292,1,0,423.2,0,0,4,0,357,350,-0.0292,-2816.6372,6.8213,0.4212,54.894718,9.795338,108.3,5.845,1.85,335.95,54.895069,9.793790,54.895348,9.797490
1386926292,1,0,423.2,0,0,0,0,357,400,-0.0292,-2816.6372,6.8213,0.4212,54.894726,9.795365,108.3,5.845,1.85,335.95,54.895069,9.793790,54.895348,9.797490
1386926293,1,0,423.2,0,0,4,0,357,350,-0.0292,-2816.6372,6.8213,0.4212,54.894733,9.795394,108.3,5.845,1.85,335.95,54.895069,9.793790,54.895348,9.797490
1386926293,1,0,423.1,0,0,0,0,357,400,-0.0292,-2816.6372,6.8213,0.4212,54.894741,9.795422,108.3,5.845,1.85,335.95,54.895069,9.793790,54.895348,9.797490
1386926293,1,0,423.1,0,0,4,0,357,350,-0.0292,-2816.6372,6.8213,0.4212,54.894749,9.795449,108.3,5.845,1.85,335.95,54.895069,9.793790,54.895348,9.797490
1386926293,1,0,423.1,0,0,0,0,357,400,-0.0292,-2816.6372,6.8213,0.4212,54.894760,9.795478,108.3,5.845,1.85,335.95,54.895069,9.793790,54.895348,9.797490
1386926294,1,0,423.2,0,0,4,0,357,350,-0.0292,-2816.6372,6.8213,0.4212,54.894768,9.795506,108.3,5.845,1.85,335.95,54.895069,9.793790,54.895348,9.797490
1386926294,1,0,423.2,0,0,0,0,357,400,-0.0292,-2816.6372,6.8213,0.4212,54.894775,9.795533,108.3,5.845,1.85,335.95,54.895069,9.793790,54.895348,9.797490
1386926294,1,0,423.2,0,0,4,0,357,350,-0.0292,-2816.6372,6.8213,0.4212,54.894783,9.795561,108.3,5.845,1.85,335.95,54.895069,9.793790,54.895348,9.797490
1386926294,1,0,423.2,0,0,0,0,357,400,-0.0292,-2816.6372,6.8213,0.4212,54.894791,9.795588,108.3,5.845,1.85,335.95,54.895069,9.793790,54.895348,9.797490
1386926295,1,0,423.2,0,0,4,0,357,350,-0.0292,-2816.6372,6.8213,0.4212,54.894798,9.795617,108.3,5.845,1.85,335.95,54.895069,9.793790,54.895348,9.797490
1386926295,1,0,423.1,0,0,0,0,357,400,-0.0292,-2816.6372,6.8213,0.4212,54.894810,9.795645,108.3,5.845,1.85,335.95,54.895069,9.793790,54.895348,9.797490
1386926295,1,0,423.3,0,0,4,0,357,350,-0.0292,-2816.6372,6.8213,0.4212,54.894817,9.795672,108.3,5.845,1.85,335.95,54.895069,9.793790,54.895348,9.797490
1386926295,1,0,423.2,0,0,0,0,357,400,-0.0292,-2816.6372,6.8213,0.4212,54.894825,9.795701,108.3,5.845,1.85,335.95,54.895069,9.793790,54.895348,9.797490
1386926296,1,0,423.2,0,0,4,0,357,350,-0.0292,-2816.6372,6.8213,0.4212,54.894833,9.795729,108.3,5.845,1.85,335.95,54.895069,9.793790,54.895348,9.797490
1386926296,1,0,423.2,0,0,0,0,357,400,-0.0292,-2816.6372,6.8213,0.4212,54.894840,9.795756,108.3,5.845,1.85,335.95,54.895069,9.793790,54.895348,9.797490
1386926296,1,0,423.2,0,0,4,0,357,350,-0.0292,-2816.6372,6.8213,0.4212,54.894848,9.795785,108.3,5.845,1.85,335.95,54.895069,9.793790,54.895348,9.797490
1386926296,1,0,423.1,0,0,0,0,357,400,-0.0292,-2816.6372,6.8213,0.4212,54.894855,9.795813,108.3,5.845,1.85,335.95,54.895069,9.793790,54.895348,9.797490
1386926297,1,0,423.1,0,0,4,0,357,350,-0.0292,-2816.6372,6.8213,0.4212,54.894863,9.795840,108.3,5.845,1.85,335.95,54.895069,9.793790,54.895348,9.797490
1386926297,1,0,423.1,0,0,0,0,357,400,-0.0292,-2816.6372,6.8213,0.4212,54.894871,9.795869,108.3,5.845,1.85,335.95,54.895069,9.793790,54.895348,9.797490
1386926297,1,0,423.1,0,0,4,0,357,350,-0.0292,-2816.6372,6.8213,0.4212,54.894882,9.795897,108.3,5.845,1.85,335.95,54.895069,9.793790,54.895348,9.797490
1386926297,1,0,423.2,0,0,0,0,357,400,-0.0292,-2816.6372,6.8213,0.4212,54.894890,9.795924,108.3,5.845,1.85,335.95,54.895069,9.793790,54.895348,9.797490
1386926298,1,0,423.2,0,0,4,0,357,350,-0.0292,-2816.6372,6.8213,0.4212,54.894897,9.795953,108.3,5.845,1.85,335.95,54.895069,9.793790,54.895348,9.797490
1386926298,1,0,423.2,0,0,0,0,357,400,-0.0292,-2816.6372,6.8213,0.4212,54.894905,9.795980,108.3,5.845,1.85,335.95,54.895069,9.793790,54.895348,9.797490
1386926298,1,0,423.1,0,0,4,0,357,350,-0.0292,-2816.6372,6.8213,0.4212,54.894913,9.796008,108.3,5.845,1.85,335.95,54.895069,9.793790,54.895348,9.797490
1386926298,1,0,423.1,0,0,0,0,357,400,-0.0292,-2816.6372,6.8213,0.4212,54.894920,9.796037,108.3,5.845,1.85,335.95,54.895069,9.793790,54.895348,9.797490
1386926299,1,0,423.1,0,0,4,0,357,350,-0.0292,-2816.6372,6.8213,0.4212,54.894932,9.796064,108.3,5.845,1.85,335.95,54.895069,9.793790,54.895348,9.797490
1386926299,1,0,423.3,0,0,0,0,357,400,-0.0292,-2816.6372,6.8213,0.4212,54.894939,9.796092,108.3,5.845,1.85,335.95,54.895069,9.793790,54.895348,9.797490
1386926299,1,0,423.2,0,0,4,0,357,350,-0.0292,-2816.6372,6.8213,0.4212,54.894947,9.796120,108.3,5.845,1.85,335.95,54.895069,9.793790,54.895348,9.797490
1386926299,1,0,423.2,0,0,0,0,357,400,-0.0292,-2816.6372,6.8213,0.4212,54.894955,9.796147,108.3,5.845,1.85,335.95,54.895069,9.793790,54.895348,9.797490
1386926300,1,0,423.2,0,0,4,0,357,350,-0.0292,-2816.6372,6.8213,0.4212,54.894962,9.796175,108.3,5.845,1.85,335.95,54.895069,9.793790,54.895348,9.797490
1386926300,1,0,423.1,0,0,0,0,357,400,-0.0292,-2816.6372,6.8213,0.4212,54.894970,9.796203,108.3,5.845,1.85,335.95,54.895069,9.793790,54.895348,9.797490
1386926300,1,0,423.1,0,0,4,0,357,350,-0.0292,-2816.6372,6.8213,0.4212,54.894981,9.796230,108.3,5.845,1.85,335.95,54.895069,9.793790,54.895348,9.797490
1386926300,1,0,423.3,0,0,0,0,357,400,-0.0292,-2816.6372,6.8213,0.4212,54.894989,9.796259,108.3,5.845,1.85,335.95,54.895069,9.793790,54.895348,9.797490
1386926301,1,0,423.3,0,0,4,0,357,350,-0.0292,-2816.6372,6.8213,0.4212,54.894997,9.796287,108.3,5.845,1.85,335.95,54.895069,9.793790,54.895348,9.797490
1386926301,1,0,423.3,0,0,0,0,357,400,-0.0292,-2816.6372,6.8213,0.4212,54.895004,9.796314,108.3,5.845,1.85,335.95,54.895069,9.793790,54.895348,9.797490
1386926301,1,0,423.2,0,0,4,0,357,350,-0.0292,-2816.6372,6.8213,0.4212,54.895012,9.796343,108.3,5.845,1.85,335.95,54.895069,9.793790,54.895348,9.797490
1386926301,1,0,423.2,0,0,0,0,357,400,-0.0292,-2816.6372,6.8213,0.4212,54.895020,9.796371,108.3,5.845,1.85,335.95,54.895069,9.793790,54.895348,9.797490
1386926302,1,0,423.1,0,0,4,0,357,350,-0.0292,-2816.6372,6.8213,0.4212,54.895031,9.796398,108.3,5.845,1.85,335.95,54.895069,9.793790,54.895348,9.797490
1386926302,1,0,423.4,0,0,0,0,357,400,-0.0292,-2816.6372,6.8213,0.4212,54.895039,9.796427,108.3,5.845,1.85,335.95,54.895069,9.793790,54.895348,9.797490
1386926302,1,0,423.3,0,0,4,0,357,350,-0.0292,-2816.6372,6.8213,0.4212,54.895046,9.796454,108.3,5.845,1.85,335.95,54.895069,9.793790,54.895348,9.797490
1386926302,1,0,423.3,0,0,0,0,357,400,-0.0292,-2816.6372,6.8213,0.4212,54.895054,9.796482,108.3,5.845,1.85,335.95,54.895069,9.793790,54.895348,9.797490
1386926303,1,0,423.3,0,0,4,0,357,350,-0.0292,-2816.6372,6.8213,0.4212,54.895061,9.796511,108.3,5.845,1.85,335.95,54.895069,9.793790,54.895348,9.797490
1386926303,1,0,423.2,0,0,0,0,357,400,-0.0292,-2816.6372,6.8213,0.4212,54.895069,9.796538,108.3,5.845,1.85,335.95,54.895069,9.793790,54.895348,9.797490
1386926303,1,0,423.2,0,0,4,0,357,350,-0.0292,-2816.6372,6.8213,0.4212,54.895077,9.796566,108.3,5.845,1.85,335.95,54.895069,9.793790,54.895348,9.797490
1386926303,1,0,423.1,0,0,0,0,357,400,-0.0292,-2816.6372,6.8213,0.4212,54.895084,9.796595,108.3,5.845,1.85,335.95,54.895069,9.793790,54.895348,9.797490
1386926304,1,0,423.1,0,0,4,0,357,350,-0.0292,-2816.6372,6.8213,0.4212,54.895092,9.796622,108.3,5.845,1.85,335.95,54.895069,9.793790,54.895348,9.797490
1386926304,1,0,423.0,0,0,0,0,357,400,-0.0292,-2816.6372,6.8213,0.4212,54.895103,9.796650,108.3,5.845,1.85,335.95,54.895069,9.793790,54.895348,9.797490
1386926304,1,0,423.3,0,0,4,0,357,350,-0.0292,-2816.6372,6.8213,0.4212,54.895111,9.796679,108.3,5.845,1.85,335.95,54.895069,9.793790,54.895348,9.797490
1386926304,1,0,423.3,0,0,0,0,357,400,-0.0292,-2816.6372,6.8213,0.4212,54.895119,9.796706,108.3,5.845,1.85,335.95,54.895069,9.793790,54.895348,9.797490
1386926305,1,0,423.2,0,0,4,0,357,350,-0.0292,-2816.6372,6.8213,0.4212,54.895126,9.796734,108.3,5.845,1.85,335.95,54.895069,9.793790,54.895348,9.797490
1386926305,1,0,423.2,0,0,0,0,357,400,-0.0292,-2816.6372,6.8213,0.4212,54.895134,9.796762,108.3,5.845,1.85,335.95,54.895069,9.793790,54.895348,9.797490
1386926305,1,0,423.1,0,0,4,0,357,350,-0.0292,-2816.6372,6.8213,0.4212,54.895142,9.796789,108.3,5.845,1.85,335.95,54.895069,9.793790,54.895348,9.797490
1386926305,1,0,423.1,0,0,0,0,357,400,-0.0292,-2816.6372,6.8213,0.4212,54.895153,9.796818,108.3,5.845,1.85,335.95,54.895069,9.793790,54.895348,9.797490
1386926306,1,0,423.4,0,0,4,0,357,350,-0.0292,-2816.6372,6.8213,0.4212,54.895161,9.796845,108.3,5.845,1.85,335.95,54.895069,9.793790,54.895348,9.797490
1386926306,1,0,423.4,0,0,0,0,357,400,-0.0292,-2816.6372,6.8213,0.4212,54.895168,9.796873,108.3,5.845,1.85,335.95,54.895069,9.793790,54.895348,9.797490
1386926306,1,0,423.3,0,0,4,0,357,350,-0.0292,-2816.6372,6.8213,0.4212,54.895176,9.796902,108.3,5.845,1.85,335.95,54.895069,9.793790,54.895348,9.797490
1386926306,1,0,423.2,0,0,0,0,357,400,-0.0292,-2816.6372,6.8213,0.4212,54.895184,9.796929,108.3,5.845,1.85,335.95,54.895069,9.793790,54.895348,9.797490
1386926307,1,0,423.2,0,0,4,0,357,350,-0.0292,-2816.6372,6.8213,0.4212,54.895191,9.796957,108.3,5.845,1.85,335.95,54.895069,9.793790,54.895348,9.797490
1386926307,1,0,423.1,0,0,0,0,357,400,-0.0292,-2816.6372,6.8213,0.4212,54.895203,9.796986,108.3,5.845,1.85,335.95,54.895069,9.793790,54.895348,9.797490
1386926307,1,0,423.6,0,0,4,0,357,350,-0.0292,-2816.6372,6.8213,0.4212,54.895210,9.797013,108.3,5.845,1.85,335.95,54.895069,9.793790,54.895348,9.797490
1386926307,1,0,423.5,0,0,0,0,357,400,-0.0292,-2816.6372,6.8213,0.4212,54.895218,9.797041,108.3,5.845,1.85,335.95,54.895069,9.793790,54.895348,9.797490
1386926308,1,0,423.5,0,0,4,0,357,350,-0.0292,-2816.6372,6.8213,0.4212,54.895226,9.797070,108.3,5.845,1.85,335.95,54.895069,9.793790,54.895348,9.797490
1386926308,1,0,423.4,0,0,0,0,357,400,-0.0292,-2816.6372,6.8213,0.4212,54.895233,9.797097,108.3,5.845,1.85,335.95,54.895069,9.793790,54.895348,9.797490
1386926308,1,0,423.3,0,0,4,0,357,350,-0.0292,-2816.6372,6.8213,0.4212,54.895241,9.797125,108.3,5.845,1.85,335.95,54.895069,9.793790,54.895348,9.797490
1386926308,1,0,423.2,0,0,0,0,357,400,-0.0292,-2816.6372,6.8213,0.4212,54.895252,9.797153,108.3,5.845,1.85,335.95,54.895069,9.793790,54.895348,9.797490
1386926309,1,0,423.9,0,-1,-4,0,357,350,-0.0292,-2816.3706,6.8213,0.4212,54.895260,9.797181,108.3,5.845,1.85,335.95,54.895069,9.793790,54.895348,9.797490
1386926309,1,0,423.9,0,0,0,0,362,400,-0.0292,-2816.3706,6.8213,0.4212,54.895267,9.797209,108.3,5.845,1.85,335.95,54.895069,9.793790,54.895348,9.797490
1386926309,1,0,423.8,0,0,4,0,362,350,-0.0292,-2816.3706,6.8213,0.4212,54.895275,9.797237,108.3,5.845,1.85,335.95,54.895069,9.793790,54.895348,9.797490
1386926309,1,0,423.6,0,0,0,0,362,400,-0.0292,-2816.3706,6.8213,0.4212,54.895283,9.797265,108.3,5.845,1.85,335.95,54.895069,9.793790,54.895348,9.797490
1386926310,1,0,423.5,0,0,4,0,362,350,-0.0292,-2816.3706,6.8213,0.4212,54.895290,9.797293,108.3,5.845,1.85,335.95,54.895069,9.793790,54.895348,9.797490
1386926310,1,0,423.4,0,0,0,0,362,400,-0.0292,-2816.3706,6.8213,0.4212,54.895298,9.797321,108.3,5.845,1.85,335.95,54.895069,9.793790,54.895348,9.797490
1386926310,1,0,423.1,0,1,4,0,362,350,-0.0292,-2816.6372,6.8213,0.4212,54.895306,9.797349,108.3,5.845,1.85,335.95,54.895069,9.793790,54.895348,9.797490
1386926310,1,0,422.8,0,1,0,0,357,400,-0.0292,-2816.9038,6.8213,0.4212,54.895313,9.797377,108.3,5.845,1.85,335.95,54.895069,9.793790,54.895348,9.797490
1386926311,1,0,422.4,0,1,4,0,353,350,-0.0292,-2817.1704,6.8213,0.4212,54.895325,9.797404,108.3,5.845,1.85,335.95,54.895348,9.797490,54.894039,9.801540
1386926311,1,0,478.2,0,-35,0,0,349,300,-0.0292,-2807.8372,6.8213,0.4212,54.895329,9.797434,108.3,5.845,1.85,335.95,54.895348,9.797490,54.894039,9.801540
1386926311,1,0,478.5,0,-35,-4,0,498,350,-0.0292,-2798.5039,6.8213,0.4212,54.895332,9.797464,108.3,5.845,1.85,335.95,54.895348,9.797490,54.894039,9.801540
1386926311,1,0,478.7,0,-35,-8,0,645,400,-0.0292,-2789.1707,6.8213,0.4212,54.895332,9.797496,108.3,5.845,1.85,335.95,54.895348,9.797490,54.894039,9.801540
1386926312,1,0,478.9,0,-28,-12,0,785,450,-0.0292,-2781.7041,6.8213,0.4212,54.895332,9.797526,108.3,5.845,1.85,335.95,54.895348,9.797490,54.894039,9.801540
1386926312,1,0,479.1,0,-21,-16,0,870,500,-0.0292,-2776.1040,6.8213,0.4212,54.895329,9.797556,108.3,5.845,1.85,335.95,54.895348,9.797490,54.894039,9.801540
1386926312,1,0,479.2,0,-15,-12,0,870,550,-0.0292,-2772.1040,6.8213,0.4212,54.895325,9.797586,108.3,5.845,1.85,335.95,54.895348,9.797490,54.894039,9.801540
1386926312,1,0,479.3,0,-11,-8,0,870,600,-0.0292,-2769.1707,6.8213,0.4212,54.895317,9.797616,108.3,5.845,1.85,335.95,54.895348,9.797490,54.894039,9.801540
1386926313,1,0,479.4,0,-9,-12,0,870,650,-0.0292,-2766.7708,6.8213,0.4212,54.895309,9.797645,108.3,5.845,1.85,335.95,54.895348,9.797490,54.894039,9.801540
1386926313,1,0,479.4,0,-6,-8,0,713,700,-0.0292,-2765.1707,6.8213,0.4212,54.895302,9.797673,108.3,5.845,1.85,335.95,54.895348,9.797490,54.894039,9.801540
1386926313,1,0,479.4,0,-5,-4,0,713,750,-0.0292,-2763.8374,6.8213,0.4212,54.895294,9.797701,108.3,5.845,1.85,335.95,54.895348,9.797490,54.894039,9.801540
1386926313,1,0,479.5,0,-3,0,0,713,700,-0.0292,-2763.0374,6.8213,0.4212,54.895283,9.797729,108.3,5.845,1.85,335.95,54.895348,9.797490,54.894039,9.801540
1386926314,1,0,479.4,0,-2,-4,0,713,750,-0.0292,-2762.5039,6.8213,0.4212,54.895275,9.797756,108.3,5.845,1.85,335.95,54.895348,9.797490,54.894039,9.801540
1386926314,1,0,479.4,0,-2,0,0,713,700,-0.0292,-2761.9705,6.8213,0.4212,54.895267,9.797784,108.3,5.845,1.85,335.95,54.895348,9.797490,54.894039,9.801540
1386926314,1,0,479.5,0,-1,-4,0,713,750,-0.0292,-2761.7039,6.8213,0.4212,54.895256,9.797812,108.3,5.845,1.85,335.95,54.895348,9.797490,54.894039,9.801540
1386926314,1,0,479.4,0,-1,0,0,713,700,-0.0292,-2761.4373,6.8213,0.4212,54.895248,9.797839,108.3,5.845,1.85,335.95,54.895348,9.797490,54.894039,9.801540
1386926315,1,0,479.5,0,-1,-4,0,713,750,-0.0292,-2761.1707,6.8213,0.4212,54.895237,9.797867,108.3,5.845,1.85,335.95,54.895348,9.797490,54.894039,9.801540
1386926315,1,0,479.4,0,-1,0,0,713,700,-0.0292,-2760.9041,6.8213,0.4212,54.895229,9.797894,108.3,5.845,1.85,335.95,54.895348,9.797490,54.894039,9.801540
1386926315,1,0,479.4,0,0,4,0,713,750,-0.0292,-2760.9041,6.8213,0.4212,54.895222,9.797921,108.3,5.845,1.85,335.95,54.895348,9.797490,54.894039,9.801540
1386926315,1,0,479.5,0,0,0,0,713,700,-0.0292,-2760.9041,6.8213,0.4212,54.895210,9.797949,108.3,5.845,1.85,335.95,54.895348,9.797490,54.894039,9.801540
1386926316,1,0,479.4,0,0,4,0,713,750,-0.0292,-2760.9041,6.8213,0.4212,54.895203,9.797976,108.3,5.845,1.85,335.95,54.895348,9.797490,54.894039,9.801540
1386926316,1,0,479.4,0,0,0,0,713,700,-0.0292,-2760.9041,6.8213,0.4212,54.895195,9.798003,108.3,5.845,1.85,335.95,54.895348,9.797490,54.894039,9.801540
1386926316,1,0,479.5,0,0,4,0,713,750,-0.0292,-2760.9041,6.8213,0.4212,54.895184,9.798030,108.3,5.845,1.85,335.95,54.895348,9.797490,54.894039,9.801540
1386926316,1,0,479.4,0,0,0,0,713,700,-0.0292,-2760.9041,6.8213,0.4212,54.895176,9.798058,108.3,5.845,1.85,335.95,54.895348,9.797490,54.894039,9.801540
1386926317,1,0,479.4,0,0,4,0,713,750,-0.0292,-2760.9041,6.8213,0.4212,54.895168,9.798085,108.3,5.845,1.85,335.95,54.895348,9.797490,54.894039,9.801540
1386926317,1,0,479.5,0,0,0,0,713,700,-0.0292,-2760.9041,6.8213,0.4212,54.895157,9.798112,108.3,5.845,1.85,335.95,54.895348,9.797490,54.894039,9.801540
1386926317,1,0,479.4,0,0,4,0,713,750,-0.0292,-2760.9041,6.8213,0.4212,54.895149,9.798140,108.3,5.845,1.85,335.95,54.895348,9.797490,54.894039,9.801540
1386926317,1,0,479.4,0,0,0,0,713,700,-0.0292,-2760.9041,6.8213,0.4212,54.895138,9.798167,108.3,5.845,1.85,335.95,54.895348,9.797490,54.894039,9.801540
1386926318,1,0,479.4,0,0,4,0,713,750,-0.0292,-2760.9041,6.8213,0.4212,54.895130,9.798194,108.3,5.845,1.85,335.95,54.895348,9.797490,54.894039,9.801540
1386926318,1,0,479.4,0,0,0,0,713,700,-0.0292,-2760.9041,6.8213,0.4212,54.895123,9.798222,108.3,5.845,1.85,335.95,54.895348,9.797490,54.894039,9.801540
1386926318,1,0,479.4,0,0,4,0,713,750,-0.0292,-2760.9041,6.8213,0.4212,54.895111,9.798249,108.3,5.845,1.85,335.95,54.895348,9.797490,54.894039,9.801540
1386926318,1,0,479.4,0,0,0,0,713,700,-0.0292,-2760.9041,6.8213,0.4212,54.895103,9.798276,108.3,5.845,1.85,335.95,54.895348,9.797490,54.894039,9.801540
1386926319,1,0,479.4,0,0,4,0,713,750,-0.0292,-2760.9041,6.8213,0.4212,54.895096,9.798304,108.3,5.845,1.85,335.95,54.895348,9.797490,54.894039,9.801540
1386926319,1,0,479.4,0,0,0,0,713,700,-0.0292,-2760.9041,6.8213,0.4212,54.895084,9.798330,108.3,5.845,1.85,335.95,54.895348,9.797490,54.894039,9.801540
1386926319,1,0,479.4,0,0,4,0,713,750,-0.0292,-2760.9041,6.8213,0.4212,54.895077,9.798358,108.3,5.845,1.85,335.95,54.895348,9.797490,54.894039,9.801540
1386926319,1,0,479.4,0,0,0,0,713,700,-0.0292,-2760.9041,6.8213,0.4212,54.895065,9.798386,108.3,5.845,1.85,335.95,54.895348,9.797490,54.894039,9.801540
1386926320,1,0,479.3,0,0,4,0,713,750,-0.0292,-2760.9041,6.8213,0.4212,54.895058,9.798412,108.3,5.845,1.85,335.95,54.895348,9.797490,54.894039,9.801540
1386926320,1,0,479.4,0,0,0,0,713,700,-0.0292,-2760.9041,6.8213,0.4212,54.895050,9.798440,108.3,5.845,1.85,335.95,54.895348,9.797490,54.894039,9.801540
1386926320,1,0,479.4,0,0,4,0,713,750,-0.0292,-2760.9041,6.8213,0.4212,54.895039,9.798468,108.3,5.845,1.85,335.95,54.895348,9.797490,54.894039,9.801540
1386926320,1,0,479.3,0,0,0,0,713,700,-0.0292,-2760.9041,6.8213,0.4212,54.895031,9.798494,108.3,5.845,1.85,335.95,54.895348,9.797490,54.894039,9.801540
1386926321,1,0,479.4,0,0,4,0,713,750,-0.0292,-2760.9041,6.8213,0.4212,54.895023,9.798522,108.3,5.845,1.85,335.95,54.895348,9.797490,54.894039,9.801540
1386926321,1,0,479.4,0,0,0,0,713,700,-0.0292,-2760.9041,6.8213,0.4212,54.895012,9.798550,108.3,5.845,1.85,335.95,54.895348,9.797490,54.894039,9.801540
1386926321,1,0,479.3,0,0,4,0,713,750,-0.0292,-2760.9041,6.8213,0.4212,54.895004,9.798576,108.3,5.845,1.85,335.95,54.895348,9.797490,54.894039,9.801540
1386926322,1,0,479.4,0,0,0,0,713,700,-0.0292,-2760.9041,6.8213,0.4212,54.894997,9.798604,108.3,5.845,1.85,335.95,54.895348,9.797490,54.894039,9.801540
1386926322,1,0,479.4,0,0,4,0,713,750,-0.0292,-2760.9041,6.8213,0.4212,54.894985,9.798631,108.3,5.845,1.85,335.95,54.895348,9.797490,54.894039,9.801540
1386926322,1,0,479.3,0,0,0,0,713,700,-0.0292,-2760.9041,6.8213,0.4212,54.894978,9.798658,108.3,5.845,1.85,335.95,54.895348,9.797490,54.894039,9.801540
1386926322,1,0,479.4,0,0,4,0,713,750,-0.0292,-2760.9041,6.8213,0.4212,54.894966,9.798686,108.3,5.845,1.85,335.95,54.895348,9.797490,54.894039,9.801540
1386926323,1,0,479.3,0,0,0,0,713,700,-0.0292,-2760.9041,6.8213,0.4212,54.894958,9.798713,108.3,5.845,1.85,335.95,54.895348,9.797490,54.894039,9.801540
1386926323,1,0,479.3,0,0,4,0,713,750,-0.0292,-2760.9041,6.8213,0.4212,54.894951,9.798740,108.3,5.845,1.85,335.95,54.895348,9.797490,54.894039,9.801540
1386926323,1,0,479.4,0,0,0,0,713,700,-0.0292,-2760.9041,6.8213,0.4212,54.894939,9.798768,108.3,5.845,1.85,335.95,54.895348,9.797490,54.894039,9.801540
1386926323,1,0,479.3,0,0,4,0,713,750,-0.0292,-2760.9041,6.8213,0.4212,54.894932,9.798795,108.3,5.845,1.85,335.95,54.895348,9.797490,54.894039,9.801540
1386926324,1,0,479.3,0,0,0,0,713,700,-0.0292,-2760.9041,6.8213,0.4212,54.894924,9.798822,108.3,5.845,1.85,335.95,54.895348,9.797490,54.894039,9.801540
1386926324,1,0,479.4,0,0,4,0,713,750,-0.0292,-2760.9041,6.8213,0.4212,54.894913,9.798850,108.3,5.845,1.85,335.95,54.895348,9.797490,54.894039,9.801540
1386926324,1,0,479.3,0,0,0,0,713,700,-0.0292,-2760.9041,6.8213,0.4212,54.894905,9.798877,108.3,5.845,1.85,335.95,54.895348,9.797490,54.894039,9.801540
1386926324,1,0,479.3,0,0,4,0,713,750,-0.0292,-2760.9041,6.8213,0.4212,54.894897,9.798904,108.3,5.845,1.85,335.95,54.895348,9.797490,54.894039,9.801540
1386926325,1,0,479.4,0,0,0,0,713,700,-0.0292,-2760.9041,6.8213,0.4212,54.894886,9.798931,108.3,5.845,1.85,335.95,54.895348,9.797490,54.894039,9.801540
1386926325,1,0,479.3,0,0,4,0,713,750,-0.0292,-2760.9041,6.8213,0.4212,54.894878,9.798959,108.3,5.845,1.85,335.95,54.895348,9.797490,54.894039,9.801540
1386926325,1,0,479.3,0,0,0,0,713,700,-0.0292,-2760.9041,6.8213,0.4212,54.894867,9.798986,108.3,5.845,1.85,335.95,54.895348,9.797490,54.894039,9.801540
1386926325,1,0,479.3,0,0,4,0,713,750,-0.0292,-2760.9041,6.8213,0.4212,54.894859,9.799013,108.3,5.845,1.85,335.95,54.895348,9.797490,54.894039,9.801540
1386926326,1,0,479.3,0,0,0,0,713,700,-0.0292,-2760.9041,6.8213,0.4212,54.894852,9.799041,108.3,5.845,1.85,335.95,54.895348,9.797490,54.894039,9.801540
1386926326,1,0,479.3,0,0,4,0,713,750,-0.0292,-2760.9041,6.8213,0.4212,54.894840,9.799068,108.3,5.845,1.85,335.95,54.895348,9.797490,54.894039,9.801540
1386926326,1,0,479.3,0,0,0,0,713,700,-0.0292,-2760.9041,6.8213,0.4212,54.894833,9.799095,108.3,5.845,1.85,335.95,54.895348,9.797490,54.894039,9.801540
1386926326,1,0,479.3,0,0,4,0,713,750,-0.0292,-2760.9041,6.8213,0.4212,54.894825,9.799123,108.3,5.845,1.85,335.95,54.895348,9.797490,54.894039,9.801540
1386926327,1,0,479.3,0,0,0,0,713,700,-0.0292,-2760.9041,6.8213,0.4212,54.894814,9.799150,108.3,5.845,1.85,335.95,54.895348,9.797490,54.894039,9.801540
1386926327,1,0,479.2,0,0,4,0,713,750,-0.0292,-2760.9041,6.8213,0.4212,54.894806,9.799177,108.3,5.845,1.85,335.95,54.895348,9.797490,54.894039,9.801540
1386926327,1,0,479.3,0,0,0,0,713,700,-0.0292,-2760.9041,6.8213,0.4212,54.894794,9.799205,108.3,5.845,1.85,335.95,54.895348,9.797490,54.894039,9.801540
