MCU_timestamp,Navigation_System,Manual_Control,Guidance_Heading,Manual_Ctrl_Rudder,Rudder_Desired_Angle,Rudder_Feedback,Manual_Ctrl_Sail,Sail_Desired_Pos,Sail_Feedback,Rate,Heading,Pitch,Roll,Latitude,Longitude,COG,SOG,Wind_Speed,Wind_Angle,Point_Start_Lat,Point_Start_Lon,Point_End_Lat,Point_End_Lon
1386921247,0,0,0.0,0,0,4,0,0,0,-0.0292,-894.5075,6.8213,0.4212,54.896595,9.792992,108.3,5.845,1.85,335.95,0.000000,0.000000,0.000000,0.000000
1386921247,0,0,0.0,0,0,4,0,0,0,-0.0292,-894.5075,6.8213,0.4212,54.896595,9.792992,108.3,5.845,1.85,335.95,0.000000,0.000000,0.000000,0.000000
1386921248,0,0,0.0,0,0,4,0,0,0,-0.0292,-894.5075,6.8213,0.4212,54.896595,9.792992,108.3,5.845,1.85,335.95,0.000000,0.000000,0.000000,0.000000
1386921248,0,0,0.0,0,0,4,0,0,0,-0.0292,-894.5075,6.8213,0.4212,54.896595,9.792992,108.3,5.845,1.85,335.95,0.000000,0.000000,0.000000,0.000000
1386921248,0,0,0.0,0,0,4,0,0,0,-0.0292,-894.5075,6.8213,0.4212,54.896595,9.792992,108.3,5.845,1.85,335.95,0.000000,0.000000,0.000000,0.000000
1386921248,0,0,0.0,0,0,4,0,0,0,-0.0292,-894.5075,6.8213,0.4212,54.896595,9.792992,108.3,5.845,1.85,335.95,0.000000,0.000000,0.000000,0.000000
1386921249,0,0,0.0,0,0,4,0,0,0,-0.0292,-894.5075,6.8213,0.4212,54.896595,9.792992,108.3,5.845,1.85,335.95,0.000000,0.000000,0.000000,0.000000
1386921249,0,0,0.0,0,0,4,0,0,0,-0.0292,-894.5075,6.8213,0.4212,54.896595,9.792992,108.3,5.845,1.85,335.95,0.000000,0.000000,0.000000,0.000000
1386921249,0,0,0.0,0,0,4,0,0,0,-0.0292,-894.5075,6.8213,0.4212,54.896595,9.792992,108.3,5.845,1.85,335.95,0.000000,0.000000,0.000000,0.000000
1386921249,0,0,0.0,0,0,4,0,0,0,-0.0292,-894.5075,6.8213,0.4212,54.896595,9.792992,108.3,5.845,1.85,335.95,0.000000,0.000000,0.000000,0.000000
1386921250,0,0,0.0,0,0,4,0,0,0,-0.0292,-894.5075,6.8213,0.4212,54.896595,9.792992,108.3,5.845,1.85,335.95,0.000000,0.000000,0.000000,0.000000
1386921250,0,0,0.0,0,0,4,0,0,0,-0.0292,-894.5075,6.8213,0.4212,54.896595,9.792992,108.3,5.845,1.85,335.95,0.000000,0.000000,0.000000,0.000000
1386921250,0,0,0.0,0,0,4,0,0,0,-0.0292,-894.5075,6.8213,0.4212,54.896595,9.792992,108.3,5.845,1.85,335.95,0.000000,0.000000,0.000000,0.000000
1386921250,0,0,0.0,0,0,4,0,0,0,-0.0292,-894.5075,6.8213,0.4212,54.896595,9.792992,108.3,5.845,1.85,335.95,0.000000,0.000000,0.000000,0.000000
1386921251,0,0,0.0,0,0,4,0,0,0,-0.0292,-894.5075,6.8213,0.4212,54.896595,9.792992,108.3,5.845,1.85,335.95,0.000000,0.000000,0.000000,0.000000
1386921251,0,0,0.0,0,0,4,0,0,0,-0.0292,-894.5075,6.8213,0.4212,54.896595,9.792992,108.3,5.845,1.85,335.95,0.000000,0.000000,0.000000,0.000000
1386921251,0,0,0.0,0,0,4,0,0,0,-0.0292,-894.5075,6.8213,0.4212,54.896595,9.792992,108.3,5.845,1.85,335.95,0.000000,0.000000,0.000000,0.000000
1386921251,4,0,0.0,0,0,4,0,0,0,-0.0292,-894.5075,6.8213,0.4212,54.896595,9.792992,108.3,5.845,1.85,335.95,0.000000,0.000000,0.000000,0.000000
1386921252,1,0,485.9,0,35,8,0,713,750,-0.0292,-903.8408,6.8213,0.4212,54.896576,9.792994,108.3,5.845,1.85,335.95,54.896595,9.792992,54.895069,9.793790
1386921252,1,0,485.9,0,35,12,0,713,700,-0.0292,-913.1741,6.8213,0.4212,54.896557,9.793000,108.3,5.845,1.85,335.95,54.896595,9.792992,54.895069,9.793790
1386921252,1,0,485.9,0,35,16,0,713,750,-0.0292,-922.5074,6.8213,0.4212,54.896542,9.793013,108.3,5.845,1.85,335.95,54.896595,9.792992,54.895069,9.793790
1386921253,1,0,485.9,0,32,20,0,0,700,-0.0292,-931.0408,6.8213,0.4212,54.896526,9.793029,108.3,5.845,1.85,335.95,54.896595,9.792992,54.895069,9.793790
1386921253,1,0,485.9,0,23,24,0,0,650,-0.0292,-937.1741,6.8213,0.4212,54.896511,9.793048,108.3,5.845,1.85,335.95,54.896595,9.792992,54.895069,9.793790
1386921253,1,0,485.9,0,17,20,0,713,700,-0.0292,-941.7075,6.8213,0.4212,54.896500,9.793069,108.3,5.845,1.85,335.95,54.896595,9.792992,54.895069,9.793790
1386921253,1,0,485.9,0,12,16,0,713,750,-0.0292,-944.9075,6.8213,0.4212,54.896484,9.793091,108.3,5.845,1.85,335.95,54.896595,9.792992,54.895069,9.793790
1386921254,1,0,485.9,0,9,12,0,713,700,-0.0292,-947.3075,6.8213,0.4212,54.896473,9.793114,108.3,5.845,1.85,335.95,54.896595,9.792992,54.895069,9.793790
1386921254,1,0,485.9,0,7,8,0,713,750,-0.0292,-949.1741,6.8213,0.4212,54.896458,9.793138,108.3,5.845,1.85,335.95,54.896595,9.792992,54.895069,9.793790
1386921254,1,0,485.9,0,5,4,0,713,700,-0.0292,-950.5074,6.8213,0.4212,54.896446,9.793162,108.3,5.845,1.85,335.95,54.896595,9.792992,54.895069,9.793790
1386921254,1,0,485.9,0,4,8,0,0,650,-0.0292,-951.5741,6.8213,0.4212,54.896431,9.793187,108.3,5.845,1.85,335.95,54.896595,9.792992,54.895069,9.793790
1386921255,1,0,485.9,0,2,4,0,0,600,-0.0292,-952.1074,6.8213,0.4212,54.896420,9.793212,108.3,5.845,1.85,335.95,54.896595,9.792992,54.895069,9.793790
1386921255,1,0,485.9,0,2,0,0,0,550,-0.0292,-952.6407,6.8213,0.4212,54.896412,9.793237,108.3,5.845,1.85,335.95,54.896595,9.792992,54.895069,9.793790
1386921255,1,0,485.9,0,1,4,0,0,500,-0.0292,-952.9074,6.8213,0.4212,54.896400,9.793262,108.3,5.845,1.85,335.95,54.896595,9.792992,54.895069,9.793790
1386921255,1,0,485.9,0,1,0,0,0,450,-0.0292,-953.1741,6.8213,0.4212,54.896389,9.793286,108.3,5.845,1.85,335.95,54.896595,9.792992,54.895069,9.793790
1386921256,1,0,485.9,0,1,4,0,0,400,-0.0292,-953.4407,6.8213,0.4212,54.896378,9.793311,108.3,5.845,1.85,335.95,54.896595,9.792992,54.895069,9.793790
1386921256,1,0,485.9,0,1,0,0,0,350,-0.0292,-953.7074,6.8213,0.4212,54.896366,9.793337,108.3,5.845,1.85,335.95,54.896595,9.792992,54.895069,9.793790
1386921256,1,0,485.9,0,0,4,0,0,300,-0.0292,-953.7074,6.8213,0.4212,54.896355,9.793362,108.3,5.845,1.85,335.95,54.896595,9.792992,54.895069,9.793790
1386921256,1,0,485.9,0,0,0,0,0,250,-0.0292,-953.7074,6.8213,0.4212,54.896343,9.793386,108.3,5.845,1.85,335.95,54.896595,9.792992,54.895069,9.793790
1386921257,1,0,485.9,0,0,4,0,0,200,-0.0292,-953.7074,6.8213,0.4212,54.896336,9.793412,108.3,5.845,1.85,335.95,54.896595,9.792992,54.895069,9.793790
1386921257,1,0,485.9,0,0,0,0,0,150,-0.0292,-953.7074,6.8213,0.4212,54.896324,9.793437,108.3,5.845,1.85,335.95,54.896595,9.792992,54.895069,9.793790
1386921257,1,0,485.9,0,0,4,0,0,100,-0.0292,-953.7074,6.8213,0.4212,54.896313,9.793463,108.3,5.845,1.85,335.95,54.896595,9.792992,54.895069,9.793790
1386921257,1,0,485.9,0,0,0,0,0,50,-0.0292,-953.7074,6.8213,0.4212,54.896301,9.793488,108.3,5.845,1.85,335.95,54.896595,9.792992,54.895069,9.793790
1386921258,1,0,485.9,0,0,4,0,0,0,-0.0292,-953.7074,6.8213,0.4212,54.896290,9.793513,108.3,5.845,1.85,335.95,54.896595,9.792992,54.895069,9.793790
1386921258,1,0,485.9,0,0,0,0,0,50,-0.0292,-953.7074,6.8213,0.4212,54.896278,9.793538,108.3,5.845,1.85,335.95,54.896595,9.792992,54.895069,9.793790
1386921258,1,0,545.9,0,-35,-4,0,0,0,-0.0292,-944.3741,6.8213,0.4212,54.896263,9.793560,108.3,5.845,1.85,335.95,54.896595,9.792992,54.895069,9.793790
1386921258,1,0,545.9,0,-35,-8,0,0,50,-0.0292,-935.0408,6.8213,0.4212,54.896248,9.793578,108.3,5.845,1.85,335.95,54.896595,9.792992,54.895069,9.793790
1386921259,1,0,545.9,0,-35,-12,0,0,0,-0.0292,-925.7075,6.8213,0.4212,54.896233,9.793591,108.3,5.845,1.85,335.95,54.896595,9.792992,54.895069,9.793790
1386921259,1,0,545.9,0,-32,-16,0,0,50,-0.0292,-917.1741,6.8213,0.4212,54.896214,9.793601,108.3,5.845,1.85,335.95,54.896595,9.792992,54.895069,9.793790
1386921259,1,0,545.9,0,-23,-20,0,0,0,-0.0292,-911.0408,6.8213,0.4212,54.896194,9.793607,108.3,5.845,1.85,335.95,54.896595,9.792992,54.895069,9.793790
1386921259,1,0,545.9,0,-17,-16,0,0,50,-0.0292,-906.5074,6.8213,0.4212,54.896179,9.793611,108.3,5.845,1.85,335.95,54.896595,9.792992,54.895069,9.793790
1386921260,1,0,545.9,0,-12,-12,0,0,0,-0.0292,-903.3074,6.8213,0.4212,54.896160,9.793612,108.3,5.845,1.85,335.95,54.896595,9.792992,54.895069,9.793790
1386921260,1,0,545.9,0,-9,-8,0,0,50,-0.0292,-900.9074,6.8213,0.4212,54.896141,9.793613,108.3,5.845,1.85,335.95,54.896595,9.792992,54.895069,9.793790
1386921260,1,0,545.9,0,-7,-4,0,0,0,-0.0292,-899.0408,6.8213,0.4212,54.896122,9.793613,108.3,5.845,1.85,335.95,54.896595,9.792992,54.895069,9.793790
1386921260,1,0,545.9,0,-5,-8,0,0,50,-0.0292,-897.7075,6.8213,0.4212,54.896107,9.793612,108.3,5.845,1.85,335.95,54.896595,9.792992,54.895069,9.793790
1386921261,1,0,545.9,0,-4,-4,0,713,100,-0.0292,-896.6408,6.8213,0.4212,54.896088,9.793611,108.3,5.845,1.85,335.95,54.896595,9.792992,54.895069,9.793790
1386921261,1,0,545.9,0,-3,0,0,713,150,-0.0292,-895.8408,6.8213,0.4212,54.896069,9.793609,108.3,5.845,1.85,335.95,54.896595,9.792992,54.895069,9.793790
1386921261,1,0,545.9,0,-2,-4,0,713,200,-0.0292,-895.3075,6.8213,0.4212,54.896049,9.793607,108.3,5.845,1.85,335.95,54.896595,9.792992,54.895069,9.793790
1386921261,1,0,545.9,0,-1,0,0,713,250,-0.0292,-895.0408,6.8213,0.4212,54.896034,9.793604,108.3,5.845,1.85,335.95,54.896595,9.792992,54.895069,9.793790
1386921262,1,0,545.9,0,-1,-4,0,713,300,-0.0292,-894.7742,6.8213,0.4212,54.896015,9.793601,108.3,5.845,1.85,335.95,54.896595,9.792992,54.895069,9.793790
1386921262,1,0,545.9,0,-1,0,0,713,350,-0.0292,-894.5075,6.8213,0.4212,54.895996,9.793598,108.3,5.845,1.85,335.95,54.896595,9.792992,54.895069,9.793790
1386921262,1,0,545.9,0,0,4,0,713,400,-0.0292,-894.5075,6.8213,0.4212,54.895981,9.793595,108.3,5.845,1.85,335.95,54.896595,9.792992,54.895069,9.793790
1386921262,1,0,545.9,0,0,0,0,713,450,-0.0292,-894.5075,6.8213,0.4212,54.895962,9.793592,108.3,5.845,1.85,335.95,54.896595,9.792992,54.895069,9.793790
1386921263,1,0,545.9,0,0,4,0,713,500,-0.0292,-894.5075,6.8213,0.4212,54.895943,9.793590,108.3,5.845,1.85,335.95,54.896595,9.792992,54.895069,9.793790
1386921263,1,0,545.9,0,0,0,0,713,550,-0.0292,-894.5075,6.8213,0.4212,54.895924,9.793587,108.3,5.845,1.85,335.95,54.896595,9.792992,54.895069,9.793790
1386921263,1,0,545.9,0,0,4,0,713,600,-0.0292,-894.5075,6.8213,0.4212,54.895908,9.793584,108.3,5.845,1.85,335.95,54.896595,9.792992,54.895069,9.793790
1386921263,1,0,545.9,0,0,0,0,713,650,-0.0292,-894.5075,6.8213,0.4212,54.895889,9.793581,108.3,5.845,1.85,335.95,54.896595,9.792992,54.895069,9.793790
1386921264,1,0,545.9,0,0,4,0,713,700,-0.0292,-894.5075,6.8213,0.4212,54.895870,9.793578,108.3,5.845,1.85,335.95,54.896595,9.792992,54.895069,9.793790
1386921264,1,0,545.9,0,0,0,0,713,750,-0.0292,-894.5075,6.8213,0.4212,54.895851,9.793574,108.3,5.845,1.85,335.95,54.896595,9.792992,54.895069,9.793790
1386921264,1,0,545.9,0,0,4,0,713,700,-0.0292,-894.5075,6.8213,0.4212,54.895836,9.793571,108.3,5.845,1.85,335.95,54.896595,9.792992,54.895069,9.793790
1386921264,1,0,545.9,0,0,0,0,713,750,-0.0292,-894.5075,6.8213,0.4212,54.895817,9.793568,108.3,5.845,1.85,335.95,54.896595,9.792992,54.895069,9.793790
1386921265,1,0,545.9,0,0,4,0,713,700,-0.0292,-894.5075,6.8213,0.4212,54.895798,9.793565,108.3,5.845,1.85,335.95,54.896595,9.792992,54.895069,9.793790
1386921265,1,0,545.9,0,0,0,0,713,750,-0.0292,-894.5075,6.8213,0.4212,54.895779,9.793562,108.3,5.845,1.85,335.95,54.896595,9.792992,54.895069,9.793790
1386921265,1,0,545.9,0,0,4,0,713,700,-0.0292,-894.5075,6.8213,0.4212,54.895763,9.793559,108.3,5.845,1.85,335.95,54.896595,9.792992,54.895069,9.793790
1386921265,1,0,545.9,0,0,0,0,713,750,-0.0292,-894.5075,6.8213,0.4212,54.895744,9.793556,108.3,5.845,1.85,335.95,54.896595,9.792992,54.895069,9.793790
1386921266,1,0,545.9,0,0,4,0,713,700,-0.0292,-894.5075,6.8213,0.4212,54.895725,9.793553,108.3,5.845,1.85,335.95,54.896595,9.792992,54.895069,9.793790
1386921266,1,0,545.9,0,0,0,0,713,750,-0.0292,-894.5075,6.8213,0.4212,54.895710,9.793550,108.3,5.845,1.85,335.95,54.896595,9.792992,54.895069,9.793790
1386921266,1,0,545.9,0,0,4,0,713,700,-0.0292,-894.5075,6.8213,0.4212,54.895691,9.793548,108.3,5.845,1.85,335.95,54.896595,9.792992,54.895069,9.793790
1386921266,1,0,545.9,0,0,0,0,713,750,-0.0292,-894.5075,6.8213,0.4212,54.895672,9.793545,108.3,5.845,1.85,335.95,54.896595,9.792992,54.895069,9.793790
1386921267,1,0,545.9,0,0,4,0,713,700,-0.0292,-894.5075,6.8213,0.4212,54.895653,9.793542,108.3,5.845,1.85,335.95,54.896595,9.792992,54.895069,9.793790
1386921267,1,0,545.9,0,0,0,0,713,750,-0.0292,-894.5075,6.8213,0.4212,54.895638,9.793539,108.3,5.845,1.85,335.95,54.896595,9.792992,54.895069,9.793790
1386921267,1,0,545.9,0,0,4,0,713,700,-0.0292,-894.5075,6.8213,0.4212,54.895618,9.793536,108.3,5.845,1.85,335.95,54.896595,9.792992,54.895069,9.793790
1386921267,1,0,545.9,0,0,0,0,713,750,-0.0292,-894.5075,6.8213,0.4212,54.895599,9.793532,108.3,5.845,1.85,335.95,54.896595,9.792992,54.895069,9.793790
1386921268,1,0,545.9,0,0,4,0,713,700,-0.0292,-894.5075,6.8213,0.4212,54.895580,9.793529,108.3,5.845,1.85,335.95,54.896595,9.792992,54.895069,9.793790
1386921268,1,0,545.9,0,0,0,0,713,750,-0.0292,-894.5075,6.8213,0.4212,54.895565,9.793526,108.3,5.845,1.85,335.95,54.896595,9.792992,54.895069,9.793790
1386921268,1,0,545.9,0,0,4,0,713,700,-0.0292,-894.5075,6.8213,0.4212,54.895546,9.793523,108.3,5.845,1.85,335.95,54.896595,9.792992,54.895069,9.793790
1386921268,1,0,545.9,0,0,0,0,713,750,-0.0292,-894.5075,6.8213,0.4212,54.895527,9.793520,108.3,5.845,1.85,335.95,54.896595,9.792992,54.895069,9.793790
1386921269,1,0,545.9,0,0,4,0,713,700,-0.0292,-894.5075,6.8213,0.4212,54.895508,9.793517,108.3,5.845,1.85,335.95,54.896595,9.792992,54.895069,9.793790
1386921269,1,0,545.9,0,0,0,0,713,750,-0.0292,-894.5075,6.8213,0.4212,54.895493,9.793514,108.3,5.845,1.85,335.95,54.896595,9.792992,54.895069,9.793790
1386921269,1,0,545.9,0,0,4,0,713,700,-0.0292,-894.5075,6.8213,0.4212,54.895473,9.793511,108.3,5.845,1.85,335.95,54.896595,9.792992,54.895069,9.793790
1386921269,1,0,545.9,0,0,0,0,713,750,-0.0292,-894.5075,6.8213,0.4212,54.895454,9.793509,108.3,5.845,1.85,335.95,54.896595,9.792992,54.895069,9.793790
1386921270,1,0,545.9,0,0,4,0,713,700,-0.0292,-894.5075,6.8213,0.4212,54.895435,9.793506,108.3,5.845,1.85,335.95,54.896595,9.792992,54.895069,9.793790
1386921270,1,0,545.9,0,0,0,0,713,750,-0.0292,-894.5075,6.8213,0.4212,54.895420,9.793503,108.3,5.845,1.85,335.95,54.896595,9.792992,54.895069,9.793790
1386921270,1,0,545.9,0,0,4,0,713,700,-0.0292,-894.5075,6.8213,0.4212,54.895401,9.793500,108.3,5.845,1.85,335.95,54.896595,9.792992,54.895069,9.793790
1386921270,1,0,545.9,0,0,0,0,713,750,-0.0292,-894.5075,6.8213,0.4212,54.895382,9.793497,108.3,5.845,1.85,335.95,54.896595,9.792992,54.895069,9.793790
1386921271,1,0,545.9,0,0,4,0,713,700,-0.0292,-894.5075,6.8213,0.4212,54.895367,9.793494,108.3,5.845,1.85,335.95,54.896595,9.792992,54.895069,9.793790
1386921271,1,0,545.9,0,0,0,0,713,750,-0.0292,-894.5075,6.8213,0.4212,54.895348,9.793490,108.3,5.845,1.85,335.95,54.896595,9.792992,54.895069,9.793790
1386921271,1,0,545.9,0,0,4,0,713,700,-0.0292,-894.5075,6.8213,0.4212,54.895329,9.793487,108.3,5.845,1.85,335.95,54.896595,9.792992,54.895069,9.793790
1386921271,1,0,545.9,0,0,0,0,713,750,-0.0292,-894.5075,6.8213,0.4212,54.895309,9.793484,108.3,5.845,1.85,335.95,54.896595,9.792992,54.895069,9.793790
1386921272,1,0,545.9,0,0,4,0,713,700,-0.0292,-894.5075,6.8213,0.4212,54.895294,9.793481,108.3,5.845,1.85,335.95,54.896595,9.792992,54.895069,9.793790
1386921272,1,0,545.9,0,0,0,0,713,750,-0.0292,-894.5075,6.8213,0.4212,54.895275,9.793478,108.3,5.845,1.85,335.95,54.896595,9.792992,54.895069,9.793790
1386921272,1,0,545.9,0,0,4,0,713,700,-0.0292,-894.5075,6.8213,0.4212,54.895256,9.793475,108.3,5.845,1.85,335.95,54.896595,9.792992,54.895069,9.793790
1386921272,1,0,545.9,0,0,0,0,713,750,-0.0292,-894.5075,6.8213,0.4212,54.895237,9.793472,108.3,5.845,1.85,335.95,54.896595,9.792992,54.895069,9.793790
1386921273,1,0,545.9,0,0,4,0,713,700,-0.0292,-894.5075,6.8213,0.4212,54.895222,9.793469,108.3,5.845,1.85,335.95,54.896595,9.792992,54.895069,9.793790
1386921273,1,0,545.9,0,0,0,0,713,750,-0.0292,-894.5075,6.8213,0.4212,54.895203,9.793467,108.3,5.845,1.85,335.95,54.896595,9.792992,54.895069,9.793790
1386921273,1,0,545.9,0,0,4,0,713,700,-0.0292,-894.5075,6.8213,0.4212,54.895184,9.793464,108.3,5.845,1.85,335.95,54.896595,9.792992,54.895069,9.793790
1386921273,1,0,545.9,0,0,0,0,0,650,-0.0292,-894.5075,6.8213,0.4212,54.895164,9.793461,108.3,5.845,1.85,335.95,54.896595,9.792992,54.895069,9.793790
1386921274,1,0,545.9,0,0,4,0,0,600,-0.0292,-894.5075,6.8213,0.4212,54.895149,9.793458,108.3,5.845,1.85,335.95,54.896595,9.792992,54.895069,9.793790
1386921274,1,0,545.9,0,0,0,0,0,550,-0.0292,-894.5075,6.8213,0.4212,54.895130,9.793455,108.3,5.845,1.85,335.95,54.896595,9.792992,54.895069,9.793790
1386921274,1,0,545.9,0,0,4,0,0,500,-0.0292,-894.5075,6.8213,0.4212,54.895111,9.793452,108.3,5.845,1.85,335.95,54.896595,9.792992,54.895069,9.793790
1386921274,1,0,545.9,0,0,0,0,0,450,-0.0292,-894.5075,6.8213,0.4212,54.895096,9.793449,108.3,5.845,1.85,335.95,54.896595,9.792992,54.895069,9.793790
1386921275,1,0,545.9,0,0,4,0,0,400,-0.0292,-894.5075,6.8213,0.4212,54.895077,9.793446,108.3,5.845,1.85,335.95,54.896595,9.792992,54.895069,9.793790
1386921275,1,0,545.9,0,0,0,0,0,350,-0.0292,-894.5075,6.8213,0.4212,54.895058,9.793443,108.3,5.845,1.85,335.95,54.896595,9.792992,54.895069,9.793790
1386921275,1,0,545.9,0,0,4,0,0,300,-0.0292,-894.5075,6.8213,0.4212,54.895039,9.793440,108.3,5.845,1.85,335.95,54.896595,9.792992,54.895069,9.793790
1386921275,1,0,545.9,0,0,0,0,0,250,-0.0292,-894.5075,6.8213,0.4212,54.895023,9.793437,108.3,5.845,1.85,335.95,54.896595,9.792992,54.895069,9.793790
1386921276,1,0,545.9,0,0,4,0,0,200,-0.0292,-894.5075,6.8213,0.4212,54.895004,9.793434,108.3,5.845,1.85,335.95,54.896595,9.792992,54.895069,9.793790
1386921276,1,0,545.9,0,0,0,0,0,150,-0.0292,-894.5075,6.8213,0.4212,54.894985,9.793431,108.3,5.845,1.85,335.95,54.896595,9.792992,54.895069,9.793790
1386921276,1,0,545.9,0,0,4,0,0,100,-0.0292,-894.5075,6.8213,0.4212,54.894966,9.793428,108.3,5.845,1.85,335.95,54.896595,9.792992,54.895069,9.793790
1386921276,1,0,545.9,0,0,0,0,0,50,-0.0292,-894.5075,6.8213,0.4212,54.894951,9.793426,108.3,5.845,1.85,335.95,54.896595,9.792992,54.895069,9.793790
1386921277,1,0,545.9,0,0,4,0,0,0,-0.0292,-894.5075,6.8213,0.4212,54.894932,9.793423,108.3,5.845,1.85,335.95,54.896595,9.792992,54.895069,9.793790
1386921277,1,0,545.9,0,0,0,0,0,50,-0.0292,-894.5075,6.8213,0.4212,54.894913,9.793420,108.3,5.845,1.85,335.95,54.896595,9.792992,54.895069,9.793790
1386921277,1,0,485.9,0,35,4,0,0,0,-0.0292,-903.8408,6.8213,0.4212,54.894894,9.793422,108.3,5.845,1.85,335.95,54.896595,9.792992,54.895069,9.793790
1386921277,1,0,485.9,0,35,8,0,0,50,-0.0292,-913.1741,6.8213,0.4212,54.894878,9.793428,108.3,5.845,1.85,335.95,54.896595,9.792992,54.895069,9.793790
1386921278,1,0,485.9,0,35,12,0,0,0,-0.0292,-922.5074,6.8213,0.4212,54.894859,9.793441,108.3,5.845,1.85,335.95,54.896595,9.792992,54.895069,9.793790
1386921278,1,0,485.9,0,32,16,0,0,50,-0.0292,-931.0408,6.8213,0.4212,54.894844,9.793457,108.3,5.845,1.85,335.95,54.896595,9.792992,54.895069,9.793790
1386921278,1,0,485.9,0,23,20,0,0,0,-0.0292,-937.1741,6.8213,0.4212,54.894833,9.793476,108.3,5.845,1.85,335.95,54.896595,9.792992,54.895069,9.793790
1386921278,1,0,485.9,0,17,16,0,0,50,-0.0292,-941.7075,6.8213,0.4212,54.894817,9.793497,108.3,5.845,1.85,335.95,54.896595,9.792992,54.895069,9.793790
1386921279,1,0,485.9,0,12,12,0,0,0,-0.0292,-944.9075,6.8213,0.4212,54.894806,9.793519,108.3,5.845,1.85,335.95,54.896595,9.792992,54.895069,9.793790
1386921279,1,0,485.9,0,9,8,0,0,50,-0.0292,-947.3075,6.8213,0.4212,54.894794,9.793542,108.3,5.845,1.85,335.95,54.896595,9.792992,54.895069,9.793790
1386921279,1,0,485.9,0,7,4,0,0,0,-0.0292,-949.1741,6.8213,0.4212,54.894783,9.793566,108.3,5.845,1.85,335.95,54.896595,9.792992,54.895069,9.793790
1386921279,1,0,485.9,0,5,8,0,0,50,-0.0292,-950.5074,6.8213,0.4212,54.894772,9.793591,108.3,5.845,1.85,335.95,54.896595,9.792992,54.895069,9.793790
1386921280,1,0,485.9,0,4,4,0,713,100,-0.0292,-951.5741,6.8213,0.4212,54.894764,9.793615,108.3,5.845,1.85,335.95,54.896595,9.792992,54.895069,9.793790
1386921280,1,0,485.9,0,2,0,0,713,150,-0.0292,-952.1074,6.8213,0.4212,54.894753,9.793640,108.3,5.845,1.85,335.95,54.896595,9.792992,54.895069,9.793790
1386921280,1,0,485.9,0,2,4,0,713,200,-0.0292,-952.6407,6.8213,0.4212,54.894741,9.793665,108.3,5.845,1.85,335.95,54.896595,9.792992,54.895069,9.793790
1386921280,1,0,485.9,0,1,0,0,713,250,-0.0292,-952.9074,6.8213,0.4212,54.894730,9.793690,108.3,5.845,1.85,335.95,54.896595,9.792992,54.895069,9.793790
1386921281,1,0,485.9,0,1,4,0,713,300,-0.0292,-953.1741,6.8213,0.4212,54.894718,9.793715,108.3,5.845,1.85,335.95,54.896595,9.792992,54.895069,9.793790
1386921281,1,0,485.9,0,1,0,0,713,350,-0.0292,-953.4407,6.8213,0.4212,54.894707,9.793739,108.3,5.845,1.85,335.95,54.896595,9.792992,54.895069,9.793790
1386921281,1,0,485.5,0,1,4,0,713,400,-0.0292,-953.7074,6.8213,0.4212,54.894695,9.793765,108.3,5.845,1.85,335.95,54.896595,9.792992,54.895069,9.793790
1386921281,1,0,390.9,0,35,8,0,713,450,-0.0292,-963.0407,6.8213,0.4212,54.894688,9.793793,108.3,5.845,1.85,335.95,54.896595,9.792992,54.895069,9.793790
1386921282,1,0,390.9,0,35,12,0,713,500,-0.0292,-972.3740,6.8213,0.4212,54.894684,9.793822,108.3,5.845,1.85,335.95,54.896595,9.792992,54.895069,9.793790
1386921282,1,0,390.9,0,35,16,0,870,550,-0.0292,-981.7073,6.8213,0.4212,54.894680,9.793854,108.3,5.845,1.85,335.95,54.896595,9.792992,54.895069,9.793790
1386921282,1,0,390.9,0,35,20,0,870,600,-0.0292,-991.0406,6.8213,0.4212,54.894680,9.793885,108.3,5.845,1.85,335.95,54.896595,9.792992,54.895069,9.793790
1386921282,1,0,390.9,0,35,24,0,758,650,-0.0292,-1000.3740,6.8213,0.4212,54.894680,9.793916,108.3,5.845,1.85,335.95,54.896595,9.792992,54.895069,9.793790
1386921283,1,0,390.9,0,35,28,0,616,600,-0.0292,-1009.7073,6.8213,0.4212,54.894684,9.793945,108.3,5.845,1.85,335.95,54.896595,9.792992,54.895069,9.793790
1386921283,1,0,390.9,0,35,32,0,468,550,-0.0292,-1019.0406,6.8213,0.4212,54.894691,9.793973,108.3,5.845,1.85,335.95,54.896595,9.792992,54.895069,9.793790
1386921283,1,0,390.9,0,30,28,0,320,500,-0.0292,-1027.0405,6.8213,0.4212,54.894703,9.793998,108.3,5.845,1.85,335.95,54.896595,9.792992,54.895069,9.793790
1386921283,1,0,390.9,0,22,24,0,198,450,-0.0292,-1032.9072,6.8213,0.4212,54.894714,9.794021,108.3,5.845,1.85,335.95,54.896595,9.792992,54.895069,9.793790
1386921284,1,0,390.9,0,16,20,0,117,400,-0.0292,-1037.1740,6.8213,0.4212,54.894730,9.794042,108.3,5.845,1.85,335.95,54.896595,9.792992,54.895069,9.793790
1386921284,1,0,390.9,0,12,16,0,68,350,-0.0292,-1040.3739,6.8213,0.4212,54.894741,9.794062,108.3,5.845,1.85,335.95,54.896595,9.792992,54.895069,9.793790
1386921284,1,0,390.9,0,9,12,0,37,300,-0.0292,-1042.7739,6.8213,0.4212,54.894756,9.794081,108.3,5.845,1.85,335.95,54.896595,9.792992,54.895069,9.793790
1386921285,1,0,390.9,0,6,8,0,20,250,-0.0292,-1044.3739,6.8213,0.4212,54.894772,9.794099,108.3,5.845,1.85,335.95,54.896595,9.792992,54.895069,9.793790
1386921285,1,0,390.9,0,5,4,0,11,200,-0.0292,-1045.7073,6.8213,0.4212,54.894787,9.794116,108.3,5.845,1.85,335.95,54.896595,9.792992,54.895069,9.793790
1386921285,1,0,390.9,0,3,0,0,5,150,-0.0292,-1046.5073,6.8213,0.4212,54.894802,9.794133,108.3,5.845,1.85,335.95,54.896595,9.792992,54.895069,9.793790
1386921285,1,0,390.9,0,3,4,0,3,100,-0.0292,-1047.3074,6.8213,0.4212,54.894817,9.794149,108.3,5.845,1.85,335.95,54.896595,9.792992,54.895069,9.793790
1386921286,1,0,390.9,0,2,0,0,1,50,-0.0292,-1047.8407,6.8213,0.4212,54.894833,9.794166,108.3,5.845,1.85,335.95,54.896595,9.792992,54.895069,9.793790
1386921286,1,0,390.9,0,1,4,0,0,0,-0.0292,-1048.1074,6.8213,0.4212,54.894848,9.794183,108.3,5.845,1.85,335.95,54.896595,9.792992,54.895069,9.793790
1386921286,1,0,390.9,0,1,0,0,0,50,-0.0292,-1048.3741,6.8213,0.4212,54.894859,9.794199,108.3,5.845,1.85,335.95,54.896595,9.792992,54.895069,9.793790
1386921286,1,0,390.9,0,1,4,0,0,0,-0.0292,-1048.6409,6.8213,0.4212,54.894875,9.794215,108.3,5.845,1.85,335.95,54.896595,9.792992,54.895069,9.793790
1386921287,1,0,390.9,0,0,0,0,0,50,-0.0292,-1048.6409,6.8213,0.4212,54.894890,9.794231,108.3,5.845,1.85,335.95,54.896595,9.792992,54.895069,9.793790
1386921287,1,0,390.9,0,0,4,0,0,0,-0.0292,-1048.6409,6.8213,0.4212,54.894905,9.794248,108.3,5.845,1.85,335.95,54.896595,9.792992,54.895069,9.793790
1386921287,1,0,390.9,0,0,0,0,0,50,-0.0292,-1048.6409,6.8213,0.4212,54.894920,9.794264,108.3,5.845,1.85,335.95,54.896595,9.792992,54.895069,9.793790
1386921287,1,0,390.9,0,0,4,0,0,0,-0.0292,-1048.6409,6.8213,0.4212,54.894939,9.794280,108.3,5.845,1.85,335.95,54.896595,9.792992,54.895069,9.793790
1386921288,1,0,390.9,0,0,0,0,0,50,-0.0292,-1048.6409,6.8213,0.4212,54.894955,9.794296,108.3,5.845,1.85,335.95,54.896595,9.792992,54.895069,9.793790
1386921288,1,0,390.9,0,0,4,0,0,0,-0.0292,-1048.6409,6.8213,0.4212,54.894970,9.794312,108.3,5.845,1.85,335.95,54.896595,9.792992,54.895069,9.793790
1386921288,1,0,390.9,0,0,0,0,0,50,-0.0292,-1048.6409,6.8213,0.4212,54.894989,9.794329,108.3,5.845,1.85,335.95,54.896595,9.792992,54.895069,9.793790
1386921288,1,0,390.9,0,0,4,0,0,0,-0.0292,-1048.6409,6.8213,0.4212,54.895004,9.794345,108.3,5.845,1.85,335.95,54.896595,9.792992,54.895069,9.793790
1386921289,1,0,390.9,0,0,0,0,0,50,-0.0292,-1048.6409,6.8213,0.4212,54.895020,9.794362,108.3,5.845,1.85,335.95,54.896595,9.792992,54.895069,9.793790
1386921289,1,0,390.9,0,0,4,0,0,0,-0.0292,-1048.6409,6.8213,0.4212,54.895039,9.794378,108.3,5.845,1.85,335.95,54.896595,9.792992,54.895069,9.793790
1386921289,1,0,390.9,0,0,0,0,0,50,-0.0292,-1048.6409,6.8213,0.4212,54.895054,9.794394,108.3,5.845,1.85,335.95,54.896595,9.792992,54.895069,9.793790
1386921289,1,0,390.9,0,0,4,0,0,0,-0.0292,-1048.6409,6.8213,0.4212,54.895069,9.794411,108.3,5.845,1.85,335.95,54.896595,9.792992,54.895069,9.793790
1386921290,1,0,390.9,0,0,0,0,0,50,-0.0292,-1048.6409,6.8213,0.4212,54.895081,9.794427,108.3,5.845,1.85,335.95,54.896595,9.792992,54.895069,9.793790
1386921290,1,0,390.9,0,0,4,0,0,0,-0.0292,-1048.6409,6.8213,0.4212,54.895096,9.794443,108.3,5.845,1.85,335.95,54.896595,9.792992,54.895069,9.793790
1386921290,1,0,390.9,0,0,0,0,0,50,-0.0292,-1048.6409,6.8213,0.4212,54.895111,9.794459,108.3,5.845,1.85,335.95,54.896595,9.792992,54.895069,9.793790
1386921290,1,0,390.9,0,0,4,0,0,0,-0.0292,-1048.6409,6.8213,0.4212,54.895126,9.794476,108.3,5.845,1.85,335.95,54.896595,9.792992,54.895069,9.793790
1386921291,1,0,390.9,0,0,0,0,0,50,-0.0292,-1048.6409,6.8213,0.4212,54.895142,9.794492,108.3,5.845,1.85,335.95,54.896595,9.792992,54.895069,9.793790
1386921291,1,0,259.9,0,35,4,0,0,0,-0.0292,-1057.9742,6.8213,0.4212,54.895161,9.794503,108.3,5.845,1.85,335.95,54.896595,9.792992,54.895069,9.793790
1386921291,1,0,257.5,0,35,8,0,0,50,-0.0292,-1067.3076,6.8213,0.4212,54.895180,9.794510,108.3,5.845,1.85,335.95,54.896595,9.792992,54.895069,9.793790
1386921291,1,0,255.1,0,35,12,0,0,0,-0.0292,-1076.6410,6.8213,0.4212,54.895199,9.794512,108.3,5.845,1.85,335.95,54.896595,9.792992,54.895069,9.793790
1386921292,1,0,252.8,0,35,16,0,0,50,-0.0292,-1085.9744,6.8213,0.4212,54.895214,9.794509,108.3,5.845,1.85,335.95,54.896595,9.792992,54.895069,9.793790
1386921292,1,0,250.8,0,35,20,0,0,0,-0.0292,-1095.3077,6.8213,0.4212,54.895233,9.794501,108.3,5.845,1.85,335.95,54.896595,9.792992,54.895069,9.793790
1386921292,1,0,248.3,0,35,24,0,0,50,-0.0292,-1104.6411,6.8213,0.4212,54.895252,9.794488,108.3,5.845,1.85,335.95,54.896595,9.792992,54.895069,9.793790
1386921292,1,0,605.6,0,35,28,0,0,0,-0.0292,-1113.9745,6.8213,0.4212,54.895267,9.794471,108.3,5.845,1.85,335.95,54.896595,9.792992,54.895069,9.793790
1386921293,1,0,603.3,0,35,32,0,0,50,-0.0292,-1123.3079,6.8213,0.4212,54.895279,9.794450,108.3,5.845,1.85,335.95,54.896595,9.792992,54.895069,9.793790
1386921293,1,0,601.2,0,35,36,0,0,0,-0.0292,-1132.6412,6.8213,0.4212,54.895290,9.794425,108.3,5.845,1.85,335.95,54.896595,9.792992,54.895069,9.793790
1386921293,1,0,599.0,0,35,32,0,0,50,-0.0292,-1141.9746,6.8213,0.4212,54.895298,9.794397,108.3,5.845,1.85,335.95,54.896595,9.792992,54.895069,9.793790
1386921293,1,0,596.9,0,35,36,0,0,0,-0.0292,-1151.3080,6.8213,0.4212,54.895302,9.794368,108.3,5.845,1.85,335.95,54.896595,9.792992,54.895069,9.793790
1386921294,1,0,595.2,0,35,32,0,0,50,-0.0292,-1160.6414,6.8213,0.4212,54.895306,9.794337,108.3,5.845,1.85,335.95,54.896595,9.792992,54.895069,9.793790
1386921294,1,0,593.3,0,35,36,0,1,0,-0.0292,-1169.9747,6.8213,0.4212,54.895306,9.794307,108.3,5.845,1.85,335.95,54.896595,9.792992,54.895069,9.793790
1386921294,1,0,591.7,0,35,32,0,58,50,-0.0292,-1179.3081,6.8213,0.4212,54.895302,9.794275,108.3,5.845,1.85,335.95,54.896595,9.792992,54.895069,9.793790
1386921294,1,0,590.4,0,30,28,0,173,100,-0.0292,-1187.3081,6.8213,0.4212,54.895298,9.794246,108.3,5.845,1.85,335.95,54.896595,9.792992,54.895069,9.793790
1386921295,1,0,589.1,0,24,24,0,292,150,-0.0292,-1193.7081,6.8213,0.4212,54.895290,9.794217,108.3,5.845,1.85,335.95,54.896595,9.792992,54.895069,9.793790
1386921295,1,0,588.2,0,18,20,0,393,200,-0.0292,-1198.5082,6.8213,0.4212,54.895279,9.794190,108.3,5.845,1.85,335.95,54.896595,9.792992,54.895069,9.793790
1386921295,1,0,587.8,0,14,16,0,470,250,-0.0292,-1202.2415,6.8213,0.4212,54.895271,9.794164,108.3,5.845,1.85,335.95,54.896595,9.792992,54.895069,9.793790
1386921295,1,0,586.9,0,11,12,0,529,300,-0.0292,-1205.1748,6.8213,0.4212,54.895260,9.794139,108.3,5.845,1.85,335.95,54.896595,9.792992,54.895069,9.793790
1386921296,1,0,586.6,0,8,8,0,576,350,-0.0292,-1207.3081,6.8213,0.4212,54.895248,9.794114,108.3,5.845,1.85,335.95,54.896595,9.792992,54.895069,9.793790
1386921296,1,0,586.3,0,6,4,0,609,400,-0.0292,-1208.9081,6.8213,0.4212,54.895237,9.794090,108.3,5.845,1.85,335.95,54.896595,9.792992,54.895069,9.793790
1386921296,1,0,586.0,0,5,8,0,634,450,-0.0292,-1210.2415,6.8213,0.4212,54.895226,9.794066,108.3,5.845,1.85,335.95,54.896595,9.792992,54.895069,9.793790
1386921296,1,0,585.7,0,4,4,0,655,500,-0.0292,-1211.3081,6.8213,0.4212,54.895214,9.794043,108.3,5.845,1.85,335.95,54.896595,9.792992,54.895069,9.793790
1386921297,1,0,585.3,0,3,0,0,671,550,-0.0292,-1212.1082,6.8213,0.4212,54.895203,9.794020,108.3,5.845,1.85,335.95,54.896595,9.792992,54.895069,9.793790
1386921297,1,0,584.9,0,3,4,0,683,600,-0.0292,-1212.9082,6.8213,0.4212,54.895191,9.793997,108.3,5.845,1.85,335.95,54.896595,9.792992,54.895069,9.793790
1386921297,1,0,584.4,0,3,0,0,695,650,-0.0292,-1213.7083,6.8213,0.4212,54.895180,9.793975,108.3,5.845,1.85,335.95,54.896595,9.792992,54.895069,9.793790
1386921297,1,0,584.1,0,2,4,0,708,700,-0.0292,-1214.2416,6.8213,0.4212,54.895168,9.793952,108.3,5.845,1.85,335.95,54.896595,9.792992,54.895069,9.793790
1386921298,1,0,583.4,0,2,0,0,716,750,-0.0292,-1214.7749,6.8213,0.4212,54.895153,9.793930,108.3,5.845,1.85,335.95,54.896595,9.792992,54.895069,9.793790
1386921298,1,0,584.0,0,1,4,0,724,700,-0.0292,-1215.0416,6.8213,0.4212,54.895142,9.793908,108.3,5.845,1.85,335.95,54.896595,9.792992,54.895069,9.793790
1386921298,1,0,583.4,0,2,0,0,728,750,-0.0292,-1215.5750,6.8213,0.4212,54.895130,9.793886,108.3,5.845,1.85,335.95,54.896595,9.792992,54.895069,9.793790
1386921298,1,0,582.4,0,2,4,0,736,700,-0.0292,-1216.1083,6.8213,0.4212,54.895119,9.793864,108.3,5.845,1.85,335.95,54.896595,9.792992,54.895069,9.793790
1386921299,1,0,581.0,0,3,0,0,744,750,-0.0292,-1216.9083,6.8213,0.4212,54.895103,9.793843,108.3,5.845,1.85,335.95,54.896595,9.792992,54.895069,9.793790
1386921299,1,0,582.0,0,1,4,0,756,800,-0.0292,-1217.1750,6.8213,0.4212,54.895088,9.793822,108.3,5.845,1.85,335.95,54.896595,9.792992,54.895069,9.793790
1386921299,1,0,584.5,0,-2,0,0,759,750,-0.0292,-1216.6417,6.8213,0.4212,54.895077,9.793801,108.3,5.845,1.85,335.95,54.895069,9.793790,54.895348,9.797490
1386921299,1,0,545.9,0,35,4,0,752,800,-0.0292,-1225.9751,6.8213,0.4212,54.895061,9.793783,108.3,5.845,1.85,335.95,54.895069,9.793790,54.895348,9.797490
1386921300,1,0,545.9,0,28,8,0,870,850,-0.0292,-1233.4418,6.8213,0.4212,54.895046,9.793770,108.3,5.845,1.85,335.95,54.895069,9.793790,54.895348,9.797490
1386921300,1,0,545.9,0,21,12,0,870,900,-0.0292,-1239.0417,6.8213,0.4212,54.895027,9.793758,108.3,5.845,1.85,335.95,54.895069,9.793790,54.895348,9.797490
1386921300,1,0,545.9,0,15,16,0,870,850,-0.0292,-1243.0417,6.8213,0.4212,54.895008,9.793749,108.3,5.845,1.85,335.95,54.895069,9.793790,54.895348,9.797490
1386921300,1,0,545.9,0,11,12,0,713,800,-0.0292,-1245.9751,6.8213,0.4212,54.894989,9.793741,108.3,5.845,1.85,335.95,54.895069,9.793790,54.895348,9.797490
1386921301,1,0,545.9,0,8,8,0,713,750,-0.0292,-1248.1084,6.8213,0.4212,54.894974,9.793736,108.3,5.845,1.85,335.95,54.895069,9.793790,54.895348,9.797490
1386921301,1,0,545.9,0,6,4,0,713,700,-0.0292,-1249.7084,6.8213,0.4212,54.894955,9.793730,108.3,5.845,1.85,335.95,54.895069,9.793790,54.895348,9.797490
1386921301,1,0,545.9,0,4,8,0,713,750,-0.0292,-1250.7750,6.8213,0.4212,54.894936,9.793725,108.3,5.845,1.85,335.95,54.895069,9.793790,54.895348,9.797490
1386921301,1,0,545.9,0,3,4,0,0,700,-0.0292,-1251.5751,6.8213,0.4212,54.894917,9.793720,108.3,5.845,1.85,335.95,54.895069,9.793790,54.895348,9.797490
1386921302,1,0,545.9,0,2,0,0,0,650,-0.0292,-1252.1084,6.8213,0.4212,54.894901,9.793715,108.3,5.845,1.85,335.95,54.895069,9.793790,54.895348,9.797490
1386921302,1,0,545.9,0,2,4,0,0,600,-0.0292,-1252.6417,6.8213,0.4212,54.894882,9.793712,108.3,5.845,1.85,335.95,54.895069,9.793790,54.895348,9.797490
1386921302,1,0,545.9,0,1,0,0,0,550,-0.0292,-1252.9084,6.8213,0.4212,54.894863,9.793708,108.3,5.845,1.85,335.95,54.895069,9.793790,54.895348,9.797490
1386921302,1,0,545.9,0,1,4,0,0,500,-0.0292,-1253.1752,6.8213,0.4212,54.894844,9.793704,108.3,5.845,1.85,335.95,54.895069,9.793790,54.895348,9.797490
1386921303,1,0,545.9,0,1,0,0,0,450,-0.0292,-1253.4419,6.8213,0.4212,54.894829,9.793700,108.3,5.845,1.85,335.95,54.895069,9.793790,54.895348,9.797490
1386921303,1,0,545.9,0,1,4,0,0,400,-0.0292,-1253.7086,6.8213,0.4212,54.894810,9.793697,108.3,5.845,1.85,335.95,54.895069,9.793790,54.895348,9.797490
1386921303,1,0,545.9,0,0,0,0,0,350,-0.0292,-1253.7086,6.8213,0.4212,54.894791,9.793694,108.3,5.845,1.85,335.95,54.895069,9.793790,54.895348,9.797490
1386921303,1,0,545.9,0,0,4,0,0,300,-0.0292,-1253.7086,6.8213,0.4212,54.894775,9.793692,108.3,5.845,1.85,335.95,54.895069,9.793790,54.895348,9.797490
1386921304,1,0,545.9,0,0,0,0,0,250,-0.0292,-1253.7086,6.8213,0.4212,54.894756,9.793689,108.3,5.845,1.85,335.95,54.895069,9.793790,54.895348,9.797490
1386921304,1,0,545.9,0,0,4,0,0,200,-0.0292,-1253.7086,6.8213,0.4212,54.894737,9.793686,108.3,5.845,1.85,335.95,54.895069,9.793790,54.895348,9.797490
1386921304,1,0,545.9,0,0,0,0,0,150,-0.0292,-1253.7086,6.8213,0.4212,54.894718,9.793683,108.3,5.845,1.85,335.95,54.895069,9.793790,54.895348,9.797490
1386921304,1,0,545.9,0,0,4,0,0,100,-0.0292,-1253.7086,6.8213,0.4212,54.894703,9.793679,108.3,5.845,1.85,335.95,54.895069,9.793790,54.895348,9.797490
1386921305,1,0,545.9,0,0,0,0,0,50,-0.0292,-1253.7086,6.8213,0.4212,54.894684,9.793675,108.3,5.845,1.85,335.95,54.895069,9.793790,54.895348,9.797490
1386921305,1,0,545.9,0,0,4,0,0,0,-0.0292,-1253.7086,6.8213,0.4212,54.894665,9.793672,108.3,5.845,1.85,335.95,54.895069,9.793790,54.895348,9.797490
1386921305,1,0,545.9,0,0,0,0,0,50,-0.0292,-1253.7086,6.8213,0.4212,54.894646,9.793668,108.3,5.845,1.85,335.95,54.895069,9.793790,54.895348,9.797490
1386921305,1,0,485.9,0,35,4,0,0,0,-0.0292,-1263.0420,6.8213,0.4212,54.894630,9.793669,108.3,5.845,1.85,335.95,54.895069,9.793790,54.895348,9.797490
1386921306,1,0,485.9,0,35,8,0,0,50,-0.0292,-1272.3754,6.8213,0.4212,54.894611,9.793675,108.3,5.845,1.85,335.95,54.895069,9.793790,54.895348,9.797490
1386921306,1,0,485.9,0,35,12,0,0,0,-0.0292,-1281.7087,6.8213,0.4212,54.894592,9.793687,108.3,5.845,1.85,335.95,54.895069,9.793790,54.895348,9.797490
1386921306,1,0,485.9,0,32,16,0,0,50,-0.0292,-1290.2421,6.8213,0.4212,54.894577,9.793703,108.3,5.845,1.85,335.95,54.895069,9.793790,54.895348,9.797490
1386921306,1,0,485.9,0,24,20,0,0,0,-0.0292,-1296.6421,6.8213,0.4212,54.894562,9.793721,108.3,5.845,1.85,335.95,54.895069,9.793790,54.895348,9.797490
1386921307,1,0,485.9,0,17,16,0,0,50,-0.0292,-1301.1754,6.8213,0.4212,54.894547,9.793741,108.3,5.845,1.85,335.95,54.895069,9.793790,54.895348,9.797490
1386921307,1,0,485.9,0,13,12,0,0,0,-0.0292,-1304.6421,6.8213,0.4212,54.894535,9.793763,108.3,5.845,1.85,335.95,54.895069,9.793790,54.895348,9.797490
1386921307,1,0,485.9,0,9,8,0,0,50,-0.0292,-1307.0421,6.8213,0.4212,54.894524,9.793786,108.3,5.845,1.85,335.95,54.895069,9.793790,54.895348,9.797490
1386921307,1,0,485.9,0,7,4,0,0,0,-0.0292,-1308.9088,6.8213,0.4212,54.894512,9.793810,108.3,5.845,1.85,335.95,54.895069,9.793790,54.895348,9.797490
1386921308,1,0,485.9,0,5,8,0,0,50,-0.0292,-1310.2422,6.8213,0.4212,54.894501,9.793834,108.3,5.845,1.85,335.95,54.895069,9.793790,54.895348,9.797490
1386921308,1,0,485.9,0,4,4,0,0,0,-0.0292,-1311.3088,6.8213,0.4212,54.894493,9.793858,108.3,5.845,1.85,335.95,54.895069,9.793790,54.895348,9.797490
1386921308,1,0,485.9,0,3,0,0,0,50,-0.0292,-1312.1089,6.8213,0.4212,54.894482,9.793882,108.3,5.845,1.85,335.95,54.895069,9.793790,54.895348,9.797490
1386921308,1,0,485.9,0,2,4,0,713,100,-0.0292,-1312.6422,6.8213,0.4212,54.894470,9.793907,108.3,5.845,1.85,335.95,54.895069,9.793790,54.895348,9.797490
1386921309,1,0,485.9,0,1,0,0,713,150,-0.0292,-1312.9089,6.8213,0.4212,54.894459,9.793932,108.3,5.845,1.85,335.95,54.895069,9.793790,54.895348,9.797490
1386921309,1,0,485.9,0,1,4,0,713,200,-0.0292,-1313.1757,6.8213,0.4212,54.894447,9.793957,108.3,5.845,1.85,335.95,54.895069,9.793790,54.895348,9.797490
1386921309,1,0,485.9,0,1,0,0,713,250,-0.0292,-1313.4424,6.8213,0.4212,54.894436,9.793983,108.3,5.845,1.85,335.95,54.895069,9.793790,54.895348,9.797490
1386921309,1,0,485.9,0,1,4,0,713,300,-0.0292,-1313.7091,6.8213,0.4212,54.894424,9.794007,108.3,5.845,1.85,335.95,54.895069,9.793790,54.895348,9.797490
1386921310,1,0,485.9,0,0,0,0,713,350,-0.0292,-1313.7091,6.8213,0.4212,54.894417,9.794032,108.3,5.845,1.85,335.95,54.895069,9.793790,54.895348,9.797490
1386921310,1,0,442.8,0,35,4,0,713,400,-0.0292,-1323.0425,6.8213,0.4212,54.894409,9.794060,108.3,5.845,1.85,335.95,54.895069,9.793790,54.895348,9.797490
1386921310,1,0,424.7,0,35,8,0,713,450,-0.0292,-1332.3759,6.8213,0.4212,54.894402,9.794089,108.3,5.845,1.85,335.95,54.895069,9.793790,54.895348,9.797490
1386921310,1,0,424.3,0,35,12,0,870,500,-0.0292,-1341.7092,6.8213,0.4212,54.894402,9.794120,108.3,5.845,1.85,335.95,54.895069,9.793790,54.895348,9.797490
1386921311,1,0,424.1,0,34,16,0,870,550,-0.0292,-1350.7759,6.8213,0.4212,54.894402,9.794151,108.3,5.845,1.85,335.95,54.895069,9.793790,54.895348,9.797490
1386921311,1,0,423.9,0,25,20,0,762,600,-0.0292,-1357.4425,6.8213,0.4212,54.894405,9.794182,108.3,5.845,1.85,335.95,54.895069,9.793790,54.895348,9.797490
1386921311,1,0,423.8,0,19,16,0,661,650,-0.0292,-1362.5092,6.8213,0.4212,54.894405,9.794212,108.3,5.845,1.85,335.95,54.895069,9.793790,54.895348,9.797490
1386921311,1,0,423.6,0,14,12,0,582,600,-0.0292,-1366.2424,6.8213,0.4212,54.894409,9.794243,108.3,5.845,1.85,335.95,54.895069,9.793790,54.895348,9.797490
1386921312,1,0,423.5,0,10,8,0,523,550,-0.0292,-1368.9091,6.8213,0.4212,54.894413,9.794272,108.3,5.845,1.85,335.95,54.895069,9.793790,54.895348,9.797490
1386921312,1,0,423.3,0,8,12,0,481,500,-0.0292,-1371.0424,6.8213,0.4212,54.894421,9.794301,108.3,5.845,1.85,335.95,54.895069,9.793790,54.895348,9.797490
1386921312,1,0,423.3,0,6,8,0,447,450,-0.0292,-1372.6423,6.8213,0.4212,54.894428,9.794331,108.3,5.845,1.85,335.95,54.895069,9.793790,54.895348,9.797490
1386921312,1,0,423.3,0,4,4,0,421,400,-0.0292,-1373.7090,6.8213,0.4212,54.894436,9.794359,108.3,5.845,1.85,335.95,54.895069,9.793790,54.895348,9.797490
1386921313,1,0,423.3,0,3,0,0,404,450,-0.0292,-1374.5090,6.8213,0.4212,54.894444,9.794388,108.3,5.845,1.85,335.95,54.895069,9.793790,54.895348,9.797490
1386921313,1,0,423.3,0,2,4,0,391,400,-0.0292,-1375.0424,6.8213,0.4212,54.894451,9.794416,108.3,5.845,1.85,335.95,54.895069,9.793790,54.895348,9.797490
1386921313,1,0,423.2,0,2,0,0,383,350,-0.0292,-1375.5757,6.8213,0.4212,54.894459,9.794445,108.3,5.845,1.85,335.95,54.895069,9.793790,54.895348,9.797490
1386921313,1,0,423.2,0,1,4,0,374,400,-0.0292,-1375.8424,6.8213,0.4212,54.894466,9.794473,108.3,5.845,1.85,335.95,54.895069,9.793790,54.895348,9.797490
1386921314,1,0,423.2,0,1,0,0,370,350,-0.0292,-1376.1091,6.8213,0.4212,54.894474,9.794501,108.3,5.845,1.85,335.95,54.895069,9.793790,54.895348,9.797490
1386921314,1,0,423.2,0,1,4,0,366,400,-0.0292,-1376.3759,6.8213,0.4212,54.894482,9.794529,108.3,5.845,1.85,335.95,54.895069,9.793790,54.895348,9.797490
1386921314,1,0,423.2,0,0,0,0,362,350,-0.0292,-1376.3759,6.8213,0.4212,54.894489,9.794557,108.3,5.845,1.85,335.95,54.895069,9.793790,54.895348,9.797490
1386921314,1,0,423.2,0,0,4,0,362,400,-0.0292,-1376.3759,6.8213,0.4212,54.894497,9.794585,108.3,5.845,1.85,335.95,54.895069,9.793790,54.895348,9.797490
1386921315,1,0,423.2,0,0,0,0,362,350,-0.0292,-1376.3759,6.8213,0.4212,54.894505,9.794613,108.3,5.845,1.85,335.95,54.895069,9.793790,54.895348,9.797490
1386921315,1,0,423.1,0,0,4,0,362,400,-0.0292,-1376.3759,6.8213,0.4212,54.894512,9.794641,108.3,5.845,1.85,335.95,54.895069,9.793790,54.895348,9.797490
1386921315,1,0,423.1,0,0,0,0,362,350,-0.0292,-1376.3759,6.8213,0.4212,54.894520,9.794669,108.3,5.845,1.85,335.95,54.895069,9.793790,54.895348,9.797490
1386921315,1,0,423.1,0,1,4,0,362,400,-0.0292,-1376.6426,6.8213,0.4212,54.894527,9.794697,108.3,5.845,1.85,335.95,54.895069,9.793790,54.895348,9.797490
1386921316,1,0,423.1,0,0,0,0,357,350,-0.0292,-1376.6426,6.8213,0.4212,54.894539,9.794724,108.3,5.845,1.85,335.95,54.895069,9.793790,54.895348,9.797490
1386921316,1,0,423.2,0,0,4,0,357,400,-0.0292,-1376.6426,6.8213,0.4212,54.894547,9.794753,108.3,5.845,1.85,335.95,54.895069,9.793790,54.895348,9.797490
1386921316,1,0,423.2,0,0,0,0,357,350,-0.0292,-1376.6426,6.8213,0.4212,54.894554,9.794781,108.3,5.845,1.85,335.95,54.895069,9.793790,54.895348,9.797490
1386921316,1,0,423.2,0,0,4,0,357,400,-0.0292,-1376.6426,6.8213,0.4212,54.894562,9.794808,108.3,5.845,1.85,335.95,54.895069,9.793790,54.895348,9.797490
1386921317,1,0,423.1,0,0,0,0,357,350,-0.0292,-1376.6426,6.8213,0.4212,54.894569,9.794837,108.3,5.845,1.85,335.95,54.895069,9.793790,54.895348,9.797490
1386921317,1,0,423.1,0,0,4,0,357,400,-0.0292,-1376.6426,6.8213,0.4212,54.894577,9.794865,108.3,5.845,1.85,335.95,54.895069,9.793790,54.895348,9.797490
1386921317,1,0,423.1,0,0,0,0,357,350,-0.0292,-1376.6426,6.8213,0.4212,54.894585,9.794892,108.3,5.845,1.85,335.95,54.895069,9.793790,54.895348,9.797490
1386921317,1,0,423.1,0,0,4,0,357,400,-0.0292,-1376.6426,6.8213,0.4212,54.894592,9.794921,108.3,5.845,1.85,335.95,54.895069,9.793790,54.895348,9.797490
1386921318,1,0,423.1,0,0,0,0,357,350,-0.0292,-1376.6426,6.8213,0.4212,54.894600,9.794949,108.3,5.845,1.85,335.95,54.895069,9.793790,54.895348,9.797490
1386921318,1,0,423.1,0,0,4,0,357,400,-0.0292,-1376.6426,6.8213,0.4212,54.894611,9.794976,108.3,5.845,1.85,335.95,54.895069,9.793790,54.895348,9.797490
1386921318,1,0,423.2,0,0,0,0,357,350,-0.0292,-1376.6426,6.8213,0.4212,54.894619,9.795004,108.3,5.845,1.85,335.95,54.895069,9.793790,54.895348,9.797490
1386921318,1,0,423.1,0,0,4,0,357,400,-0.0292,-1376.6426,6.8213,0.4212,54.894627,9.795032,108.3,5.845,1.85,335.95,54.895069,9.793790,54.895348,9.797490
1386921319,1,0,423.1,0,0,0,0,357,350,-0.0292,-1376.6426,6.8213,0.4212,54.894634,9.795060,108.3,5.845,1.85,335.95,54.895069,9.793790,54.895348,9.797490
1386921319,1,0,423.1,0,0,4,0,357,400,-0.0292,-1376.6426,6.8213,0.4212,54.894642,9.795088,108.3,5.845,1.85,335.95,54.895069,9.793790,54.895348,9.797490
1386921319,1,0,423.1,0,0,0,0,357,350,-0.0292,-1376.6426,6.8213,0.4212,54.894650,9.795115,108.3,5.845,1.85,335.95,54.895069,9.793790,54.895348,9.797490
1386921319,1,0,423.1,0,0,4,0,357,400,-0.0292,-1376.6426,6.8213,0.4212,54.894661,9.795144,108.3,5.845,1.85,335.95,54.895069,9.793790,54.895348,9.797490
1386921320,1,0,423.2,0,0,0,0,357,350,-0.0292,-1376.6426,6.8213,0.4212,54.894669,9.795172,108.3,5.845,1.85,335.95,54.895069,9.793790,54.895348,9.797490
1386921320,1,0,423.2,0,0,4,0,357,400,-0.0292,-1376.6426,6.8213,0.4212,54.894676,9.795199,108.3,5.845,1.85,335.95,54.895069,9.793790,54.895348,9.797490
1386921320,1,0,423.1,0,0,0,0,357,350,-0.0292,-1376.6426,6.8213,0.4212,54.894684,9.795228,108.3,5.845,1.85,335.95,54.895069,9.793790,54.895348,9.797490
1386921320,1,0,423.1,0,0,4,0,357,400,-0.0292,-1376.6426,6.8213,0.4212,54.894691,9.795256,108.3,5.845,1.85,335.95,54.895069,9.793790,54.895348,9.797490
1386921321,1,0,423.1,0,0,0,0,357,350,-0.0292,-1376.6426,6.8213,0.4212,54.894699,9.795283,108.3,5.845,1.85,335.95,54.895069,9.793790,54.895348,9.797490
1386921321,1,0,423.1,0,0,4,0,357,400,-0.0292,-1376.6426,6.8213,0.4212,54.894711,9.795312,108.3,5.845,1.85,335.95,54.895069,9.793790,54.895348,9.797490
1386921321,1,0,423.2,0,0,0,0,357,350,-0.0292,-1376.6426,6.8213,0.4212,54.894718,9.795340,108.3,5.845,1.85,335.95,54.895069,9.793790,54.895348,9.797490
1386921321,1,0,423.2,0,0,4,0,357,400,-0.0292,-1376.6426,6.8213,0.4212,54.894726,9.795367,108.3,5.845,1.85,335.95,54.895069,9.793790,54.895348,9.797490
1386921322,1,0,423.2,0,0,0,0,357,350,-0.0292,-1376.6426,6.8213,0.4212,54.894733,9.795396,108.3,5.845,1.85,335.95,54.895069,9.793790,54.895348,9.797490
1386921322,1,0,423.1,0,0,4,0,357,400,-0.0292,-1376.6426,6.8213,0.4212,54.894741,9.795424,108.3,5.845,1.85,335.95,54.895069,9.793790,54.895348,9.797490
1386921322,1,0,423.1,0,0,0,0,357,350,-0.0292,-1376.6426,6.8213,0.4212,54.894749,9.795451,108.3,5.845,1.85,335.95,54.895069,9.793790,54.895348,9.797490
1386921322,1,0,423.1,0,0,4,0,357,400,-0.0292,-1376.6426,6.8213,0.4212,54.894760,9.795480,108.3,5.845,1.85,335.95,54.895069,9.793790,54.895348,9.797490
1386921323,1,0,423.2,0,0,0,0,357,350,-0.0292,-1376.6426,6.8213,0.4212,54.894768,9.795507,108.3,5.845,1.85,335.95,54.895069,9.793790,54.895348,9.797490
1386921323,1,0,423.2,0,0,4,0,357,400,-0.0292,-1376.6426,6.8213,0.4212,54.894775,9.795535,108.3,5.845,1.85,335.95,54.895069,9.793790,54.895348,9.797490
1386921323,1,0,423.2,0,0,0,0,357,350,-0.0292,-1376.6426,6.8213,0.4212,54.894783,9.795564,108.3,5.845,1.85,335.95,54.895069,9.793790,54.895348,9.797490
1386921324,1,0,423.1,0,0,4,0,357,400,-0.0292,-1376.6426,6.8213,0.4212,54.894791,9.795591,108.3,5.845,1.85,335.95,54.895069,9.793790,54.895348,9.797490
1386921324,1,0,423.1,0,0,0,0,357,350,-0.0292,-1376.6426,6.8213,0.4212,54.894798,9.795619,108.3,5.845,1.85,335.95,54.895069,9.793790,54.895348,9.797490
1386921324,1,0,423.1,0,0,4,0,357,400,-0.0292,-1376.6426,6.8213,0.4212,54.894810,9.795647,108.3,5.845,1.85,335.95,54.895069,9.793790,54.895348,9.797490
1386921324,1,0,423.2,0,0,0,0,357,350,-0.0292,-1376.6426,6.8213,0.4212,54.894817,9.795674,108.3,5.845,1.85,335.95,54.895069,9.793790,54.895348,9.797490
1386921325,1,0,423.2,0,0,4,0,357,400,-0.0292,-1376.6426,6.8213,0.4212,54.894825,9.795703,108.3,5.845,1.85,335.95,54.895069,9.793790,54.895348,9.797490
1386921325,1,0,423.2,0,0,0,0,357,350,-0.0292,-1376.6426,6.8213,0.4212,54.894833,9.795731,108.3,5.845,1.85,335.95,54.895069,9.793790,54.895348,9.797490
1386921325,1,0,423.2,0,0,4,0,357,400,-0.0292,-1376.6426,6.8213,0.4212,54.894840,9.795758,108.3,5.845,1.85,335.95,54.895069,9.793790,54.895348,9.797490
1386921325,1,0,423.1,0,0,0,0,357,350,-0.0292,-1376.6426,6.8213,0.4212,54.894848,9.795787,108.3,5.845,1.85,335.95,54.895069,9.793790,54.895348,9.797490
1386921326,1,0,423.1,0,0,4,0,357,400,-0.0292,-1376.6426,6.8213,0.4212,54.894855,9.795815,108.3,5.845,1.85,335.95,54.895069,9.793790,54.895348,9.797490
1386921326,1,0,423.1,0,0,0,0,357,350,-0.0292,-1376.6426,6.8213,0.4212,54.894863,9.795842,108.3,5.845,1.85,335.95,54.895069,9.793790,54.895348,9.797490
1386921326,1,0,423.1,0,0,4,0,357,400,-0.0292,-1376.6426,6.8213,0.4212,54.894871,9.795871,108.3,5.845,1.85,335.95,54.895069,9.793790,54.895348,9.797490
1386921326,1,0,423.0,0,0,0,0,357,350,-0.0292,-1376.6426,6.8213,0.4212,54.894882,9.795898,108.3,5.845,1.85,335.95,54.895069,9.793790,54.895348,9.797490
1386921327,1,0,423.2,0,0,4,0,357,400,-0.0292,-1376.6426,6.8213,0.4212,54.894890,9.795926,108.3,5.845,1.85,335.95,54.895069,9.793790,54.895348,9.797490
1386921327,1,0,423.2,0,0,0,0,357,350,-0.0292,-1376.6426,6.8213,0.4212,54.894897,9.795955,108.3,5.845,1.85,335.95,54.895069,9.793790,54.895348,9.797490
1386921327,1,0,423.1,0,0,4,0,357,400,-0.0292,-1376.6426,6.8213,0.4212,54.894905,9.795982,108.3,5.845,1.85,335.95,54.895069,9.793790,54.895348,9.797490
1386921327,1,0,423.1,0,0,0,0,357,350,-0.0292,-1376.6426,6.8213,0.4212,54.894913,9.796010,108.3,5.845,1.85,335.95,54.895069,9.793790,54.895348,9.797490
1386921328,1,0,423.1,0,0,4,0,357,400,-0.0292,-1376.6426,6.8213,0.4212,54.894920,9.796039,108.3,5.845,1.85,335.95,54.895069,9.793790,54.895348,9.797490
1386921328,1,0,423.0,0,0,0,0,357,350,-0.0292,-1376.6426,6.8213,0.4212,54.894932,9.796066,108.3,5.845,1.85,335.95,54.895069,9.793790,54.895348,9.797490
1386921328,0,0,423.0,0,0,0,0,357,350,-0.0292,-1376.6426,6.8213,0.4212,54.894932,9.796066,108.3,5.845,1.85,335.95,54.895069,9.793790,54.895348,9.797490
1386921328,0,0,423.0,0,0,0,0,357,350,-0.0292,-1376.6426,6.8213,0.4212,54.894932,9.796066,108.3,5.845,1.85,335.95,54.895069,9.793790,54.895348,9.797490
1386921329,0,0,423.0,0,0,0,0,357,350,-0.0292,-1376.6426,6.8213,0.4212,54.894932,9.796066,108.3,5.845,1.85,335.95,54.895069,9.793790,54.895348,9.797490
1386921329,0,0,423.0,0,0,0,0,357,350,-0.0292,-1376.6426,6.8213,0.4212,54.894932,9.796066,108.3,5.845,1.85,335.95,54.895069,9.793790,54.895348,9.797490
1386921329,0,0,423.0,0,0,0,0,357,350,-0.0292,-1376.6426,6.8213,0.4212,54.894932,9.796066,108.3,5.845,1.85,335.95,54.895069,9.793790,54.895348,9.797490
1386921329,0,0,423.0,0,0,0,0,357,350,-0.0292,-1376.6426,6.8213,0.4212,54.894932,9.796066,108.3,5.845,1.85,335.95,54.895069,9.793790,54.895348,9.797490
1386921330,0,0,423.0,0,0,0,0,357,350,-0.0292,-1376.6426,6.8213,0.4212,54.894932,9.796066,108.3,5.845,1.85,335.95,54.895069,9.793790,54.895348,9.797490
1386921330,0,0,423.0,0,0,0,0,357,350,-0.0292,-1376.6426,6.8213,0.4212,54.894932,9.796066,108.3,5.845,1.85,335.95,54.895069,9.793790,54.895348,9.797490
1386921330,0,0,423.0,0,0,0,0,357,350,-0.0292,-1376.6426,6.8213,0.4212,54.894932,9.796066,108.3,5.845,1.85,335.95,54.895069,9.793790,54.895348,9.797490
1386921330,0,0,423.0,0,0,0,0,357,350,-0.0292,-1376.6426,6.8213,0.4212,54.894932,9.796066,108.3,5.845,1.85,335.95,54.895069,9.793790,54.895348,9.797490
1386921331,0,0,423.0,0,0,0,0,357,350,-0.0292,-1376.6426,6.8213,0.4212,54.894932,9.796066,108.3,5.845,1.85,335.95,54.895069,9.793790,54.895348,9.797490
1386921331,0,0,423.0,0,0,0,0,357,350,-0.0292,-1376.6426,6.8213,0.4212,54.894932,9.796066,108.3,5.845,1.85,335.95,54.895069,9.793790,54.895348,9.797490
1386921331,0,0,423.0,0,0,0,0,357,350,-0.0292,-1376.6426,6.8213,0.4212,54.894932,9.796066,108.3,5.845,1.85,335.95,54.895069,9.793790,54.895348,9.797490
1386921331,0,0,423.0,0,0,0,0,357,350,-0.0292,-1376.6426,6.8213,0.4212,54.894932,9.796066,108.3,5.845,1.85,335.95,54.895069,9.793790,54.895348,9.797490
1386921332,0,0,423.0,0,0,0,0,357,350,-0.0292,-1376.6426,6.8213,0.4212,54.894932,9.796066,108.3,5.845,1.85,335.95,54.895069,9.793790,54.895348,9.797490
1386921332,0,0,423.0,0,0,0,0,357,350,-0.0292,-1376.6426,6.8213,0.4212,54.894932,9.796066,108.3,5.845,1.85,335.95,54.895069,9.793790,54.895348,9.797490
1386921332,0,0,423.0,0,0,0,0,357,350,-0.0292,-1376.6426,6.8213,0.4212,54.894932,9.796066,108.3,5.845,1.85,335.95,54.895069,9.793790,54.895348,9.797490
1386921332,0,0,423.0,0,0,0,0,357,350,-0.0292,-1376.6426,6.8213,0.4212,54.894932,9.796066,108.3,5.845,1.85,335.95,54.895069,9.793790,54.895348,9.797490
1386921333,0,0,423.0,0,0,0,0,357,350,-0.0292,-1376.6426,6.8213,0.4212,54.894932,9.796066,108.3,5.845,1.85,335.95,54.895069,9.793790,54.895348,9.797490
1386921333,0,0,423.0,0,0,0,0,357,350,-0.0292,-1376.6426,6.8213,0.4212,54.894932,9.796066,108.3,5.845,1.85,335.95,54.895069,9.793790,54.895348,9.797490
1386921333,0,0,423.0,0,0,0,0,357,350,-0.0292,-1376.6426,6.8213,0.4212,54.894932,9.796066,108.3,5.845,1.85,335.95,54.895069,9.793790,54.895348,9.797490
1386921333,0,0,423.0,0,0,0,0,357,350,-0.0292,-1376.6426,6.8213,0.4212,54.894932,9.796066,108.3,5.845,1.85,335.95,54.895069,9.793790,54.895348,9.797490
1386921334,0,0,423.0,0,0,0,0,357,350,-0.0292,-1376.6426,6.8213,0.4212,54.894932,9.796066,108.3,5.845,1.85,335.95,54.895069,9.793790,54.895348,9.797490
1386921334,0,0,423.0,0,0,0,0,357,350,-0.0292,-1376.6426,6.8213,0.4212,54.894932,9.796066,108.3,5.845,1.85,335.95,54.895069,9.793790,54.895348,9.797490
1386921334,0,0,423.0,0,0,0,0,357,350,-0.0292,-1376.6426,6.8213,0.4212,54.894932,9.796066,108.3,5.845,1.85,335.95,54.895069,9.793790,54.895348,9.797490
1386921334,0,0,423.0,0,0,0,0,357,350,-0.0292,-1376.6426,6.8213,0.4212,54.894932,9.796066,108.3,5.845,1.85,335.95,54.895069,9.793790,54.895348,9.797490
1386921335,0,0,423.0,0,0,0,0,357,350,-0.0292,-1376.6426,6.8213,0.4212,54.894932,9.796066,108.3,5.845,1.85,335.95,54.895069,9.793790,54.895348,9.797490
1386921335,0,0,423.0,0,0,0,0,357,350,-0.0292,-1376.6426,6.8213,0.4212,54.894932,9.796066,108.3,5.845,1.85,335.95,54.895069,9.793790,54.895348,9.797490
1386921335,0,0,423.0,0,0,0,0,357,350,-0.0292,-1376.6426,6.8213,0.4212,54.894932,9.796066,108.3,5.845,1.85,335.95,54.895069,9.793790,54.895348,9.797490
1386921335,0,0,423.0,0,0,0,0,357,350,-0.0292,-1376.6426,6.8213,0.4212,54.894932,9.796066,108.3,5.845,1.85,335.95,54.895069,9.793790,54.895348,9.797490
1386921336,0,0,423.0,0,0,0,0,357,350,-0.0292,-1376.6426,6.8213,0.4212,54.894932,9.796066,108.3,5.845,1.85,335.95,54.895069,9.793790,54.895348,9.797490
1386921336,0,0,423.0,0,0,0,0,357,350,-0.0292,-1376.6426,6.8213,0.4212,54.894932,9.796066,108.3,5.845,1.85,335.95,54.895069,9.793790,54.895348,9.797490
1386921336,0,0,423.0,0,0,0,0,357,350,-0.0292,-1376.6426,6.8213,0.4212,54.894932,9.796066,108.3,5.845,1.85,335.95,54.895069,9.793790,54.895348,9.797490
1386921336,0,0,423.0,0,0,0,0,357,350,-0.0292,-1376.6426,6.8213,0.4212,54.894932,9.796066,108.3,5.845,1.85,335.95,54.895069,9.793790,54.895348,9.797490
1386921337,0,0,423.0,0,0,0,0,357,350,-0.0292,-1376.6426,6.8213,0.4212,54.894932,9.796066,108.3,5.845,1.85,335.95,54.895069,9.793790,54.895348,9.797490
1386921337,0,0,423.0,0,0,0,0,357,350,-0.0292,-1376.6426,6.8213,0.4212,54.894932,9.796066,108.3,5.845,1.85,335.95,54.895069,9.793790,54.895348,9.797490
1386921337,0,0,423.0,0,0,0,0,357,350,-0.0292,-1376.6426,6.8213,0.4212,54.894932,9.796066,108.3,5.845,1.85,335.95,54.895069,9.793790,54.895348,9.797490
1386921337,0,0,423.0,0,0,0,0,357,350,-0.0292,-1376.6426,6.8213,0.4212,54.894932,9.796066,108.3,5.845,1.85,335.95,54.895069,9.793790,54.895348,9.797490
1386921338,0,0,423.0,0,0,0,0,357,350,-0.0292,-1376.6426,6.8213,0.4212,54.894932,9.796066,108.3,5.845,1.85,335.95,54.895069,9.793790,54.895348,9.797490
1386921338,0,0,423.0,0,0,0,0,357,350,-0.0292,-1376.6426,6.8213,0.4212,54.894932,9.796066,108.3,5.845,1.85,335.95,54.895069,9.793790,54.895348,9.797490
1386921338,0,0,423.0,0,0,0,0,357,350,-0.0292,-1376.6426,6.8213,0.4212,54.894932,9.796066,108.3,5.845,1.85,335.95,54.895069,9.793790,54.895348,9.797490
1386921338,0,0,423.0,0,0,0,0,357,350,-0.0292,-1376.6426,6.8213,0.4212,54.894932,9.796066,108.3,5.845,1.85,335.95,54.895069,9.793790,54.895348,9.797490
1386921339,0,0,423.0,0,0,0,0,357,350,-0.0292,-1376.6426,6.8213,0.4212,54.894932,9.796066,108.3,5.845,1.85,335.95,54.895069,9.793790,54.895348,9.797490
1386921339,0,0,423.0,0,0,0,0,357,350,-0.0292,-1376.6426,6.8213,0.4212,54.894932,9.796066,108.3,5.845,1.85,335.95,54.895069,9.793790,54.895348,9.797490
1386921339,0,0,423.0,0,0,0,0,357,350,-0.0292,-1376.6426,6.8213,0.4212,54.894932,9.796066,108.3,5.845,1.85,335.95,54.895069,9.793790,54.895348,9.797490
1386921339,0,0,423.0,0,0,0,0,357,350,-0.0292,-1376.6426,6.8213,0.4212,54.894932,9.796066,108.3,5.845,1.85,335.95,54.895069,9.793790,54.895348,9.797490
1386921340,0,0,423.0,0,0,0,0,357,350,-0.0292,-1376.6426,6.8213,0.4212,54.894932,9.796066,108.3,5.845,1.85,335.95,54.895069,9.793790,54.895348,9.797490
1386921340,0,0,423.0,0,0,0,0,357,350,-0.0292,-1376.6426,6.8213,0.4212,54.894932,9.796066,108.3,5.845,1.85,335.95,54.895069,9.793790,54.895348,9.797490
1386921340,0,0,423.0,0,0,0,0,357,350,-0.0292,-1376.6426,6.8213,0.4212,54.894932,9.796066,108.3,5.845,1.85,335.95,54.895069,9.793790,54.895348,9.797490
1386921340,0,0,423.0,0,0,0,0,357,350,-0.0292,-1376.6426,6.8213,0.4212,54.894932,9.796066,108.3,5.845,1.85,335.95,54.895069,9.793790,54.895348,9.797490
1386921341,0,0,423.0,0,0,0,0,357,350,-0.0292,-1376.6426,6.8213,0.4212,54.894932,9.796066,108.3,5.845,1.85,335.95,54.895069,9.793790,54.895348,9.797490
