MCU_timestamp,Navigation_System,Manual_Control,Guidance_Heading,Manual_Ctrl_Rudder,Rudder_Desired_Angle,Rudder_Feedback,Manual_Ctrl_Sail,Sail_Desired_Pos,Sail_Feedback,Rate,Heading,Pitch,Roll,Latitude,Longitude,COG,SOG,Wind_Speed,Wind_Angle,Point_Start_Lat,Point_Start_Lon,Point_End_Lat,Point_End_Lon
1386772010,0,0,0.0,0,0,8,0,0,0,-0.0292,253.7579,6.8213,0.4212,54.895081,9.793823,108.3,5.845,1.85,335.95,0.000000,0.000000,0.000000,0.000000
1386772011,0,0,0.0,0,0,8,0,0,0,-0.0292,253.7579,6.8213,0.4212,54.895081,9.793823,108.3,5.845,1.85,335.95,0.000000,0.000000,0.000000,0.000000
1386772011,0,0,0.0,0,0,8,0,0,0,-0.0292,253.7579,6.8213,0.4212,54.895081,9.793823,108.3,5.845,1.85,335.95,0.000000,0.000000,0.000000,0.000000
1386772011,0,0,0.0,0,0,8,0,0,0,-0.0292,253.7579,6.8213,0.4212,54.895081,9.793823,108.3,5.845,1.85,335.95,0.000000,0.000000,0.000000,0.000000
1386772011,0,0,0.0,0,0,8,0,0,0,-0.0292,253.7579,6.8213,0.4212,54.895081,9.793823,108.3,5.845,1.85,335.95,0.000000,0.000000,0.000000,0.000000
1386772012,0,0,0.0,0,0,8,0,0,0,-0.0292,253.7579,6.8213,0.4212,54.895081,9.793823,108.3,5.845,1.85,335.95,0.000000,0.000000,0.000000,0.000000
1386772012,0,0,0.0,0,0,8,0,0,0,-0.0292,253.7579,6.8213,0.4212,54.895081,9.793823,108.3,5.845,1.85,335.95,0.000000,0.000000,0.000000,0.000000
1386772012,0,0,0.0,0,0,8,0,0,0,-0.0292,253.7579,6.8213,0.4212,54.895081,9.793823,108.3,5.845,1.85,335.95,0.000000,0.000000,0.000000,0.000000
1386772012,0,0,0.0,0,0,8,0,0,0,-0.0292,253.7579,6.8213,0.4212,54.895081,9.793823,108.3,5.845,1.85,335.95,0.000000,0.000000,0.000000,0.000000
1386772013,0,0,0.0,0,0,8,0,0,0,-0.0292,253.7579,6.8213,0.4212,54.895081,9.793823,108.3,5.845,1.85,335.95,0.000000,0.000000,0.000000,0.000000
1386772013,0,0,0.0,0,0,8,0,0,0,-0.0292,253.7579,6.8213,0.4212,54.895081,9.793823,108.3,5.845,1.85,335.95,0.000000,0.000000,0.000000,0.000000
1386772013,0,0,0.0,0,0,8,0,0,0,-0.0292,253.7579,6.8213,0.4212,54.895081,9.793823,108.3,5.845,1.85,335.95,0.000000,0.000000,0.000000,0.000000
1386772013,0,0,0.0,0,0,8,0,0,0,-0.0292,253.7579,6.8213,0.4212,54.895081,9.793823,108.3,5.845,1.85,335.95,0.000000,0.000000,0.000000,0.000000
1386772014,0,0,0.0,0,0,8,0,0,0,-0.0292,253.7579,6.8213,0.4212,54.895081,9.793823,108.3,5.845,1.85,335.95,0.000000,0.000000,0.000000,0.000000
1386772014,0,0,0.0,0,0,8,0,0,0,-0.0292,253.7579,6.8213,0.4212,54.895081,9.793823,108.3,5.845,1.85,335.95,0.000000,0.000000,0.000000,0.000000
1386772014,0,0,0.0,0,0,8,0,0,0,-0.0292,253.7579,6.8213,0.4212,54.895081,9.793823,108.3,5.845,1.85,335.95,0.000000,0.000000,0.000000,0.000000
1386772014,0,0,0.0,0,0,8,0,0,0,-0.0292,253.7579,6.8213,0.4212,54.895081,9.793823,108.3,5.845,1.85,335.95,0.000000,0.000000,0.000000,0.000000
1386772015,0,0,0.0,0,0,8,0,0,0,-0.0292,253.7579,6.8213,0.4212,54.895081,9.793823,108.3,5.845,1.85,335.95,0.000000,0.000000,0.000000,0.000000
1386772015,0,0,0.0,0,0,8,0,0,0,-0.0292,253.7579,6.8213,0.4212,54.895081,9.793823,108.3,5.845,1.85,335.95,0.000000,0.000000,0.000000,0.000000
1386772015,0,0,0.0,0,0,8,0,0,0,-0.0292,253.7579,6.8213,0.4212,54.895081,9.793823,108.3,5.845,1.85,335.95,0.000000,0.000000,0.000000,0.000000
1386772015,0,0,0.0,0,0,8,0,0,0,-0.0292,253.7579,6.8213,0.4212,54.895081,9.793823,108.3,5.845,1.85,335.95,0.000000,0.000000,0.000000,0.000000
1386772016,0,0,0.0,0,0,8,0,0,0,-0.0292,253.7579,6.8213,0.4212,54.895081,9.793823,108.3,5.845,1.85,335.95,0.000000,0.000000,0.000000,0.000000
1386772016,0,0,0.0,0,0,8,0,0,0,-0.0292,253.7579,6.8213,0.4212,54.895081,9.793823,108.3,5.845,1.85,335.95,0.000000,0.000000,0.000000,0.000000
1386772016,0,0,0.0,0,0,8,0,0,0,-0.0292,253.7579,6.8213,0.4212,54.895081,9.793823,108.3,5.845,1.85,335.95,0.000000,0.000000,0.000000,0.000000
1386772016,0,0,0.0,0,0,8,0,0,0,-0.0292,253.7579,6.8213,0.4212,54.895081,9.793823,108.3,5.845,1.85,335.95,0.000000,0.000000,0.000000,0.000000
1386772017,0,0,0.0,0,0,8,0,0,0,-0.0292,253.7579,6.8213,0.4212,54.895081,9.793823,108.3,5.845,1.85,335.95,0.000000,0.000000,0.000000,0.000000
1386772017,4,0,0.0,0,0,8,0,0,0,-0.0292,253.7579,6.8213,0.4212,54.895081,9.793823,108.3,5.845,1.85,335.95,0.000000,0.000000,0.000000,0.000000
1386772017,1,0,485.9,0,35,12,0,353,350,-0.0292,244.4246,6.8213,0.4212,54.895073,9.793796,108.3,5.845,1.85,335.95,54.895069,9.793790,54.895348,9.797490
1386772017,1,0,485.9,0,35,16,0,386,375,-0.0292,235.0913,6.8213,0.4212,54.895061,9.793770,108.3,5.845,1.85,335.95,54.895069,9.793790,54.895348,9.797490
1386772018,1,0,485.9,0,35,20,0,419,400,-0.0292,225.7580,6.8213,0.4212,54.895050,9.793748,108.3,5.845,1.85,335.95,54.895069,9.793790,54.895348,9.797490
1386772018,1,0,485.9,0,35,24,0,450,425,-0.0292,216.4246,6.8213,0.4212,54.895035,9.793729,108.3,5.845,1.85,335.95,54.895069,9.793790,54.895348,9.797490
1386772018,1,0,485.9,0,35,28,0,475,450,-0.0292,207.0913,6.8213,0.4212,54.895020,9.793715,108.3,5.845,1.85,335.95,54.895069,9.793790,54.895348,9.797490
1386772018,1,0,485.9,0,35,32,0,492,475,-0.0292,197.7580,6.8213,0.4212,54.895004,9.793705,108.3,5.845,1.85,335.95,54.895069,9.793790,54.895348,9.797490
1386772019,1,0,485.9,0,35,36,0,291,450,-0.0292,188.4247,6.8213,0.4212,54.894985,9.793700,108.3,5.845,1.85,335.95,54.895069,9.793790,54.895348,9.797490
1386772019,1,0,485.9,0,35,32,0,291,425,-0.0292,179.0913,6.8213,0.4212,54.894966,9.793701,108.3,5.845,1.85,335.95,54.895069,9.793790,54.895348,9.797490
1386772019,1,0,485.9,0,35,36,0,291,400,-0.0292,169.7580,6.8213,0.4212,54.894951,9.793707,108.3,5.845,1.85,335.95,54.895069,9.793790,54.895348,9.797490
1386772019,1,0,485.9,0,35,32,0,291,375,-0.0292,160.4247,6.8213,0.4212,54.894932,9.793717,108.3,5.845,1.85,335.95,54.895069,9.793790,54.895348,9.797490
1386772020,1,0,485.9,0,34,36,0,496,400,-0.0292,151.3580,6.8213,0.4212,54.894917,9.793733,108.3,5.845,1.85,335.95,54.895069,9.793790,54.895348,9.797490
1386772020,1,0,485.9,0,25,32,0,496,425,-0.0292,144.6913,6.8213,0.4212,54.894901,9.793751,108.3,5.845,1.85,335.95,54.895069,9.793790,54.895348,9.797490
1386772020,1,0,485.9,0,19,28,0,291,400,-0.0292,139.6247,6.8213,0.4212,54.894886,9.793771,108.3,5.845,1.85,335.95,54.895069,9.793790,54.895348,9.797490
1386772020,1,0,485.9,0,14,24,0,291,375,-0.0292,135.8913,6.8213,0.4212,54.894875,9.793793,108.3,5.845,1.85,335.95,54.895069,9.793790,54.895348,9.797490
1386772021,1,0,485.9,0,10,20,0,291,350,-0.0292,133.2247,6.8213,0.4212,54.894859,9.793815,108.3,5.845,1.85,335.95,54.895069,9.793790,54.895348,9.797490
1386772021,1,0,545.9,0,-35,16,0,291,325,-0.0292,142.5580,6.8213,0.4212,54.894844,9.793834,108.3,5.845,1.85,335.95,54.895069,9.793790,54.895348,9.797490
1386772021,1,0,545.9,0,-35,12,0,291,300,-0.0292,151.8913,6.8213,0.4212,54.894829,9.793848,108.3,5.845,1.85,335.95,54.895069,9.793790,54.895348,9.797490
1386772021,1,0,545.9,0,-34,8,0,496,325,-0.0292,160.9580,6.8213,0.4212,54.894810,9.793859,108.3,5.845,1.85,335.95,54.895069,9.793790,54.895348,9.797490
1386772022,1,0,545.9,0,-25,4,0,496,350,-0.0292,167.6246,6.8213,0.4212,54.894791,9.793865,108.3,5.845,1.85,335.95,54.895069,9.793790,54.895348,9.797490
1386772022,1,0,545.9,0,-18,0,0,291,325,-0.0292,172.4247,6.8213,0.4212,54.894775,9.793870,108.3,5.845,1.85,335.95,54.895069,9.793790,54.895348,9.797490
1386772022,1,0,545.9,0,-14,-4,0,291,300,-0.0292,176.1580,6.8213,0.4212,54.894756,9.793873,108.3,5.845,1.85,335.95,54.895069,9.793790,54.895348,9.797490
1386772022,1,0,599.4,0,-35,-8,0,291,275,-0.0292,185.4913,6.8213,0.4212,54.894737,9.793870,108.3,5.845,1.85,335.95,54.895069,9.793790,54.895348,9.797490
1386772023,1,0,545.9,0,0,-4,0,291,300,-0.0292,185.4913,6.8213,0.4212,54.894718,9.793867,108.3,5.845,1.85,335.95,54.895069,9.793790,54.895348,9.797490
1386772023,1,0,485.9,0,35,0,0,291,275,-0.0292,176.1580,6.8213,0.4212,54.894703,9.793870,108.3,5.845,1.85,335.95,54.895069,9.793790,54.895348,9.797490
1386772023,1,0,485.9,0,35,4,0,291,300,-0.0292,166.8247,6.8213,0.4212,54.894684,9.793878,108.3,5.845,1.85,335.95,54.895069,9.793790,54.895348,9.797490
1386772023,1,0,485.9,0,35,8,0,291,275,-0.0292,157.4913,6.8213,0.4212,54.894665,9.793889,108.3,5.845,1.85,335.95,54.895069,9.793790,54.895348,9.797490
1386772024,1,0,485.9,0,32,12,0,496,300,-0.0292,148.9580,6.8213,0.4212,54.894650,9.793905,108.3,5.845,1.85,335.95,54.895069,9.793790,54.895348,9.797490
1386772024,1,0,485.9,0,23,16,0,496,325,-0.0292,142.8247,6.8213,0.4212,54.894638,9.793924,108.3,5.845,1.85,335.95,54.895069,9.793790,54.895348,9.797490
1386772024,1,0,485.9,0,17,20,0,291,300,-0.0292,138.2913,6.8213,0.4212,54.894623,9.793944,108.3,5.845,1.85,335.95,54.895069,9.793790,54.895348,9.797490
1386772024,1,0,485.9,0,12,16,0,291,275,-0.0292,135.0913,6.8213,0.4212,54.894611,9.793966,108.3,5.845,1.85,335.95,54.895069,9.793790,54.895348,9.797490
1386772025,1,0,433.8,0,35,20,0,291,300,-0.0292,125.7580,6.8213,0.4212,54.894600,9.793991,108.3,5.845,1.85,335.95,54.895069,9.793790,54.895348,9.797490
1386772025,1,0,429.7,0,35,24,0,291,275,-0.0292,116.4247,6.8213,0.4212,54.894592,9.794020,108.3,5.845,1.85,335.95,54.895069,9.793790,54.895348,9.797490
1386772025,1,0,429.4,0,35,28,0,291,300,-0.0292,107.0913,6.8213,0.4212,54.894588,9.794049,108.3,5.845,1.85,335.95,54.895069,9.793790,54.895348,9.797490
1386772025,1,0,429.1,0,35,32,0,494,325,-0.0292,97.7580,6.8213,0.4212,54.894585,9.794080,108.3,5.845,1.85,335.95,54.895069,9.793790,54.895348,9.797490
1386772026,1,0,428.9,0,29,28,0,481,350,-0.0292,90.0247,6.8213,0.4212,54.894585,9.794111,108.3,5.845,1.85,335.95,54.895069,9.793790,54.895348,9.797490
1386772026,1,0,428.7,0,21,24,0,461,375,-0.0292,84.4247,6.8213,0.4212,54.894585,9.794143,108.3,5.845,1.85,335.95,54.895069,9.793790,54.895348,9.797490
1386772026,1,0,428.5,0,16,20,0,444,400,-0.0292,80.1580,6.8213,0.4212,54.894588,9.794173,108.3,5.845,1.85,335.95,54.895069,9.793790,54.895348,9.797490
1386772026,1,0,428.4,0,12,16,0,430,425,-0.0292,76.9580,6.8213,0.4212,54.894592,9.794204,108.3,5.845,1.85,335.95,54.895069,9.793790,54.895348,9.797490
1386772027,1,0,428.3,0,9,12,0,419,400,-0.0292,74.5580,6.8213,0.4212,54.894596,9.794234,108.3,5.845,1.85,335.95,54.895069,9.793790,54.895348,9.797490
1386772027,1,0,428.3,0,6,8,0,411,425,-0.0292,72.9580,6.8213,0.4212,54.894604,9.794264,108.3,5.845,1.85,335.95,54.895069,9.793790,54.895348,9.797490
1386772027,1,0,428.3,0,5,4,0,406,400,-0.0292,71.6246,6.8213,0.4212,54.894608,9.794293,108.3,5.845,1.85,335.95,54.895069,9.793790,54.895348,9.797490
1386772027,1,0,428.2,0,3,0,0,401,425,-0.0292,70.8246,6.8213,0.4212,54.894611,9.794323,108.3,5.845,1.85,335.95,54.895069,9.793790,54.895348,9.797490
1386772028,1,0,428.1,0,3,4,0,398,400,-0.0292,70.0246,6.8213,0.4212,54.894615,9.794353,108.3,5.845,1.85,335.95,54.895069,9.793790,54.895348,9.797490
1386772028,1,0,428.0,0,2,0,0,395,375,-0.0292,69.4913,6.8213,0.4212,54.894623,9.794381,108.3,5.845,1.85,335.95,54.895069,9.793790,54.895348,9.797490
1386772028,1,0,428.1,0,1,4,0,393,400,-0.0292,69.2246,6.8213,0.4212,54.894630,9.794411,108.3,5.845,1.85,335.95,54.895069,9.793790,54.895348,9.797490
1386772028,1,0,428.1,0,1,0,0,392,375,-0.0292,68.9580,6.8213,0.4212,54.894634,9.794440,108.3,5.845,1.85,335.95,54.895069,9.793790,54.895348,9.797490
1386772029,1,0,428.0,0,1,4,0,392,400,-0.0292,68.6913,6.8213,0.4212,54.894642,9.794469,108.3,5.845,1.85,335.95,54.895069,9.793790,54.895348,9.797490
1386772029,1,0,428.0,0,1,0,0,391,375,-0.0292,68.4246,6.8213,0.4212,54.894650,9.794498,108.3,5.845,1.85,335.95,54.895069,9.793790,54.895348,9.797490
1386772029,1,0,428.0,0,0,4,0,390,400,-0.0292,68.4246,6.8213,0.4212,54.894657,9.794527,108.3,5.845,1.85,335.95,54.895069,9.793790,54.895348,9.797490
1386772029,1,0,428.1,0,0,0,0,390,375,-0.0292,68.4246,6.8213,0.4212,54.894661,9.794556,108.3,5.845,1.85,335.95,54.895069,9.793790,54.895348,9.797490
1386772030,1,0,428.0,0,0,4,0,390,400,-0.0292,68.4246,6.8213,0.4212,54.894669,9.794585,108.3,5.845,1.85,335.95,54.895069,9.793790,54.895348,9.797490
1386772030,1,0,428.0,0,0,0,0,390,375,-0.0292,68.4246,6.8213,0.4212,54.894676,9.794615,108.3,5.845,1.85,335.95,54.895069,9.793790,54.895348,9.797490
1386772030,1,0,428.0,0,0,4,0,390,400,-0.0292,68.4246,6.8213,0.4212,54.894680,9.794643,108.3,5.845,1.85,335.95,54.895069,9.793790,54.895348,9.797490
1386772030,1,0,427.9,0,0,0,0,390,375,-0.0292,68.4246,6.8213,0.4212,54.894684,9.794673,108.3,5.845,1.85,335.95,54.895069,9.793790,54.895348,9.797490
1386772031,1,0,427.8,0,1,4,0,390,400,-0.0292,68.1580,6.8213,0.4212,54.894691,9.794703,108.3,5.845,1.85,335.95,54.895069,9.793790,54.895348,9.797490
1386772031,1,0,427.9,0,0,0,0,389,375,-0.0292,68.1580,6.8213,0.4212,54.894699,9.794731,108.3,5.845,1.85,335.95,54.895069,9.793790,54.895348,9.797490
1386772031,1,0,427.9,0,0,4,0,389,400,-0.0292,68.1580,6.8213,0.4212,54.894707,9.794761,108.3,5.845,1.85,335.95,54.895069,9.793790,54.895348,9.797490
1386772031,1,0,427.9,0,0,0,0,389,375,-0.0292,68.1580,6.8213,0.4212,54.894711,9.794790,108.3,5.845,1.85,335.95,54.895069,9.793790,54.895348,9.797490
1386772032,1,0,427.8,0,0,4,0,389,400,-0.0292,68.1580,6.8213,0.4212,54.894718,9.794819,108.3,5.845,1.85,335.95,54.895069,9.793790,54.895348,9.797490
1386772032,1,0,427.8,0,0,0,0,389,375,-0.0292,68.1580,6.8213,0.4212,54.894726,9.794847,108.3,5.845,1.85,335.95,54.895069,9.793790,54.895348,9.797490
1386772032,1,0,427.9,0,0,4,0,389,400,-0.0292,68.1580,6.8213,0.4212,54.894730,9.794877,108.3,5.845,1.85,335.95,54.895069,9.793790,54.895348,9.797490
1386772032,1,0,427.8,0,0,0,0,389,375,-0.0292,68.1580,6.8213,0.4212,54.894733,9.794906,108.3,5.845,1.85,335.95,54.895069,9.793790,54.895348,9.797490
1386772033,1,0,427.7,0,0,4,0,389,400,-0.0292,68.1580,6.8213,0.4212,54.894741,9.794934,108.3,5.845,1.85,335.95,54.895069,9.793790,54.895348,9.797490
1386772033,1,0,427.7,0,0,0,0,389,375,-0.0292,68.1580,6.8213,0.4212,54.894749,9.794964,108.3,5.845,1.85,335.95,54.895069,9.793790,54.895348,9.797490
1386772033,1,0,427.7,0,0,4,0,389,400,-0.0292,68.1580,6.8213,0.4212,54.894756,9.794992,108.3,5.845,1.85,335.95,54.895069,9.793790,54.895348,9.797490
1386772033,1,0,427.7,0,0,0,0,389,375,-0.0292,68.1580,6.8213,0.4212,54.894764,9.795021,108.3,5.845,1.85,335.95,54.895069,9.793790,54.895348,9.797490
1386772034,1,0,427.8,0,0,4,0,389,400,-0.0292,68.1580,6.8213,0.4212,54.894772,9.795051,108.3,5.845,1.85,335.95,54.895069,9.793790,54.895348,9.797490
1386772034,1,0,427.8,0,0,0,0,389,375,-0.0292,68.1580,6.8213,0.4212,54.894779,9.795079,108.3,5.845,1.85,335.95,54.895069,9.793790,54.895348,9.797490
1386772034,1,0,427.8,0,0,4,0,389,400,-0.0292,68.1580,6.8213,0.4212,54.894783,9.795108,108.3,5.845,1.85,335.95,54.895069,9.793790,54.895348,9.797490
1386772035,1,0,427.7,0,0,0,0,389,375,-0.0292,68.1580,6.8213,0.4212,54.894791,9.795137,108.3,5.845,1.85,335.95,54.895069,9.793790,54.895348,9.797490
1386772035,1,0,427.7,0,0,4,0,389,400,-0.0292,68.1580,6.8213,0.4212,54.894798,9.795166,108.3,5.845,1.85,335.95,54.895069,9.793790,54.895348,9.797490
1386772035,1,0,427.8,0,0,0,0,389,375,-0.0292,68.1580,6.8213,0.4212,54.894806,9.795195,108.3,5.845,1.85,335.95,54.895069,9.793790,54.895348,9.797490
1386772035,1,0,427.8,0,0,4,0,389,400,-0.0292,68.1580,6.8213,0.4212,54.894814,9.795224,108.3,5.845,1.85,335.95,54.895069,9.793790,54.895348,9.797490
1386772036,1,0,427.8,0,0,0,0,389,375,-0.0292,68.1580,6.8213,0.4212,54.894821,9.795253,108.3,5.845,1.85,335.95,54.895069,9.793790,54.895348,9.797490
1386772036,1,0,427.9,0,0,4,0,389,400,-0.0292,68.1580,6.8213,0.4212,54.894829,9.795281,108.3,5.845,1.85,335.95,54.895069,9.793790,54.895348,9.797490
1386772036,1,0,427.9,0,0,0,0,389,375,-0.0292,68.1580,6.8213,0.4212,54.894833,9.795311,108.3,5.845,1.85,335.95,54.895069,9.793790,54.895348,9.797490
1386772036,1,0,427.8,0,0,4,0,389,400,-0.0292,68.1580,6.8213,0.4212,54.894840,9.795340,108.3,5.845,1.85,335.95,54.895069,9.793790,54.895348,9.797490
1386772037,1,0,427.8,0,0,0,0,389,375,-0.0292,68.1580,6.8213,0.4212,54.894848,9.795368,108.3,5.845,1.85,335.95,54.895069,9.793790,54.895348,9.797490
1386772037,1,0,427.9,0,0,4,0,389,400,-0.0292,68.1580,6.8213,0.4212,54.894852,9.795398,108.3,5.845,1.85,335.95,54.895069,9.793790,54.895348,9.797490
1386772037,1,0,427.7,0,0,0,0,389,375,-0.0292,68.1580,6.8213,0.4212,54.894855,9.795426,108.3,5.845,1.85,335.95,54.895069,9.793790,54.895348,9.797490
1386772037,1,0,427.6,0,1,4,0,389,400,-0.0292,67.8913,6.8213,0.4212,54.894863,9.795455,108.3,5.845,1.85,335.95,54.895069,9.793790,54.895348,9.797490
1386772038,1,0,427.6,0,0,0,0,388,375,-0.0292,67.8913,6.8213,0.4212,54.894871,9.795485,108.3,5.845,1.85,335.95,54.895069,9.793790,54.895348,9.797490
1386772038,1,0,427.7,0,0,4,0,388,400,-0.0292,67.8913,6.8213,0.4212,54.894878,9.795513,108.3,5.845,1.85,335.95,54.895069,9.793790,54.895348,9.797490
1386772038,1,0,427.7,0,0,0,0,388,375,-0.0292,67.8913,6.8213,0.4212,54.894882,9.795542,108.3,5.845,1.85,335.95,54.895069,9.793790,54.895348,9.797490
1386772038,1,0,427.6,0,0,4,0,388,400,-0.0292,67.8913,6.8213,0.4212,54.894890,9.795571,108.3,5.845,1.85,335.95,54.895069,9.793790,54.895348,9.797490
1386772039,1,0,427.6,0,0,0,0,388,375,-0.0292,67.8913,6.8213,0.4212,54.894897,9.795600,108.3,5.845,1.85,335.95,54.895069,9.793790,54.895348,9.797490
1386772039,1,0,427.6,0,0,4,0,388,400,-0.0292,67.8913,6.8213,0.4212,54.894901,9.795629,108.3,5.845,1.85,335.95,54.895069,9.793790,54.895348,9.797490
1386772039,1,0,427.5,0,0,0,0,388,375,-0.0292,67.8913,6.8213,0.4212,54.894905,9.795658,108.3,5.845,1.85,335.95,54.895069,9.793790,54.895348,9.797490
1386772039,1,0,427.3,0,1,4,0,388,400,-0.0292,67.6246,6.8213,0.4212,54.894913,9.795687,108.3,5.845,1.85,335.95,54.895069,9.793790,54.895348,9.797490
1386772040,1,0,427.4,0,0,0,0,387,375,-0.0292,67.6246,6.8213,0.4212,54.894920,9.795715,108.3,5.845,1.85,335.95,54.895069,9.793790,54.895348,9.797490
1386772040,1,0,427.4,0,0,4,0,387,400,-0.0292,67.6246,6.8213,0.4212,54.894928,9.795745,108.3,5.845,1.85,335.95,54.895069,9.793790,54.895348,9.797490
1386772040,1,0,427.4,0,0,0,0,387,375,-0.0292,67.6246,6.8213,0.4212,54.894936,9.795774,108.3,5.845,1.85,335.95,54.895069,9.793790,54.895348,9.797490
1386772040,1,0,427.5,0,0,4,0,387,400,-0.0292,67.6246,6.8213,0.4212,54.894943,9.795802,108.3,5.845,1.85,335.95,54.895069,9.793790,54.895348,9.797490
1386772041,1,0,427.5,0,0,0,0,387,375,-0.0292,67.6246,6.8213,0.4212,54.894951,9.795832,108.3,5.845,1.85,335.95,54.895069,9.793790,54.895348,9.797490
1386772041,1,0,427.5,0,0,4,0,387,400,-0.0292,67.6246,6.8213,0.4212,54.894955,9.795860,108.3,5.845,1.85,335.95,54.895069,9.793790,54.895348,9.797490
1386772041,1,0,427.4,0,0,0,0,387,375,-0.0292,67.6246,6.8213,0.4212,54.894962,9.795889,108.3,5.845,1.85,335.95,54.895069,9.793790,54.895348,9.797490
1386772041,1,0,427.4,0,0,4,0,387,400,-0.0292,67.6246,6.8213,0.4212,54.894970,9.795918,108.3,5.845,1.85,335.95,54.895069,9.793790,54.895348,9.797490
1386772042,1,0,427.4,0,0,0,0,387,375,-0.0292,67.6246,6.8213,0.4212,54.894978,9.795947,108.3,5.845,1.85,335.95,54.895069,9.793790,54.895348,9.797490
1386772042,1,0,427.5,0,0,4,0,387,400,-0.0292,67.6246,6.8213,0.4212,54.894985,9.795976,108.3,5.845,1.85,335.95,54.895069,9.793790,54.895348,9.797490
1386772042,1,0,427.5,0,0,0,0,387,375,-0.0292,67.6246,6.8213,0.4212,54.894993,9.796004,108.3,5.845,1.85,335.95,54.895069,9.793790,54.895348,9.797490
1386772042,1,0,427.6,0,0,4,0,387,400,-0.0292,67.6246,6.8213,0.4212,54.895000,9.796033,108.3,5.845,1.85,335.95,54.895069,9.793790,54.895348,9.797490
1386772043,1,0,427.6,0,0,0,0,387,375,-0.0292,67.6246,6.8213,0.4212,54.895004,9.796062,108.3,5.845,1.85,335.95,54.895069,9.793790,54.895348,9.797490
1386772043,1,0,427.4,0,0,4,0,387,400,-0.0292,67.6246,6.8213,0.4212,54.895012,9.796090,108.3,5.845,1.85,335.95,54.895069,9.793790,54.895348,9.797490
1386772043,1,0,427.5,0,0,0,0,387,375,-0.0292,67.6246,6.8213,0.4212,54.895020,9.796119,108.3,5.845,1.85,335.95,54.895069,9.793790,54.895348,9.797490
1386772043,1,0,427.5,0,0,4,0,387,400,-0.0292,67.6246,6.8213,0.4212,54.895027,9.796147,108.3,5.845,1.85,335.95,54.895069,9.793790,54.895348,9.797490
1386772044,1,0,427.6,0,0,0,0,387,375,-0.0292,67.6246,6.8213,0.4212,54.895035,9.796176,108.3,5.845,1.85,335.95,54.895069,9.793790,54.895348,9.797490
1386772044,1,0,427.6,0,0,4,0,387,400,-0.0292,67.6246,6.8213,0.4212,54.895042,9.796205,108.3,5.845,1.85,335.95,54.895069,9.793790,54.895348,9.797490
1386772044,1,0,427.7,0,0,0,0,387,375,-0.0292,67.6246,6.8213,0.4212,54.895050,9.796233,108.3,5.845,1.85,335.95,54.895069,9.793790,54.895348,9.797490
1386772044,1,0,427.7,0,0,4,0,387,400,-0.0292,67.6246,6.8213,0.4212,54.895054,9.796262,108.3,5.845,1.85,335.95,54.895069,9.793790,54.895348,9.797490
1386772045,1,0,427.5,0,0,0,0,387,375,-0.0292,67.6246,6.8213,0.4212,54.895061,9.796290,108.3,5.845,1.85,335.95,54.895069,9.793790,54.895348,9.797490
1386772045,1,0,427.6,0,0,4,0,387,400,-0.0292,67.6246,6.8213,0.4212,54.895069,9.796319,108.3,5.845,1.85,335.95,54.895069,9.793790,54.895348,9.797490
1386772045,1,0,427.7,0,0,0,0,387,375,-0.0292,67.6246,6.8213,0.4212,54.895073,9.796348,108.3,5.845,1.85,335.95,54.895069,9.793790,54.895348,9.797490
1386772045,1,0,427.4,0,0,4,0,387,400,-0.0292,67.6246,6.8213,0.4212,54.895077,9.796376,108.3,5.845,1.85,335.95,54.895069,9.793790,54.895348,9.797490
1386772046,1,0,427.2,0,0,0,0,387,375,-0.0292,67.6246,6.8213,0.4212,54.895084,9.796405,108.3,5.845,1.85,335.95,54.895069,9.793790,54.895348,9.797490
1386772046,1,0,427.3,0,0,4,0,387,400,-0.0292,67.6246,6.8213,0.4212,54.895092,9.796433,108.3,5.845,1.85,335.95,54.895069,9.793790,54.895348,9.797490
1386772046,1,0,427.3,0,0,0,0,387,375,-0.0292,67.6246,6.8213,0.4212,54.895100,9.796462,108.3,5.845,1.85,335.95,54.895069,9.793790,54.895348,9.797490
1386772046,1,0,427.4,0,0,4,0,387,400,-0.0292,67.6246,6.8213,0.4212,54.895107,9.796491,108.3,5.845,1.85,335.95,54.895069,9.793790,54.895348,9.797490
1386772047,1,0,427.4,0,0,0,0,387,375,-0.0292,67.6246,6.8213,0.4212,54.895115,9.796519,108.3,5.845,1.85,335.95,54.895069,9.793790,54.895348,9.797490
1386772047,1,0,427.5,0,0,4,0,387,400,-0.0292,67.6246,6.8213,0.4212,54.895123,9.796548,108.3,5.845,1.85,335.95,54.895069,9.793790,54.895348,9.797490
1386772047,1,0,427.6,0,0,0,0,387,375,-0.0292,67.6246,6.8213,0.4212,54.895126,9.796576,108.3,5.845,1.85,335.95,54.895069,9.793790,54.895348,9.797490
1386772047,1,0,427.3,0,0,4,0,387,400,-0.0292,67.6246,6.8213,0.4212,54.895134,9.796605,108.3,5.845,1.85,335.95,54.895069,9.793790,54.895348,9.797490
1386772048,1,0,427.4,0,0,0,0,387,375,-0.0292,67.6246,6.8213,0.4212,54.895142,9.796634,108.3,5.845,1.85,335.95,54.895069,9.793790,54.895348,9.797490
1386772048,1,0,427.4,0,0,4,0,387,400,-0.0292,67.6246,6.8213,0.4212,54.895149,9.796662,108.3,5.845,1.85,335.95,54.895069,9.793790,54.895348,9.797490
1386772048,1,0,427.5,0,0,0,0,387,375,-0.0292,67.6246,6.8213,0.4212,54.895157,9.796691,108.3,5.845,1.85,335.95,54.895069,9.793790,54.895348,9.797490
1386772048,1,0,427.6,0,0,4,0,387,400,-0.0292,67.6246,6.8213,0.4212,54.895164,9.796720,108.3,5.845,1.85,335.95,54.895069,9.793790,54.895348,9.797490
1386772049,1,0,427.7,0,0,0,0,387,375,-0.0292,67.6246,6.8213,0.4212,54.895172,9.796748,108.3,5.845,1.85,335.95,54.895069,9.793790,54.895348,9.797490
1386772049,1,0,427.8,0,0,4,0,387,400,-0.0292,67.6246,6.8213,0.4212,54.895176,9.796777,108.3,5.845,1.85,335.95,54.895069,9.793790,54.895348,9.797490
1386772049,1,0,427.4,0,0,0,0,387,375,-0.0292,67.6246,6.8213,0.4212,54.895184,9.796805,108.3,5.845,1.85,335.95,54.895069,9.793790,54.895348,9.797490
1386772049,1,0,427.5,0,0,4,0,387,400,-0.0292,67.6246,6.8213,0.4212,54.895191,9.796834,108.3,5.845,1.85,335.95,54.895069,9.793790,54.895348,9.797490
1386772050,1,0,427.6,0,0,0,0,387,375,-0.0292,67.6246,6.8213,0.4212,54.895199,9.796863,108.3,5.845,1.85,335.95,54.895069,9.793790,54.895348,9.797490
1386772050,1,0,427.7,0,0,4,0,387,400,-0.0292,67.6246,6.8213,0.4212,54.895206,9.796891,108.3,5.845,1.85,335.95,54.895069,9.793790,54.895348,9.797490
1386772050,1,0,427.8,0,0,0,0,387,375,-0.0292,67.6246,6.8213,0.4212,54.895214,9.796920,108.3,5.845,1.85,335.95,54.895069,9.793790,54.895348,9.797490
1386772050,1,0,428.0,0,0,4,0,387,400,-0.0292,67.6246,6.8213,0.4212,54.895222,9.796948,108.3,5.845,1.85,335.95,54.895069,9.793790,54.895348,9.797490
1386772051,1,0,428.1,0,0,0,0,387,375,-0.0292,67.6246,6.8213,0.4212,54.895226,9.796977,108.3,5.845,1.85,335.95,54.895069,9.793790,54.895348,9.797490
1386772051,1,0,427.6,0,0,4,0,387,400,-0.0292,67.6246,6.8213,0.4212,54.895233,9.797006,108.3,5.845,1.85,335.95,54.895069,9.793790,54.895348,9.797490
1386772051,1,0,427.8,0,0,0,0,387,375,-0.0292,67.6246,6.8213,0.4212,54.895241,9.797034,108.3,5.845,1.85,335.95,54.895069,9.793790,54.895348,9.797490
1386772051,1,0,428.0,0,0,4,0,387,400,-0.0292,67.6246,6.8213,0.4212,54.895248,9.797063,108.3,5.845,1.85,335.95,54.895069,9.793790,54.895348,9.797490
1386772052,1,0,428.1,0,-1,0,0,387,375,-0.0292,67.8913,6.8213,0.4212,54.895256,9.797091,108.3,5.845,1.85,335.95,54.895069,9.793790,54.895348,9.797490
1386772052,1,0,428.4,0,0,4,0,388,400,-0.0292,67.8913,6.8213,0.4212,54.895264,9.797120,108.3,5.845,1.85,335.95,54.895069,9.793790,54.895348,9.797490
1386772052,1,0,428.6,0,-1,0,0,388,375,-0.0292,68.1580,6.8213,0.4212,54.895271,9.797150,108.3,5.845,1.85,335.95,54.895069,9.793790,54.895348,9.797490
1386772052,1,0,428.8,0,-1,-4,0,389,400,-0.0292,68.4246,6.8213,0.4212,54.895275,9.797178,108.3,5.845,1.85,335.95,54.895069,9.793790,54.895348,9.797490
1386772053,1,0,428.1,0,0,0,0,390,375,-0.0292,68.4246,6.8213,0.4212,54.895283,9.797207,108.3,5.845,1.85,335.95,54.895069,9.793790,54.895348,9.797490
1386772053,1,0,428.4,0,0,4,0,390,400,-0.0292,68.4246,6.8213,0.4212,54.895290,9.797236,108.3,5.845,1.85,335.95,54.895069,9.793790,54.895348,9.797490
1386772053,1,0,428.7,0,0,0,0,390,375,-0.0292,68.4246,6.8213,0.4212,54.895294,9.797265,108.3,5.845,1.85,335.95,54.895069,9.793790,54.895348,9.797490
1386772053,1,0,427.7,0,1,4,0,390,400,-0.0292,68.1580,6.8213,0.4212,54.895298,9.797294,108.3,5.845,1.85,335.95,54.895069,9.793790,54.895348,9.797490
1386772054,1,0,426.4,0,2,0,0,389,375,-0.0292,67.6246,6.8213,0.4212,54.895306,9.797323,108.3,5.845,1.85,335.95,54.895069,9.793790,54.895348,9.797490
1386772054,1,0,426.5,0,1,4,0,387,400,-0.0292,67.3580,6.8213,0.4212,54.895313,9.797352,108.3,5.845,1.85,335.95,54.895069,9.793790,54.895348,9.797490
1386772054,1,0,426.8,0,1,0,0,386,375,-0.0292,67.0913,6.8213,0.4212,54.895321,9.797380,108.3,5.845,1.85,335.95,54.895069,9.793790,54.895348,9.797490
1386772054,1,0,427.2,0,0,4,0,385,400,-0.0292,67.0913,6.8213,0.4212,54.895329,9.797409,108.3,5.845,1.85,335.95,54.895069,9.793790,54.895348,9.797490
1386772055,1,0,427.9,0,-1,0,0,385,375,-0.0292,67.3580,6.8213,0.4212,54.895336,9.797438,108.3,5.845,1.85,335.95,54.895069,9.793790,54.895348,9.797490
1386772055,1,0,429.3,0,-2,-4,0,386,400,-0.0292,67.8913,6.8213,0.4212,54.895344,9.797466,108.3,5.845,1.85,335.95,54.895348,9.797490,54.894039,9.801540
1386772055,1,0,479.0,0,-35,-8,0,388,375,-0.0292,77.2246,6.8213,0.4212,54.895348,9.797497,108.3,5.845,1.85,335.95,54.895348,9.797490,54.894039,9.801540
1386772055,1,0,479.2,0,-35,-12,0,420,400,-0.0292,86.5580,6.8213,0.4212,54.895348,9.797528,108.3,5.845,1.85,335.95,54.895348,9.797490,54.894039,9.801540
1386772056,1,0,479.4,0,-33,-16,0,451,425,-0.0292,95.3580,6.8213,0.4212,54.895344,9.797559,108.3,5.845,1.85,335.95,54.895348,9.797490,54.894039,9.801540
1386772056,1,0,479.5,0,-24,-20,0,475,450,-0.0292,101.7580,6.8213,0.4212,54.895340,9.797590,108.3,5.845,1.85,335.95,54.895348,9.797490,54.894039,9.801540
1386772056,1,0,479.6,0,-18,-16,0,488,475,-0.0292,106.5580,6.8213,0.4212,54.895332,9.797621,108.3,5.845,1.85,335.95,54.895348,9.797490,54.894039,9.801540
1386772056,1,0,479.7,0,-13,-12,0,494,500,-0.0292,110.0246,6.8213,0.4212,54.895329,9.797650,108.3,5.845,1.85,335.95,54.895348,9.797490,54.894039,9.801540
1386772057,1,0,479.8,0,-10,-8,0,496,475,-0.0292,112.6913,6.8213,0.4212,54.895321,9.797679,108.3,5.845,1.85,335.95,54.895348,9.797490,54.894039,9.801540
1386772057,1,0,479.8,0,-7,-4,0,291,450,-0.0292,114.5580,6.8213,0.4212,54.895313,9.797708,108.3,5.845,1.85,335.95,54.895348,9.797490,54.894039,9.801540
1386772057,1,0,479.9,0,-5,-8,0,291,425,-0.0292,115.8913,6.8213,0.4212,54.895306,9.797735,108.3,5.845,1.85,335.95,54.895348,9.797490,54.894039,9.801540
1386772057,1,0,479.9,0,-4,-4,0,291,400,-0.0292,116.9580,6.8213,0.4212,54.895298,9.797763,108.3,5.845,1.85,335.95,54.895348,9.797490,54.894039,9.801540
1386772058,1,0,479.9,0,-3,0,0,291,375,-0.0292,117.7580,6.8213,0.4212,54.895290,9.797791,108.3,5.845,1.85,335.95,54.895348,9.797490,54.894039,9.801540
1386772058,1,0,480.0,0,-2,-4,0,291,350,-0.0292,118.2913,6.8213,0.4212,54.895279,9.797818,108.3,5.845,1.85,335.95,54.895348,9.797490,54.894039,9.801540
1386772058,1,0,479.9,0,-2,0,0,291,325,-0.0292,118.8246,6.8213,0.4212,54.895271,9.797845,108.3,5.845,1.85,335.95,54.895348,9.797490,54.894039,9.801540
1386772058,1,0,480.0,0,-1,-4,0,291,300,-0.0292,119.0913,6.8213,0.4212,54.895260,9.797873,108.3,5.845,1.85,335.95,54.895348,9.797490,54.894039,9.801540
1386772059,1,0,479.9,0,-1,0,0,291,275,-0.0292,119.3580,6.8213,0.4212,54.895252,9.797899,108.3,5.845,1.85,335.95,54.895348,9.797490,54.894039,9.801540
1386772059,1,0,479.9,0,-1,-4,0,291,300,-0.0292,119.6246,6.8213,0.4212,54.895245,9.797927,108.3,5.845,1.85,335.95,54.895348,9.797490,54.894039,9.801540
1386772059,1,0,480.0,0,0,0,0,291,275,-0.0292,119.6246,6.8213,0.4212,54.895233,9.797954,108.3,5.845,1.85,335.95,54.895348,9.797490,54.894039,9.801540
1386772059,1,0,479.9,0,0,4,0,291,300,-0.0292,119.6246,6.8213,0.4212,54.895226,9.797980,108.3,5.845,1.85,335.95,54.895348,9.797490,54.894039,9.801540
1386772060,1,0,479.9,0,0,0,0,291,275,-0.0292,119.6246,6.8213,0.4212,54.895218,9.798008,108.3,5.845,1.85,335.95,54.895348,9.797490,54.894039,9.801540
1386772060,1,0,480.0,0,0,4,0,291,300,-0.0292,119.6246,6.8213,0.4212,54.895206,9.798035,108.3,5.845,1.85,335.95,54.895348,9.797490,54.894039,9.801540
1386772060,1,0,479.9,0,0,0,0,291,275,-0.0292,119.6246,6.8213,0.4212,54.895199,9.798061,108.3,5.845,1.85,335.95,54.895348,9.797490,54.894039,9.801540
1386772060,1,0,479.9,0,0,4,0,291,300,-0.0292,119.6246,6.8213,0.4212,54.895187,9.798089,108.3,5.845,1.85,335.95,54.895348,9.797490,54.894039,9.801540
1386772061,1,0,479.9,0,0,0,0,291,275,-0.0292,119.6246,6.8213,0.4212,54.895180,9.798116,108.3,5.845,1.85,335.95,54.895348,9.797490,54.894039,9.801540
1386772061,1,0,479.9,0,0,4,0,291,300,-0.0292,119.6246,6.8213,0.4212,54.895172,9.798143,108.3,5.845,1.85,335.95,54.895348,9.797490,54.894039,9.801540
1386772061,1,0,480.0,0,0,0,0,291,275,-0.0292,119.6246,6.8213,0.4212,54.895161,9.798171,108.3,5.845,1.85,335.95,54.895348,9.797490,54.894039,9.801540
1386772061,1,0,479.9,0,0,4,0,291,300,-0.0292,119.6246,6.8213,0.4212,54.895153,9.798198,108.3,5.845,1.85,335.95,54.895348,9.797490,54.894039,9.801540
1386772062,1,0,479.9,0,0,0,0,291,275,-0.0292,119.6246,6.8213,0.4212,54.895145,9.798225,108.3,5.845,1.85,335.95,54.895348,9.797490,54.894039,9.801540
1386772062,1,0,480.0,0,0,4,0,291,300,-0.0292,119.6246,6.8213,0.4212,54.895134,9.798252,108.3,5.845,1.85,335.95,54.895348,9.797490,54.894039,9.801540
1386772062,1,0,479.9,0,0,0,0,291,275,-0.0292,119.6246,6.8213,0.4212,54.895126,9.798279,108.3,5.845,1.85,335.95,54.895348,9.797490,54.894039,9.801540
1386772062,1,0,479.9,0,0,4,0,291,300,-0.0292,119.6246,6.8213,0.4212,54.895115,9.798306,108.3,5.845,1.85,335.95,54.895348,9.797490,54.894039,9.801540
1386772063,1,0,479.9,0,0,0,0,291,275,-0.0292,119.6246,6.8213,0.4212,54.895107,9.798333,108.3,5.845,1.85,335.95,54.895348,9.797490,54.894039,9.801540
1386772063,1,0,479.9,0,0,4,0,291,300,-0.0292,119.6246,6.8213,0.4212,54.895100,9.798360,108.3,5.845,1.85,335.95,54.895348,9.797490,54.894039,9.801540
1386772063,1,0,480.0,0,0,0,0,291,275,-0.0292,119.6246,6.8213,0.4212,54.895088,9.798388,108.3,5.845,1.85,335.95,54.895348,9.797490,54.894039,9.801540
1386772063,1,0,479.9,0,0,4,0,291,300,-0.0292,119.6246,6.8213,0.4212,54.895081,9.798414,108.3,5.845,1.85,335.95,54.895348,9.797490,54.894039,9.801540
1386772064,1,0,479.9,0,0,0,0,291,275,-0.0292,119.6246,6.8213,0.4212,54.895073,9.798442,108.3,5.845,1.85,335.95,54.895348,9.797490,54.894039,9.801540
1386772064,1,0,480.0,0,0,4,0,291,300,-0.0292,119.6246,6.8213,0.4212,54.895061,9.798470,108.3,5.845,1.85,335.95,54.895348,9.797490,54.894039,9.801540
1386772064,1,0,479.9,0,0,0,0,291,275,-0.0292,119.6246,6.8213,0.4212,54.895054,9.798496,108.3,5.845,1.85,335.95,54.895348,9.797490,54.894039,9.801540
1386772064,1,0,479.9,0,0,4,0,291,300,-0.0292,119.6246,6.8213,0.4212,54.895046,9.798524,108.3,5.845,1.85,335.95,54.895348,9.797490,54.894039,9.801540
1386772065,1,0,480.0,0,0,0,0,291,275,-0.0292,119.6246,6.8213,0.4212,54.895035,9.798551,108.3,5.845,1.85,335.95,54.895348,9.797490,54.894039,9.801540
1386772065,1,0,479.9,0,0,4,0,291,300,-0.0292,119.6246,6.8213,0.4212,54.895027,9.798577,108.3,5.845,1.85,335.95,54.895348,9.797490,54.894039,9.801540
1386772065,1,0,480.0,0,0,0,0,291,275,-0.0292,119.6246,6.8213,0.4212,54.895016,9.798605,108.3,5.845,1.85,335.95,54.895348,9.797490,54.894039,9.801540
1386772065,1,0,479.9,0,0,4,0,291,300,-0.0292,119.6246,6.8213,0.4212,54.895008,9.798632,108.3,5.845,1.85,335.95,54.895348,9.797490,54.894039,9.801540
1386772066,1,0,479.9,0,0,0,0,291,275,-0.0292,119.6246,6.8213,0.4212,54.895000,9.798659,108.3,5.845,1.85,335.95,54.895348,9.797490,54.894039,9.801540
1386772066,1,0,480.0,0,0,4,0,291,300,-0.0292,119.6246,6.8213,0.4212,54.894989,9.798687,108.3,5.845,1.85,335.95,54.895348,9.797490,54.894039,9.801540
1386772066,1,0,479.9,0,0,0,0,291,275,-0.0292,119.6246,6.8213,0.4212,54.894981,9.798714,108.3,5.845,1.85,335.95,54.895348,9.797490,54.894039,9.801540
1386772067,1,0,479.9,0,0,4,0,291,300,-0.0292,119.6246,6.8213,0.4212,54.894974,9.798741,108.3,5.845,1.85,335.95,54.895348,9.797490,54.894039,9.801540
1386772067,1,0,480.0,0,0,0,0,291,275,-0.0292,119.6246,6.8213,0.4212,54.894962,9.798768,108.3,5.845,1.85,335.95,54.895348,9.797490,54.894039,9.801540
1386772067,1,0,479.9,0,0,4,0,291,300,-0.0292,119.6246,6.8213,0.4212,54.894955,9.798795,108.3,5.845,1.85,335.95,54.895348,9.797490,54.894039,9.801540
1386772067,1,0,480.0,0,0,0,0,291,275,-0.0292,119.6246,6.8213,0.4212,54.894943,9.798822,108.3,5.845,1.85,335.95,54.895348,9.797490,54.894039,9.801540
1386772068,1,0,479.9,0,0,4,0,291,300,-0.0292,119.6246,6.8213,0.4212,54.894936,9.798849,108.3,5.845,1.85,335.95,54.895348,9.797490,54.894039,9.801540
1386772068,1,0,479.9,0,0,0,0,291,275,-0.0292,119.6246,6.8213,0.4212,54.894928,9.798876,108.3,5.845,1.85,335.95,54.895348,9.797490,54.894039,9.801540
1386772068,1,0,480.0,0,0,4,0,291,300,-0.0292,119.6246,6.8213,0.4212,54.894917,9.798903,108.3,5.845,1.85,335.95,54.895348,9.797490,54.894039,9.801540
1386772068,1,0,479.9,0,0,0,0,291,275,-0.0292,119.6246,6.8213,0.4212,54.894909,9.798930,108.3,5.845,1.85,335.95,54.895348,9.797490,54.894039,9.801540
1386772069,1,0,479.9,0,0,4,0,291,300,-0.0292,119.6246,6.8213,0.4212,54.894901,9.798958,108.3,5.845,1.85,335.95,54.895348,9.797490,54.894039,9.801540
1386772069,1,0,480.0,0,0,0,0,291,275,-0.0292,119.6246,6.8213,0.4212,54.894890,9.798985,108.3,5.845,1.85,335.95,54.895348,9.797490,54.894039,9.801540
1386772069,1,0,479.9,0,0,4,0,291,300,-0.0292,119.6246,6.8213,0.4212,54.894882,9.799012,108.3,5.845,1.85,335.95,54.895348,9.797490,54.894039,9.801540
1386772069,1,0,480.0,0,0,0,0,291,275,-0.0292,119.6246,6.8213,0.4212,54.894875,9.799040,108.3,5.845,1.85,335.95,54.895348,9.797490,54.894039,9.801540
1386772070,1,0,480.0,0,0,4,0,291,300,-0.0292,119.6246,6.8213,0.4212,54.894863,9.799067,108.3,5.845,1.85,335.95,54.895348,9.797490,54.894039,9.801540
1386772070,1,0,479.9,0,0,0,0,291,275,-0.0292,119.6246,6.8213,0.4212,54.894855,9.799093,108.3,5.845,1.85,335.95,54.895348,9.797490,54.894039,9.801540
1386772070,1,0,480.0,0,0,4,0,291,300,-0.0292,119.6246,6.8213,0.4212,54.894844,9.799121,108.3,5.845,1.85,335.95,54.895348,9.797490,54.894039,9.801540
1386772070,1,0,479.9,0,0,0,0,291,275,-0.0292,119.6246,6.8213,0.4212,54.894836,9.799148,108.3,5.845,1.85,335.95,54.895348,9.797490,54.894039,9.801540
1386772071,1,0,479.9,0,0,4,0,291,300,-0.0292,119.6246,6.8213,0.4212,54.894829,9.799174,108.3,5.845,1.85,335.95,54.895348,9.797490,54.894039,9.801540
1386772071,1,0,480.0,0,0,0,0,291,275,-0.0292,119.6246,6.8213,0.4212,54.894817,9.799202,108.3,5.845,1.85,335.95,54.895348,9.797490,54.894039,9.801540
1386772071,1,0,479.9,0,0,4,0,291,300,-0.0292,119.6246,6.8213,0.4212,54.894810,9.799229,108.3,5.845,1.85,335.95,54.895348,9.797490,54.894039,9.801540
1386772071,1,0,479.9,0,0,0,0,291,275,-0.0292,119.6246,6.8213,0.4212,54.894802,9.799256,108.3,5.845,1.85,335.95,54.895348,9.797490,54.894039,9.801540
1386772072,1,0,480.0,0,0,4,0,291,300,-0.0292,119.6246,6.8213,0.4212,54.894791,9.799284,108.3,5.845,1.85,335.95,54.895348,9.797490,54.894039,9.801540
1386772072,1,0,479.9,0,0,0,0,291,275,-0.0292,119.6246,6.8213,0.4212,54.894783,9.799311,108.3,5.845,1.85,335.95,54.895348,9.797490,54.894039,9.801540
1386772072,1,0,480.0,0,0,4,0,291,300,-0.0292,119.6246,6.8213,0.4212,54.894775,9.799338,108.3,5.845,1.85,335.95,54.895348,9.797490,54.894039,9.801540
1386772072,1,0,480.0,0,0,0,0,291,275,-0.0292,119.6246,6.8213,0.4212,54.894764,9.799365,108.3,5.845,1.85,335.95,54.895348,9.797490,54.894039,9.801540
1386772073,1,0,479.9,0,0,4,0,291,300,-0.0292,119.6246,6.8213,0.4212,54.894756,9.799392,108.3,5.845,1.85,335.95,54.895348,9.797490,54.894039,9.801540
1386772073,1,0,480.0,0,0,0,0,291,275,-0.0292,119.6246,6.8213,0.4212,54.894745,9.799419,108.3,5.845,1.85,335.95,54.895348,9.797490,54.894039,9.801540
1386772073,1,0,479.9,0,0,4,0,291,300,-0.0292,119.6246,6.8213,0.4212,54.894737,9.799446,108.3,5.845,1.85,335.95,54.895348,9.797490,54.894039,9.801540
1386772073,1,0,479.9,0,0,0,0,291,275,-0.0292,119.6246,6.8213,0.4212,54.894730,9.799474,108.3,5.845,1.85,335.95,54.895348,9.797490,54.894039,9.801540
1386772074,1,0,480.0,0,0,4,0,291,300,-0.0292,119.6246,6.8213,0.4212,54.894718,9.799501,108.3,5.845,1.85,335.95,54.895348,9.797490,54.894039,9.801540
1386772074,1,0,479.9,0,0,0,0,291,275,-0.0292,119.6246,6.8213,0.4212,54.894711,9.799528,108.3,5.845,1.85,335.95,54.895348,9.797490,54.894039,9.801540
1386772074,1,0,480.0,0,0,4,0,291,300,-0.0292,119.6246,6.8213,0.4212,54.894703,9.799556,108.3,5.845,1.85,335.95,54.895348,9.797490,54.894039,9.801540
1386772074,1,0,480.0,0,0,0,0,291,275,-0.0292,119.6246,6.8213,0.4212,54.894691,9.799582,108.3,5.845,1.85,335.95,54.895348,9.797490,54.894039,9.801540
1386772075,1,0,479.9,0,0,4,0,291,300,-0.0292,119.6246,6.8213,0.4212,54.894684,9.799609,108.3,5.845,1.85,335.95,54.895348,9.797490,54.894039,9.801540
1386772075,1,0,480.0,0,0,0,0,291,275,-0.0292,119.6246,6.8213,0.4212,54.894672,9.799637,108.3,5.845,1.85,335.95,54.895348,9.797490,54.894039,9.801540
1386772075,1,0,479.9,0,0,4,0,291,300,-0.0292,119.6246,6.8213,0.4212,54.894665,9.799664,108.3,5.845,1.85,335.95,54.895348,9.797490,54.894039,9.801540
1386772075,1,0,479.9,0,0,0,0,291,275,-0.0292,119.6246,6.8213,0.4212,54.894657,9.799690,108.3,5.845,1.85,335.95,54.895348,9.797490,54.894039,9.801540
1386772076,1,0,480.0,0,0,4,0,291,300,-0.0292,119.6246,6.8213,0.4212,54.894646,9.799718,108.3,5.845,1.85,335.95,54.895348,9.797490,54.894039,9.801540
1386772076,1,0,479.9,0,0,0,0,291,275,-0.0292,119.6246,6.8213,0.4212,54.894638,9.799745,108.3,5.845,1.85,335.95,54.895348,9.797490,54.894039,9.801540
1386772076,1,0,480.0,0,0,4,0,291,300,-0.0292,119.6246,6.8213,0.4212,54.894630,9.799772,108.3,5.845,1.85,335.95,54.895348,9.797490,54.894039,9.801540
1386772076,1,0,480.0,0,0,0,0,291,275,-0.0292,119.6246,6.8213,0.4212,54.894619,9.799800,108.3,5.845,1.85,335.95,54.895348,9.797490,54.894039,9.801540
1386772077,1,0,479.9,0,0,4,0,291,300,-0.0292,119.6246,6.8213,0.4212,54.894611,9.799827,108.3,5.845,1.85,335.95,54.895348,9.797490,54.894039,9.801540
1386772077,1,0,480.0,0,0,0,0,291,275,-0.0292,119.6246,6.8213,0.4212,54.894604,9.799854,108.3,5.845,1.85,335.95,54.895348,9.797490,54.894039,9.801540
1386772077,1,0,480.1,0,0,4,0,291,300,-0.0292,119.6246,6.8213,0.4212,54.894592,9.799881,108.3,5.845,1.85,335.95,54.895348,9.797490,54.894039,9.801540
1386772077,1,0,479.9,0,0,0,0,291,275,-0.0292,119.6246,6.8213,0.4212,54.894585,9.799908,108.3,5.845,1.85,335.95,54.895348,9.797490,54.894039,9.801540
1386772078,1,0,480.0,0,0,4,0,291,300,-0.0292,119.6246,6.8213,0.4212,54.894573,9.799935,108.3,5.845,1.85,335.95,54.895348,9.797490,54.894039,9.801540
1386772078,1,0,479.9,0,0,0,0,291,275,-0.0292,119.6246,6.8213,0.4212,54.894566,9.799962,108.3,5.845,1.85,335.95,54.895348,9.797490,54.894039,9.801540
1386772078,1,0,480.0,0,0,4,0,291,300,-0.0292,119.6246,6.8213,0.4212,54.894558,9.799989,108.3,5.845,1.85,335.95,54.895348,9.797490,54.894039,9.801540
1386772078,1,0,480.0,0,0,0,0,291,275,-0.0292,119.6246,6.8213,0.4212,54.894547,9.800016,108.3,5.845,1.85,335.95,54.895348,9.797490,54.894039,9.801540
1386772079,1,0,479.9,0,0,4,0,291,300,-0.0292,119.6246,6.8213,0.4212,54.894539,9.800043,108.3,5.845,1.85,335.95,54.895348,9.797490,54.894039,9.801540
1386772079,1,0,480.0,0,0,0,0,291,275,-0.0292,119.6246,6.8213,0.4212,54.894531,9.800071,108.3,5.845,1.85,335.95,54.895348,9.797490,54.894039,9.801540
1386772079,1,0,480.1,0,0,4,0,291,300,-0.0292,119.6246,6.8213,0.4212,54.894520,9.800098,108.3,5.845,1.85,335.95,54.895348,9.797490,54.894039,9.801540
1386772079,1,0,479.9,0,0,0,0,291,275,-0.0292,119.6246,6.8213,0.4212,54.894512,9.800125,108.3,5.845,1.85,335.95,54.895348,9.797490,54.894039,9.801540
1386772080,1,0,480.0,0,0,4,0,291,300,-0.0292,119.6246,6.8213,0.4212,54.894505,9.800153,108.3,5.845,1.85,335.95,54.895348,9.797490,54.894039,9.801540
1386772080,1,0,480.1,0,0,0,0,291,275,-0.0292,119.6246,6.8213,0.4212,54.894493,9.800179,108.3,5.845,1.85,335.95,54.895348,9.797490,54.894039,9.801540
1386772080,1,0,480.0,0,0,4,0,291,300,-0.0292,119.6246,6.8213,0.4212,54.894485,9.800206,108.3,5.845,1.85,335.95,54.895348,9.797490,54.894039,9.801540
1386772080,1,0,480.0,0,0,0,0,291,275,-0.0292,119.6246,6.8213,0.4212,54.894474,9.800234,108.3,5.845,1.85,335.95,54.895348,9.797490,54.894039,9.801540
1386772081,1,0,479.9,0,0,4,0,291,300,-0.0292,119.6246,6.8213,0.4212,54.894466,9.800261,108.3,5.845,1.85,335.95,54.895348,9.797490,54.894039,9.801540
1386772081,1,0,480.0,0,0,0,0,291,275,-0.0292,119.6246,6.8213,0.4212,54.894459,9.800288,108.3,5.845,1.85,335.95,54.895348,9.797490,54.894039,9.801540
1386772081,1,0,480.1,0,0,4,0,291,300,-0.0292,119.6246,6.8213,0.4212,54.894447,9.800316,108.3,5.845,1.85,335.95,54.895348,9.797490,54.894039,9.801540
1386772081,1,0,479.9,0,0,0,0,291,275,-0.0292,119.6246,6.8213,0.4212,54.894440,9.800343,108.3,5.845,1.85,335.95,54.895348,9.797490,54.894039,9.801540
1386772082,1,0,480.0,0,0,4,0,291,300,-0.0292,119.6246,6.8213,0.4212,54.894432,9.800370,108.3,5.845,1.85,335.95,54.895348,9.797490,54.894039,9.801540
1386772082,1,0,480.1,0,-1,0,0,291,275,-0.0292,119.8913,6.8213,0.4212,54.894421,9.800397,108.3,5.845,1.85,335.95,54.895348,9.797490,54.894039,9.801540
1386772082,1,0,480.0,0,0,4,0,291,300,-0.0292,119.8913,6.8213,0.4212,54.894413,9.800424,108.3,5.845,1.85,335.95,54.895348,9.797490,54.894039,9.801540
1386772082,1,0,480.1,0,0,0,0,291,275,-0.0292,119.8913,6.8213,0.4212,54.894402,9.800451,108.3,5.845,1.85,335.95,54.895348,9.797490,54.894039,9.801540
1386772083,1,0,479.9,0,0,4,0,291,300,-0.0292,119.8913,6.8213,0.4212,54.894394,9.800478,108.3,5.845,1.85,335.95,54.895348,9.797490,54.894039,9.801540
1386772083,1,0,480.0,0,0,0,0,291,275,-0.0292,119.8913,6.8213,0.4212,54.894386,9.800505,108.3,5.845,1.85,335.95,54.895348,9.797490,54.894039,9.801540
1386772083,1,0,480.1,0,0,4,0,291,300,-0.0292,119.8913,6.8213,0.4212,54.894375,9.800532,108.3,5.845,1.85,335.95,54.895348,9.797490,54.894039,9.801540
1386772083,1,0,479.9,0,0,0,0,291,275,-0.0292,119.8913,6.8213,0.4212,54.894367,9.800559,108.3,5.845,1.85,335.95,54.895348,9.797490,54.894039,9.801540
1386772084,1,0,480.0,0,0,4,0,291,300,-0.0292,119.8913,6.8213,0.4212,54.894360,9.800587,108.3,5.845,1.85,335.95,54.895348,9.797490,54.894039,9.801540
1386772084,1,0,480.1,0,0,0,0,291,275,-0.0292,119.8913,6.8213,0.4212,54.894348,9.800613,108.3,5.845,1.85,335.95,54.895348,9.797490,54.894039,9.801540
1386772084,1,0,479.9,0,0,4,0,291,300,-0.0292,119.8913,6.8213,0.4212,54.894341,9.800640,108.3,5.845,1.85,335.95,54.895348,9.797490,54.894039,9.801540
1386772084,1,0,480.1,0,0,0,0,291,275,-0.0292,119.8913,6.8213,0.4212,54.894333,9.800668,108.3,5.845,1.85,335.95,54.895348,9.797490,54.894039,9.801540
1386772085,1,0,480.2,0,0,4,0,291,300,-0.0292,119.8913,6.8213,0.4212,54.894321,9.800694,108.3,5.845,1.85,335.95,54.895348,9.797490,54.894039,9.801540
1386772085,1,0,480.0,0,0,0,0,291,275,-0.0292,119.8913,6.8213,0.4212,54.894314,9.800721,108.3,5.845,1.85,335.95,54.895348,9.797490,54.894039,9.801540
1386772085,1,0,480.1,0,0,4,0,291,300,-0.0292,119.8913,6.8213,0.4212,54.894302,9.800749,108.3,5.845,1.85,335.95,54.895348,9.797490,54.894039,9.801540
1386772085,1,0,479.9,0,0,0,0,291,275,-0.0292,119.8913,6.8213,0.4212,54.894295,9.800776,108.3,5.845,1.85,335.95,54.895348,9.797490,54.894039,9.801540
1386772086,1,0,480.0,0,0,4,0,291,300,-0.0292,119.8913,6.8213,0.4212,54.894287,9.800803,108.3,5.845,1.85,335.95,54.895348,9.797490,54.894039,9.801540
1386772086,1,0,480.2,0,0,0,0,291,275,-0.0292,119.8913,6.8213,0.4212,54.894276,9.800831,108.3,5.845,1.85,335.95,54.895348,9.797490,54.894039,9.801540
1386772086,1,0,479.9,0,0,4,0,291,300,-0.0292,119.8913,6.8213,0.4212,54.894268,9.800858,108.3,5.845,1.85,335.95,54.895348,9.797490,54.894039,9.801540
1386772086,1,0,480.1,0,0,0,0,291,275,-0.0292,119.8913,6.8213,0.4212,54.894260,9.800885,108.3,5.845,1.85,335.95,54.895348,9.797490,54.894039,9.801540
1386772087,1,0,480.3,0,0,4,0,291,300,-0.0292,119.8913,6.8213,0.4212,54.894249,9.800912,108.3,5.845,1.85,335.95,54.895348,9.797490,54.894039,9.801540
1386772087,1,0,480.0,0,0,0,0,291,275,-0.0292,119.8913,6.8213,0.4212,54.894241,9.800939,108.3,5.845,1.85,335.95,54.895348,9.797490,54.894039,9.801540
1386772087,1,0,480.1,0,0,4,0,291,300,-0.0292,119.8913,6.8213,0.4212,54.894230,9.800966,108.3,5.845,1.85,335.95,54.895348,9.797490,54.894039,9.801540
1386772087,1,0,479.9,0,0,0,0,291,275,-0.0292,119.8913,6.8213,0.4212,54.894222,9.800993,108.3,5.845,1.85,335.95,54.895348,9.797490,54.894039,9.801540
1386772088,1,0,480.0,0,0,4,0,291,300,-0.0292,119.8913,6.8213,0.4212,54.894215,9.801020,108.3,5.845,1.85,335.95,54.895348,9.797490,54.894039,9.801540
1386772088,1,0,480.2,0,0,0,0,291,275,-0.0292,119.8913,6.8213,0.4212,54.894203,9.801047,108.3,5.845,1.85,335.95,54.895348,9.797490,54.894039,9.801540
1386772088,1,0,479.9,0,0,4,0,291,300,-0.0292,119.8913,6.8213,0.4212,54.894196,9.801074,108.3,5.845,1.85,335.95,54.895348,9.797490,54.894039,9.801540
1386772088,1,0,480.1,0,0,0,0,291,275,-0.0292,119.8913,6.8213,0.4212,54.894188,9.801102,108.3,5.845,1.85,335.95,54.895348,9.797490,54.894039,9.801540
1386772089,1,0,480.4,0,0,4,0,291,300,-0.0292,119.8913,6.8213,0.4212,54.894176,9.801128,108.3,5.845,1.85,335.95,54.895348,9.797490,54.894039,9.801540
1386772089,1,0,479.9,0,0,0,0,291,275,-0.0292,119.8913,6.8213,0.4212,54.894169,9.801155,108.3,5.845,1.85,335.95,54.895348,9.797490,54.894039,9.801540
1386772089,1,0,480.2,0,0,4,0,291,300,-0.0292,119.8913,6.8213,0.4212,54.894161,9.801183,108.3,5.845,1.85,335.95,54.895348,9.797490,54.894039,9.801540
1386772089,1,0,480.5,0,-1,0,0,291,275,-0.0292,120.1580,6.8213,0.4212,54.894150,9.801209,108.3,5.845,1.85,335.95,54.895348,9.797490,54.894039,9.801540
1386772090,1,0,480.0,0,0,4,0,291,300,-0.0292,120.1580,6.8213,0.4212,54.894142,9.801236,108.3,5.845,1.85,335.95,54.895348,9.797490,54.894039,9.801540
1386772090,1,0,480.3,0,0,0,0,291,275,-0.0292,120.1580,6.8213,0.4212,54.894131,9.801264,108.3,5.845,1.85,335.95,54.895348,9.797490,54.894039,9.801540
1386772090,1,0,479.8,0,0,4,0,291,300,-0.0292,120.1580,6.8213,0.4212,54.894123,9.801291,108.3,5.845,1.85,335.95,54.895348,9.797490,54.894039,9.801540
1386772090,1,0,480.1,0,0,0,0,291,275,-0.0292,120.1580,6.8213,0.4212,54.894115,9.801317,108.3,5.845,1.85,335.95,54.895348,9.797490,54.894039,9.801540
1386772091,1,0,480.6,0,0,4,0,291,300,-0.0292,120.1580,6.8213,0.4212,54.894104,9.801344,108.3,5.845,1.85,335.95,54.895348,9.797490,54.894039,9.801540
1386772091,1,0,479.7,0,0,0,0,291,275,-0.0292,120.1580,6.8213,0.4212,54.894096,9.801371,108.3,5.845,1.85,335.95,54.895348,9.797490,54.894039,9.801540
1386772091,1,0,480.2,0,0,4,0,291,300,-0.0292,120.1580,6.8213,0.4212,54.894089,9.801398,108.3,5.845,1.85,335.95,54.895348,9.797490,54.894039,9.801540
1386772091,1,0,481.1,0,-1,0,0,291,275,-0.0292,120.4247,6.8213,0.4212,54.894077,9.801425,108.3,5.845,1.85,335.95,54.895348,9.797490,54.894039,9.801540
1386772092,1,0,479.7,0,1,4,0,291,300,-0.0292,120.1580,6.8213,0.4212,54.894070,9.801452,108.3,5.845,1.85,335.95,54.895348,9.797490,54.894039,9.801540
1386772092,1,0,480.7,0,-1,0,0,291,275,-0.0292,120.4247,6.8213,0.4212,54.894058,9.801478,108.3,5.845,1.85,335.95,54.895348,9.797490,54.894039,9.801540
1386772092,1,0,478.0,0,2,4,0,291,300,-0.0292,119.8913,6.8213,0.4212,54.894051,9.801505,108.3,5.845,1.85,335.95,54.894039,9.801540,54.893795,9.802299
1386772092,1,0,479.1,0,1,0,0,291,275,-0.0292,119.6247,6.8213,0.4212,54.894043,9.801532,108.3,5.845,1.85,335.95,54.894039,9.801540,54.893795,9.802299
1386772093,1,0,479.2,0,0,4,0,291,300,-0.0292,119.6247,6.8213,0.4212,54.894032,9.801559,108.3,5.845,1.85,335.95,54.894039,9.801540,54.893795,9.802299
1386772093,1,0,478.9,0,1,0,0,291,275,-0.0292,119.3580,6.8213,0.4212,54.894024,9.801586,108.3,5.845,1.85,335.95,54.894039,9.801540,54.893795,9.802299
1386772093,1,0,479.0,0,0,4,0,291,300,-0.0292,119.3580,6.8213,0.4212,54.894016,9.801614,108.3,5.845,1.85,335.95,54.894039,9.801540,54.893795,9.802299
1386772093,1,0,479.2,0,0,0,0,291,275,-0.0292,119.3580,6.8213,0.4212,54.894005,9.801641,108.3,5.845,1.85,335.95,54.894039,9.801540,54.893795,9.802299
1386772094,1,0,478.9,0,0,4,0,291,300,-0.0292,119.3580,6.8213,0.4212,54.893997,9.801668,108.3,5.845,1.85,335.95,54.894039,9.801540,54.893795,9.802299
1386772094,1,0,479.0,0,0,0,0,291,275,-0.0292,119.3580,6.8213,0.4212,54.893990,9.801696,108.3,5.845,1.85,335.95,54.894039,9.801540,54.893795,9.802299
1386772094,1,0,479.2,0,0,4,0,291,300,-0.0292,119.3580,6.8213,0.4212,54.893978,9.801723,108.3,5.845,1.85,335.95,54.894039,9.801540,54.893795,9.802299
1386772094,1,0,478.8,0,1,0,0,291,275,-0.0292,119.0913,6.8213,0.4212,54.893970,9.801749,108.3,5.845,1.85,335.95,54.894039,9.801540,54.893795,9.802299
1386772095,1,0,478.9,0,0,4,0,291,300,-0.0292,119.0913,6.8213,0.4212,54.893963,9.801777,108.3,5.845,1.85,335.95,54.894039,9.801540,54.893795,9.802299
1386772095,1,0,479.1,0,0,0,0,291,275,-0.0292,119.0913,6.8213,0.4212,54.893951,9.801804,108.3,5.845,1.85,335.95,54.894039,9.801540,54.893795,9.802299
1386772095,1,0,478.6,0,0,4,0,291,300,-0.0292,119.0913,6.8213,0.4212,54.893944,9.801831,108.3,5.845,1.85,335.95,54.894039,9.801540,54.893795,9.802299
1386772095,1,0,478.8,0,0,0,0,291,275,-0.0292,119.0913,6.8213,0.4212,54.893932,9.801859,108.3,5.845,1.85,335.95,54.894039,9.801540,54.893795,9.802299
1386772096,1,0,478.4,0,1,4,0,291,300,-0.0292,118.8246,6.8213,0.4212,54.893925,9.801886,108.3,5.845,1.85,335.95,54.894039,9.801540,54.893795,9.802299
1386772096,1,0,478.5,0,0,0,0,291,275,-0.0292,118.8246,6.8213,0.4212,54.893917,9.801913,108.3,5.845,1.85,335.95,54.894039,9.801540,54.893795,9.802299
1386772096,1,0,478.7,0,0,4,0,291,300,-0.0292,118.8246,6.8213,0.4212,54.893906,9.801941,108.3,5.845,1.85,335.95,54.894039,9.801540,54.893795,9.802299
1386772096,1,0,478.1,0,1,0,0,291,275,-0.0292,118.5580,6.8213,0.4212,54.893898,9.801968,108.3,5.845,1.85,335.95,54.894039,9.801540,54.893795,9.802299
1386772097,1,0,478.3,0,0,4,0,291,300,-0.0292,118.5580,6.8213,0.4212,54.893890,9.801995,108.3,5.845,1.85,335.95,54.894039,9.801540,54.893795,9.802299
1386772097,1,0,478.5,0,0,0,0,291,275,-0.0292,118.5580,6.8213,0.4212,54.893879,9.802023,108.3,5.845,1.85,335.95,54.894039,9.801540,54.893795,9.802299
1386772097,1,0,477.8,0,1,4,0,291,300,-0.0292,118.2913,6.8213,0.4212,54.893871,9.802050,108.3,5.845,1.85,335.95,54.894039,9.801540,54.893795,9.802299
1386772097,1,0,477.9,0,0,0,0,291,275,-0.0292,118.2913,6.8213,0.4212,54.893864,9.802077,108.3,5.845,1.85,335.95,54.894039,9.801540,54.893795,9.802299
1386772098,1,0,478.2,0,0,4,0,291,300,-0.0292,118.2913,6.8213,0.4212,54.893856,9.802105,108.3,5.845,1.85,335.95,54.894039,9.801540,54.893795,9.802299
1386772098,1,0,478.6,0,0,0,0,291,275,-0.0292,118.2913,6.8213,0.4212,54.893848,9.802132,108.3,5.845,1.85,335.95,54.894039,9.801540,54.893795,9.802299
1386772098,1,0,478.9,0,-1,-4,0,291,300,-0.0292,118.5580,6.8213,0.4212,54.893841,9.802159,108.3,5.845,1.85,335.95,54.894039,9.801540,54.893795,9.802299
1386772099,1,0,479.6,0,-1,0,0,291,275,-0.0292,118.8246,6.8213,0.4212,54.893829,9.802186,108.3,5.845,1.85,335.95,54.894039,9.801540,54.893795,9.802299
1386772099,1,0,477.8,0,1,4,0,291,300,-0.0292,118.5580,6.8213,0.4212,54.893822,9.802214,108.3,5.845,1.85,335.95,54.894039,9.801540,54.893795,9.802299
1386772099,1,0,478.5,0,0,0,0,291,275,-0.0292,118.5580,6.8213,0.4212,54.893810,9.802241,108.3,5.845,1.85,335.95,54.894039,9.801540,54.893795,9.802299
1386772099,1,0,474.7,0,4,4,0,291,300,-0.0292,117.4913,6.8213,0.4212,54.893803,9.802269,108.3,5.845,1.85,335.95,54.893795,9.802299,54.893364,9.803688
1386772100,1,0,478.1,0,-1,0,0,291,275,-0.0292,117.7580,6.8213,0.4212,54.893795,9.802297,108.3,5.845,1.85,335.95,54.893795,9.802299,54.893364,9.803688
1386772100,1,0,478.2,0,0,4,0,291,300,-0.0292,117.7580,6.8213,0.4212,54.893784,9.802324,108.3,5.845,1.85,335.95,54.893795,9.802299,54.893364,9.803688
1386772100,1,0,478.0,0,0,0,0,291,275,-0.0292,117.7580,6.8213,0.4212,54.893776,9.802352,108.3,5.845,1.85,335.95,54.893795,9.802299,54.893364,9.803688
1386772100,1,0,478.1,0,0,4,0,291,300,-0.0292,117.7580,6.8213,0.4212,54.893768,9.802380,108.3,5.845,1.85,335.95,54.893795,9.802299,54.893364,9.803688
1386772101,1,0,478.1,0,0,0,0,291,275,-0.0292,117.7580,6.8213,0.4212,54.893757,9.802407,108.3,5.845,1.85,335.95,54.893795,9.802299,54.893364,9.803688
1386772101,1,0,477.9,0,0,4,0,291,300,-0.0292,117.7580,6.8213,0.4212,54.893749,9.802435,108.3,5.845,1.85,335.95,54.893795,9.802299,54.893364,9.803688
1386772101,1,0,478.0,0,0,0,0,291,275,-0.0292,117.7580,6.8213,0.4212,54.893742,9.802463,108.3,5.845,1.85,335.95,54.893795,9.802299,54.893364,9.803688
1386772101,1,0,478.0,0,0,4,0,291,300,-0.0292,117.7580,6.8213,0.4212,54.893730,9.802490,108.3,5.845,1.85,335.95,54.893795,9.802299,54.893364,9.803688
1386772102,1,0,477.9,0,0,0,0,291,275,-0.0292,117.7580,6.8213,0.4212,54.893723,9.802518,108.3,5.845,1.85,335.95,54.893795,9.802299,54.893364,9.803688
1386772102,1,0,477.9,0,0,4,0,291,300,-0.0292,117.7580,6.8213,0.4212,54.893715,9.802546,108.3,5.845,1.85,335.95,54.893795,9.802299,54.893364,9.803688
1386772102,1,0,478.0,0,0,0,0,291,275,-0.0292,117.7580,6.8213,0.4212,54.893707,9.802573,108.3,5.845,1.85,335.95,54.893795,9.802299,54.893364,9.803688
1386772102,1,0,478.0,0,0,4,0,291,300,-0.0292,117.7580,6.8213,0.4212,54.893700,9.802601,108.3,5.845,1.85,335.95,54.893795,9.802299,54.893364,9.803688
1386772103,1,0,478.1,0,0,0,0,291,275,-0.0292,117.7580,6.8213,0.4212,54.893692,9.802629,108.3,5.845,1.85,335.95,54.893795,9.802299,54.893364,9.803688
1386772103,1,0,478.2,0,0,4,0,291,300,-0.0292,117.7580,6.8213,0.4212,54.893681,9.802656,108.3,5.845,1.85,335.95,54.893795,9.802299,54.893364,9.803688
1386772103,1,0,477.9,0,0,0,0,291,275,-0.0292,117.7580,6.8213,0.4212,54.893673,9.802684,108.3,5.845,1.85,335.95,54.893795,9.802299,54.893364,9.803688
1386772103,1,0,478.0,0,0,4,0,291,300,-0.0292,117.7580,6.8213,0.4212,54.893661,9.802711,108.3,5.845,1.85,335.95,54.893795,9.802299,54.893364,9.803688
1386772104,1,0,477.8,0,0,0,0,291,275,-0.0292,117.7580,6.8213,0.4212,54.893654,9.802739,108.3,5.845,1.85,335.95,54.893795,9.802299,54.893364,9.803688
1386772104,1,0,477.8,0,0,4,0,291,300,-0.0292,117.7580,6.8213,0.4212,54.893646,9.802767,108.3,5.845,1.85,335.95,54.893795,9.802299,54.893364,9.803688
1386772104,1,0,477.9,0,0,0,0,291,275,-0.0292,117.7580,6.8213,0.4212,54.893635,9.802794,108.3,5.845,1.85,335.95,54.893795,9.802299,54.893364,9.803688
1386772104,1,0,477.6,0,0,4,0,291,300,-0.0292,117.7580,6.8213,0.4212,54.893627,9.802822,108.3,5.845,1.85,335.95,54.893795,9.802299,54.893364,9.803688
1386772105,1,0,477.7,0,0,0,0,291,275,-0.0292,117.7580,6.8213,0.4212,54.893620,9.802850,108.3,5.845,1.85,335.95,54.893795,9.802299,54.893364,9.803688
1386772105,1,0,477.8,0,0,4,0,291,300,-0.0292,117.7580,6.8213,0.4212,54.893608,9.802877,108.3,5.845,1.85,335.95,54.893795,9.802299,54.893364,9.803688
1386772105,1,0,477.5,0,0,0,0,291,275,-0.0292,117.7580,6.8213,0.4212,54.893600,9.802904,108.3,5.845,1.85,335.95,54.893795,9.802299,54.893364,9.803688
1386772105,1,0,477.5,0,0,4,0,291,300,-0.0292,117.7580,6.8213,0.4212,54.893593,9.802932,108.3,5.845,1.85,335.95,54.893795,9.802299,54.893364,9.803688
1386772106,1,0,477.6,0,0,0,0,291,275,-0.0292,117.7580,6.8213,0.4212,54.893585,9.802959,108.3,5.845,1.85,335.95,54.893795,9.802299,54.893364,9.803688
1386772106,1,0,477.7,0,0,4,0,291,300,-0.0292,117.7580,6.8213,0.4212,54.893578,9.802987,108.3,5.845,1.85,335.95,54.893795,9.802299,54.893364,9.803688
1386772106,1,0,477.8,0,0,0,0,291,275,-0.0292,117.7580,6.8213,0.4212,54.893570,9.803015,108.3,5.845,1.85,335.95,54.893795,9.802299,54.893364,9.803688
1386772106,1,0,477.9,0,0,4,0,291,300,-0.0292,117.7580,6.8213,0.4212,54.893559,9.803042,108.3,5.845,1.85,335.95,54.893795,9.802299,54.893364,9.803688
1386772107,1,0,477.5,0,0,0,0,291,275,-0.0292,117.7580,6.8213,0.4212,54.893551,9.803070,108.3,5.845,1.85,335.95,54.893795,9.802299,54.893364,9.803688
1386772107,1,0,477.6,0,0,4,0,291,300,-0.0292,117.7580,6.8213,0.4212,54.893543,9.803098,108.3,5.845,1.85,335.95,54.893795,9.802299,54.893364,9.803688
1386772107,1,0,477.7,0,0,0,0,291,275,-0.0292,117.7580,6.8213,0.4212,54.893536,9.803125,108.3,5.845,1.85,335.95,54.893795,9.802299,54.893364,9.803688
1386772107,1,0,477.8,0,0,4,0,291,300,-0.0292,117.7580,6.8213,0.4212,54.893528,9.803153,108.3,5.845,1.85,335.95,54.893795,9.802299,54.893364,9.803688
1386772108,1,0,477.9,0,0,0,0,291,275,-0.0292,117.7580,6.8213,0.4212,54.893520,9.803181,108.3,5.845,1.85,335.95,54.893795,9.802299,54.893364,9.803688
1386772108,1,0,478.0,0,0,4,0,291,300,-0.0292,117.7580,6.8213,0.4212,54.893509,9.803208,108.3,5.845,1.85,335.95,54.893795,9.802299,54.893364,9.803688
1386772108,1,0,477.6,0,0,0,0,291,275,-0.0292,117.7580,6.8213,0.4212,54.893501,9.803236,108.3,5.845,1.85,335.95,54.893795,9.802299,54.893364,9.803688
1386772108,1,0,477.7,0,0,4,0,291,300,-0.0292,117.7580,6.8213,0.4212,54.893494,9.803264,108.3,5.845,1.85,335.95,54.893795,9.802299,54.893364,9.803688
1386772109,1,0,477.8,0,0,0,0,291,275,-0.0292,117.7580,6.8213,0.4212,54.893486,9.803290,108.3,5.845,1.85,335.95,54.893795,9.802299,54.893364,9.803688
1386772109,1,0,477.9,0,0,4,0,291,300,-0.0292,117.7580,6.8213,0.4212,54.893478,9.803318,108.3,5.845,1.85,335.95,54.893795,9.802299,54.893364,9.803688
1386772109,1,0,478.1,0,0,0,0,291,275,-0.0292,117.7580,6.8213,0.4212,54.893471,9.803346,108.3,5.845,1.85,335.95,54.893795,9.802299,54.893364,9.803688
1386772109,1,0,478.3,0,-1,-4,0,291,300,-0.0292,118.0247,6.8213,0.4212,54.893459,9.803373,108.3,5.845,1.85,335.95,54.893795,9.802299,54.893364,9.803688
1386772110,1,0,477.6,0,0,0,0,291,275,-0.0292,118.0247,6.8213,0.4212,54.893452,9.803401,108.3,5.845,1.85,335.95,54.893795,9.802299,54.893364,9.803688
1386772110,1,0,477.8,0,0,4,0,291,300,-0.0292,118.0247,6.8213,0.4212,54.893440,9.803429,108.3,5.845,1.85,335.95,54.893795,9.802299,54.893364,9.803688
1386772110,1,0,476.9,0,1,0,0,291,275,-0.0292,117.7580,6.8213,0.4212,54.893433,9.803456,108.3,5.845,1.85,335.95,54.893795,9.802299,54.893364,9.803688
1386772110,1,0,477.1,0,1,4,0,291,300,-0.0292,117.4913,6.8213,0.4212,54.893425,9.803484,108.3,5.845,1.85,335.95,54.893795,9.802299,54.893364,9.803688
1386772111,1,0,477.3,0,0,0,0,291,275,-0.0292,117.4913,6.8213,0.4212,54.893414,9.803512,108.3,5.845,1.85,335.95,54.893795,9.802299,54.893364,9.803688
1386772111,1,0,475.9,0,2,4,0,291,300,-0.0292,116.9580,6.8213,0.4212,54.893406,9.803539,108.3,5.845,1.85,335.95,54.893795,9.802299,54.893364,9.803688
1386772111,1,0,476.0,0,1,0,0,291,275,-0.0292,116.6913,6.8213,0.4212,54.893398,9.803567,108.3,5.845,1.85,335.95,54.893795,9.802299,54.893364,9.803688
1386772111,1,0,476.1,0,1,4,0,291,300,-0.0292,116.4246,6.8213,0.4212,54.893387,9.803595,108.3,5.845,1.85,335.95,54.893795,9.802299,54.893364,9.803688
