MCU_timestamp,Navigation_System,Manual_Control,Guidance_Heading,Manual_Ctrl_Rudder,Rudder_Desired_Angle,Rudder_Feedback,Manual_Ctrl_Sail,Sail_Desired_Pos,Sail_Feedback,Rate,Heading,Pitch,Roll,Latitude,Longitude,COG,SOG,Wind_Speed,Wind_Angle,Point_Start_Lat,Point_Start_Lon,Point_End_Lat,Point_End_Lon
1386876245,0,0,0.0,0,0,0,0,0,0,-0.0292,554.8257,6.8213,0.4212,54.883858,9.809672,108.3,5.845,1.85,335.95,0.000000,0.000000,0.000000,0.000000
1386876245,0,0,0.0,0,0,0,0,0,0,-0.0292,554.8257,6.8213,0.4212,54.883858,9.809672,108.3,5.845,1.85,335.95,0.000000,0.000000,0.000000,0.000000
1386876245,0,0,0.0,0,0,0,0,0,0,-0.0292,554.8257,6.8213,0.4212,54.883858,9.809672,108.3,5.845,1.85,335.95,0.000000,0.000000,0.000000,0.000000
1386876245,0,0,0.0,0,0,0,0,0,0,-0.0292,554.8257,6.8213,0.4212,54.883858,9.809672,108.3,5.845,1.85,335.95,0.000000,0.000000,0.000000,0.000000
1386876246,0,0,0.0,0,0,0,0,0,0,-0.0292,554.8257,6.8213,0.4212,54.883858,9.809672,108.3,5.845,1.85,335.95,0.000000,0.000000,0.000000,0.000000
1386876246,0,0,0.0,0,0,0,0,0,0,-0.0292,554.8257,6.8213,0.4212,54.883858,9.809672,108.3,5.845,1.85,335.95,0.000000,0.000000,0.000000,0.000000
1386876246,0,0,0.0,0,0,0,0,0,0,-0.0292,554.8257,6.8213,0.4212,54.883858,9.809672,108.3,5.845,1.85,335.95,0.000000,0.000000,0.000000,0.000000
1386876246,0,0,0.0,0,0,0,0,0,0,-0.0292,554.8257,6.8213,0.4212,54.883858,9.809672,108.3,5.845,1.85,335.95,0.000000,0.000000,0.000000,0.000000
1386876247,0,0,0.0,0,0,0,0,0,0,-0.0292,554.8257,6.8213,0.4212,54.883858,9.809672,108.3,5.845,1.85,335.95,0.000000,0.000000,0.000000,0.000000
1386876247,4,0,0.0,0,0,0,0,0,0,-0.0292,554.8257,6.8213,0.4212,54.883858,9.809672,108.3,5.845,1.85,335.95,0.000000,0.000000,0.000000,0.000000
1386876247,1,0,485.9,0,35,4,0,409,375,-0.0292,545.4924,6.8213,0.4212,54.883839,9.809669,108.3,5.845,1.85,335.95,54.883858,9.809672,54.895069,9.793790
1386876247,1,0,485.9,0,35,8,0,409,400,-0.0292,536.1591,6.8213,0.4212,54.883820,9.809671,108.3,5.845,1.85,335.95,54.883858,9.809672,54.895069,9.793790
1386876248,1,0,485.9,0,35,12,0,409,425,-0.0292,526.8257,6.8213,0.4212,54.883804,9.809678,108.3,5.845,1.85,335.95,54.883858,9.809672,54.895069,9.793790
1386876248,1,0,485.9,0,35,16,0,409,400,-0.0292,517.4924,6.8213,0.4212,54.883789,9.809690,108.3,5.845,1.85,335.95,54.883858,9.809672,54.895069,9.793790
1386876248,1,0,485.9,0,32,20,0,0,375,-0.0292,508.9591,6.8213,0.4212,54.883774,9.809707,108.3,5.845,1.85,335.95,54.883858,9.809672,54.895069,9.793790
1386876248,1,0,485.9,0,23,24,0,0,350,-0.0292,502.8258,6.8213,0.4212,54.883762,9.809726,108.3,5.845,1.85,335.95,54.883858,9.809672,54.895069,9.793790
1386876249,1,0,485.9,0,17,20,0,409,375,-0.0292,498.2924,6.8213,0.4212,54.883747,9.809747,108.3,5.845,1.85,335.95,54.883858,9.809672,54.895069,9.793790
1386876249,1,0,485.9,0,12,16,0,409,400,-0.0292,495.0924,6.8213,0.4212,54.883736,9.809769,108.3,5.845,1.85,335.95,54.883858,9.809672,54.895069,9.793790
1386876249,1,0,485.9,0,9,12,0,409,425,-0.0292,492.6924,6.8213,0.4212,54.883720,9.809792,108.3,5.845,1.85,335.95,54.883858,9.809672,54.895069,9.793790
1386876249,1,0,485.9,0,7,8,0,409,400,-0.0292,490.8258,6.8213,0.4212,54.883709,9.809815,108.3,5.845,1.85,335.95,54.883858,9.809672,54.895069,9.793790
1386876250,1,0,485.9,0,5,4,0,409,425,-0.0292,489.4924,6.8213,0.4212,54.883698,9.809840,108.3,5.845,1.85,335.95,54.883858,9.809672,54.895069,9.793790
1386876250,1,0,485.9,0,4,8,0,409,400,-0.0292,488.4258,6.8213,0.4212,54.883686,9.809865,108.3,5.845,1.85,335.95,54.883858,9.809672,54.895069,9.793790
1386876250,1,0,485.9,0,2,4,0,409,425,-0.0292,487.8924,6.8213,0.4212,54.883675,9.809889,108.3,5.845,1.85,335.95,54.883858,9.809672,54.895069,9.793790
1386876250,1,0,485.9,0,2,0,0,409,400,-0.0292,487.3591,6.8213,0.4212,54.883663,9.809914,108.3,5.845,1.85,335.95,54.883858,9.809672,54.895069,9.793790
1386876251,1,0,485.9,0,1,4,0,409,425,-0.0292,487.0924,6.8213,0.4212,54.883652,9.809938,108.3,5.845,1.85,335.95,54.883858,9.809672,54.895069,9.793790
1386876251,1,0,485.9,0,1,0,0,409,400,-0.0292,486.8258,6.8213,0.4212,54.883640,9.809963,108.3,5.845,1.85,335.95,54.883858,9.809672,54.895069,9.793790
1386876251,1,0,485.9,0,1,4,0,409,425,-0.0292,486.5591,6.8213,0.4212,54.883629,9.809988,108.3,5.845,1.85,335.95,54.883858,9.809672,54.895069,9.793790
1386876251,1,0,485.9,0,1,0,0,409,400,-0.0292,486.2924,6.8213,0.4212,54.883621,9.810014,108.3,5.845,1.85,335.95,54.883858,9.809672,54.895069,9.793790
1386876252,1,0,485.9,0,0,4,0,409,425,-0.0292,486.2924,6.8213,0.4212,54.883610,9.810039,108.3,5.845,1.85,335.95,54.883858,9.809672,54.895069,9.793790
1386876252,1,0,485.9,0,0,0,0,409,400,-0.0292,486.2924,6.8213,0.4212,54.883598,9.810063,108.3,5.845,1.85,335.95,54.883858,9.809672,54.895069,9.793790
1386876252,1,0,485.9,0,0,4,0,0,375,-0.0292,486.2924,6.8213,0.4212,54.883587,9.810089,108.3,5.845,1.85,335.95,54.883858,9.809672,54.895069,9.793790
1386876252,1,0,485.9,0,0,0,0,0,350,-0.0292,486.2924,6.8213,0.4212,54.883575,9.810114,108.3,5.845,1.85,335.95,54.883858,9.809672,54.895069,9.793790
1386876253,1,0,485.9,0,0,4,0,0,325,-0.0292,486.2924,6.8213,0.4212,54.883564,9.810140,108.3,5.845,1.85,335.95,54.883858,9.809672,54.895069,9.793790
1386876253,1,0,485.9,0,0,0,0,0,300,-0.0292,486.2924,6.8213,0.4212,54.883553,9.810164,108.3,5.845,1.85,335.95,54.883858,9.809672,54.895069,9.793790
1386876253,1,0,485.9,0,0,4,0,0,275,-0.0292,486.2924,6.8213,0.4212,54.883541,9.810189,108.3,5.845,1.85,335.95,54.883858,9.809672,54.895069,9.793790
1386876253,1,0,485.9,0,0,0,0,0,250,-0.0292,486.2924,6.8213,0.4212,54.883530,9.810214,108.3,5.845,1.85,335.95,54.883858,9.809672,54.895069,9.793790
1386876254,1,0,485.9,0,0,4,0,0,225,-0.0292,486.2924,6.8213,0.4212,54.883522,9.810239,108.3,5.845,1.85,335.95,54.883858,9.809672,54.895069,9.793790
1386876254,1,0,485.9,0,0,0,0,0,200,-0.0292,486.2924,6.8213,0.4212,54.883511,9.810265,108.3,5.845,1.85,335.95,54.883858,9.809672,54.895069,9.793790
1386876254,1,0,485.9,0,0,4,0,0,175,-0.0292,486.2924,6.8213,0.4212,54.883499,9.810289,108.3,5.845,1.85,335.95,54.883858,9.809672,54.895069,9.793790
1386876254,1,0,485.9,0,0,0,0,0,150,-0.0292,486.2924,6.8213,0.4212,54.883488,9.810315,108.3,5.845,1.85,335.95,54.883858,9.809672,54.895069,9.793790
1386876255,1,0,485.9,0,0,4,0,0,125,-0.0292,486.2924,6.8213,0.4212,54.883476,9.810340,108.3,5.845,1.85,335.95,54.883858,9.809672,54.895069,9.793790
1386876255,1,0,485.9,0,0,0,0,0,100,-0.0292,486.2924,6.8213,0.4212,54.883465,9.810365,108.3,5.845,1.85,335.95,54.883858,9.809672,54.895069,9.793790
1386876255,1,0,485.9,0,0,4,0,0,75,-0.0292,486.2924,6.8213,0.4212,54.883453,9.810390,108.3,5.845,1.85,335.95,54.883858,9.809672,54.895069,9.793790
1386876255,1,0,485.9,0,0,0,0,0,50,-0.0292,486.2924,6.8213,0.4212,54.883442,9.810415,108.3,5.845,1.85,335.95,54.883858,9.809672,54.895069,9.793790
1386876256,1,0,485.9,0,0,4,0,0,25,-0.0292,486.2924,6.8213,0.4212,54.883430,9.810441,108.3,5.845,1.85,335.95,54.883858,9.809672,54.895069,9.793790
1386876256,1,0,485.9,0,0,0,0,0,0,-0.0292,486.2924,6.8213,0.4212,54.883423,9.810466,108.3,5.845,1.85,335.95,54.883858,9.809672,54.895069,9.793790
1386876256,1,0,485.9,0,0,4,0,0,25,-0.0292,486.2924,6.8213,0.4212,54.883411,9.810491,108.3,5.845,1.85,335.95,54.883858,9.809672,54.895069,9.793790
1386876256,1,0,545.9,0,-35,0,0,0,0,-0.0292,495.6258,6.8213,0.4212,54.883396,9.810513,108.3,5.845,1.85,335.95,54.883858,9.809672,54.895069,9.793790
1386876257,1,0,545.9,0,-35,-4,0,0,25,-0.0292,504.9591,6.8213,0.4212,54.883381,9.810530,108.3,5.845,1.85,335.95,54.883858,9.809672,54.895069,9.793790
1386876257,1,0,545.9,0,-35,-8,0,0,0,-0.0292,514.2925,6.8213,0.4212,54.883366,9.810543,108.3,5.845,1.85,335.95,54.883858,9.809672,54.895069,9.793790
1386876257,1,0,545.9,0,-32,-12,0,0,25,-0.0292,522.8258,6.8213,0.4212,54.883347,9.810553,108.3,5.845,1.85,335.95,54.883858,9.809672,54.895069,9.793790
1386876257,1,0,545.9,0,-23,-16,0,0,0,-0.0292,528.9592,6.8213,0.4212,54.883327,9.810558,108.3,5.845,1.85,335.95,54.883858,9.809672,54.895069,9.793790
1386876258,1,0,545.9,0,-17,-20,0,0,25,-0.0292,533.4925,6.8213,0.4212,54.883308,9.810561,108.3,5.845,1.85,335.95,54.883858,9.809672,54.895069,9.793790
1386876258,1,0,545.9,0,-12,-16,0,0,0,-0.0292,536.6925,6.8213,0.4212,54.883293,9.810563,108.3,5.845,1.85,335.95,54.883858,9.809672,54.895069,9.793790
1386876258,1,0,545.9,0,-9,-12,0,0,25,-0.0292,539.0925,6.8213,0.4212,54.883274,9.810563,108.3,5.845,1.85,335.95,54.883858,9.809672,54.895069,9.793790
1386876258,1,0,545.9,0,-7,-8,0,409,50,-0.0292,540.9592,6.8213,0.4212,54.883255,9.810562,108.3,5.845,1.85,335.95,54.883858,9.809672,54.895069,9.793790
1386876259,1,0,545.9,0,-5,-4,0,409,75,-0.0292,542.2925,6.8213,0.4212,54.883236,9.810560,108.3,5.845,1.85,335.95,54.883858,9.809672,54.895069,9.793790
1386876259,1,0,545.9,0,-4,0,0,409,100,-0.0292,543.3591,6.8213,0.4212,54.883221,9.810558,108.3,5.845,1.85,335.95,54.883858,9.809672,54.895069,9.793790
1386876259,1,0,545.9,0,-3,-4,0,409,125,-0.0292,544.1591,6.8213,0.4212,54.883202,9.810555,108.3,5.845,1.85,335.95,54.883858,9.809672,54.895069,9.793790
1386876259,1,0,545.9,0,-2,0,0,409,150,-0.0292,544.6924,6.8213,0.4212,54.883183,9.810553,108.3,5.845,1.85,335.95,54.883858,9.809672,54.895069,9.793790
1386876260,1,0,545.9,0,-1,-4,0,409,175,-0.0292,544.9591,6.8213,0.4212,54.883167,9.810550,108.3,5.845,1.85,335.95,54.883858,9.809672,54.895069,9.793790
1386876260,1,0,545.9,0,-1,0,0,409,200,-0.0292,545.2258,6.8213,0.4212,54.883148,9.810547,108.3,5.845,1.85,335.95,54.883858,9.809672,54.895069,9.793790
1386876260,1,0,545.9,0,-1,-4,0,409,225,-0.0292,545.4924,6.8213,0.4212,54.883129,9.810544,108.3,5.845,1.85,335.95,54.883858,9.809672,54.895069,9.793790
1386876260,1,0,545.9,0,0,0,0,409,250,-0.0292,545.4924,6.8213,0.4212,54.883110,9.810541,108.3,5.845,1.85,335.95,54.883858,9.809672,54.895069,9.793790
1386876261,1,0,545.9,0,0,4,0,409,275,-0.0292,545.4924,6.8213,0.4212,54.883095,9.810538,108.3,5.845,1.85,335.95,54.883858,9.809672,54.895069,9.793790
1386876261,1,0,545.9,0,0,0,0,409,300,-0.0292,545.4924,6.8213,0.4212,54.883076,9.810535,108.3,5.845,1.85,335.95,54.883858,9.809672,54.895069,9.793790
1386876261,1,0,545.9,0,0,4,0,409,325,-0.0292,545.4924,6.8213,0.4212,54.883057,9.810533,108.3,5.845,1.85,335.95,54.883858,9.809672,54.895069,9.793790
1386876261,1,0,280.9,0,-35,0,0,409,350,-0.0292,554.8257,6.8213,0.4212,54.883041,9.810525,108.3,5.845,1.85,335.95,54.883858,9.809672,54.895069,9.793790
1386876262,1,0,280.9,0,-35,-4,0,409,375,-0.0292,564.1591,6.8213,0.4212,54.883026,9.810513,108.3,5.845,1.85,335.95,54.883858,9.809672,54.895069,9.793790
1386876262,1,0,280.9,0,-35,-8,0,500,400,-0.0292,573.4924,6.8213,0.4212,54.883011,9.810495,108.3,5.845,1.85,335.95,54.883858,9.809672,54.895069,9.793790
1386876262,1,0,280.9,0,-35,-12,0,500,425,-0.0292,582.8257,6.8213,0.4212,54.882999,9.810474,108.3,5.845,1.85,335.95,54.883858,9.809672,54.895069,9.793790
1386876262,1,0,280.9,0,-35,-16,0,436,450,-0.0292,592.1590,6.8213,0.4212,54.882988,9.810450,108.3,5.845,1.85,335.95,54.883858,9.809672,54.895069,9.793790
1386876263,1,0,280.9,0,-35,-20,0,355,425,-0.0292,601.4923,6.8213,0.4212,54.882980,9.810422,108.3,5.845,1.85,335.95,54.883858,9.809672,54.895069,9.793790
1386876263,1,0,280.9,0,-35,-24,0,270,400,-0.0292,610.8256,6.8213,0.4212,54.882973,9.810392,108.3,5.845,1.85,335.95,54.883858,9.809672,54.895069,9.793790
1386876263,1,0,280.9,0,-30,-28,0,184,375,-0.0292,618.8256,6.8213,0.4212,54.882969,9.810362,108.3,5.845,1.85,335.95,54.883858,9.809672,54.895069,9.793790
1386876263,1,0,280.9,0,-22,-24,0,114,350,-0.0292,624.6923,6.8213,0.4212,54.882965,9.810331,108.3,5.845,1.85,335.95,54.883858,9.809672,54.895069,9.793790
1386876264,1,0,280.9,0,-16,-20,0,68,325,-0.0292,628.9589,6.8213,0.4212,54.882965,9.810301,108.3,5.845,1.85,335.95,54.883858,9.809672,54.895069,9.793790
1386876264,1,0,280.9,0,-12,-16,0,39,300,-0.0292,632.1589,6.8213,0.4212,54.882969,9.810269,108.3,5.845,1.85,335.95,54.883858,9.809672,54.895069,9.793790
1386876264,1,0,280.9,0,-9,-12,0,22,275,-0.0292,634.5590,6.8213,0.4212,54.882969,9.810238,108.3,5.845,1.85,335.95,54.883858,9.809672,54.895069,9.793790
1386876264,1,0,280.9,0,-6,-8,0,12,250,-0.0292,636.1589,6.8213,0.4212,54.882969,9.810207,108.3,5.845,1.85,335.95,54.883858,9.809672,54.895069,9.793790
1386876265,1,0,280.9,0,-5,-4,0,6,225,-0.0292,637.4922,6.8213,0.4212,54.882969,9.810176,108.3,5.845,1.85,335.95,54.883858,9.809672,54.895069,9.793790
1386876265,1,0,280.9,0,-3,0,0,3,200,-0.0292,638.2922,6.8213,0.4212,54.882969,9.810144,108.3,5.845,1.85,335.95,54.883858,9.809672,54.895069,9.793790
1386876265,1,0,280.9,0,-3,-4,0,2,175,-0.0292,639.0922,6.8213,0.4212,54.882969,9.810114,108.3,5.845,1.85,335.95,54.883858,9.809672,54.895069,9.793790
1386876265,1,0,280.9,0,-2,0,0,1,150,-0.0292,639.6255,6.8213,0.4212,54.882969,9.810083,108.3,5.845,1.85,335.95,54.883858,9.809672,54.895069,9.793790
1386876266,1,0,280.9,0,-1,-4,0,0,125,-0.0292,639.8922,6.8213,0.4212,54.882969,9.810052,108.3,5.845,1.85,335.95,54.883858,9.809672,54.895069,9.793790
1386876266,1,0,280.9,0,-1,0,0,0,100,-0.0292,640.1589,6.8213,0.4212,54.882969,9.810021,108.3,5.845,1.85,335.95,54.883858,9.809672,54.895069,9.793790
1386876266,1,0,280.9,0,-1,-4,0,0,75,-0.0292,640.4255,6.8213,0.4212,54.882969,9.809991,108.3,5.845,1.85,335.95,54.883858,9.809672,54.895069,9.793790
1386876266,1,0,280.9,0,-1,0,0,0,50,-0.0292,640.6922,6.8213,0.4212,54.882969,9.809960,108.3,5.845,1.85,335.95,54.883858,9.809672,54.895069,9.793790
1386876267,1,0,280.9,0,0,4,0,0,25,-0.0292,640.6922,6.8213,0.4212,54.882969,9.809930,108.3,5.845,1.85,335.95,54.883858,9.809672,54.895069,9.793790
1386876267,1,0,545.9,0,35,8,0,0,0,-0.0292,631.3589,6.8213,0.4212,54.882969,9.809898,108.3,5.845,1.85,335.95,54.883858,9.809672,54.895069,9.793790
1386876267,1,0,545.9,0,35,12,0,26,25,-0.0292,622.0256,6.8213,0.4212,54.882965,9.809868,108.3,5.845,1.85,335.95,54.883858,9.809672,54.895069,9.793790
1386876267,1,0,545.9,0,35,16,0,88,50,-0.0292,612.6923,6.8213,0.4212,54.882961,9.809837,108.3,5.845,1.85,335.95,54.883858,9.809672,54.895069,9.793790
1386876268,1,0,545.9,0,35,20,0,168,75,-0.0292,603.3589,6.8213,0.4212,54.882954,9.809810,108.3,5.845,1.85,335.95,54.883858,9.809672,54.895069,9.793790
1386876268,1,0,545.9,0,35,24,0,253,100,-0.0292,594.0256,6.8213,0.4212,54.882942,9.809785,108.3,5.845,1.85,335.95,54.883858,9.809672,54.895069,9.793790
1386876268,1,0,545.9,0,35,28,0,338,125,-0.0292,584.6923,6.8213,0.4212,54.882931,9.809763,108.3,5.845,1.85,335.95,54.883858,9.809672,54.895069,9.793790
1386876268,1,0,545.9,0,35,32,0,420,150,-0.0292,575.3590,6.8213,0.4212,54.882915,9.809745,108.3,5.845,1.85,335.95,54.883858,9.809672,54.895069,9.793790
1386876269,1,0,545.9,0,29,28,0,498,175,-0.0292,567.6257,6.8213,0.4212,54.882900,9.809731,108.3,5.845,1.85,335.95,54.883858,9.809672,54.895069,9.793790
1386876269,1,0,545.9,0,22,24,0,500,200,-0.0292,561.7590,6.8213,0.4212,54.882881,9.809719,108.3,5.845,1.85,335.95,54.883858,9.809672,54.895069,9.793790
1386876269,1,0,545.9,0,16,20,0,500,225,-0.0292,557.4924,6.8213,0.4212,54.882862,9.809710,108.3,5.845,1.85,335.95,54.883858,9.809672,54.895069,9.793790
1386876269,1,0,545.9,0,12,16,0,409,250,-0.0292,554.2924,6.8213,0.4212,54.882847,9.809702,108.3,5.845,1.85,335.95,54.883858,9.809672,54.895069,9.793790
1386876270,1,0,545.9,0,8,12,0,409,275,-0.0292,552.1590,6.8213,0.4212,54.882828,9.809695,108.3,5.845,1.85,335.95,54.883858,9.809672,54.895069,9.793790
1386876270,1,0,545.9,0,6,8,0,0,250,-0.0292,550.5590,6.8213,0.4212,54.882809,9.809690,108.3,5.845,1.85,335.95,54.883858,9.809672,54.895069,9.793790
1386876270,1,0,545.9,0,5,4,0,0,225,-0.0292,549.2257,6.8213,0.4212,54.882790,9.809685,108.3,5.845,1.85,335.95,54.883858,9.809672,54.895069,9.793790
1386876270,1,0,545.9,0,3,0,0,0,200,-0.0292,548.4257,6.8213,0.4212,54.882774,9.809681,108.3,5.845,1.85,335.95,54.883858,9.809672,54.895069,9.793790
1386876271,1,0,545.9,0,2,4,0,0,175,-0.0292,547.8924,6.8213,0.4212,54.882755,9.809677,108.3,5.845,1.85,335.95,54.883858,9.809672,54.895069,9.793790
1386876271,1,0,545.9,0,2,0,0,0,150,-0.0292,547.3591,6.8213,0.4212,54.882736,9.809673,108.3,5.845,1.85,335.95,54.883858,9.809672,54.895069,9.793790
1386876271,1,0,545.9,0,1,4,0,0,125,-0.0292,547.0924,6.8213,0.4212,54.882717,9.809669,108.3,5.845,1.85,335.95,54.883858,9.809672,54.895069,9.793790
1386876271,1,0,545.9,0,1,0,0,0,100,-0.0292,546.8257,6.8213,0.4212,54.882702,9.809666,108.3,5.845,1.85,335.95,54.883858,9.809672,54.895069,9.793790
1386876272,1,0,545.9,0,1,4,0,0,75,-0.0292,546.5591,6.8213,0.4212,54.882683,9.809662,108.3,5.845,1.85,335.95,54.883858,9.809672,54.895069,9.793790
1386876272,1,0,545.9,0,1,0,0,0,50,-0.0292,546.2924,6.8213,0.4212,54.882664,9.809658,108.3,5.845,1.85,335.95,54.883858,9.809672,54.895069,9.793790
1386876272,1,0,545.9,0,0,4,0,0,25,-0.0292,546.2924,6.8213,0.4212,54.882645,9.809654,108.3,5.845,1.85,335.95,54.883858,9.809672,54.895069,9.793790
1386876273,1,0,545.9,0,0,0,0,0,0,-0.0292,546.2924,6.8213,0.4212,54.882629,9.809650,108.3,5.845,1.85,335.95,54.883858,9.809672,54.895069,9.793790
1386876273,1,0,545.9,0,0,4,0,0,25,-0.0292,546.2924,6.8213,0.4212,54.882610,9.809647,108.3,5.845,1.85,335.95,54.883858,9.809672,54.895069,9.793790
1386876273,1,0,485.9,0,35,8,0,0,0,-0.0292,536.9591,6.8213,0.4212,54.882591,9.809649,108.3,5.845,1.85,335.95,54.883858,9.809672,54.895069,9.793790
1386876273,1,0,485.9,0,35,12,0,0,25,-0.0292,527.6258,6.8213,0.4212,54.882576,9.809656,108.3,5.845,1.85,335.95,54.883858,9.809672,54.895069,9.793790
1386876274,1,0,485.9,0,35,16,0,0,0,-0.0292,518.2925,6.8213,0.4212,54.882557,9.809668,108.3,5.845,1.85,335.95,54.883858,9.809672,54.895069,9.793790
1386876274,1,0,485.9,0,32,20,0,0,25,-0.0292,509.7592,6.8213,0.4212,54.882542,9.809683,108.3,5.845,1.85,335.95,54.883858,9.809672,54.895069,9.793790
1386876274,1,0,485.9,0,24,24,0,0,0,-0.0292,503.3592,6.8213,0.4212,54.882526,9.809702,108.3,5.845,1.85,335.95,54.883858,9.809672,54.895069,9.793790
1386876274,1,0,485.9,0,17,20,0,0,25,-0.0292,498.8258,6.8213,0.4212,54.882511,9.809722,108.3,5.845,1.85,335.95,54.883858,9.809672,54.895069,9.793790
1386876275,1,0,485.9,0,13,16,0,0,0,-0.0292,495.3592,6.8213,0.4212,54.882500,9.809744,108.3,5.845,1.85,335.95,54.883858,9.809672,54.895069,9.793790
1386876275,1,0,485.9,0,9,12,0,0,25,-0.0292,492.9592,6.8213,0.4212,54.882488,9.809767,108.3,5.845,1.85,335.95,54.883858,9.809672,54.895069,9.793790
1386876275,1,0,485.9,0,7,8,0,409,50,-0.0292,491.0925,6.8213,0.4212,54.882477,9.809791,108.3,5.845,1.85,335.95,54.883858,9.809672,54.895069,9.793790
1386876275,1,0,485.9,0,5,4,0,409,75,-0.0292,489.7592,6.8213,0.4212,54.882462,9.809814,108.3,5.845,1.85,335.95,54.883858,9.809672,54.895069,9.793790
1386876276,1,0,485.9,0,4,8,0,409,100,-0.0292,488.6925,6.8213,0.4212,54.882450,9.809839,108.3,5.845,1.85,335.95,54.883858,9.809672,54.895069,9.793790
1386876276,1,0,485.9,0,3,4,0,409,125,-0.0292,487.8925,6.8213,0.4212,54.882442,9.809864,108.3,5.845,1.85,335.95,54.883858,9.809672,54.895069,9.793790
1386876276,1,0,485.9,0,2,0,0,409,150,-0.0292,487.3592,6.8213,0.4212,54.882431,9.809889,108.3,5.845,1.85,335.95,54.883858,9.809672,54.895069,9.793790
1386876276,1,0,485.9,0,1,4,0,409,175,-0.0292,487.0925,6.8213,0.4212,54.882420,9.809914,108.3,5.845,1.85,335.95,54.883858,9.809672,54.895069,9.793790
1386876277,1,0,485.9,0,1,0,0,409,200,-0.0292,486.8258,6.8213,0.4212,54.882408,9.809938,108.3,5.845,1.85,335.95,54.883858,9.809672,54.895069,9.793790
1386876277,1,0,485.9,0,1,4,0,409,225,-0.0292,486.5592,6.8213,0.4212,54.882397,9.809964,108.3,5.845,1.85,335.95,54.883858,9.809672,54.895069,9.793790
1386876277,1,0,485.9,0,1,0,0,409,250,-0.0292,486.2925,6.8213,0.4212,54.882385,9.809989,108.3,5.845,1.85,335.95,54.883858,9.809672,54.895069,9.793790
1386876277,1,0,485.9,0,0,4,0,409,275,-0.0292,486.2925,6.8213,0.4212,54.882374,9.810015,108.3,5.845,1.85,335.95,54.883858,9.809672,54.895069,9.793790
1386876278,1,0,485.9,0,0,0,0,409,300,-0.0292,486.2925,6.8213,0.4212,54.882366,9.810040,108.3,5.845,1.85,335.95,54.883858,9.809672,54.895069,9.793790
1386876278,1,0,485.9,0,0,4,0,409,325,-0.0292,486.2925,6.8213,0.4212,54.882355,9.810064,108.3,5.845,1.85,335.95,54.883858,9.809672,54.895069,9.793790
1386876278,1,0,390.9,0,35,8,0,409,350,-0.0292,476.9592,6.8213,0.4212,54.882343,9.810092,108.3,5.845,1.85,335.95,54.883858,9.809672,54.895069,9.793790
1386876278,1,0,390.9,0,35,12,0,409,375,-0.0292,467.6258,6.8213,0.4212,54.882339,9.810122,108.3,5.845,1.85,335.95,54.883858,9.809672,54.895069,9.793790
1386876279,1,0,390.9,0,35,16,0,500,400,-0.0292,458.2925,6.8213,0.4212,54.882336,9.810152,108.3,5.845,1.85,335.95,54.883858,9.809672,54.895069,9.793790
1386876279,1,0,390.9,0,35,20,0,500,425,-0.0292,448.9591,6.8213,0.4212,54.882336,9.810184,108.3,5.845,1.85,335.95,54.883858,9.809672,54.895069,9.793790
1386876279,1,0,390.9,0,35,24,0,435,450,-0.0292,439.6258,6.8213,0.4212,54.882339,9.810214,108.3,5.845,1.85,335.95,54.883858,9.809672,54.895069,9.793790
1386876279,1,0,390.9,0,35,28,0,354,425,-0.0292,430.2924,6.8213,0.4212,54.882347,9.810243,108.3,5.845,1.85,335.95,54.883858,9.809672,54.895069,9.793790
1386876280,1,0,390.9,0,35,32,0,269,400,-0.0292,420.9591,6.8213,0.4212,54.882359,9.810270,108.3,5.845,1.85,335.95,54.883858,9.809672,54.895069,9.793790
1386876280,1,0,390.9,0,30,28,0,183,375,-0.0292,412.9591,6.8213,0.4212,54.882366,9.810295,108.3,5.845,1.85,335.95,54.883858,9.809672,54.895069,9.793790
1386876280,1,0,390.9,0,22,24,0,113,350,-0.0292,407.0924,6.8213,0.4212,54.882378,9.810318,108.3,5.845,1.85,335.95,54.883858,9.809672,54.895069,9.793790
1386876280,1,0,390.9,0,16,20,0,67,325,-0.0292,402.8258,6.8213,0.4212,54.882393,9.810339,108.3,5.845,1.85,335.95,54.883858,9.809672,54.895069,9.793790
1386876281,1,0,390.9,0,12,16,0,39,300,-0.0292,399.6258,6.8213,0.4212,54.882408,9.810358,108.3,5.845,1.85,335.95,54.883858,9.809672,54.895069,9.793790
1386876281,1,0,390.9,0,9,12,0,21,275,-0.0292,397.2258,6.8213,0.4212,54.882420,9.810377,108.3,5.845,1.85,335.95,54.883858,9.809672,54.895069,9.793790
1386876281,1,0,390.9,0,6,8,0,11,250,-0.0292,395.6258,6.8213,0.4212,54.882435,9.810396,108.3,5.845,1.85,335.95,54.883858,9.809672,54.895069,9.793790
1386876281,1,0,390.9,0,5,4,0,6,225,-0.0292,394.2924,6.8213,0.4212,54.882450,9.810413,108.3,5.845,1.85,335.95,54.883858,9.809672,54.895069,9.793790
1386876282,1,0,390.9,0,3,0,0,3,200,-0.0292,393.4924,6.8213,0.4212,54.882465,9.810431,108.3,5.845,1.85,335.95,54.883858,9.809672,54.895069,9.793790
1386876282,1,0,390.9,0,3,4,0,1,175,-0.0292,392.6924,6.8213,0.4212,54.882481,9.810447,108.3,5.845,1.85,335.95,54.883858,9.809672,54.895069,9.793790
1386876282,1,0,390.9,0,2,0,0,0,150,-0.0292,392.1591,6.8213,0.4212,54.882496,9.810464,108.3,5.845,1.85,335.95,54.883858,9.809672,54.895069,9.793790
1386876282,1,0,390.9,0,1,4,0,0,125,-0.0292,391.8925,6.8213,0.4212,54.882511,9.810480,108.3,5.845,1.85,335.95,54.883858,9.809672,54.895069,9.793790
1386876283,1,0,390.9,0,1,0,0,0,100,-0.0292,391.6258,6.8213,0.4212,54.882526,9.810496,108.3,5.845,1.85,335.95,54.883858,9.809672,54.895069,9.793790
1386876283,1,0,390.9,0,1,4,0,0,75,-0.0292,391.3591,6.8213,0.4212,54.882538,9.810513,108.3,5.845,1.85,335.95,54.883858,9.809672,54.895069,9.793790
1386876283,1,0,390.9,0,0,0,0,0,50,-0.0292,391.3591,6.8213,0.4212,54.882553,9.810529,108.3,5.845,1.85,335.95,54.883858,9.809672,54.895069,9.793790
1386876283,1,0,390.9,0,0,4,0,0,25,-0.0292,391.3591,6.8213,0.4212,54.882568,9.810545,108.3,5.845,1.85,335.95,54.883858,9.809672,54.895069,9.793790
1386876284,1,0,390.9,0,0,0,0,0,0,-0.0292,391.3591,6.8213,0.4212,54.882584,9.810561,108.3,5.845,1.85,335.95,54.883858,9.809672,54.895069,9.793790
1386876284,1,0,390.9,0,0,4,0,0,25,-0.0292,391.3591,6.8213,0.4212,54.882599,9.810577,108.3,5.845,1.85,335.95,54.883858,9.809672,54.895069,9.793790
1386876284,1,0,390.9,0,0,0,0,0,0,-0.0292,391.3591,6.8213,0.4212,54.882618,9.810594,108.3,5.845,1.85,335.95,54.883858,9.809672,54.895069,9.793790
1386876284,1,0,390.9,0,0,4,0,0,25,-0.0292,391.3591,6.8213,0.4212,54.882633,9.810610,108.3,5.845,1.85,335.95,54.883858,9.809672,54.895069,9.793790
1386876285,1,0,390.9,0,0,0,0,0,0,-0.0292,391.3591,6.8213,0.4212,54.882648,9.810626,108.3,5.845,1.85,335.95,54.883858,9.809672,54.895069,9.793790
1386876285,1,0,390.9,0,0,4,0,0,25,-0.0292,391.3591,6.8213,0.4212,54.882668,9.810642,108.3,5.845,1.85,335.95,54.883858,9.809672,54.895069,9.793790
1386876285,1,0,390.9,0,0,0,0,0,0,-0.0292,391.3591,6.8213,0.4212,54.882683,9.810658,108.3,5.845,1.85,335.95,54.883858,9.809672,54.895069,9.793790
1386876285,1,0,390.9,0,0,4,0,0,25,-0.0292,391.3591,6.8213,0.4212,54.882698,9.810675,108.3,5.845,1.85,335.95,54.883858,9.809672,54.895069,9.793790
1386876286,1,0,390.9,0,0,0,0,0,0,-0.0292,391.3591,6.8213,0.4212,54.882710,9.810691,108.3,5.845,1.85,335.95,54.883858,9.809672,54.895069,9.793790
1386876286,1,0,390.9,0,0,4,0,0,25,-0.0292,391.3591,6.8213,0.4212,54.882725,9.810707,108.3,5.845,1.85,335.95,54.883858,9.809672,54.895069,9.793790
1386876286,1,0,390.9,0,0,0,0,0,0,-0.0292,391.3591,6.8213,0.4212,54.882740,9.810723,108.3,5.845,1.85,335.95,54.883858,9.809672,54.895069,9.793790
1386876286,1,0,390.9,0,0,4,0,0,25,-0.0292,391.3591,6.8213,0.4212,54.882755,9.810740,108.3,5.845,1.85,335.95,54.883858,9.809672,54.895069,9.793790
1386876287,1,0,390.9,0,0,0,0,0,0,-0.0292,391.3591,6.8213,0.4212,54.882771,9.810756,108.3,5.845,1.85,335.95,54.883858,9.809672,54.895069,9.793790
1386876287,1,0,390.9,0,0,4,0,0,25,-0.0292,391.3591,6.8213,0.4212,54.882790,9.810772,108.3,5.845,1.85,335.95,54.883858,9.809672,54.895069,9.793790
1386876287,1,0,390.9,0,0,0,0,0,0,-0.0292,391.3591,6.8213,0.4212,54.882805,9.810788,108.3,5.845,1.85,335.95,54.883858,9.809672,54.895069,9.793790
1386876287,1,0,390.9,0,0,4,0,0,25,-0.0292,391.3591,6.8213,0.4212,54.882820,9.810804,108.3,5.845,1.85,335.95,54.883858,9.809672,54.895069,9.793790
1386876288,1,0,390.9,0,0,0,0,0,0,-0.0292,391.3591,6.8213,0.4212,54.882839,9.810821,108.3,5.845,1.85,335.95,54.883858,9.809672,54.895069,9.793790
1386876288,1,0,390.9,0,0,4,0,0,25,-0.0292,391.3591,6.8213,0.4212,54.882854,9.810837,108.3,5.845,1.85,335.95,54.883858,9.809672,54.895069,9.793790
1386876288,1,0,390.9,0,0,0,0,0,0,-0.0292,391.3591,6.8213,0.4212,54.882870,9.810853,108.3,5.845,1.85,335.95,54.883858,9.809672,54.895069,9.793790
1386876288,1,0,390.9,0,0,4,0,0,25,-0.0292,391.3591,6.8213,0.4212,54.882889,9.810869,108.3,5.845,1.85,335.95,54.883858,9.809672,54.895069,9.793790
1386876289,1,0,390.9,0,0,0,0,0,0,-0.0292,391.3591,6.8213,0.4212,54.882904,9.810885,108.3,5.845,1.85,335.95,54.883858,9.809672,54.895069,9.793790
1386876289,1,0,390.9,0,0,4,0,0,25,-0.0292,391.3591,6.8213,0.4212,54.882919,9.810902,108.3,5.845,1.85,335.95,54.883858,9.809672,54.895069,9.793790
1386876289,1,0,390.9,0,0,0,0,0,0,-0.0292,391.3591,6.8213,0.4212,54.882938,9.810918,108.3,5.845,1.85,335.95,54.883858,9.809672,54.895069,9.793790
1386876289,1,0,390.9,0,0,4,0,0,25,-0.0292,391.3591,6.8213,0.4212,54.882954,9.810934,108.3,5.845,1.85,335.95,54.883858,9.809672,54.895069,9.793790
1386876290,1,0,390.9,0,0,0,0,0,0,-0.0292,391.3591,6.8213,0.4212,54.882969,9.810951,108.3,5.845,1.85,335.95,54.883858,9.809672,54.895069,9.793790
1386876290,1,0,390.9,0,0,4,0,0,25,-0.0292,391.3591,6.8213,0.4212,54.882980,9.810967,108.3,5.845,1.85,335.95,54.883858,9.809672,54.895069,9.793790
1386876290,1,0,390.9,0,0,0,0,0,0,-0.0292,391.3591,6.8213,0.4212,54.882996,9.810984,108.3,5.845,1.85,335.95,54.883858,9.809672,54.895069,9.793790
1386876290,1,0,390.9,0,0,4,0,0,25,-0.0292,391.3591,6.8213,0.4212,54.883011,9.811000,108.3,5.845,1.85,335.95,54.883858,9.809672,54.895069,9.793790
1386876291,1,0,390.9,0,0,0,0,0,0,-0.0292,391.3591,6.8213,0.4212,54.883026,9.811016,108.3,5.845,1.85,335.95,54.883858,9.809672,54.895069,9.793790
1386876291,1,0,390.9,0,0,4,0,0,25,-0.0292,391.3591,6.8213,0.4212,54.883041,9.811032,108.3,5.845,1.85,335.95,54.883858,9.809672,54.895069,9.793790
1386876291,1,0,390.9,0,0,0,0,0,0,-0.0292,391.3591,6.8213,0.4212,54.883060,9.811049,108.3,5.845,1.85,335.95,54.883858,9.809672,54.895069,9.793790
1386876291,1,0,390.9,0,0,4,0,0,25,-0.0292,391.3591,6.8213,0.4212,54.883076,9.811065,108.3,5.845,1.85,335.95,54.883858,9.809672,54.895069,9.793790
1386876292,1,0,390.9,0,0,0,0,0,0,-0.0292,391.3591,6.8213,0.4212,54.883091,9.811081,108.3,5.845,1.85,335.95,54.883858,9.809672,54.895069,9.793790
1386876292,1,0,390.9,0,0,4,0,0,25,-0.0292,391.3591,6.8213,0.4212,54.883110,9.811097,108.3,5.845,1.85,335.95,54.883858,9.809672,54.895069,9.793790
1386876292,1,0,390.9,0,0,0,0,0,0,-0.0292,391.3591,6.8213,0.4212,54.883125,9.811113,108.3,5.845,1.85,335.95,54.883858,9.809672,54.895069,9.793790
1386876292,1,0,390.9,0,0,4,0,0,25,-0.0292,391.3591,6.8213,0.4212,54.883141,9.811130,108.3,5.845,1.85,335.95,54.883858,9.809672,54.895069,9.793790
1386876293,1,0,390.9,0,0,0,0,0,0,-0.0292,391.3591,6.8213,0.4212,54.883160,9.811146,108.3,5.845,1.85,335.95,54.883858,9.809672,54.895069,9.793790
1386876293,1,0,390.9,0,0,4,0,0,25,-0.0292,391.3591,6.8213,0.4212,54.883175,9.811162,108.3,5.845,1.85,335.95,54.883858,9.809672,54.895069,9.793790
1386876293,1,0,390.9,0,0,0,0,0,0,-0.0292,391.3591,6.8213,0.4212,54.883190,9.811178,108.3,5.845,1.85,335.95,54.883858,9.809672,54.895069,9.793790
1386876293,1,0,390.9,0,0,4,0,0,25,-0.0292,391.3591,6.8213,0.4212,54.883202,9.811194,108.3,5.845,1.85,335.95,54.883858,9.809672,54.895069,9.793790
1386876294,1,0,390.9,0,0,0,0,0,0,-0.0292,391.3591,6.8213,0.4212,54.883217,9.811211,108.3,5.845,1.85,335.95,54.883858,9.809672,54.895069,9.793790
1386876294,1,0,390.9,0,0,4,0,0,25,-0.0292,391.3591,6.8213,0.4212,54.883232,9.811227,108.3,5.845,1.85,335.95,54.883858,9.809672,54.895069,9.793790
1386876294,1,0,390.9,0,0,0,0,0,0,-0.0292,391.3591,6.8213,0.4212,54.883247,9.811243,108.3,5.845,1.85,335.95,54.883858,9.809672,54.895069,9.793790
