MCU_timestamp,Navigation_System,Manual_Control,Guidance_Heading,Manual_Ctrl_Rudder,Rudder_Desired_Angle,Rudder_Feedback,Manual_Ctrl_Sail,Sail_Desired_Pos,Sail_Feedback,Rate,Heading,Pitch,Roll,Latitude,Longitude,COG,SOG,Wind_Speed,Wind_Angle,Point_Start_Lat,Point_Start_Lon,Point_End_Lat,Point_End_Lon
1386960987,1,0,150.0,0,-35,-4,0,332,350,-0.0292,5135.0942,6.8213,0.4212,54.894920,9.790762,108.3,5.845,1.85,0.00,54.894924,9.790730,0.000000,0.000000
1386960987,1,0,150.0,0,-35,-8,0,480,400,-0.0292,5144.4277,6.8213,0.4212,54.894917,9.790792,108.3,5.845,1.85,0.00,54.894924,9.790730,0.000000,0.000000
1386960987,1,0,150.0,0,-35,-12,0,628,450,-0.0292,5153.7612,6.8213,0.4212,54.894909,9.790821,108.3,5.845,1.85,0.00,54.894924,9.790730,0.000000,0.000000
1386960987,1,0,150.0,0,-35,-16,0,769,500,-0.0292,5163.0947,6.8213,0.4212,54.894897,9.790848,108.3,5.845,1.85,0.00,54.894924,9.790730,0.000000,0.000000
1386960988,1,0,150.0,0,-27,-20,0,870,550,-0.0292,5170.2949,6.8213,0.4212,54.894882,9.790872,108.3,5.845,1.85,0.00,54.894924,9.790730,0.000000,0.000000
1386960988,1,0,150.0,0,-20,-16,0,870,600,-0.0292,5175.6284,6.8213,0.4212,54.894871,9.790894,108.3,5.845,1.85,0.00,54.894924,9.790730,0.000000,0.000000
1386960988,1,0,150.0,0,-14,-12,0,713,650,-0.0292,5179.3618,6.8213,0.4212,54.894859,9.790914,108.3,5.845,1.85,0.00,54.894924,9.790730,0.000000,0.000000
1386960988,1,0,150.0,0,-11,-8,0,713,700,-0.0292,5182.2949,6.8213,0.4212,54.894844,9.790933,108.3,5.845,1.85,0.00,54.894924,9.790730,0.000000,0.000000
1386960989,1,0,150.0,0,-8,-4,0,713,750,-0.0292,5184.4282,6.8213,0.4212,54.894833,9.790951,108.3,5.845,1.85,0.00,54.894924,9.790730,0.000000,0.000000
1386960989,1,0,150.0,0,-6,-8,0,713,700,-0.0292,5186.0283,6.8213,0.4212,54.894817,9.790969,108.3,5.845,1.85,0.00,54.894924,9.790730,0.000000,0.000000
1386960989,1,0,150.0,0,-4,-4,0,713,750,-0.0292,5187.0952,6.8213,0.4212,54.894802,9.790985,108.3,5.845,1.85,0.00,54.894924,9.790730,0.000000,0.000000
1386960989,1,0,150.0,0,-3,0,0,0,700,-0.0292,5187.8950,6.8213,0.4212,54.894787,9.791001,108.3,5.845,1.85,0.00,54.894924,9.790730,0.000000,0.000000
1386960990,1,0,150.0,0,-2,-4,0,0,650,-0.0292,5188.4282,6.8213,0.4212,54.894772,9.791018,108.3,5.845,1.85,0.00,54.894924,9.790730,0.000000,0.000000
1386960990,1,0,150.0,0,-2,0,0,0,600,-0.0292,5188.9614,6.8213,0.4212,54.894756,9.791035,108.3,5.845,1.85,0.00,54.894924,9.790730,0.000000,0.000000
1386960990,1,0,150.0,0,-1,-4,0,0,550,-0.0292,5189.2280,6.8213,0.4212,54.894741,9.791051,108.3,5.845,1.85,0.00,54.894924,9.790730,0.000000,0.000000
1386960991,1,0,150.0,0,-1,0,0,0,500,-0.0292,5189.4946,6.8213,0.4212,54.894726,9.791066,108.3,5.845,1.85,0.00,54.894924,9.790730,0.000000,0.000000
1386960991,1,0,150.0,0,-1,-4,0,0,450,-0.0292,5189.7612,6.8213,0.4212,54.894707,9.791081,108.3,5.845,1.85,0.00,54.894924,9.790730,0.000000,0.000000
1386960991,1,0,150.0,0,0,0,0,0,400,-0.0292,5189.7612,6.8213,0.4212,54.894691,9.791098,108.3,5.845,1.85,0.00,54.894924,9.790730,0.000000,0.000000
1386960991,1,0,150.0,0,0,4,0,0,350,-0.0292,5189.7612,6.8213,0.4212,54.894676,9.791113,108.3,5.845,1.85,0.00,54.894924,9.790730,0.000000,0.000000
1386960992,1,0,150.0,0,0,0,0,0,300,-0.0292,5189.7612,6.8213,0.4212,54.894657,9.791129,108.3,5.845,1.85,0.00,54.894924,9.790730,0.000000,0.000000
1386960992,1,0,150.0,0,0,4,0,0,250,-0.0292,5189.7612,6.8213,0.4212,54.894642,9.791145,108.3,5.845,1.85,0.00,54.894924,9.790730,0.000000,0.000000
1386960992,1,0,150.0,0,0,0,0,0,200,-0.0292,5189.7612,6.8213,0.4212,54.894627,9.791161,108.3,5.845,1.85,0.00,54.894924,9.790730,0.000000,0.000000
1386960992,1,0,150.0,0,0,4,0,0,150,-0.0292,5189.7612,6.8213,0.4212,54.894608,9.791177,108.3,5.845,1.85,0.00,54.894924,9.790730,0.000000,0.000000
1386960993,1,0,150.0,0,0,0,0,0,100,-0.0292,5189.7612,6.8213,0.4212,54.894592,9.791192,108.3,5.845,1.85,0.00,54.894924,9.790730,0.000000,0.000000
1386960993,1,0,150.0,0,0,4,0,0,50,-0.0292,5189.7612,6.8213,0.4212,54.894577,9.791207,108.3,5.845,1.85,0.00,54.894924,9.790730,0.000000,0.000000
1386960993,1,0,150.0,0,0,0,0,0,0,-0.0292,5189.7612,6.8213,0.4212,54.894558,9.791224,108.3,5.845,1.85,0.00,54.894924,9.790730,0.000000,0.000000
1386960993,1,0,150.0,0,0,4,0,0,0,-0.0292,5189.7612,6.8213,0.4212,54.894543,9.791239,108.3,5.845,1.85,0.00,54.894924,9.790730,0.000000,0.000000
1386960994,1,0,210.0,0,-35,0,0,0,0,-0.0292,5199.0947,6.8213,0.4212,54.894527,9.791250,108.3,5.845,1.85,0.00,54.894924,9.790730,0.000000,0.000000
1386960994,1,0,210.0,0,-35,-4,0,0,0,-0.0292,5208.4282,6.8213,0.4212,54.894512,9.791257,108.3,5.845,1.85,0.00,54.894924,9.790730,0.000000,0.000000
1386960994,1,0,210.0,0,-35,-8,0,0,0,-0.0292,5217.7617,6.8213,0.4212,54.894493,9.791259,108.3,5.845,1.85,0.00,54.894924,9.790730,0.000000,0.000000
1386960994,1,0,210.0,0,-32,-12,0,0,0,-0.0292,5226.2949,6.8213,0.4212,54.894474,9.791256,108.3,5.845,1.85,0.00,54.894924,9.790730,0.000000,0.000000
1386960995,1,0,210.0,0,-24,-16,0,0,0,-0.0292,5232.6948,6.8213,0.4212,54.894459,9.791249,108.3,5.845,1.85,0.00,54.894924,9.790730,0.000000,0.000000
1386960995,1,0,210.0,0,-17,-20,0,0,0,-0.0292,5237.2280,6.8213,0.4212,54.894440,9.791241,108.3,5.845,1.85,0.00,54.894924,9.790730,0.000000,0.000000
1386960995,1,0,210.0,0,-13,-16,0,0,0,-0.0292,5240.6948,6.8213,0.4212,54.894421,9.791229,108.3,5.845,1.85,0.00,54.894924,9.790730,0.000000,0.000000
1386960995,1,0,210.0,0,-9,-12,0,0,0,-0.0292,5243.0947,6.8213,0.4212,54.894405,9.791217,108.3,5.845,1.85,0.00,54.894924,9.790730,0.000000,0.000000
1386960996,1,0,210.0,0,-7,-8,0,0,0,-0.0292,5244.9614,6.8213,0.4212,54.894386,9.791203,108.3,5.845,1.85,0.00,54.894924,9.790730,0.000000,0.000000
1386960996,1,0,210.0,0,-5,-4,0,0,0,-0.0292,5246.2949,6.8213,0.4212,54.894367,9.791190,108.3,5.845,1.85,0.00,54.894924,9.790730,0.000000,0.000000
