MCU_timestamp,Navigation_System,Manual_Control,Guidance_Heading,Manual_Ctrl_Rudder,Rudder_Desired_Angle,Rudder_Feedback,Manual_Ctrl_Sail,Sail_Desired_Pos,Sail_Feedback,Rate,Heading,Pitch,Roll,Latitude,Longitude,COG,SOG,Wind_Speed,Wind_Angle,Point_Start_Lat,Point_Start_Lon,Point_End_Lat,Point_End_Lon
1390095900,0,0,0.0,0,0,4,0,0,0,-0.0292,0.2922,6.8213,0.4212,54.898994,9.782220,108.3,5.845,1.85,335.95,0.000000,0.000000,0.000000,0.000000
1390095900,0,0,0.0,0,0,4,0,0,0,-0.0292,0.2922,6.8213,0.4212,54.898994,9.782220,108.3,5.845,1.85,335.95,0.000000,0.000000,0.000000,0.000000
1390095901,0,0,0.0,0,0,4,0,0,0,-0.0292,0.2922,6.8213,0.4212,54.898994,9.782220,108.3,5.845,1.85,335.95,0.000000,0.000000,0.000000,0.000000
1390095901,0,0,0.0,0,0,4,0,0,0,-0.0292,0.2922,6.8213,0.4212,54.898994,9.782220,108.3,5.845,1.85,335.95,0.000000,0.000000,0.000000,0.000000
1390095901,0,0,0.0,0,0,4,0,0,0,-0.0292,0.2922,6.8213,0.4212,54.898994,9.782220,108.3,5.845,1.85,335.95,0.000000,0.000000,0.000000,0.000000
1390095901,0,0,0.0,0,0,4,0,0,0,-0.0292,0.2922,6.8213,0.4212,54.898994,9.782220,108.3,5.845,1.85,335.95,0.000000,0.000000,0.000000,0.000000
1390095902,0,0,0.0,0,0,4,0,0,0,-0.0292,0.2922,6.8213,0.4212,54.898994,9.782220,108.3,5.845,1.85,335.95,0.000000,0.000000,0.000000,0.000000
1390095902,0,0,0.0,0,0,4,0,0,0,-0.0292,0.2922,6.8213,0.4212,54.898994,9.782220,108.3,5.845,1.85,335.95,0.000000,0.000000,0.000000,0.000000
1390095902,0,0,0.0,0,0,4,0,0,0,-0.0292,0.2922,6.8213,0.4212,54.898994,9.782220,108.3,5.845,1.85,335.95,0.000000,0.000000,0.000000,0.000000
1390095902,0,0,0.0,0,0,4,0,0,0,-0.0292,0.2922,6.8213,0.4212,54.898994,9.782220,108.3,5.845,1.85,335.95,0.000000,0.000000,0.000000,0.000000
1390095903,0,0,0.0,0,0,4,0,0,0,-0.0292,0.2922,6.8213,0.4212,54.898994,9.782220,108.3,5.845,1.85,335.95,0.000000,0.000000,0.000000,0.000000
1390095903,0,0,0.0,0,0,4,0,0,0,-0.0292,0.2922,6.8213,0.4212,54.898994,9.782220,108.3,5.845,1.85,335.95,0.000000,0.000000,0.000000,0.000000
1390095903,0,0,0.0,0,0,4,0,0,0,-0.0292,0.2922,6.8213,0.4212,54.898994,9.782220,108.3,5.845,1.85,335.95,0.000000,0.000000,0.000000,0.000000
1390095903,0,0,0.0,0,0,4,0,0,0,-0.0292,0.2922,6.8213,0.4212,54.898994,9.782220,108.3,5.845,1.85,335.95,0.000000,0.000000,0.000000,0.000000
1390095904,0,0,0.0,0,0,4,0,0,0,-0.0292,0.2922,6.8213,0.4212,54.898994,9.782220,108.3,5.845,1.85,335.95,0.000000,0.000000,0.000000,0.000000
1390095904,0,0,0.0,0,0,4,0,0,0,-0.0292,0.2922,6.8213,0.4212,54.898994,9.782220,108.3,5.845,1.85,335.95,0.000000,0.000000,0.000000,0.000000
1390095904,0,0,0.0,0,0,4,0,0,0,-0.0292,0.2922,6.8213,0.4212,54.898994,9.782220,108.3,5.845,1.85,335.95,0.000000,0.000000,0.000000,0.000000
1390095904,0,0,0.0,0,0,4,0,0,0,-0.0292,0.2922,6.8213,0.4212,54.898994,9.782220,108.3,5.845,1.85,335.95,0.000000,0.000000,0.000000,0.000000
1390095905,0,0,0.0,0,0,4,0,0,0,-0.0292,0.2922,6.8213,0.4212,54.898994,9.782220,108.3,5.845,1.85,335.95,0.000000,0.000000,0.000000,0.000000
1390095905,4,0,0.0,0,0,4,0,0,0,-0.0292,0.2922,6.8213,0.4212,54.898994,9.782220,108.3,5.845,1.85,335.95,0.000000,0.000000,0.000000,0.000000
1390095905,1,0,0.0,0,0,0,0,0,-50,-0.0292,0.2922,6.8213,0.4212,54.898983,9.782220,108.3,5.845,1.85,335.95,54.895069,9.793790,54.895348,9.797490
1390095905,1,0,0.0,0,0,4,0,0,200,-0.0292,0.2922,6.8213,0.4212,54.898998,9.782220,108.3,5.845,1.85,335.95,54.895348,9.797490,54.894039,9.801540
1390095906,1,0,0.0,0,0,0,0,0,-50,-0.0292,0.2922,6.8213,0.4212,54.898987,9.782220,108.3,5.845,1.85,335.95,54.894039,9.801540,54.893795,9.802299
1390095906,1,0,0.0,0,0,4,0,0,200,-0.0292,0.2922,6.8213,0.4212,54.899002,9.782220,108.3,5.845,1.85,335.95,54.893795,9.802299,54.893364,9.803688
1390095906,1,0,0.0,0,0,0,0,0,-50,-0.0292,0.2922,6.8213,0.4212,54.898994,9.782220,108.3,5.845,1.85,335.95,54.893364,9.803688,54.892704,9.801139
1390095906,1,0,0.0,0,0,4,0,0,200,-0.0292,0.2922,6.8213,0.4212,54.899014,9.782220,108.3,5.845,1.85,335.95,54.892704,9.801139,54.891663,9.800174
1390095907,1,0,0.0,0,0,0,0,0,-50,-0.0292,0.2922,6.8213,0.4212,54.899002,9.782220,108.3,5.845,1.85,335.95,54.891663,9.800174,54.892929,9.805077
1390095907,1,0,0.0,0,0,4,0,0,200,-0.0292,0.2922,6.8213,0.4212,54.899021,9.782220,108.3,5.845,1.85,335.95,54.892929,9.805077,54.892498,9.806466
1390095907,1,0,0.0,0,0,0,0,0,-50,-0.0292,0.2922,6.8213,0.4212,54.899010,9.782220,108.3,5.845,1.85,335.95,54.892498,9.806466,54.891232,9.801563
1390095907,1,0,0.0,0,0,4,0,0,200,-0.0292,0.2922,6.8213,0.4212,54.899025,9.782220,108.3,5.845,1.85,335.95,54.891232,9.801563,54.890800,9.802953
1390095908,1,0,0.0,0,0,0,0,0,-50,-0.0292,0.2922,6.8213,0.4212,54.899014,9.782220,108.3,5.845,1.85,335.95,54.890800,9.802953,54.891651,9.806246
1390095908,1,0,0.0,0,0,4,0,0,200,-0.0292,0.2922,6.8213,0.4212,54.899033,9.782220,108.3,5.845,1.85,335.95,54.891651,9.806246,54.890560,9.805087
1390095908,1,0,0.0,0,0,0,0,0,-50,-0.0292,0.2922,6.8213,0.4212,54.899021,9.782220,108.3,5.845,1.85,335.95,54.890560,9.805087,54.890366,9.804342
1390095908,1,0,0.0,0,0,4,0,0,200,-0.0292,0.2922,6.8213,0.4212,54.899040,9.782220,108.3,5.845,1.85,335.95,54.890366,9.804342,54.890846,9.801930
1390095909,1,0,0.0,0,0,0,0,0,-50,-0.0292,0.2922,6.8213,0.4212,54.899029,9.782220,108.3,5.845,1.85,335.95,54.890846,9.801930,54.889477,9.798280
1390095909,1,0,0.0,0,0,4,0,0,200,-0.0292,0.2922,6.8213,0.4212,54.899044,9.782220,108.3,5.845,1.85,335.95,54.889477,9.798280,54.891819,9.794550
1390095909,1,0,0.0,0,0,0,0,0,-50,-0.0292,0.2922,6.8213,0.4212,54.899033,9.782220,108.3,5.845,1.85,335.95,54.891819,9.794550,54.895348,9.797490
1390095909,1,0,0.0,0,0,4,0,0,200,-0.0292,0.2922,6.8213,0.4212,54.899048,9.782220,108.3,5.845,1.85,335.95,54.895348,9.797490,54.895069,9.793790
1390095910,1,0,0.0,0,0,0,0,0,-50,-0.0292,0.2922,6.8213,0.4212,54.899036,9.782220,108.3,5.845,1.85,335.95,54.895348,9.797490,54.895069,9.793790
1390095910,3,0,0.0,0,0,4,0,10,200,-0.0292,0.2922,6.8213,0.4212,54.899052,9.782220,108.3,5.845,1.85,335.95,54.895348,9.797490,54.899036,9.782220
1390095910,3,0,0.0,0,0,0,0,10,-50,-0.0292,0.2922,6.8213,0.4212,54.899044,9.782220,108.3,5.845,1.85,335.95,54.895348,9.797490,54.899036,9.782220
1390095910,3,0,0.0,0,0,4,0,10,200,-0.0292,0.2922,6.8213,0.4212,54.899063,9.782220,108.3,5.845,1.85,335.95,54.895348,9.797490,54.899036,9.782220
1390095911,3,0,0.0,0,0,0,0,10,-50,-0.0292,0.2922,6.8213,0.4212,54.899052,9.782220,108.3,5.845,1.85,335.95,54.895348,9.797490,54.899036,9.782220
1390095911,3,0,0.0,0,0,4,0,10,200,-0.0292,0.2922,6.8213,0.4212,54.899071,9.782220,108.3,5.845,1.85,335.95,54.895348,9.797490,54.899036,9.782220
1390095911,3,0,0.0,0,0,0,0,10,-50,-0.0292,0.2922,6.8213,0.4212,54.899059,9.782220,108.3,5.845,1.85,335.95,54.895348,9.797490,54.899036,9.782220
1390095911,3,0,0.0,0,0,4,0,10,200,-0.0292,0.2922,6.8213,0.4212,54.899075,9.782220,108.3,5.845,1.85,335.95,54.895348,9.797490,54.899036,9.782220
1390095912,3,0,0.0,0,0,0,0,10,-50,-0.0292,0.2922,6.8213,0.4212,54.899063,9.782220,108.3,5.845,1.85,335.95,54.895348,9.797490,54.899036,9.782220
1390095912,3,0,0.0,0,0,4,0,10,200,-0.0292,0.2922,6.8213,0.4212,54.899082,9.782220,108.3,5.845,1.85,335.95,54.895348,9.797490,54.899036,9.782220
1390095912,3,0,0.0,0,0,0,0,10,-50,-0.0292,0.2922,6.8213,0.4212,54.899071,9.782220,108.3,5.845,1.85,335.95,54.895348,9.797490,54.899036,9.782220
1390095912,3,0,0.0,0,0,4,0,10,200,-0.0292,0.2922,6.8213,0.4212,54.899090,9.782220,108.3,5.845,1.85,335.95,54.895348,9.797490,54.899036,9.782220
1390095913,3,0,0.0,0,0,0,0,10,-50,-0.0292,0.2922,6.8213,0.4212,54.899078,9.782220,108.3,5.845,1.85,335.95,54.895348,9.797490,54.899036,9.782220
1390095913,3,0,0.0,0,0,4,0,10,200,-0.0292,0.2922,6.8213,0.4212,54.899094,9.782220,108.3,5.845,1.85,335.95,54.895348,9.797490,54.899036,9.782220
1390095913,3,0,0.0,0,0,0,0,10,-50,-0.0292,0.2922,6.8213,0.4212,54.899082,9.782220,108.3,5.845,1.85,335.95,54.895348,9.797490,54.899036,9.782220
1390095913,3,0,0.0,0,0,4,0,10,200,-0.0292,0.2922,6.8213,0.4212,54.899097,9.782220,108.3,5.845,1.85,335.95,54.895348,9.797490,54.899036,9.782220
1390095914,3,0,0.0,0,0,0,0,10,-50,-0.0292,0.2922,6.8213,0.4212,54.899086,9.782220,108.3,5.845,1.85,335.95,54.895348,9.797490,54.899036,9.782220
1390095914,3,0,0.0,0,0,4,0,10,200,-0.0292,0.2922,6.8213,0.4212,54.899101,9.782220,108.3,5.845,1.85,335.95,54.895348,9.797490,54.899036,9.782220
1390095914,3,0,0.0,0,0,0,0,10,-50,-0.0292,0.2922,6.8213,0.4212,54.899094,9.782220,108.3,5.845,1.85,335.95,54.895348,9.797490,54.899036,9.782220
1390095914,3,0,0.0,0,0,4,0,10,200,-0.0292,0.2922,6.8213,0.4212,54.899113,9.782220,108.3,5.845,1.85,335.95,54.895348,9.797490,54.899036,9.782220
1390095915,3,0,0.0,0,0,0,0,10,-50,-0.0292,0.2922,6.8213,0.4212,54.899101,9.782220,108.3,5.845,1.85,335.95,54.895348,9.797490,54.899036,9.782220
1390095915,3,0,0.0,0,0,4,0,20,200,-0.0292,0.2922,6.8213,0.4212,54.899120,9.782220,108.3,5.845,1.85,335.95,54.895348,9.797490,54.899036,9.782220
1390095915,3,0,0.0,0,0,0,0,20,-50,-0.0292,0.2922,6.8213,0.4212,54.899109,9.782220,108.3,5.845,1.85,335.95,54.895348,9.797490,54.899036,9.782220
1390095915,3,0,0.0,0,0,4,0,20,200,-0.0292,0.2922,6.8213,0.4212,54.899124,9.782220,108.3,5.845,1.85,335.95,54.895348,9.797490,54.899036,9.782220
1390095916,3,0,0.0,0,0,0,0,20,-50,-0.0292,0.2922,6.8213,0.4212,54.899113,9.782220,108.3,5.845,1.85,335.95,54.895348,9.797490,54.899036,9.782220
1390095916,3,0,0.0,0,0,4,0,20,200,-0.0292,0.2922,6.8213,0.4212,54.899132,9.782220,108.3,5.845,1.85,335.95,54.895348,9.797490,54.899036,9.782220
1390095916,3,0,0.0,0,0,0,0,20,-50,-0.0292,0.2922,6.8213,0.4212,54.899120,9.782220,108.3,5.845,1.85,335.95,54.895348,9.797490,54.899036,9.782220
1390095916,3,0,0.0,0,0,4,0,20,200,-0.0292,0.2922,6.8213,0.4212,54.899139,9.782220,108.3,5.845,1.85,335.95,54.895348,9.797490,54.899036,9.782220
1390095917,3,0,0.0,0,0,0,0,20,-50,-0.0292,0.2922,6.8213,0.4212,54.899128,9.782220,108.3,5.845,1.85,335.95,54.895348,9.797490,54.899036,9.782220
1390095917,3,0,0.0,0,0,4,0,20,200,-0.0292,0.2922,6.8213,0.4212,54.899143,9.782220,108.3,5.845,1.85,335.95,54.895348,9.797490,54.899036,9.782220
1390095917,3,0,0.0,0,0,0,0,20,-50,-0.0292,0.2922,6.8213,0.4212,54.899132,9.782220,108.3,5.845,1.85,335.95,54.895348,9.797490,54.899036,9.782220
1390095917,3,0,0.0,0,0,4,0,20,200,-0.0292,0.2922,6.8213,0.4212,54.899147,9.782220,108.3,5.845,1.85,335.95,54.895348,9.797490,54.899036,9.782220
1390095918,3,0,0.0,0,0,0,0,20,-50,-0.0292,0.2922,6.8213,0.4212,54.899136,9.782220,108.3,5.845,1.85,335.95,54.895348,9.797490,54.899036,9.782220
1390095918,3,0,0.0,0,0,4,0,20,200,-0.0292,0.2922,6.8213,0.4212,54.899155,9.782220,108.3,5.845,1.85,335.95,54.895348,9.797490,54.899036,9.782220
1390095918,3,0,0.0,0,0,0,0,20,-50,-0.0292,0.2922,6.8213,0.4212,54.899143,9.782220,108.3,5.845,1.85,335.95,54.895348,9.797490,54.899036,9.782220
1390095918,3,0,0.0,0,0,4,0,20,200,-0.0292,0.2922,6.8213,0.4212,54.899162,9.782220,108.3,5.845,1.85,335.95,54.895348,9.797490,54.899036,9.782220
1390095919,3,0,0.0,0,0,0,0,20,-50,-0.0292,0.2922,6.8213,0.4212,54.899151,9.782220,108.3,5.845,1.85,335.95,54.895348,9.797490,54.899036,9.782220
1390095919,3,0,0.0,0,0,4,0,20,200,-0.0292,0.2922,6.8213,0.4212,54.899170,9.782220,108.3,5.845,1.85,335.95,54.895348,9.797490,54.899036,9.782220
1390095919,3,0,0.0,0,0,0,0,20,-50,-0.0292,0.2922,6.8213,0.4212,54.899158,9.782220,108.3,5.845,1.85,335.95,54.895348,9.797490,54.899036,9.782220
1390095919,3,0,0.0,0,0,4,0,20,200,-0.0292,0.2922,6.8213,0.4212,54.899174,9.782220,108.3,5.845,1.85,335.95,54.895348,9.797490,54.899036,9.782220
1390095920,3,0,0.0,0,0,0,0,20,-50,-0.0292,0.2922,6.8213,0.4212,54.899166,9.782220,108.3,5.845,1.85,335.95,54.895348,9.797490,54.899036,9.782220
1390095920,3,0,0.0,0,0,4,0,30,200,-0.0292,0.2922,6.8213,0.4212,54.899185,9.782220,108.3,5.845,1.85,335.95,54.895348,9.797490,54.899036,9.782220
1390095920,3,0,0.0,0,0,0,0,30,-50,-0.0292,0.2922,6.8213,0.4212,54.899174,9.782220,108.3,5.845,1.85,335.95,54.895348,9.797490,54.899036,9.782220
1390095920,3,0,0.0,0,0,4,0,30,200,-0.0292,0.2922,6.8213,0.4212,54.899193,9.782220,108.3,5.845,1.85,335.95,54.895348,9.797490,54.899036,9.782220
1390095921,3,0,0.0,0,0,0,0,30,-50,-0.0292,0.2922,6.8213,0.4212,54.899181,9.782220,108.3,5.845,1.85,335.95,54.895348,9.797490,54.899036,9.782220
1390095921,3,0,0.0,0,0,4,0,30,200,-0.0292,0.2922,6.8213,0.4212,54.899197,9.782220,108.3,5.845,1.85,335.95,54.895348,9.797490,54.899036,9.782220
1390095921,3,0,0.0,0,0,0,0,30,-50,-0.0292,0.2922,6.8213,0.4212,54.899185,9.782220,108.3,5.845,1.85,335.95,54.895348,9.797490,54.899036,9.782220
1390095922,3,0,0.0,0,0,4,0,30,200,-0.0292,0.2922,6.8213,0.4212,54.899204,9.782220,108.3,5.845,1.85,335.95,54.895348,9.797490,54.899036,9.782220
1390095922,3,0,0.0,0,0,0,0,30,-50,-0.0292,0.2922,6.8213,0.4212,54.899193,9.782220,108.3,5.845,1.85,335.95,54.895348,9.797490,54.899036,9.782220
1390095922,3,0,0.0,0,0,4,0,30,200,-0.0292,0.2922,6.8213,0.4212,54.899212,9.782220,108.3,5.845,1.85,335.95,54.895348,9.797490,54.899036,9.782220
1390095922,3,0,0.0,0,0,0,0,30,-50,-0.0292,0.2922,6.8213,0.4212,54.899200,9.782220,108.3,5.845,1.85,335.95,54.895348,9.797490,54.899036,9.782220
1390095923,3,0,0.0,0,0,4,0,30,200,-0.0292,0.2922,6.8213,0.4212,54.899220,9.782220,108.3,5.845,1.85,335.95,54.895348,9.797490,54.899036,9.782220
1390095923,3,0,0.0,0,0,0,0,30,-50,-0.0292,0.2922,6.8213,0.4212,54.899208,9.782220,108.3,5.845,1.85,335.95,54.895348,9.797490,54.899036,9.782220
1390095923,3,0,0.0,0,0,4,0,30,200,-0.0292,0.2922,6.8213,0.4212,54.899223,9.782220,108.3,5.845,1.85,335.95,54.895348,9.797490,54.899036,9.782220
1390095923,3,0,0.0,0,0,0,0,30,-50,-0.0292,0.2922,6.8213,0.4212,54.899216,9.782220,108.3,5.845,1.85,335.95,54.895348,9.797490,54.899036,9.782220
1390095924,3,0,0.0,0,0,4,0,30,200,-0.0292,0.2922,6.8213,0.4212,54.899235,9.782220,108.3,5.845,1.85,335.95,54.895348,9.797490,54.899036,9.782220
1390095924,3,0,0.0,0,0,0,0,30,-50,-0.0292,0.2922,6.8213,0.4212,54.899223,9.782220,108.3,5.845,1.85,335.95,54.895348,9.797490,54.899036,9.782220
1390095924,3,0,0.0,0,0,4,0,30,200,-0.0292,0.2922,6.8213,0.4212,54.899242,9.782220,108.3,5.845,1.85,335.95,54.895348,9.797490,54.899036,9.782220
1390095924,3,0,0.0,0,0,0,0,30,-50,-0.0292,0.2922,6.8213,0.4212,54.899231,9.782220,108.3,5.845,1.85,335.95,54.895348,9.797490,54.899036,9.782220
1390095925,3,0,0.0,0,0,4,0,30,200,-0.0292,0.2922,6.8213,0.4212,54.899246,9.782220,108.3,5.845,1.85,335.95,54.895348,9.797490,54.899036,9.782220
1390095925,3,0,0.0,0,0,0,0,30,-50,-0.0292,0.2922,6.8213,0.4212,54.899235,9.782220,108.3,5.845,1.85,335.95,54.895348,9.797490,54.899036,9.782220
1390095925,3,0,0.0,0,0,4,0,40,200,-0.0292,0.2922,6.8213,0.4212,54.899254,9.782220,108.3,5.845,1.85,335.95,54.895348,9.797490,54.899036,9.782220
1390095925,3,0,0.0,0,0,0,0,40,-50,-0.0292,0.2922,6.8213,0.4212,54.899242,9.782220,108.3,5.845,1.85,335.95,54.895348,9.797490,54.899036,9.782220
1390095926,3,0,0.0,0,0,4,0,40,200,-0.0292,0.2922,6.8213,0.4212,54.899261,9.782220,108.3,5.845,1.85,335.95,54.895348,9.797490,54.899036,9.782220
1390095926,3,0,0.0,0,0,0,0,40,-50,-0.0292,0.2922,6.8213,0.4212,54.899250,9.782220,108.3,5.845,1.85,335.95,54.895348,9.797490,54.899036,9.782220
