MCU_timestamp,Navigation_System,Manual_Control,Guidance_Heading,Manual_Ctrl_Rudder,Rudder_Desired_Angle,Rudder_Feedback,Manual_Ctrl_Sail,Sail_Desired_Pos,Sail_Feedback,Rate,Heading,Pitch,Roll,Latitude,Longitude,COG,SOG,Wind_Speed,Wind_Angle,Point_Start_Lat,Point_Start_Lon,Point_End_Lat,Point_End_Lon
1386922635,0,0,0.0,0,0,-36,0,0,0,-0.0292,-2200.9119,6.8213,0.4212,54.895107,9.793593,108.3,5.845,1.85,335.95,0.000000,0.000000,0.000000,0.000000
1386922635,0,0,0.0,0,0,-36,0,0,0,-0.0292,-2200.9119,6.8213,0.4212,54.895107,9.793593,108.3,5.845,1.85,335.95,0.000000,0.000000,0.000000,0.000000
1386922635,0,0,0.0,0,0,-36,0,0,0,-0.0292,-2200.9119,6.8213,0.4212,54.895107,9.793593,108.3,5.845,1.85,335.95,0.000000,0.000000,0.000000,0.000000
1386922635,0,0,0.0,0,0,-36,0,0,0,-0.0292,-2200.9119,6.8213,0.4212,54.895107,9.793593,108.3,5.845,1.85,335.95,0.000000,0.000000,0.000000,0.000000
1386922636,0,0,0.0,0,0,-36,0,0,0,-0.0292,-2200.9119,6.8213,0.4212,54.895107,9.793593,108.3,5.845,1.85,335.95,0.000000,0.000000,0.000000,0.000000
1386922636,0,0,0.0,0,0,-36,0,0,0,-0.0292,-2200.9119,6.8213,0.4212,54.895107,9.793593,108.3,5.845,1.85,335.95,0.000000,0.000000,0.000000,0.000000
1386922636,0,0,0.0,0,0,-36,0,0,0,-0.0292,-2200.9119,6.8213,0.4212,54.895107,9.793593,108.3,5.845,1.85,335.95,0.000000,0.000000,0.000000,0.000000
1386922636,0,0,0.0,0,0,-36,0,0,0,-0.0292,-2200.9119,6.8213,0.4212,54.895107,9.793593,108.3,5.845,1.85,335.95,0.000000,0.000000,0.000000,0.000000
1386922637,0,0,0.0,0,0,-36,0,0,0,-0.0292,-2200.9119,6.8213,0.4212,54.895107,9.793593,108.3,5.845,1.85,335.95,0.000000,0.000000,0.000000,0.000000
1386922637,0,0,0.0,0,0,-36,0,0,0,-0.0292,-2200.9119,6.8213,0.4212,54.895107,9.793593,108.3,5.845,1.85,335.95,0.000000,0.000000,0.000000,0.000000
1386922637,0,0,0.0,0,0,-36,0,0,0,-0.0292,-2200.9119,6.8213,0.4212,54.895107,9.793593,108.3,5.845,1.85,335.95,0.000000,0.000000,0.000000,0.000000
1386922637,0,0,0.0,0,0,-36,0,0,0,-0.0292,-2200.9119,6.8213,0.4212,54.895107,9.793593,108.3,5.845,1.85,335.95,0.000000,0.000000,0.000000,0.000000
1386922638,0,0,0.0,0,0,-36,0,0,0,-0.0292,-2200.9119,6.8213,0.4212,54.895107,9.793593,108.3,5.845,1.85,335.95,0.000000,0.000000,0.000000,0.000000
1386922638,0,0,0.0,0,0,-36,0,0,0,-0.0292,-2200.9119,6.8213,0.4212,54.895107,9.793593,108.3,5.845,1.85,335.95,0.000000,0.000000,0.000000,0.000000
1386922638,0,0,0.0,0,0,-36,0,0,0,-0.0292,-2200.9119,6.8213,0.4212,54.895107,9.793593,108.3,5.845,1.85,335.95,0.000000,0.000000,0.000000,0.000000
1386922638,0,0,0.0,0,0,-36,0,0,0,-0.0292,-2200.9119,6.8213,0.4212,54.895107,9.793593,108.3,5.845,1.85,335.95,0.000000,0.000000,0.000000,0.000000
1386922639,0,0,0.0,0,0,-36,0,0,0,-0.0292,-2200.9119,6.8213,0.4212,54.895107,9.793593,108.3,5.845,1.85,335.95,0.000000,0.000000,0.000000,0.000000
1386922639,0,0,0.0,0,0,-36,0,0,0,-0.0292,-2200.9119,6.8213,0.4212,54.895107,9.793593,108.3,5.845,1.85,335.95,0.000000,0.000000,0.000000,0.000000
1386922639,0,0,0.0,0,0,-36,0,0,0,-0.0292,-2200.9119,6.8213,0.4212,54.895107,9.793593,108.3,5.845,1.85,335.95,0.000000,0.000000,0.000000,0.000000
1386922639,0,0,0.0,0,0,-36,0,0,0,-0.0292,-2200.9119,6.8213,0.4212,54.895107,9.793593,108.3,5.845,1.85,335.95,0.000000,0.000000,0.000000,0.000000
1386922640,0,0,0.0,0,0,-36,0,0,0,-0.0292,-2200.9119,6.8213,0.4212,54.895107,9.793593,108.3,5.845,1.85,335.95,0.000000,0.000000,0.000000,0.000000
1386922640,0,0,0.0,0,0,-36,0,0,0,-0.0292,-2200.9119,6.8213,0.4212,54.895107,9.793593,108.3,5.845,1.85,335.95,0.000000,0.000000,0.000000,0.000000
1386922640,0,0,0.0,0,0,-36,0,0,0,-0.0292,-2200.9119,6.8213,0.4212,54.895107,9.793593,108.3,5.845,1.85,335.95,0.000000,0.000000,0.000000,0.000000
1386922640,0,0,0.0,0,0,-36,0,0,0,-0.0292,-2200.9119,6.8213,0.4212,54.896664,9.792649,108.3,5.845,1.85,335.95,0.000000,0.000000,0.000000,0.000000
1386922641,0,0,0.0,0,0,-36,0,0,0,-0.0292,-2200.9119,6.8213,0.4212,54.896664,9.792649,108.3,5.845,1.85,335.95,0.000000,0.000000,0.000000,0.000000
1386922641,0,0,0.0,0,0,-36,0,0,0,-0.0292,-2200.9119,6.8213,0.4212,54.896664,9.792649,108.3,5.845,1.85,335.95,0.000000,0.000000,0.000000,0.000000
1386922641,0,0,0.0,0,0,-36,0,0,0,-0.0292,-2200.9119,6.8213,0.4212,54.896664,9.792649,108.3,5.845,1.85,335.95,0.000000,0.000000,0.000000,0.000000
1386922641,0,0,0.0,0,0,-36,0,0,0,-0.0292,-2200.9119,6.8213,0.4212,54.896664,9.792649,108.3,5.845,1.85,335.95,0.000000,0.000000,0.000000,0.000000
1386922642,0,0,0.0,0,0,-36,0,0,0,-0.0292,-2200.9119,6.8213,0.4212,54.896664,9.792649,108.3,5.845,1.85,335.95,0.000000,0.000000,0.000000,0.000000
1386922642,0,0,0.0,0,0,-36,0,0,0,-0.0292,-2200.9119,6.8213,0.4212,54.896664,9.792649,108.3,5.845,1.85,335.95,0.000000,0.000000,0.000000,0.000000
1386922642,0,0,0.0,0,0,-36,0,0,0,-0.0292,-2200.9119,6.8213,0.4212,54.896664,9.792649,108.3,5.845,1.85,335.95,0.000000,0.000000,0.000000,0.000000
1386922642,0,0,0.0,0,0,-36,0,0,0,-0.0292,-2200.9119,6.8213,0.4212,54.896664,9.792649,108.3,5.845,1.85,335.95,0.000000,0.000000,0.000000,0.000000
1386922643,4,0,0.0,0,0,-36,0,0,0,-0.0292,-2200.9119,6.8213,0.4212,54.896664,9.792649,108.3,5.845,1.85,335.95,0.000000,0.000000,0.000000,0.000000
1386922643,1,0,485.9,0,-35,-32,0,0,0,-0.0292,-2191.5786,6.8213,0.4212,54.896679,9.792633,108.3,5.845,1.85,335.95,54.896664,9.792649,54.895069,9.793790
1386922643,1,0,485.9,0,-35,-36,0,0,0,-0.0292,-2182.2454,6.8213,0.4212,54.896694,9.792621,108.3,5.845,1.85,335.95,54.896664,9.792649,54.895069,9.793790
1386922643,1,0,485.9,0,-35,-32,0,0,0,-0.0292,-2172.9121,6.8213,0.4212,54.896709,9.792614,108.3,5.845,1.85,335.95,54.896664,9.792649,54.895069,9.793790
1386922644,1,0,485.9,0,-35,-36,0,0,0,-0.0292,-2163.5789,6.8213,0.4212,54.896729,9.792612,108.3,5.845,1.85,335.95,54.896664,9.792649,54.895069,9.793790
1386922644,1,0,485.9,0,-35,-32,0,0,0,-0.0292,-2154.2456,6.8213,0.4212,54.896748,9.792615,108.3,5.845,1.85,335.95,54.896664,9.792649,54.895069,9.793790
1386922644,1,0,485.9,0,-35,-36,0,0,0,-0.0292,-2144.9124,6.8213,0.4212,54.896763,9.792624,108.3,5.845,1.85,335.95,54.896664,9.792649,54.895069,9.793790
1386922644,1,0,485.9,0,-35,-32,0,0,0,-0.0292,-2135.5791,6.8213,0.4212,54.896782,9.792637,108.3,5.845,1.85,335.95,54.896664,9.792649,54.895069,9.793790
1386922645,1,0,485.9,0,-35,-36,0,0,0,-0.0292,-2126.2458,6.8213,0.4212,54.896797,9.792654,108.3,5.845,1.85,335.95,54.896664,9.792649,54.895069,9.793790
1386922645,1,0,485.9,0,-35,-32,0,4,50,-0.0292,-2116.9126,6.8213,0.4212,54.896809,9.792675,108.3,5.845,1.85,335.95,54.896664,9.792649,54.895069,9.793790
1386922645,1,0,485.9,0,-35,-36,0,71,100,-0.0292,-2107.5793,6.8213,0.4212,54.896820,9.792699,108.3,5.845,1.85,335.95,54.896664,9.792649,54.895069,9.793790
1386922645,1,0,485.9,0,-35,-32,0,190,150,-0.0292,-2098.2461,6.8213,0.4212,54.896828,9.792727,108.3,5.845,1.85,335.95,54.896664,9.792649,54.895069,9.793790
1386922646,1,0,485.9,0,-35,-36,0,332,200,-0.0292,-2088.9128,6.8213,0.4212,54.896835,9.792756,108.3,5.845,1.85,335.95,54.896664,9.792649,54.895069,9.793790
1386922646,1,0,485.9,0,-35,-32,0,481,250,-0.0292,-2079.5796,6.8213,0.4212,54.896839,9.792788,108.3,5.845,1.85,335.95,54.896664,9.792649,54.895069,9.793790
1386922646,1,0,485.9,0,-35,-36,0,628,300,-0.0292,-2070.2463,6.8213,0.4212,54.896843,9.792819,108.3,5.845,1.85,335.95,54.896664,9.792649,54.895069,9.793790
1386922646,1,0,485.9,0,-35,-32,0,770,350,-0.0292,-2060.9131,6.8213,0.4212,54.896839,9.792850,108.3,5.845,1.85,335.95,54.896664,9.792649,54.895069,9.793790
1386922647,1,0,485.9,0,-27,-28,0,870,400,-0.0292,-2053.7131,6.8213,0.4212,54.896835,9.792879,108.3,5.845,1.85,335.95,54.896664,9.792649,54.895069,9.793790
1386922647,1,0,485.9,0,-20,-24,0,870,450,-0.0292,-2048.3799,6.8213,0.4212,54.896832,9.792909,108.3,5.845,1.85,335.95,54.896664,9.792649,54.895069,9.793790
1386922647,1,0,485.9,0,-14,-20,0,713,500,-0.0292,-2044.6466,6.8213,0.4212,54.896824,9.792937,108.3,5.845,1.85,335.95,54.896664,9.792649,54.895069,9.793790
1386922647,1,0,485.9,0,-11,-16,0,713,550,-0.0292,-2041.7133,6.8213,0.4212,54.896816,9.792964,108.3,5.845,1.85,335.95,54.896664,9.792649,54.895069,9.793790
1386922648,1,0,485.9,0,-8,-12,0,713,600,-0.0292,-2039.5800,6.8213,0.4212,54.896805,9.792991,108.3,5.845,1.85,335.95,54.896664,9.792649,54.895069,9.793790
1386922648,1,0,485.9,0,-6,-8,0,713,650,-0.0292,-2037.9800,6.8213,0.4212,54.896797,9.793017,108.3,5.845,1.85,335.95,54.896664,9.792649,54.895069,9.793790
1386922648,1,0,485.9,0,-4,-4,0,713,700,-0.0292,-2036.9133,6.8213,0.4212,54.896786,9.793043,108.3,5.845,1.85,335.95,54.896664,9.792649,54.895069,9.793790
1386922648,1,0,485.9,0,-3,0,0,0,650,-0.0292,-2036.1133,6.8213,0.4212,54.896778,9.793069,108.3,5.845,1.85,335.95,54.896664,9.792649,54.895069,9.793790
1386922649,1,0,485.9,0,-2,-4,0,0,600,-0.0292,-2035.5800,6.8213,0.4212,54.896767,9.793095,108.3,5.845,1.85,335.95,54.896664,9.792649,54.895069,9.793790
1386922649,1,0,485.9,0,-2,0,0,0,550,-0.0292,-2035.0466,6.8213,0.4212,54.896755,9.793120,108.3,5.845,1.85,335.95,54.896664,9.792649,54.895069,9.793790
1386922649,1,0,485.9,0,-1,-4,0,0,500,-0.0292,-2034.7799,6.8213,0.4212,54.896744,9.793146,108.3,5.845,1.85,335.95,54.896664,9.792649,54.895069,9.793790
1386922649,1,0,485.9,0,-1,0,0,0,450,-0.0292,-2034.5132,6.8213,0.4212,54.896732,9.793171,108.3,5.845,1.85,335.95,54.896664,9.792649,54.895069,9.793790
1386922650,1,0,485.9,0,0,4,0,0,400,-0.0292,-2034.5132,6.8213,0.4212,54.896721,9.793197,108.3,5.845,1.85,335.95,54.896664,9.792649,54.895069,9.793790
1386922650,1,0,485.9,0,0,0,0,0,350,-0.0292,-2034.5132,6.8213,0.4212,54.896709,9.793221,108.3,5.845,1.85,335.95,54.896664,9.792649,54.895069,9.793790
1386922650,1,0,485.9,0,0,4,0,0,300,-0.0292,-2034.5132,6.8213,0.4212,54.896698,9.793247,108.3,5.845,1.85,335.95,54.896664,9.792649,54.895069,9.793790
1386922650,1,0,485.9,0,0,0,0,0,250,-0.0292,-2034.5132,6.8213,0.4212,54.896687,9.793273,108.3,5.845,1.85,335.95,54.896664,9.792649,54.895069,9.793790
1386922651,1,0,485.9,0,0,4,0,0,200,-0.0292,-2034.5132,6.8213,0.4212,54.896679,9.793299,108.3,5.845,1.85,335.95,54.896664,9.792649,54.895069,9.793790
1386922651,1,0,485.9,0,0,0,0,0,150,-0.0292,-2034.5132,6.8213,0.4212,54.896667,9.793324,108.3,5.845,1.85,335.95,54.896664,9.792649,54.895069,9.793790
1386922651,1,0,485.9,0,0,4,0,0,100,-0.0292,-2034.5132,6.8213,0.4212,54.896660,9.793349,108.3,5.845,1.85,335.95,54.896664,9.792649,54.895069,9.793790
1386922651,1,0,485.9,0,0,0,0,0,50,-0.0292,-2034.5132,6.8213,0.4212,54.896648,9.793375,108.3,5.845,1.85,335.95,54.896664,9.792649,54.895069,9.793790
1386922652,1,0,485.9,0,0,4,0,0,0,-0.0292,-2034.5132,6.8213,0.4212,54.896637,9.793400,108.3,5.845,1.85,335.95,54.896664,9.792649,54.895069,9.793790
1386922652,1,0,485.9,0,0,0,0,0,0,-0.0292,-2034.5132,6.8213,0.4212,54.896629,9.793426,108.3,5.845,1.85,335.95,54.896664,9.792649,54.895069,9.793790
1386922652,1,0,545.9,0,-35,-4,0,0,0,-0.0292,-2025.1798,6.8213,0.4212,54.896618,9.793447,108.3,5.845,1.85,335.95,54.896664,9.792649,54.895069,9.793790
1386922652,1,0,545.9,0,-35,-8,0,0,0,-0.0292,-2015.8464,6.8213,0.4212,54.896606,9.793466,108.3,5.845,1.85,335.95,54.896664,9.792649,54.895069,9.793790
1386922653,1,0,545.9,0,-35,-12,0,0,0,-0.0292,-2006.5131,6.8213,0.4212,54.896591,9.793480,108.3,5.845,1.85,335.95,54.896664,9.792649,54.895069,9.793790
1386922653,1,0,545.9,0,-32,-16,0,0,0,-0.0292,-1997.9797,6.8213,0.4212,54.896576,9.793489,108.3,5.845,1.85,335.95,54.896664,9.792649,54.895069,9.793790
1386922653,1,0,545.9,0,-24,-20,0,0,0,-0.0292,-1991.5797,6.8213,0.4212,54.896557,9.793495,108.3,5.845,1.85,335.95,54.896664,9.792649,54.895069,9.793790
1386922653,1,0,545.9,0,-18,-16,0,0,0,-0.0292,-1986.7797,6.8213,0.4212,54.896538,9.793499,108.3,5.845,1.85,335.95,54.896664,9.792649,54.895069,9.793790
1386922654,1,0,545.9,0,-13,-12,0,0,0,-0.0292,-1983.3130,6.8213,0.4212,54.896523,9.793501,108.3,5.845,1.85,335.95,54.896664,9.792649,54.895069,9.793790
1386922654,1,0,545.9,0,-9,-8,0,0,0,-0.0292,-1980.9130,6.8213,0.4212,54.896503,9.793501,108.3,5.845,1.85,335.95,54.896664,9.792649,54.895069,9.793790
1386922654,1,0,545.9,0,-7,-4,0,0,0,-0.0292,-1979.0463,6.8213,0.4212,54.896484,9.793500,108.3,5.845,1.85,335.95,54.896664,9.792649,54.895069,9.793790
1386922654,1,0,545.9,0,-5,-8,0,0,0,-0.0292,-1977.7129,6.8213,0.4212,54.896465,9.793498,108.3,5.845,1.85,335.95,54.896664,9.792649,54.895069,9.793790
1386922655,1,0,545.9,0,-4,-4,0,713,50,-0.0292,-1976.6462,6.8213,0.4212,54.896450,9.793496,108.3,5.845,1.85,335.95,54.896664,9.792649,54.895069,9.793790
1386922655,1,0,545.9,0,-3,0,0,713,100,-0.0292,-1975.8462,6.8213,0.4212,54.896431,9.793493,108.3,5.845,1.85,335.95,54.896664,9.792649,54.895069,9.793790
1386922655,1,0,545.9,0,-2,-4,0,713,150,-0.0292,-1975.3129,6.8213,0.4212,54.896412,9.793490,108.3,5.845,1.85,335.95,54.896664,9.792649,54.895069,9.793790
1386922655,1,0,545.9,0,-1,0,0,713,200,-0.0292,-1975.0461,6.8213,0.4212,54.896393,9.793488,108.3,5.845,1.85,335.95,54.896664,9.792649,54.895069,9.793790
1386922656,1,0,545.9,0,-1,-4,0,713,250,-0.0292,-1974.7794,6.8213,0.4212,54.896378,9.793486,108.3,5.845,1.85,335.95,54.896664,9.792649,54.895069,9.793790
1386922656,1,0,545.9,0,-1,0,0,713,300,-0.0292,-1974.5127,6.8213,0.4212,54.896358,9.793483,108.3,5.845,1.85,335.95,54.896664,9.792649,54.895069,9.793790
1386922656,1,0,545.9,0,0,4,0,713,350,-0.0292,-1974.5127,6.8213,0.4212,54.896339,9.793480,108.3,5.845,1.85,335.95,54.896664,9.792649,54.895069,9.793790
1386922656,1,0,545.9,0,0,0,0,713,400,-0.0292,-1974.5127,6.8213,0.4212,54.896320,9.793477,108.3,5.845,1.85,335.95,54.896664,9.792649,54.895069,9.793790
1386922657,1,0,545.9,0,0,4,0,713,450,-0.0292,-1974.5127,6.8213,0.4212,54.896305,9.793474,108.3,5.845,1.85,335.95,54.896664,9.792649,54.895069,9.793790
1386922657,1,0,545.9,0,0,0,0,713,500,-0.0292,-1974.5127,6.8213,0.4212,54.896286,9.793471,108.3,5.845,1.85,335.95,54.896664,9.792649,54.895069,9.793790
1386922657,1,0,545.9,0,0,4,0,713,550,-0.0292,-1974.5127,6.8213,0.4212,54.896267,9.793468,108.3,5.845,1.85,335.95,54.896664,9.792649,54.895069,9.793790
1386922657,1,0,545.9,0,0,0,0,713,600,-0.0292,-1974.5127,6.8213,0.4212,54.896252,9.793466,108.3,5.845,1.85,335.95,54.896664,9.792649,54.895069,9.793790
1386922658,1,0,545.9,0,0,4,0,713,650,-0.0292,-1974.5127,6.8213,0.4212,54.896233,9.793463,108.3,5.845,1.85,335.95,54.896664,9.792649,54.895069,9.793790
1386922658,1,0,545.9,0,0,0,0,713,700,-0.0292,-1974.5127,6.8213,0.4212,54.896214,9.793460,108.3,5.845,1.85,335.95,54.896664,9.792649,54.895069,9.793790
1386922658,1,0,545.9,0,0,4,0,713,750,-0.0292,-1974.5127,6.8213,0.4212,54.896194,9.793457,108.3,5.845,1.85,335.95,54.896664,9.792649,54.895069,9.793790
1386922658,1,0,545.9,0,0,0,0,713,700,-0.0292,-1974.5127,6.8213,0.4212,54.896179,9.793454,108.3,5.845,1.85,335.95,54.896664,9.792649,54.895069,9.793790
1386922659,1,0,545.9,0,0,4,0,713,750,-0.0292,-1974.5127,6.8213,0.4212,54.896160,9.793451,108.3,5.845,1.85,335.95,54.896664,9.792649,54.895069,9.793790
1386922659,1,0,545.9,0,0,0,0,713,700,-0.0292,-1974.5127,6.8213,0.4212,54.896141,9.793447,108.3,5.845,1.85,335.95,54.896664,9.792649,54.895069,9.793790
1386922659,1,0,545.9,0,0,4,0,713,750,-0.0292,-1974.5127,6.8213,0.4212,54.896122,9.793444,108.3,5.845,1.85,335.95,54.896664,9.792649,54.895069,9.793790
1386922659,1,0,545.9,0,0,0,0,713,700,-0.0292,-1974.5127,6.8213,0.4212,54.896107,9.793441,108.3,5.845,1.85,335.95,54.896664,9.792649,54.895069,9.793790
1386922660,1,0,545.9,0,0,4,0,713,750,-0.0292,-1974.5127,6.8213,0.4212,54.896088,9.793438,108.3,5.845,1.85,335.95,54.896664,9.792649,54.895069,9.793790
1386922660,1,0,545.9,0,0,0,0,713,700,-0.0292,-1974.5127,6.8213,0.4212,54.896069,9.793435,108.3,5.845,1.85,335.95,54.896664,9.792649,54.895069,9.793790
1386922660,1,0,545.9,0,0,4,0,713,750,-0.0292,-1974.5127,6.8213,0.4212,54.896049,9.793432,108.3,5.845,1.85,335.95,54.896664,9.792649,54.895069,9.793790
1386922660,1,0,545.9,0,0,0,0,713,700,-0.0292,-1974.5127,6.8213,0.4212,54.896034,9.793429,108.3,5.845,1.85,335.95,54.896664,9.792649,54.895069,9.793790
1386922661,1,0,545.9,0,0,4,0,713,750,-0.0292,-1974.5127,6.8213,0.4212,54.896015,9.793427,108.3,5.845,1.85,335.95,54.896664,9.792649,54.895069,9.793790
1386922661,1,0,545.9,0,0,0,0,713,700,-0.0292,-1974.5127,6.8213,0.4212,54.895996,9.793424,108.3,5.845,1.85,335.95,54.896664,9.792649,54.895069,9.793790
1386922661,1,0,545.9,0,0,4,0,713,750,-0.0292,-1974.5127,6.8213,0.4212,54.895981,9.793421,108.3,5.845,1.85,335.95,54.896664,9.792649,54.895069,9.793790
1386922661,1,0,545.9,0,0,0,0,713,700,-0.0292,-1974.5127,6.8213,0.4212,54.895962,9.793418,108.3,5.845,1.85,335.95,54.896664,9.792649,54.895069,9.793790
1386922662,1,0,545.9,0,0,4,0,713,750,-0.0292,-1974.5127,6.8213,0.4212,54.895943,9.793415,108.3,5.845,1.85,335.95,54.896664,9.792649,54.895069,9.793790
1386922662,1,0,545.9,0,0,0,0,713,700,-0.0292,-1974.5127,6.8213,0.4212,54.895924,9.793412,108.3,5.845,1.85,335.95,54.896664,9.792649,54.895069,9.793790
1386922662,1,0,545.9,0,0,4,0,713,750,-0.0292,-1974.5127,6.8213,0.4212,54.895908,9.793409,108.3,5.845,1.85,335.95,54.896664,9.792649,54.895069,9.793790
1386922662,1,0,545.9,0,0,0,0,713,700,-0.0292,-1974.5127,6.8213,0.4212,54.895889,9.793406,108.3,5.845,1.85,335.95,54.896664,9.792649,54.895069,9.793790
1386922663,1,0,545.9,0,0,4,0,713,750,-0.0292,-1974.5127,6.8213,0.4212,54.895870,9.793403,108.3,5.845,1.85,335.95,54.896664,9.792649,54.895069,9.793790
1386922663,1,0,545.9,0,0,0,0,713,700,-0.0292,-1974.5127,6.8213,0.4212,54.895851,9.793400,108.3,5.845,1.85,335.95,54.896664,9.792649,54.895069,9.793790
1386922663,1,0,545.9,0,0,4,0,713,750,-0.0292,-1974.5127,6.8213,0.4212,54.895836,9.793397,108.3,5.845,1.85,335.95,54.896664,9.792649,54.895069,9.793790
1386922663,1,0,545.9,0,0,0,0,713,700,-0.0292,-1974.5127,6.8213,0.4212,54.895817,9.793394,108.3,5.845,1.85,335.95,54.896664,9.792649,54.895069,9.793790
1386922664,1,0,545.9,0,0,4,0,713,750,-0.0292,-1974.5127,6.8213,0.4212,54.895798,9.793391,108.3,5.845,1.85,335.95,54.896664,9.792649,54.895069,9.793790
1386922664,1,0,545.9,0,0,0,0,713,700,-0.0292,-1974.5127,6.8213,0.4212,54.895779,9.793388,108.3,5.845,1.85,335.95,54.896664,9.792649,54.895069,9.793790
1386922664,1,0,545.9,0,0,4,0,713,750,-0.0292,-1974.5127,6.8213,0.4212,54.895763,9.793386,108.3,5.845,1.85,335.95,54.896664,9.792649,54.895069,9.793790
1386922664,1,0,545.9,0,0,0,0,713,700,-0.0292,-1974.5127,6.8213,0.4212,54.895744,9.793383,108.3,5.845,1.85,335.95,54.896664,9.792649,54.895069,9.793790
1386922665,1,0,545.9,0,0,4,0,713,750,-0.0292,-1974.5127,6.8213,0.4212,54.895725,9.793380,108.3,5.845,1.85,335.95,54.896664,9.792649,54.895069,9.793790
1386922665,1,0,545.9,0,0,0,0,713,700,-0.0292,-1974.5127,6.8213,0.4212,54.895710,9.793377,108.3,5.845,1.85,335.95,54.896664,9.792649,54.895069,9.793790
1386922665,1,0,545.9,0,0,4,0,713,750,-0.0292,-1974.5127,6.8213,0.4212,54.895691,9.793374,108.3,5.845,1.85,335.95,54.896664,9.792649,54.895069,9.793790
1386922665,1,0,545.9,0,0,0,0,713,700,-0.0292,-1974.5127,6.8213,0.4212,54.895672,9.793371,108.3,5.845,1.85,335.95,54.896664,9.792649,54.895069,9.793790
1386922666,1,0,545.9,0,0,4,0,713,750,-0.0292,-1974.5127,6.8213,0.4212,54.895653,9.793368,108.3,5.845,1.85,335.95,54.896664,9.792649,54.895069,9.793790
1386922666,1,0,545.9,0,0,0,0,713,700,-0.0292,-1974.5127,6.8213,0.4212,54.895638,9.793365,108.3,5.845,1.85,335.95,54.896664,9.792649,54.895069,9.793790
1386922666,1,0,545.9,0,0,4,0,713,750,-0.0292,-1974.5127,6.8213,0.4212,54.895618,9.793362,108.3,5.845,1.85,335.95,54.896664,9.792649,54.895069,9.793790
1386922666,1,0,545.9,0,0,0,0,713,700,-0.0292,-1974.5127,6.8213,0.4212,54.895599,9.793358,108.3,5.845,1.85,335.95,54.896664,9.792649,54.895069,9.793790
1386922667,1,0,545.9,0,0,4,0,713,750,-0.0292,-1974.5127,6.8213,0.4212,54.895580,9.793355,108.3,5.845,1.85,335.95,54.896664,9.792649,54.895069,9.793790
1386922667,1,0,545.9,0,0,0,0,713,700,-0.0292,-1974.5127,6.8213,0.4212,54.895565,9.793352,108.3,5.845,1.85,335.95,54.896664,9.792649,54.895069,9.793790
1386922667,1,0,545.9,0,0,4,0,713,750,-0.0292,-1974.5127,6.8213,0.4212,54.895546,9.793349,108.3,5.845,1.85,335.95,54.896664,9.792649,54.895069,9.793790
1386922668,1,0,545.9,0,0,0,0,713,700,-0.0292,-1974.5127,6.8213,0.4212,54.895527,9.793346,108.3,5.845,1.85,335.95,54.896664,9.792649,54.895069,9.793790
1386922668,1,0,545.9,0,0,4,0,713,750,-0.0292,-1974.5127,6.8213,0.4212,54.895508,9.793344,108.3,5.845,1.85,335.95,54.896664,9.792649,54.895069,9.793790
1386922668,1,0,545.9,0,0,0,0,713,700,-0.0292,-1974.5127,6.8213,0.4212,54.895493,9.793341,108.3,5.845,1.85,335.95,54.896664,9.792649,54.895069,9.793790
1386922668,1,0,545.9,0,0,4,0,713,750,-0.0292,-1974.5127,6.8213,0.4212,54.895473,9.793338,108.3,5.845,1.85,335.95,54.896664,9.792649,54.895069,9.793790
1386922669,1,0,545.9,0,0,0,0,713,700,-0.0292,-1974.5127,6.8213,0.4212,54.895454,9.793335,108.3,5.845,1.85,335.95,54.896664,9.792649,54.895069,9.793790
1386922669,1,0,545.9,0,0,4,0,713,750,-0.0292,-1974.5127,6.8213,0.4212,54.895435,9.793332,108.3,5.845,1.85,335.95,54.896664,9.792649,54.895069,9.793790
1386922669,1,0,545.9,0,0,0,0,713,700,-0.0292,-1974.5127,6.8213,0.4212,54.895420,9.793329,108.3,5.845,1.85,335.95,54.896664,9.792649,54.895069,9.793790
1386922669,1,0,545.9,0,0,4,0,713,750,-0.0292,-1974.5127,6.8213,0.4212,54.895401,9.793326,108.3,5.845,1.85,335.95,54.896664,9.792649,54.895069,9.793790
1386922670,1,0,545.9,0,0,0,0,713,700,-0.0292,-1974.5127,6.8213,0.4212,54.895382,9.793324,108.3,5.845,1.85,335.95,54.896664,9.792649,54.895069,9.793790
1386922670,1,0,545.9,0,0,4,0,713,750,-0.0292,-1974.5127,6.8213,0.4212,54.895367,9.793321,108.3,5.845,1.85,335.95,54.896664,9.792649,54.895069,9.793790
1386922670,1,0,545.9,0,0,0,0,713,700,-0.0292,-1974.5127,6.8213,0.4212,54.895348,9.793317,108.3,5.845,1.85,335.95,54.896664,9.792649,54.895069,9.793790
1386922670,1,0,545.9,0,0,4,0,713,750,-0.0292,-1974.5127,6.8213,0.4212,54.895329,9.793314,108.3,5.845,1.85,335.95,54.896664,9.792649,54.895069,9.793790
1386922671,1,0,545.9,0,0,0,0,713,700,-0.0292,-1974.5127,6.8213,0.4212,54.895309,9.793311,108.3,5.845,1.85,335.95,54.896664,9.792649,54.895069,9.793790
1386922671,1,0,545.9,0,0,4,0,713,750,-0.0292,-1974.5127,6.8213,0.4212,54.895294,9.793308,108.3,5.845,1.85,335.95,54.896664,9.792649,54.895069,9.793790
1386922671,1,0,545.9,0,0,0,0,713,700,-0.0292,-1974.5127,6.8213,0.4212,54.895275,9.793305,108.3,5.845,1.85,335.95,54.896664,9.792649,54.895069,9.793790
1386922671,1,0,545.9,0,0,4,0,713,750,-0.0292,-1974.5127,6.8213,0.4212,54.895256,9.793303,108.3,5.845,1.85,335.95,54.896664,9.792649,54.895069,9.793790
1386922672,1,0,545.9,0,0,0,0,713,700,-0.0292,-1974.5127,6.8213,0.4212,54.895237,9.793300,108.3,5.845,1.85,335.95,54.896664,9.792649,54.895069,9.793790
1386922672,1,0,545.9,0,0,4,0,0,650,-0.0292,-1974.5127,6.8213,0.4212,54.895222,9.793297,108.3,5.845,1.85,335.95,54.896664,9.792649,54.895069,9.793790
1386922672,1,0,545.9,0,0,0,0,0,600,-0.0292,-1974.5127,6.8213,0.4212,54.895203,9.793294,108.3,5.845,1.85,335.95,54.896664,9.792649,54.895069,9.793790
1386922672,1,0,545.9,0,0,4,0,0,550,-0.0292,-1974.5127,6.8213,0.4212,54.895184,9.793291,108.3,5.845,1.85,335.95,54.896664,9.792649,54.895069,9.793790
1386922673,1,0,545.9,0,0,0,0,0,500,-0.0292,-1974.5127,6.8213,0.4212,54.895164,9.793288,108.3,5.845,1.85,335.95,54.896664,9.792649,54.895069,9.793790
1386922673,1,0,545.9,0,0,4,0,0,450,-0.0292,-1974.5127,6.8213,0.4212,54.895149,9.793285,108.3,5.845,1.85,335.95,54.896664,9.792649,54.895069,9.793790
1386922673,1,0,545.9,0,0,0,0,0,400,-0.0292,-1974.5127,6.8213,0.4212,54.895130,9.793283,108.3,5.845,1.85,335.95,54.896664,9.792649,54.895069,9.793790
1386922673,1,0,545.9,0,0,4,0,0,350,-0.0292,-1974.5127,6.8213,0.4212,54.895111,9.793280,108.3,5.845,1.85,335.95,54.896664,9.792649,54.895069,9.793790
1386922674,1,0,545.9,0,0,0,0,0,300,-0.0292,-1974.5127,6.8213,0.4212,54.895096,9.793276,108.3,5.845,1.85,335.95,54.896664,9.792649,54.895069,9.793790
1386922674,1,0,545.9,0,0,4,0,0,250,-0.0292,-1974.5127,6.8213,0.4212,54.895077,9.793272,108.3,5.845,1.85,335.95,54.896664,9.792649,54.895069,9.793790
1386922674,1,0,545.9,0,0,0,0,0,200,-0.0292,-1974.5127,6.8213,0.4212,54.895058,9.793269,108.3,5.845,1.85,335.95,54.896664,9.792649,54.895069,9.793790
1386922674,1,0,545.9,0,0,4,0,0,150,-0.0292,-1974.5127,6.8213,0.4212,54.895039,9.793266,108.3,5.845,1.85,335.95,54.896664,9.792649,54.895069,9.793790
1386922675,1,0,545.9,0,0,0,0,0,100,-0.0292,-1974.5127,6.8213,0.4212,54.895023,9.793263,108.3,5.845,1.85,335.95,54.896664,9.792649,54.895069,9.793790
1386922675,1,0,545.9,0,0,4,0,0,50,-0.0292,-1974.5127,6.8213,0.4212,54.895004,9.793261,108.3,5.845,1.85,335.95,54.896664,9.792649,54.895069,9.793790
1386922675,1,0,545.9,0,0,0,0,0,0,-0.0292,-1974.5127,6.8213,0.4212,54.894985,9.793258,108.3,5.845,1.85,335.95,54.896664,9.792649,54.895069,9.793790
1386922675,1,0,545.9,0,0,4,0,0,0,-0.0292,-1974.5127,6.8213,0.4212,54.894966,9.793255,108.3,5.845,1.85,335.95,54.896664,9.792649,54.895069,9.793790
1386922676,1,0,485.9,0,35,8,0,0,0,-0.0292,-1983.8461,6.8213,0.4212,54.894951,9.793257,108.3,5.845,1.85,335.95,54.896664,9.792649,54.895069,9.793790
1386922676,1,0,485.9,0,35,12,0,0,0,-0.0292,-1993.1794,6.8213,0.4212,54.894932,9.793264,108.3,5.845,1.85,335.95,54.896664,9.792649,54.895069,9.793790
1386922676,1,0,485.9,0,35,16,0,0,0,-0.0292,-2002.5128,6.8213,0.4212,54.894917,9.793277,108.3,5.845,1.85,335.95,54.896664,9.792649,54.895069,9.793790
1386922676,1,0,485.9,0,32,20,0,0,0,-0.0292,-2011.0461,6.8213,0.4212,54.894901,9.793292,108.3,5.845,1.85,335.95,54.896664,9.792649,54.895069,9.793790
1386922677,1,0,485.9,0,23,24,0,0,0,-0.0292,-2017.1794,6.8213,0.4212,54.894886,9.793311,108.3,5.845,1.85,335.95,54.896664,9.792649,54.895069,9.793790
1386922677,1,0,485.9,0,17,20,0,0,0,-0.0292,-2021.7128,6.8213,0.4212,54.894875,9.793332,108.3,5.845,1.85,335.95,54.896664,9.792649,54.895069,9.793790
1386922677,1,0,485.9,0,12,16,0,0,0,-0.0292,-2024.9127,6.8213,0.4212,54.894859,9.793354,108.3,5.845,1.85,335.95,54.896664,9.792649,54.895069,9.793790
1386922677,1,0,485.9,0,9,12,0,0,0,-0.0292,-2027.3127,6.8213,0.4212,54.894848,9.793377,108.3,5.845,1.85,335.95,54.896664,9.792649,54.895069,9.793790
1386922678,1,0,485.9,0,7,8,0,0,0,-0.0292,-2029.1794,6.8213,0.4212,54.894833,9.793401,108.3,5.845,1.85,335.95,54.896664,9.792649,54.895069,9.793790
1386922678,1,0,485.9,0,5,4,0,0,0,-0.0292,-2030.5128,6.8213,0.4212,54.894821,9.793426,108.3,5.845,1.85,335.95,54.896664,9.792649,54.895069,9.793790
1386922678,1,0,485.9,0,4,8,0,713,50,-0.0292,-2031.5795,6.8213,0.4212,54.894814,9.793450,108.3,5.845,1.85,335.95,54.896664,9.792649,54.895069,9.793790
1386922678,1,0,485.9,0,2,4,0,713,100,-0.0292,-2032.1128,6.8213,0.4212,54.894802,9.793474,108.3,5.845,1.85,335.95,54.896664,9.792649,54.895069,9.793790
1386922679,1,0,485.9,0,2,0,0,713,150,-0.0292,-2032.6461,6.8213,0.4212,54.894791,9.793499,108.3,5.845,1.85,335.95,54.896664,9.792649,54.895069,9.793790
1386922679,1,0,485.9,0,1,4,0,713,200,-0.0292,-2032.9128,6.8213,0.4212,54.894779,9.793524,108.3,5.845,1.85,335.95,54.896664,9.792649,54.895069,9.793790
1386922679,1,0,485.9,0,1,0,0,713,250,-0.0292,-2033.1796,6.8213,0.4212,54.894768,9.793550,108.3,5.845,1.85,335.95,54.896664,9.792649,54.895069,9.793790
1386922679,1,0,485.9,0,1,4,0,713,300,-0.0292,-2033.4463,6.8213,0.4212,54.894756,9.793574,108.3,5.845,1.85,335.95,54.896664,9.792649,54.895069,9.793790
1386922680,1,0,485.9,0,1,0,0,713,350,-0.0292,-2033.7130,6.8213,0.4212,54.894745,9.793599,108.3,5.845,1.85,335.95,54.896664,9.792649,54.895069,9.793790
1386922680,1,0,483.5,0,3,4,0,713,400,-0.0292,-2034.5131,6.8213,0.4212,54.894737,9.793625,108.3,5.845,1.85,335.95,54.896664,9.792649,54.895069,9.793790
1386922680,1,0,390.9,0,35,8,0,713,450,-0.0292,-2043.8464,6.8213,0.4212,54.894730,9.793653,108.3,5.845,1.85,335.95,54.896664,9.792649,54.895069,9.793790
1386922680,1,0,390.9,0,35,12,0,713,500,-0.0292,-2053.1797,6.8213,0.4212,54.894722,9.793683,108.3,5.845,1.85,335.95,54.896664,9.792649,54.895069,9.793790
1386922681,1,0,390.9,0,35,16,0,870,550,-0.0292,-2062.5129,6.8213,0.4212,54.894722,9.793714,108.3,5.845,1.85,335.95,54.896664,9.792649,54.895069,9.793790
1386922681,1,0,390.9,0,35,20,0,870,600,-0.0292,-2071.8462,6.8213,0.4212,54.894726,9.793744,108.3,5.845,1.85,335.95,54.896664,9.792649,54.895069,9.793790
1386922681,1,0,390.9,0,35,24,0,746,650,-0.0292,-2081.1794,6.8213,0.4212,54.894726,9.793776,108.3,5.845,1.85,335.95,54.896664,9.792649,54.895069,9.793790
1386922681,1,0,390.9,0,35,28,0,603,600,-0.0292,-2090.5127,6.8213,0.4212,54.894730,9.793805,108.3,5.845,1.85,335.95,54.896664,9.792649,54.895069,9.793790
1386922682,1,0,390.9,0,35,32,0,455,550,-0.0292,-2099.8459,6.8213,0.4212,54.894737,9.793832,108.3,5.845,1.85,335.95,54.896664,9.792649,54.895069,9.793790
1386922682,1,0,390.9,0,29,28,0,307,500,-0.0292,-2107.5793,6.8213,0.4212,54.894749,9.793856,108.3,5.845,1.85,335.95,54.896664,9.792649,54.895069,9.793790
1386922682,1,0,390.9,0,21,24,0,190,450,-0.0292,-2113.1794,6.8213,0.4212,54.894764,9.793879,108.3,5.845,1.85,335.95,54.896664,9.792649,54.895069,9.793790
1386922682,1,0,390.9,0,16,20,0,114,400,-0.0292,-2117.4460,6.8213,0.4212,54.894779,9.793900,108.3,5.845,1.85,335.95,54.896664,9.792649,54.895069,9.793790
1386922683,1,0,390.9,0,12,16,0,65,350,-0.0292,-2120.6460,6.8213,0.4212,54.894791,9.793920,108.3,5.845,1.85,335.95,54.896664,9.792649,54.895069,9.793790
1386922683,1,0,390.9,0,8,12,0,35,300,-0.0292,-2122.7793,6.8213,0.4212,54.894806,9.793938,108.3,5.845,1.85,335.95,54.896664,9.792649,54.895069,9.793790
1386922683,1,0,390.9,0,6,8,0,20,250,-0.0292,-2124.3794,6.8213,0.4212,54.894821,9.793956,108.3,5.845,1.85,335.95,54.896664,9.792649,54.895069,9.793790
1386922683,1,0,390.9,0,5,4,0,11,200,-0.0292,-2125.7126,6.8213,0.4212,54.894836,9.793974,108.3,5.845,1.85,335.95,54.896664,9.792649,54.895069,9.793790
1386922684,1,0,390.9,0,3,0,0,5,150,-0.0292,-2126.5127,6.8213,0.4212,54.894852,9.793991,108.3,5.845,1.85,335.95,54.896664,9.792649,54.895069,9.793790
1386922684,1,0,390.9,0,3,4,0,3,100,-0.0292,-2127.3127,6.8213,0.4212,54.894867,9.794008,108.3,5.845,1.85,335.95,54.896664,9.792649,54.895069,9.793790
1386922684,1,0,390.9,0,2,0,0,1,50,-0.0292,-2127.8462,6.8213,0.4212,54.894882,9.794024,108.3,5.845,1.85,335.95,54.896664,9.792649,54.895069,9.793790
1386922684,1,0,390.9,0,1,4,0,0,0,-0.0292,-2128.1128,6.8213,0.4212,54.894897,9.794041,108.3,5.845,1.85,335.95,54.896664,9.792649,54.895069,9.793790
1386922685,1,0,390.9,0,1,0,0,0,0,-0.0292,-2128.3794,6.8213,0.4212,54.894909,9.794058,108.3,5.845,1.85,335.95,54.896664,9.792649,54.895069,9.793790
1386922685,1,0,390.9,0,1,4,0,0,0,-0.0292,-2128.6460,6.8213,0.4212,54.894924,9.794074,108.3,5.845,1.85,335.95,54.896664,9.792649,54.895069,9.793790
1386922685,1,0,390.9,0,0,0,0,0,0,-0.0292,-2128.6460,6.8213,0.4212,54.894939,9.794090,108.3,5.845,1.85,335.95,54.896664,9.792649,54.895069,9.793790
1386922685,1,0,390.9,0,0,4,0,0,0,-0.0292,-2128.6460,6.8213,0.4212,54.894955,9.794106,108.3,5.845,1.85,335.95,54.896664,9.792649,54.895069,9.793790
1386922686,1,0,390.9,0,0,0,0,0,0,-0.0292,-2128.6460,6.8213,0.4212,54.894970,9.794123,108.3,5.845,1.85,335.95,54.896664,9.792649,54.895069,9.793790
1386922686,1,0,390.9,0,0,4,0,0,0,-0.0292,-2128.6460,6.8213,0.4212,54.894989,9.794139,108.3,5.845,1.85,335.95,54.896664,9.792649,54.895069,9.793790
1386922686,1,0,390.9,0,0,0,0,0,0,-0.0292,-2128.6460,6.8213,0.4212,54.895004,9.794155,108.3,5.845,1.85,335.95,54.896664,9.792649,54.895069,9.793790
1386922686,1,0,390.9,0,0,4,0,0,0,-0.0292,-2128.6460,6.8213,0.4212,54.895020,9.794171,108.3,5.845,1.85,335.95,54.896664,9.792649,54.895069,9.793790
1386922687,1,0,390.9,0,0,0,0,0,0,-0.0292,-2128.6460,6.8213,0.4212,54.895039,9.794188,108.3,5.845,1.85,335.95,54.896664,9.792649,54.895069,9.793790
1386922687,1,0,390.9,0,0,4,0,0,0,-0.0292,-2128.6460,6.8213,0.4212,54.895054,9.794204,108.3,5.845,1.85,335.95,54.896664,9.792649,54.895069,9.793790
1386922687,1,0,390.9,0,0,0,0,0,0,-0.0292,-2128.6460,6.8213,0.4212,54.895069,9.794220,108.3,5.845,1.85,335.95,54.896664,9.792649,54.895069,9.793790
1386922687,1,0,390.9,0,0,4,0,0,0,-0.0292,-2128.6460,6.8213,0.4212,54.895081,9.794236,108.3,5.845,1.85,335.95,54.896664,9.792649,54.895069,9.793790
1386922688,1,0,390.9,0,0,0,0,0,0,-0.0292,-2128.6460,6.8213,0.4212,54.895096,9.794252,108.3,5.845,1.85,335.95,54.896664,9.792649,54.895069,9.793790
1386922688,1,0,390.9,0,0,4,0,0,0,-0.0292,-2128.6460,6.8213,0.4212,54.895111,9.794269,108.3,5.845,1.85,335.95,54.896664,9.792649,54.895069,9.793790
1386922688,1,0,390.9,0,0,0,0,0,0,-0.0292,-2128.6460,6.8213,0.4212,54.895126,9.794285,108.3,5.845,1.85,335.95,54.896664,9.792649,54.895069,9.793790
1386922688,1,0,258.7,0,35,4,0,0,0,-0.0292,-2137.9792,6.8213,0.4212,54.895142,9.794296,108.3,5.845,1.85,335.95,54.896664,9.792649,54.895069,9.793790
1386922689,1,0,256.1,0,35,8,0,0,0,-0.0292,-2147.3125,6.8213,0.4212,54.895161,9.794304,108.3,5.845,1.85,335.95,54.896664,9.792649,54.895069,9.793790
1386922689,1,0,252.9,0,35,12,0,0,0,-0.0292,-2156.6458,6.8213,0.4212,54.895180,9.794305,108.3,5.845,1.85,335.95,54.896664,9.792649,54.895069,9.793790
1386922689,1,0,249.6,0,35,16,0,0,0,-0.0292,-2165.9790,6.8213,0.4212,54.895199,9.794301,108.3,5.845,1.85,335.95,54.896664,9.792649,54.895069,9.793790
1386922689,1,0,246.3,0,35,20,0,0,0,-0.0292,-2175.3123,6.8213,0.4212,54.895214,9.794293,108.3,5.845,1.85,335.95,54.896664,9.792649,54.895069,9.793790
1386922690,1,0,603.5,0,35,24,0,0,0,-0.0292,-2184.6455,6.8213,0.4212,54.895233,9.794281,108.3,5.845,1.85,335.95,54.896664,9.792649,54.895069,9.793790
1386922690,1,0,600.0,0,35,28,0,0,0,-0.0292,-2193.9788,6.8213,0.4212,54.895248,9.794264,108.3,5.845,1.85,335.95,54.896664,9.792649,54.895069,9.793790
1386922690,1,0,596.8,0,35,32,0,0,0,-0.0292,-2203.3120,6.8213,0.4212,54.895260,9.794242,108.3,5.845,1.85,335.95,54.896664,9.792649,54.895069,9.793790
1386922690,1,0,593.9,0,35,36,0,0,0,-0.0292,-2212.6453,6.8213,0.4212,54.895271,9.794217,108.3,5.845,1.85,335.95,54.896664,9.792649,54.895069,9.793790
1386922691,1,0,590.7,0,35,32,0,0,0,-0.0292,-2221.9785,6.8213,0.4212,54.895279,9.794190,108.3,5.845,1.85,335.95,54.896664,9.792649,54.895069,9.793790
1386922691,1,0,587.8,0,35,36,0,0,0,-0.0292,-2231.3118,6.8213,0.4212,54.895287,9.794161,108.3,5.845,1.85,335.95,54.896664,9.792649,54.895069,9.793790
1386922691,1,0,584.6,0,35,32,0,0,0,-0.0292,-2240.6450,6.8213,0.4212,54.895290,9.794130,108.3,5.845,1.85,335.95,54.896664,9.792649,54.895069,9.793790
1386922691,1,0,581.7,0,35,36,0,1,50,-0.0292,-2249.9783,6.8213,0.4212,54.895287,9.794100,108.3,5.845,1.85,335.95,54.896664,9.792649,54.895069,9.793790
1386922692,1,0,579.5,0,35,32,0,58,100,-0.0292,-2259.3115,6.8213,0.4212,54.895287,9.794068,108.3,5.845,1.85,335.95,54.896664,9.792649,54.895069,9.793790
1386922692,1,0,576.5,0,35,36,0,173,150,-0.0292,-2268.6448,6.8213,0.4212,54.895283,9.794039,108.3,5.845,1.85,335.95,54.896664,9.792649,54.895069,9.793790
1386922692,1,0,574.0,0,35,32,0,313,200,-0.0292,-2277.9780,6.8213,0.4212,54.895275,9.794011,108.3,5.845,1.85,335.95,54.896664,9.792649,54.895069,9.793790
1386922692,1,0,571.9,0,30,28,0,461,250,-0.0292,-2285.9780,6.8213,0.4212,54.895264,9.793985,108.3,5.845,1.85,335.95,54.896664,9.792649,54.895069,9.793790
1386922693,1,0,570.2,0,24,24,0,588,300,-0.0292,-2292.3779,6.8213,0.4212,54.895252,9.793962,108.3,5.845,1.85,335.95,54.896664,9.792649,54.895069,9.793790
1386922693,1,0,568.6,0,19,20,0,687,350,-0.0292,-2297.4446,6.8213,0.4212,54.895237,9.793941,108.3,5.845,1.85,335.95,54.896664,9.792649,54.895069,9.793790
1386922693,1,0,567.4,0,15,16,0,763,400,-0.0292,-2301.4446,6.8213,0.4212,54.895226,9.793921,108.3,5.845,1.85,335.95,54.896664,9.792649,54.895069,9.793790
1386922693,1,0,566.0,0,13,12,0,822,450,-0.0292,-2304.9111,6.8213,0.4212,54.895210,9.793903,108.3,5.845,1.85,335.95,54.896664,9.792649,54.895069,9.793790
1386922694,1,0,565.0,0,10,8,0,870,500,-0.0292,-2307.5779,6.8213,0.4212,54.895195,9.793887,108.3,5.845,1.85,335.95,54.896664,9.792649,54.895069,9.793790
1386922694,1,0,564.1,0,8,12,0,870,550,-0.0292,-2309.7112,6.8213,0.4212,54.895176,9.793871,108.3,5.845,1.85,335.95,54.896664,9.792649,54.895069,9.793790
1386922694,1,0,563.7,0,7,8,0,870,600,-0.0292,-2311.5779,6.8213,0.4212,54.895161,9.793857,108.3,5.845,1.85,335.95,54.896664,9.792649,54.895069,9.793790
1386922694,1,0,562.9,0,6,4,0,870,650,-0.0292,-2313.1780,6.8213,0.4212,54.895145,9.793842,108.3,5.845,1.85,335.95,54.896664,9.792649,54.895069,9.793790
1386922695,1,0,561.7,0,5,8,0,870,700,-0.0292,-2314.5112,6.8213,0.4212,54.895126,9.793829,108.3,5.845,1.85,335.95,54.896664,9.792649,54.895069,9.793790
1386922695,1,0,561.6,0,4,4,0,870,750,-0.0292,-2315.5779,6.8213,0.4212,54.895107,9.793817,108.3,5.845,1.85,335.95,54.896664,9.792649,54.895069,9.793790
1386922695,1,0,562.0,0,2,0,0,870,800,-0.0292,-2316.1113,6.8213,0.4212,54.895092,9.793804,108.3,5.845,1.85,335.95,54.895069,9.793790,54.895348,9.797490
1386922695,1,0,545.9,0,18,4,0,870,850,-0.0292,-2320.9114,6.8213,0.4212,54.895077,9.793794,108.3,5.845,1.85,335.95,54.895069,9.793790,54.895348,9.797490
1386922696,1,0,545.9,0,13,8,0,713,800,-0.0292,-2324.3779,6.8213,0.4212,54.895058,9.793785,108.3,5.845,1.85,335.95,54.895069,9.793790,54.895348,9.797490
1386922696,1,0,545.9,0,10,12,0,713,750,-0.0292,-2327.0447,6.8213,0.4212,54.895039,9.793778,108.3,5.845,1.85,335.95,54.895069,9.793790,54.895348,9.797490
1386922696,1,0,545.9,0,7,8,0,713,700,-0.0292,-2328.9114,6.8213,0.4212,54.895023,9.793773,108.3,5.845,1.85,335.95,54.895069,9.793790,54.895348,9.797490
1386922696,1,0,545.9,0,5,4,0,713,750,-0.0292,-2330.2446,6.8213,0.4212,54.895004,9.793768,108.3,5.845,1.85,335.95,54.895069,9.793790,54.895348,9.797490
1386922697,1,0,545.9,0,4,8,0,713,700,-0.0292,-2331.3113,6.8213,0.4212,54.894985,9.793763,108.3,5.845,1.85,335.95,54.895069,9.793790,54.895348,9.797490
1386922697,1,0,545.9,0,3,4,0,0,650,-0.0292,-2332.1113,6.8213,0.4212,54.894966,9.793758,108.3,5.845,1.85,335.95,54.895069,9.793790,54.895348,9.797490
1386922697,1,0,545.9,0,2,0,0,0,600,-0.0292,-2332.6448,6.8213,0.4212,54.894951,9.793755,108.3,5.845,1.85,335.95,54.895069,9.793790,54.895348,9.797490
1386922697,1,0,545.9,0,1,4,0,0,550,-0.0292,-2332.9114,6.8213,0.4212,54.894932,9.793751,108.3,5.845,1.85,335.95,54.895069,9.793790,54.895348,9.797490
1386922698,1,0,545.9,0,1,0,0,0,500,-0.0292,-2333.1780,6.8213,0.4212,54.894913,9.793747,108.3,5.845,1.85,335.95,54.895069,9.793790,54.895348,9.797490
1386922698,1,0,545.9,0,1,4,0,0,450,-0.0292,-2333.4446,6.8213,0.4212,54.894894,9.793743,108.3,5.845,1.85,335.95,54.895069,9.793790,54.895348,9.797490
1386922698,1,0,545.9,0,1,0,0,0,400,-0.0292,-2333.7112,6.8213,0.4212,54.894878,9.793740,108.3,5.845,1.85,335.95,54.895069,9.793790,54.895348,9.797490
1386922698,1,0,545.9,0,0,4,0,0,350,-0.0292,-2333.7112,6.8213,0.4212,54.894859,9.793737,108.3,5.845,1.85,335.95,54.895069,9.793790,54.895348,9.797490
1386922699,1,0,545.9,0,0,0,0,0,300,-0.0292,-2333.7112,6.8213,0.4212,54.894840,9.793735,108.3,5.845,1.85,335.95,54.895069,9.793790,54.895348,9.797490
1386922699,1,0,545.9,0,0,4,0,0,250,-0.0292,-2333.7112,6.8213,0.4212,54.894825,9.793732,108.3,5.845,1.85,335.95,54.895069,9.793790,54.895348,9.797490
1386922699,1,0,545.9,0,0,0,0,0,200,-0.0292,-2333.7112,6.8213,0.4212,54.894806,9.793729,108.3,5.845,1.85,335.95,54.895069,9.793790,54.895348,9.797490
1386922699,1,0,545.9,0,0,4,0,0,150,-0.0292,-2333.7112,6.8213,0.4212,54.894787,9.793726,108.3,5.845,1.85,335.95,54.895069,9.793790,54.895348,9.797490
1386922700,1,0,545.9,0,0,0,0,0,100,-0.0292,-2333.7112,6.8213,0.4212,54.894768,9.793722,108.3,5.845,1.85,335.95,54.895069,9.793790,54.895348,9.797490
1386922700,1,0,545.9,0,0,4,0,0,50,-0.0292,-2333.7112,6.8213,0.4212,54.894753,9.793718,108.3,5.845,1.85,335.95,54.895069,9.793790,54.895348,9.797490
1386922700,1,0,545.9,0,0,0,0,0,0,-0.0292,-2333.7112,6.8213,0.4212,54.894733,9.793715,108.3,5.845,1.85,335.95,54.895069,9.793790,54.895348,9.797490
1386922700,1,0,545.9,0,0,4,0,0,0,-0.0292,-2333.7112,6.8213,0.4212,54.894714,9.793711,108.3,5.845,1.85,335.95,54.895069,9.793790,54.895348,9.797490
1386922701,1,0,485.9,0,35,8,0,0,0,-0.0292,-2343.0444,6.8213,0.4212,54.894695,9.793712,108.3,5.845,1.85,335.95,54.895069,9.793790,54.895348,9.797490
1386922701,1,0,485.9,0,35,12,0,0,0,-0.0292,-2352.3777,6.8213,0.4212,54.894680,9.793718,108.3,5.845,1.85,335.95,54.895069,9.793790,54.895348,9.797490
1386922701,1,0,485.9,0,35,16,0,0,0,-0.0292,-2361.7109,6.8213,0.4212,54.894661,9.793730,108.3,5.845,1.85,335.95,54.895069,9.793790,54.895348,9.797490
1386922701,1,0,485.9,0,32,20,0,0,0,-0.0292,-2370.2444,6.8213,0.4212,54.894646,9.793746,108.3,5.845,1.85,335.95,54.895069,9.793790,54.895348,9.797490
1386922702,1,0,485.9,0,24,24,0,0,0,-0.0292,-2376.6443,6.8213,0.4212,54.894634,9.793764,108.3,5.845,1.85,335.95,54.895069,9.793790,54.895348,9.797490
1386922702,1,0,485.9,0,17,20,0,0,0,-0.0292,-2381.1777,6.8213,0.4212,54.894619,9.793784,108.3,5.845,1.85,335.95,54.895069,9.793790,54.895348,9.797490
1386922702,1,0,485.9,0,13,16,0,0,0,-0.0292,-2384.6443,6.8213,0.4212,54.894608,9.793806,108.3,5.845,1.85,335.95,54.895069,9.793790,54.895348,9.797490
1386922702,1,0,485.9,0,9,12,0,0,0,-0.0292,-2387.0442,6.8213,0.4212,54.894592,9.793829,108.3,5.845,1.85,335.95,54.895069,9.793790,54.895348,9.797490
1386922703,1,0,485.9,0,7,8,0,0,0,-0.0292,-2388.9109,6.8213,0.4212,54.894581,9.793853,108.3,5.845,1.85,335.95,54.895069,9.793790,54.895348,9.797490
1386922703,1,0,485.9,0,5,4,0,0,0,-0.0292,-2390.2441,6.8213,0.4212,54.894569,9.793877,108.3,5.845,1.85,335.95,54.895069,9.793790,54.895348,9.797490
1386922703,1,0,485.9,0,4,8,0,0,0,-0.0292,-2391.3108,6.8213,0.4212,54.894558,9.793900,108.3,5.845,1.85,335.95,54.895069,9.793790,54.895348,9.797490
1386922703,1,0,485.9,0,3,4,0,713,50,-0.0292,-2392.1108,6.8213,0.4212,54.894547,9.793925,108.3,5.845,1.85,335.95,54.895069,9.793790,54.895348,9.797490
1386922704,1,0,485.9,0,2,0,0,713,100,-0.0292,-2392.6443,6.8213,0.4212,54.894535,9.793950,108.3,5.845,1.85,335.95,54.895069,9.793790,54.895348,9.797490
1386922704,1,0,485.9,0,1,4,0,713,150,-0.0292,-2392.9109,6.8213,0.4212,54.894524,9.793975,108.3,5.845,1.85,335.95,54.895069,9.793790,54.895348,9.797490
1386922704,1,0,485.9,0,1,0,0,713,200,-0.0292,-2393.1775,6.8213,0.4212,54.894516,9.794000,108.3,5.845,1.85,335.95,54.895069,9.793790,54.895348,9.797490
1386922704,1,0,485.9,0,1,4,0,713,250,-0.0292,-2393.4441,6.8213,0.4212,54.894505,9.794025,108.3,5.845,1.85,335.95,54.895069,9.793790,54.895348,9.797490
1386922705,1,0,485.9,0,1,0,0,713,300,-0.0292,-2393.7107,6.8213,0.4212,54.894493,9.794050,108.3,5.845,1.85,335.95,54.895069,9.793790,54.895348,9.797490
1386922705,1,0,485.9,0,0,4,0,713,350,-0.0292,-2393.7107,6.8213,0.4212,54.894482,9.794075,108.3,5.845,1.85,335.95,54.895069,9.793790,54.895348,9.797490
1386922705,1,0,443.2,0,35,8,0,713,400,-0.0292,-2403.0439,6.8213,0.4212,54.894470,9.794103,108.3,5.845,1.85,335.95,54.895069,9.793790,54.895348,9.797490
1386922705,1,0,425.9,0,35,12,0,713,450,-0.0292,-2412.3772,6.8213,0.4212,54.894466,9.794132,108.3,5.845,1.85,335.95,54.895069,9.793790,54.895348,9.797490
1386922706,1,0,425.6,0,35,16,0,870,500,-0.0292,-2421.7104,6.8213,0.4212,54.894463,9.794163,108.3,5.845,1.85,335.95,54.895069,9.793790,54.895348,9.797490
1386922706,1,0,425.3,0,33,20,0,870,550,-0.0292,-2430.5105,6.8213,0.4212,54.894463,9.794194,108.3,5.845,1.85,335.95,54.895069,9.793790,54.895348,9.797490
1386922706,1,0,425.1,0,24,24,0,766,600,-0.0292,-2436.9104,6.8213,0.4212,54.894463,9.794225,108.3,5.845,1.85,335.95,54.895069,9.793790,54.895348,9.797490
1386922707,1,0,424.9,0,18,20,0,669,650,-0.0292,-2441.7104,6.8213,0.4212,54.894466,9.794255,108.3,5.845,1.85,335.95,54.895069,9.793790,54.895348,9.797490
1386922707,1,0,424.8,0,13,16,0,595,600,-0.0292,-2445.1770,6.8213,0.4212,54.894470,9.794286,108.3,5.845,1.85,335.95,54.895069,9.793790,54.895348,9.797490
1386922707,1,0,424.7,0,10,12,0,540,550,-0.0292,-2447.8438,6.8213,0.4212,54.894478,9.794315,108.3,5.845,1.85,335.95,54.895069,9.793790,54.895348,9.797490
1386922707,1,0,424.7,0,7,8,0,498,500,-0.0292,-2449.7104,6.8213,0.4212,54.894485,9.794345,108.3,5.845,1.85,335.95,54.895069,9.793790,54.895348,9.797490
1386922708,1,0,424.7,0,6,4,0,468,450,-0.0292,-2451.3105,6.8213,0.4212,54.894489,9.794374,108.3,5.845,1.85,335.95,54.895069,9.793790,54.895348,9.797490
1386922708,1,0,424.5,0,4,8,0,442,400,-0.0292,-2452.3772,6.8213,0.4212,54.894497,9.794403,108.3,5.845,1.85,335.95,54.895069,9.793790,54.895348,9.797490
1386922708,1,0,424.5,0,3,4,0,425,450,-0.0292,-2453.1772,6.8213,0.4212,54.894505,9.794432,108.3,5.845,1.85,335.95,54.895069,9.793790,54.895348,9.797490
1386922708,1,0,424.5,0,2,0,0,413,400,-0.0292,-2453.7107,6.8213,0.4212,54.894508,9.794459,108.3,5.845,1.85,335.95,54.895069,9.793790,54.895348,9.797490
1386922709,1,0,424.4,0,2,4,0,404,450,-0.0292,-2454.2441,6.8213,0.4212,54.894516,9.794488,108.3,5.845,1.85,335.95,54.895069,9.793790,54.895348,9.797490
1386922709,1,0,424.4,0,1,0,0,396,400,-0.0292,-2454.5107,6.8213,0.4212,54.894524,9.794517,108.3,5.845,1.85,335.95,54.895069,9.793790,54.895348,9.797490
1386922709,1,0,424.4,0,1,4,0,391,350,-0.0292,-2454.7773,6.8213,0.4212,54.894531,9.794545,108.3,5.845,1.85,335.95,54.895069,9.793790,54.895348,9.797490
1386922709,1,0,424.4,0,1,0,0,387,400,-0.0292,-2455.0439,6.8213,0.4212,54.894539,9.794574,108.3,5.845,1.85,335.95,54.895069,9.793790,54.895348,9.797490
1386922710,1,0,424.4,0,1,4,0,383,350,-0.0292,-2455.3105,6.8213,0.4212,54.894547,9.794601,108.3,5.845,1.85,335.95,54.895069,9.793790,54.895348,9.797490
1386922710,1,0,424.4,0,0,0,0,379,400,-0.0292,-2455.3105,6.8213,0.4212,54.894554,9.794630,108.3,5.845,1.85,335.95,54.895069,9.793790,54.895348,9.797490
1386922710,1,0,424.4,0,0,4,0,379,350,-0.0292,-2455.3105,6.8213,0.4212,54.894562,9.794659,108.3,5.845,1.85,335.95,54.895069,9.793790,54.895348,9.797490
1386922710,1,0,424.4,0,0,0,0,379,400,-0.0292,-2455.3105,6.8213,0.4212,54.894569,9.794686,108.3,5.845,1.85,335.95,54.895069,9.793790,54.895348,9.797490
1386922711,1,0,424.4,0,0,4,0,379,350,-0.0292,-2455.3105,6.8213,0.4212,54.894577,9.794715,108.3,5.845,1.85,335.95,54.895069,9.793790,54.895348,9.797490
1386922711,1,0,424.4,0,0,0,0,379,400,-0.0292,-2455.3105,6.8213,0.4212,54.894581,9.794744,108.3,5.845,1.85,335.95,54.895069,9.793790,54.895348,9.797490
1386922711,1,0,424.2,0,0,4,0,379,350,-0.0292,-2455.3105,6.8213,0.4212,54.894588,9.794771,108.3,5.845,1.85,335.95,54.895069,9.793790,54.895348,9.797490
1386922711,1,0,424.2,0,0,0,0,379,400,-0.0292,-2455.3105,6.8213,0.4212,54.894596,9.794800,108.3,5.845,1.85,335.95,54.895069,9.793790,54.895348,9.797490
1386922712,1,0,424.2,0,0,4,0,379,350,-0.0292,-2455.3105,6.8213,0.4212,54.894604,9.794828,108.3,5.845,1.85,335.95,54.895069,9.793790,54.895348,9.797490
1386922712,1,0,424.2,0,0,0,0,379,400,-0.0292,-2455.3105,6.8213,0.4212,54.894611,9.794856,108.3,5.845,1.85,335.95,54.895069,9.793790,54.895348,9.797490
1386922712,1,0,424.2,0,0,4,0,379,350,-0.0292,-2455.3105,6.8213,0.4212,54.894619,9.794885,108.3,5.845,1.85,335.95,54.895069,9.793790,54.895348,9.797490
1386922712,1,0,424.2,0,0,0,0,379,400,-0.0292,-2455.3105,6.8213,0.4212,54.894627,9.794913,108.3,5.845,1.85,335.95,54.895069,9.793790,54.895348,9.797490
1386922713,1,0,424.2,0,0,4,0,379,350,-0.0292,-2455.3105,6.8213,0.4212,54.894630,9.794941,108.3,5.845,1.85,335.95,54.895069,9.793790,54.895348,9.797490
1386922713,1,0,424.1,0,1,0,0,379,400,-0.0292,-2455.5771,6.8213,0.4212,54.894638,9.794970,108.3,5.845,1.85,335.95,54.895069,9.793790,54.895348,9.797490
1386922713,1,0,424.1,0,0,4,0,374,350,-0.0292,-2455.5771,6.8213,0.4212,54.894646,9.794998,108.3,5.845,1.85,335.95,54.895069,9.793790,54.895348,9.797490
1386922713,1,0,424.0,0,0,0,0,374,400,-0.0292,-2455.5771,6.8213,0.4212,54.894653,9.795026,108.3,5.845,1.85,335.95,54.895069,9.793790,54.895348,9.797490
1386922714,1,0,424.0,0,0,4,0,374,350,-0.0292,-2455.5771,6.8213,0.4212,54.894661,9.795054,108.3,5.845,1.85,335.95,54.895069,9.793790,54.895348,9.797490
1386922714,1,0,424.0,0,0,0,0,374,400,-0.0292,-2455.5771,6.8213,0.4212,54.894669,9.795083,108.3,5.845,1.85,335.95,54.895069,9.793790,54.895348,9.797490
1386922714,1,0,424.0,0,0,4,0,374,350,-0.0292,-2455.5771,6.8213,0.4212,54.894676,9.795111,108.3,5.845,1.85,335.95,54.895069,9.793790,54.895348,9.797490
1386922714,1,0,424.0,0,0,0,0,374,400,-0.0292,-2455.5771,6.8213,0.4212,54.894680,9.795139,108.3,5.845,1.85,335.95,54.895069,9.793790,54.895348,9.797490
1386922715,1,0,423.9,0,1,4,0,374,350,-0.0292,-2455.8438,6.8213,0.4212,54.894688,9.795167,108.3,5.845,1.85,335.95,54.895069,9.793790,54.895348,9.797490
1386922715,1,0,423.9,0,0,0,0,370,400,-0.0292,-2455.8438,6.8213,0.4212,54.894695,9.795195,108.3,5.845,1.85,335.95,54.895069,9.793790,54.895348,9.797490
1386922715,1,0,423.8,0,0,4,0,370,350,-0.0292,-2455.8438,6.8213,0.4212,54.894703,9.795223,108.3,5.845,1.85,335.95,54.895069,9.793790,54.895348,9.797490
1386922715,1,0,423.8,0,0,0,0,370,400,-0.0292,-2455.8438,6.8213,0.4212,54.894711,9.795251,108.3,5.845,1.85,335.95,54.895069,9.793790,54.895348,9.797490
1386922716,1,0,423.8,0,0,4,0,370,350,-0.0292,-2455.8438,6.8213,0.4212,54.894718,9.795279,108.3,5.845,1.85,335.95,54.895069,9.793790,54.895348,9.797490
1386922716,1,0,423.8,0,0,0,0,370,400,-0.0292,-2455.8438,6.8213,0.4212,54.894726,9.795307,108.3,5.845,1.85,335.95,54.895069,9.793790,54.895348,9.797490
1386922716,1,0,423.8,0,0,4,0,370,350,-0.0292,-2455.8438,6.8213,0.4212,54.894733,9.795335,108.3,5.845,1.85,335.95,54.895069,9.793790,54.895348,9.797490
1386922716,1,0,423.8,0,0,0,0,370,400,-0.0292,-2455.8438,6.8213,0.4212,54.894741,9.795362,108.3,5.845,1.85,335.95,54.895069,9.793790,54.895348,9.797490
1386922717,1,0,423.8,0,0,4,0,370,350,-0.0292,-2455.8438,6.8213,0.4212,54.894749,9.795391,108.3,5.845,1.85,335.95,54.895069,9.793790,54.895348,9.797490
1386922717,1,0,423.8,0,0,0,0,370,400,-0.0292,-2455.8438,6.8213,0.4212,54.894760,9.795419,108.3,5.845,1.85,335.95,54.895069,9.793790,54.895348,9.797490
1386922717,1,0,423.9,0,0,4,0,370,350,-0.0292,-2455.8438,6.8213,0.4212,54.894768,9.795446,108.3,5.845,1.85,335.95,54.895069,9.793790,54.895348,9.797490
1386922717,1,0,423.9,0,0,0,0,370,400,-0.0292,-2455.8438,6.8213,0.4212,54.894775,9.795475,108.3,5.845,1.85,335.95,54.895069,9.793790,54.895348,9.797490
1386922718,1,0,423.9,0,0,4,0,370,350,-0.0292,-2455.8438,6.8213,0.4212,54.894783,9.795503,108.3,5.845,1.85,335.95,54.895069,9.793790,54.895348,9.797490
1386922718,1,0,423.9,0,0,0,0,370,400,-0.0292,-2455.8438,6.8213,0.4212,54.894791,9.795531,108.3,5.845,1.85,335.95,54.895069,9.793790,54.895348,9.797490
1386922718,1,0,423.8,0,0,4,0,370,350,-0.0292,-2455.8438,6.8213,0.4212,54.894798,9.795560,108.3,5.845,1.85,335.95,54.895069,9.793790,54.895348,9.797490
1386922718,1,0,423.8,0,0,0,0,370,400,-0.0292,-2455.8438,6.8213,0.4212,54.894810,9.795588,108.3,5.845,1.85,335.95,54.895069,9.793790,54.895348,9.797490
1386922719,1,0,424.0,0,0,4,0,370,350,-0.0292,-2455.8438,6.8213,0.4212,54.894817,9.795616,108.3,5.845,1.85,335.95,54.895069,9.793790,54.895348,9.797490
1386922719,1,0,423.9,0,0,0,0,370,400,-0.0292,-2455.8438,6.8213,0.4212,54.894825,9.795645,108.3,5.845,1.85,335.95,54.895069,9.793790,54.895348,9.797490
1386922719,1,0,423.9,0,0,4,0,370,350,-0.0292,-2455.8438,6.8213,0.4212,54.894833,9.795672,108.3,5.845,1.85,335.95,54.895069,9.793790,54.895348,9.797490
1386922719,1,0,423.9,0,0,0,0,370,400,-0.0292,-2455.8438,6.8213,0.4212,54.894840,9.795701,108.3,5.845,1.85,335.95,54.895069,9.793790,54.895348,9.797490
1386922720,1,0,423.9,0,0,4,0,370,350,-0.0292,-2455.8438,6.8213,0.4212,54.894848,9.795730,108.3,5.845,1.85,335.95,54.895069,9.793790,54.895348,9.797490
1386922720,1,0,423.9,0,0,0,0,370,400,-0.0292,-2455.8438,6.8213,0.4212,54.894852,9.795757,108.3,5.845,1.85,335.95,54.895069,9.793790,54.895348,9.797490
1386922720,1,0,423.7,0,0,4,0,370,350,-0.0292,-2455.8438,6.8213,0.4212,54.894859,9.795786,108.3,5.845,1.85,335.95,54.895069,9.793790,54.895348,9.797490
1386922720,1,0,423.7,0,0,0,0,370,400,-0.0292,-2455.8438,6.8213,0.4212,54.894867,9.795815,108.3,5.845,1.85,335.95,54.895069,9.793790,54.895348,9.797490
1386922721,1,0,423.6,0,1,4,0,370,350,-0.0292,-2456.1104,6.8213,0.4212,54.894875,9.795842,108.3,5.845,1.85,335.95,54.895069,9.793790,54.895348,9.797490
1386922721,1,0,423.6,0,0,0,0,366,400,-0.0292,-2456.1104,6.8213,0.4212,54.894882,9.795871,108.3,5.845,1.85,335.95,54.895069,9.793790,54.895348,9.797490
1386922721,1,0,423.6,0,0,4,0,366,350,-0.0292,-2456.1104,6.8213,0.4212,54.894890,9.795898,108.3,5.845,1.85,335.95,54.895069,9.793790,54.895348,9.797490
1386922721,1,0,423.6,0,0,0,0,366,400,-0.0292,-2456.1104,6.8213,0.4212,54.894897,9.795926,108.3,5.845,1.85,335.95,54.895069,9.793790,54.895348,9.797490
1386922722,1,0,423.6,0,0,4,0,366,350,-0.0292,-2456.1104,6.8213,0.4212,54.894905,9.795955,108.3,5.845,1.85,335.95,54.895069,9.793790,54.895348,9.797490
1386922722,1,0,423.5,0,0,0,0,366,400,-0.0292,-2456.1104,6.8213,0.4212,54.894913,9.795982,108.3,5.845,1.85,335.95,54.895069,9.793790,54.895348,9.797490
1386922722,1,0,423.5,0,0,4,0,366,350,-0.0292,-2456.1104,6.8213,0.4212,54.894920,9.796010,108.3,5.845,1.85,335.95,54.895069,9.793790,54.895348,9.797490
1386922722,1,0,423.5,0,0,0,0,366,400,-0.0292,-2456.1104,6.8213,0.4212,54.894932,9.796039,108.3,5.845,1.85,335.95,54.895069,9.793790,54.895348,9.797490
1386922723,1,0,423.7,0,0,4,0,366,350,-0.0292,-2456.1104,6.8213,0.4212,54.894939,9.796066,108.3,5.845,1.85,335.95,54.895069,9.793790,54.895348,9.797490
1386922723,1,0,423.6,0,0,0,0,366,400,-0.0292,-2456.1104,6.8213,0.4212,54.894947,9.796094,108.3,5.845,1.85,335.95,54.895069,9.793790,54.895348,9.797490
1386922723,1,0,423.6,0,0,4,0,366,350,-0.0292,-2456.1104,6.8213,0.4212,54.894955,9.796123,108.3,5.845,1.85,335.95,54.895069,9.793790,54.895348,9.797490
1386922723,1,0,423.6,0,0,0,0,366,400,-0.0292,-2456.1104,6.8213,0.4212,54.894962,9.796150,108.3,5.845,1.85,335.95,54.895069,9.793790,54.895348,9.797490
1386922724,1,0,423.6,0,0,4,0,366,350,-0.0292,-2456.1104,6.8213,0.4212,54.894970,9.796178,108.3,5.845,1.85,335.95,54.895069,9.793790,54.895348,9.797490
1386922724,1,0,423.6,0,0,0,0,366,400,-0.0292,-2456.1104,6.8213,0.4212,54.894981,9.796206,108.3,5.845,1.85,335.95,54.895069,9.793790,54.895348,9.797490
1386922724,1,0,423.8,0,0,4,0,366,350,-0.0292,-2456.1104,6.8213,0.4212,54.894989,9.796234,108.3,5.845,1.85,335.95,54.895069,9.793790,54.895348,9.797490
1386922724,1,0,423.7,0,0,0,0,366,400,-0.0292,-2456.1104,6.8213,0.4212,54.894997,9.796262,108.3,5.845,1.85,335.95,54.895069,9.793790,54.895348,9.797490
1386922725,1,0,423.7,0,0,4,0,366,350,-0.0292,-2456.1104,6.8213,0.4212,54.895004,9.796290,108.3,5.845,1.85,335.95,54.895069,9.793790,54.895348,9.797490
1386922725,1,0,423.7,0,0,0,0,366,400,-0.0292,-2456.1104,6.8213,0.4212,54.895012,9.796318,108.3,5.845,1.85,335.95,54.895069,9.793790,54.895348,9.797490
1386922725,1,0,423.7,0,0,4,0,366,350,-0.0292,-2456.1104,6.8213,0.4212,54.895020,9.796346,108.3,5.845,1.85,335.95,54.895069,9.793790,54.895348,9.797490
1386922725,1,0,423.6,0,0,0,0,366,400,-0.0292,-2456.1104,6.8213,0.4212,54.895031,9.796374,108.3,5.845,1.85,335.95,54.895069,9.793790,54.895348,9.797490
1386922726,1,0,423.9,0,0,4,0,366,350,-0.0292,-2456.1104,6.8213,0.4212,54.895039,9.796402,108.3,5.845,1.85,335.95,54.895069,9.793790,54.895348,9.797490
1386922726,1,0,423.9,0,0,0,0,366,400,-0.0292,-2456.1104,6.8213,0.4212,54.895046,9.796431,108.3,5.845,1.85,335.95,54.895069,9.793790,54.895348,9.797490
1386922726,1,0,423.8,0,0,4,0,366,350,-0.0292,-2456.1104,6.8213,0.4212,54.895054,9.796459,108.3,5.845,1.85,335.95,54.895069,9.793790,54.895348,9.797490
1386922726,1,0,423.8,0,0,0,0,366,400,-0.0292,-2456.1104,6.8213,0.4212,54.895061,9.796487,108.3,5.845,1.85,335.95,54.895069,9.793790,54.895348,9.797490
1386922727,1,0,423.8,0,0,4,0,366,350,-0.0292,-2456.1104,6.8213,0.4212,54.895069,9.796515,108.3,5.845,1.85,335.95,54.895069,9.793790,54.895348,9.797490
1386922727,1,0,423.7,0,0,0,0,366,400,-0.0292,-2456.1104,6.8213,0.4212,54.895077,9.796544,108.3,5.845,1.85,335.95,54.895069,9.793790,54.895348,9.797490
1386922727,1,0,423.7,0,0,4,0,366,350,-0.0292,-2456.1104,6.8213,0.4212,54.895084,9.796572,108.3,5.845,1.85,335.95,54.895069,9.793790,54.895348,9.797490
1386922727,1,0,423.6,0,0,0,0,366,400,-0.0292,-2456.1104,6.8213,0.4212,54.895092,9.796600,108.3,5.845,1.85,335.95,54.895069,9.793790,54.895348,9.797490
1386922728,1,0,423.6,0,0,4,0,366,350,-0.0292,-2456.1104,6.8213,0.4212,54.895103,9.796628,108.3,5.845,1.85,335.95,54.895069,9.793790,54.895348,9.797490
1386922728,1,0,423.9,0,0,0,0,366,400,-0.0292,-2456.1104,6.8213,0.4212,54.895111,9.796656,108.3,5.845,1.85,335.95,54.895069,9.793790,54.895348,9.797490
1386922728,1,0,423.9,0,0,4,0,366,350,-0.0292,-2456.1104,6.8213,0.4212,54.895119,9.796684,108.3,5.845,1.85,335.95,54.895069,9.793790,54.895348,9.797490
1386922728,1,0,423.9,0,0,0,0,366,400,-0.0292,-2456.1104,6.8213,0.4212,54.895126,9.796712,108.3,5.845,1.85,335.95,54.895069,9.793790,54.895348,9.797490
1386922729,1,0,423.8,0,0,4,0,366,350,-0.0292,-2456.1104,6.8213,0.4212,54.895134,9.796740,108.3,5.845,1.85,335.95,54.895069,9.793790,54.895348,9.797490
1386922729,1,0,423.8,0,0,0,0,366,400,-0.0292,-2456.1104,6.8213,0.4212,54.895142,9.796768,108.3,5.845,1.85,335.95,54.895069,9.793790,54.895348,9.797490
1386922729,1,0,423.8,0,0,4,0,366,350,-0.0292,-2456.1104,6.8213,0.4212,54.895153,9.796796,108.3,5.845,1.85,335.95,54.895069,9.793790,54.895348,9.797490
1386922729,1,0,424.2,0,0,0,0,366,400,-0.0292,-2456.1104,6.8213,0.4212,54.895161,9.796824,108.3,5.845,1.85,335.95,54.895069,9.793790,54.895348,9.797490
1386922730,1,0,424.1,0,0,4,0,366,350,-0.0292,-2456.1104,6.8213,0.4212,54.895168,9.796852,108.3,5.845,1.85,335.95,54.895069,9.793790,54.895348,9.797490
1386922730,1,0,424.1,0,0,0,0,366,400,-0.0292,-2456.1104,6.8213,0.4212,54.895176,9.796880,108.3,5.845,1.85,335.95,54.895069,9.793790,54.895348,9.797490
1386922730,1,0,424.1,0,0,4,0,366,350,-0.0292,-2456.1104,6.8213,0.4212,54.895184,9.796907,108.3,5.845,1.85,335.95,54.895069,9.793790,54.895348,9.797490
1386922730,1,0,424.1,0,0,0,0,366,400,-0.0292,-2456.1104,6.8213,0.4212,54.895191,9.796936,108.3,5.845,1.85,335.95,54.895069,9.793790,54.895348,9.797490
1386922731,1,0,424.0,0,0,4,0,366,350,-0.0292,-2456.1104,6.8213,0.4212,54.895203,9.796964,108.3,5.845,1.85,335.95,54.895069,9.793790,54.895348,9.797490
1386922731,1,0,424.6,0,-1,0,0,366,400,-0.0292,-2455.8438,6.8213,0.4212,54.895210,9.796991,108.3,5.845,1.85,335.95,54.895069,9.793790,54.895348,9.797490
1386922731,1,0,424.6,0,0,4,0,370,350,-0.0292,-2455.8438,6.8213,0.4212,54.895218,9.797020,108.3,5.845,1.85,335.95,54.895069,9.793790,54.895348,9.797490
1386922731,1,0,424.5,0,0,0,0,370,400,-0.0292,-2455.8438,6.8213,0.4212,54.895226,9.797048,108.3,5.845,1.85,335.95,54.895069,9.793790,54.895348,9.797490
1386922732,1,0,424.5,0,0,4,0,370,350,-0.0292,-2455.8438,6.8213,0.4212,54.895233,9.797075,108.3,5.845,1.85,335.95,54.895069,9.793790,54.895348,9.797490
1386922732,1,0,424.5,0,0,0,0,370,400,-0.0292,-2455.8438,6.8213,0.4212,54.895241,9.797104,108.3,5.845,1.85,335.95,54.895069,9.793790,54.895348,9.797490
1386922732,1,0,424.5,0,0,4,0,370,350,-0.0292,-2455.8438,6.8213,0.4212,54.895252,9.797132,108.3,5.845,1.85,335.95,54.895069,9.793790,54.895348,9.797490
1386922732,1,0,425.3,0,-1,0,0,370,400,-0.0292,-2455.5771,6.8213,0.4212,54.895260,9.797160,108.3,5.845,1.85,335.95,54.895069,9.793790,54.895348,9.797490
1386922733,1,0,425.3,0,-1,-4,0,374,350,-0.0292,-2455.3105,6.8213,0.4212,54.895267,9.797189,108.3,5.845,1.85,335.95,54.895069,9.793790,54.895348,9.797490
1386922733,1,0,425.3,0,-1,0,0,379,400,-0.0292,-2455.0439,6.8213,0.4212,54.895275,9.797216,108.3,5.845,1.85,335.95,54.895069,9.793790,54.895348,9.797490
1386922733,1,0,425.4,0,0,4,0,383,350,-0.0292,-2455.0439,6.8213,0.4212,54.895283,9.797245,108.3,5.845,1.85,335.95,54.895069,9.793790,54.895348,9.797490
1386922733,1,0,425.4,0,0,0,0,383,400,-0.0292,-2455.0439,6.8213,0.4212,54.895290,9.797274,108.3,5.845,1.85,335.95,54.895069,9.793790,54.895348,9.797490
1386922734,1,0,425.4,0,0,4,0,383,350,-0.0292,-2455.0439,6.8213,0.4212,54.895294,9.797301,108.3,5.845,1.85,335.95,54.895069,9.793790,54.895348,9.797490
1386922734,1,0,424.0,0,1,0,0,383,400,-0.0292,-2455.3105,6.8213,0.4212,54.895302,9.797330,108.3,5.845,1.85,335.95,54.895069,9.793790,54.895348,9.797490
1386922734,1,0,423.7,0,1,4,0,379,350,-0.0292,-2455.5771,6.8213,0.4212,54.895309,9.797359,108.3,5.845,1.85,335.95,54.895069,9.793790,54.895348,9.797490
