MCU_timestamp,Navigation_System,Manual_Control,Guidance_Heading,Manual_Ctrl_Rudder,Rudder_Desired_Angle,Rudder_Feedback,Manual_Ctrl_Sail,Sail_Desired_Pos,Sail_Feedback,Rate,Heading,Pitch,Roll,Latitude,Longitude,COG,SOG,Wind_Speed,Wind_Angle,Point_Start_Lat,Point_Start_Lon,Point_End_Lat,Point_End_Lon
1386888812,0,0,0.0,0,0,0,0,0,0,-0.0292,82.8233,6.8213,0.4212,54.895119,9.794446,108.3,5.845,1.85,335.95,0.000000,0.000000,0.000000,0.000000
1386888812,0,0,0.0,0,0,0,0,0,0,-0.0292,82.8233,6.8213,0.4212,54.895119,9.794446,108.3,5.845,1.85,335.95,0.000000,0.000000,0.000000,0.000000
1386888813,0,0,0.0,0,0,0,0,0,0,-0.0292,82.8233,6.8213,0.4212,54.895119,9.794446,108.3,5.845,1.85,335.95,0.000000,0.000000,0.000000,0.000000
1386888813,0,0,0.0,0,0,0,0,0,0,-0.0292,82.8233,6.8213,0.4212,54.895119,9.794446,108.3,5.845,1.85,335.95,0.000000,0.000000,0.000000,0.000000
1386888813,0,0,0.0,0,0,0,0,0,0,-0.0292,82.8233,6.8213,0.4212,54.895119,9.794446,108.3,5.845,1.85,335.95,0.000000,0.000000,0.000000,0.000000
1386888813,0,0,0.0,0,0,0,0,0,0,-0.0292,82.8233,6.8213,0.4212,54.895119,9.794446,108.3,5.845,1.85,335.95,0.000000,0.000000,0.000000,0.000000
1386888814,0,0,0.0,0,0,0,0,0,0,-0.0292,82.8233,6.8213,0.4212,54.895119,9.794446,108.3,5.845,1.85,335.95,0.000000,0.000000,0.000000,0.000000
1386888814,0,0,0.0,0,0,0,0,0,0,-0.0292,82.8233,6.8213,0.4212,54.895119,9.794446,108.3,5.845,1.85,335.95,0.000000,0.000000,0.000000,0.000000
1386888814,0,0,0.0,0,0,0,0,0,0,-0.0292,82.8233,6.8213,0.4212,54.895119,9.794446,108.3,5.845,1.85,335.95,0.000000,0.000000,0.000000,0.000000
1386888814,0,0,0.0,0,0,0,0,0,0,-0.0292,82.8233,6.8213,0.4212,54.895119,9.794446,108.3,5.845,1.85,335.95,0.000000,0.000000,0.000000,0.000000
1386888815,0,0,0.0,0,0,0,0,0,0,-0.0292,82.8233,6.8213,0.4212,54.895119,9.794446,108.3,5.845,1.85,335.95,0.000000,0.000000,0.000000,0.000000
1386888815,0,0,0.0,0,0,0,0,0,0,-0.0292,82.8233,6.8213,0.4212,54.895119,9.794446,108.3,5.845,1.85,335.95,0.000000,0.000000,0.000000,0.000000
1386888815,0,0,0.0,0,0,0,0,0,0,-0.0292,82.8233,6.8213,0.4212,54.895119,9.794446,108.3,5.845,1.85,335.95,0.000000,0.000000,0.000000,0.000000
1386888815,0,0,0.0,0,0,0,0,0,0,-0.0292,82.8233,6.8213,0.4212,54.895119,9.794446,108.3,5.845,1.85,335.95,0.000000,0.000000,0.000000,0.000000
1386888816,0,0,0.0,0,0,0,0,0,0,-0.0292,82.8233,6.8213,0.4212,54.895119,9.794446,108.3,5.845,1.85,335.95,0.000000,0.000000,0.000000,0.000000
1386888816,0,0,0.0,0,0,0,0,0,0,-0.0292,82.8233,6.8213,0.4212,54.895119,9.794446,108.3,5.845,1.85,335.95,0.000000,0.000000,0.000000,0.000000
1386888816,0,0,0.0,0,0,0,0,0,0,-0.0292,82.8233,6.8213,0.4212,54.895657,9.792209,108.3,5.845,1.85,335.95,0.000000,0.000000,0.000000,0.000000
1386888816,0,0,0.0,0,0,0,0,0,0,-0.0292,82.8233,6.8213,0.4212,54.895657,9.792209,108.3,5.845,1.85,335.95,0.000000,0.000000,0.000000,0.000000
1386888817,0,0,0.0,0,0,0,0,0,0,-0.0292,82.8233,6.8213,0.4212,54.895657,9.792209,108.3,5.845,1.85,335.95,0.000000,0.000000,0.000000,0.000000
1386888817,0,0,0.0,0,0,0,0,0,0,-0.0292,82.8233,6.8213,0.4212,54.895657,9.792209,108.3,5.845,1.85,335.95,0.000000,0.000000,0.000000,0.000000
1386888817,0,0,0.0,0,0,0,0,0,0,-0.0292,82.8233,6.8213,0.4212,54.895657,9.792209,108.3,5.845,1.85,335.95,0.000000,0.000000,0.000000,0.000000
1386888817,0,0,0.0,0,0,0,0,0,0,-0.0292,82.8233,6.8213,0.4212,54.895657,9.792209,108.3,5.845,1.85,335.95,0.000000,0.000000,0.000000,0.000000
1386888818,0,0,0.0,0,0,0,0,0,0,-0.0292,82.8233,6.8213,0.4212,54.895657,9.792209,108.3,5.845,1.85,335.95,0.000000,0.000000,0.000000,0.000000
1386888818,0,0,0.0,0,0,0,0,0,0,-0.0292,82.8233,6.8213,0.4212,54.895657,9.792209,108.3,5.845,1.85,335.95,0.000000,0.000000,0.000000,0.000000
1386888818,0,0,0.0,0,0,0,0,0,0,-0.0292,82.8233,6.8213,0.4212,54.895657,9.792209,108.3,5.845,1.85,335.95,0.000000,0.000000,0.000000,0.000000
1386888818,0,0,0.0,0,0,0,0,0,0,-0.0292,82.8233,6.8213,0.4212,54.895657,9.792209,108.3,5.845,1.85,335.95,0.000000,0.000000,0.000000,0.000000
1386888819,0,0,0.0,0,0,0,0,0,0,-0.0292,82.8233,6.8213,0.4212,54.895657,9.792209,108.3,5.845,1.85,335.95,0.000000,0.000000,0.000000,0.000000
1386888819,0,0,0.0,0,0,0,0,0,0,-0.0292,82.8233,6.8213,0.4212,54.895657,9.792209,108.3,5.845,1.85,335.95,0.000000,0.000000,0.000000,0.000000
1386888819,0,0,0.0,0,0,0,0,0,0,-0.0292,82.8233,6.8213,0.4212,54.895657,9.792209,108.3,5.845,1.85,335.95,0.000000,0.000000,0.000000,0.000000
1386888819,0,0,0.0,0,0,0,0,0,0,-0.0292,82.8233,6.8213,0.4212,54.895657,9.792209,108.3,5.845,1.85,335.95,0.000000,0.000000,0.000000,0.000000
1386888820,0,0,0.0,0,0,0,0,0,0,-0.0292,82.8233,6.8213,0.4212,54.895657,9.792209,108.3,5.845,1.85,335.95,0.000000,0.000000,0.000000,0.000000
1386888820,0,0,0.0,0,0,0,0,0,0,-0.0292,82.8233,6.8213,0.4212,54.895657,9.792209,108.3,5.845,1.85,335.95,0.000000,0.000000,0.000000,0.000000
1386888820,0,0,0.0,0,0,0,0,0,0,-0.0292,82.8233,6.8213,0.4212,54.895657,9.792209,108.3,5.845,1.85,335.95,0.000000,0.000000,0.000000,0.000000
1386888820,0,0,0.0,0,0,0,0,0,0,-0.0292,82.8233,6.8213,0.4212,54.895657,9.792209,108.3,5.845,1.85,335.95,0.000000,0.000000,0.000000,0.000000
1386888821,0,0,0.0,0,0,0,0,0,0,-0.0292,82.8233,6.8213,0.4212,54.895657,9.792209,108.3,5.845,1.85,335.95,0.000000,0.000000,0.000000,0.000000
1386888821,0,0,0.0,0,0,0,0,0,0,-0.0292,82.8233,6.8213,0.4212,54.895657,9.792209,108.3,5.845,1.85,335.95,0.000000,0.000000,0.000000,0.000000
1386888821,0,0,0.0,0,0,0,0,0,0,-0.0292,82.8233,6.8213,0.4212,54.898693,9.790149,108.3,5.845,1.85,335.95,0.000000,0.000000,0.000000,0.000000
1386888821,0,0,0.0,0,0,0,0,0,0,-0.0292,82.8233,6.8213,0.4212,54.898693,9.790149,108.3,5.845,1.85,335.95,0.000000,0.000000,0.000000,0.000000
1386888822,0,0,0.0,0,0,0,0,0,0,-0.0292,82.8233,6.8213,0.4212,54.898693,9.790149,108.3,5.845,1.85,335.95,0.000000,0.000000,0.000000,0.000000
1386888822,0,0,0.0,0,0,0,0,0,0,-0.0292,82.8233,6.8213,0.4212,54.898693,9.790149,108.3,5.845,1.85,335.95,0.000000,0.000000,0.000000,0.000000
1386888822,0,0,0.0,0,0,0,0,0,0,-0.0292,82.8233,6.8213,0.4212,54.898693,9.790149,108.3,5.845,1.85,335.95,0.000000,0.000000,0.000000,0.000000
1386888822,0,0,0.0,0,0,0,0,0,0,-0.0292,82.8233,6.8213,0.4212,54.898693,9.790149,108.3,5.845,1.85,335.95,0.000000,0.000000,0.000000,0.000000
1386888823,0,0,0.0,0,0,0,0,0,0,-0.0292,82.8233,6.8213,0.4212,54.898693,9.790149,108.3,5.845,1.85,335.95,0.000000,0.000000,0.000000,0.000000
1386888823,0,0,0.0,0,0,0,0,0,0,-0.0292,82.8233,6.8213,0.4212,54.898693,9.790149,108.3,5.845,1.85,335.95,0.000000,0.000000,0.000000,0.000000
1386888823,0,0,0.0,0,0,0,0,0,0,-0.0292,82.8233,6.8213,0.4212,54.898693,9.790149,108.3,5.845,1.85,335.95,0.000000,0.000000,0.000000,0.000000
1386888823,0,0,0.0,0,0,0,0,0,0,-0.0292,82.8233,6.8213,0.4212,54.898693,9.790149,108.3,5.845,1.85,335.95,0.000000,0.000000,0.000000,0.000000
1386888824,0,0,0.0,0,0,0,0,0,0,-0.0292,82.8233,6.8213,0.4212,54.898693,9.790149,108.3,5.845,1.85,335.95,0.000000,0.000000,0.000000,0.000000
1386888824,0,0,0.0,0,0,0,0,0,0,-0.0292,82.8233,6.8213,0.4212,54.898693,9.790149,108.3,5.845,1.85,335.95,0.000000,0.000000,0.000000,0.000000
1386888824,0,0,0.0,0,0,0,0,0,0,-0.0292,82.8233,6.8213,0.4212,54.898693,9.790149,108.3,5.845,1.85,335.95,0.000000,0.000000,0.000000,0.000000
1386888824,0,0,0.0,0,0,0,0,0,0,-0.0292,82.8233,6.8213,0.4212,54.898693,9.790149,108.3,5.845,1.85,335.95,0.000000,0.000000,0.000000,0.000000
1386888825,0,0,0.0,0,0,0,0,0,0,-0.0292,82.8233,6.8213,0.4212,54.898693,9.790149,108.3,5.845,1.85,335.95,0.000000,0.000000,0.000000,0.000000
1386888825,0,0,0.0,0,0,0,0,0,0,-0.0292,82.8233,6.8213,0.4212,54.898693,9.790149,108.3,5.845,1.85,335.95,0.000000,0.000000,0.000000,0.000000
1386888825,0,0,0.0,0,0,0,0,0,0,-0.0292,82.8233,6.8213,0.4212,54.899830,9.789591,108.3,5.845,1.85,335.95,0.000000,0.000000,0.000000,0.000000
1386888825,0,0,0.0,0,0,0,0,0,0,-0.0292,82.8233,6.8213,0.4212,54.899830,9.789591,108.3,5.845,1.85,335.95,0.000000,0.000000,0.000000,0.000000
1386888826,0,0,0.0,0,0,0,0,0,0,-0.0292,82.8233,6.8213,0.4212,54.899830,9.789591,108.3,5.845,1.85,335.95,0.000000,0.000000,0.000000,0.000000
1386888826,0,0,0.0,0,0,0,0,0,0,-0.0292,82.8233,6.8213,0.4212,54.899830,9.789591,108.3,5.845,1.85,335.95,0.000000,0.000000,0.000000,0.000000
1386888826,0,0,0.0,0,0,0,0,0,0,-0.0292,82.8233,6.8213,0.4212,54.899113,9.790921,108.3,5.845,1.85,335.95,0.000000,0.000000,0.000000,0.000000
1386888826,0,0,0.0,0,0,0,0,0,0,-0.0292,82.8233,6.8213,0.4212,54.899113,9.790921,108.3,5.845,1.85,335.95,0.000000,0.000000,0.000000,0.000000
1386888827,0,0,0.0,0,0,0,0,0,0,-0.0292,82.8233,6.8213,0.4212,54.899113,9.790921,108.3,5.845,1.85,335.95,0.000000,0.000000,0.000000,0.000000
1386888827,0,0,0.0,0,0,0,0,0,0,-0.0292,82.8233,6.8213,0.4212,54.899113,9.790921,108.3,5.845,1.85,335.95,0.000000,0.000000,0.000000,0.000000
1386888827,0,0,0.0,0,0,0,0,0,0,-0.0292,82.8233,6.8213,0.4212,54.899113,9.790921,108.3,5.845,1.85,335.95,0.000000,0.000000,0.000000,0.000000
1386888827,0,0,0.0,0,0,0,0,0,0,-0.0292,82.8233,6.8213,0.4212,54.899261,9.792466,108.3,5.845,1.85,335.95,0.000000,0.000000,0.000000,0.000000
1386888828,0,0,0.0,0,0,0,0,0,0,-0.0292,82.8233,6.8213,0.4212,54.899261,9.792466,108.3,5.845,1.85,335.95,0.000000,0.000000,0.000000,0.000000
1386888828,0,0,0.0,0,0,0,0,0,0,-0.0292,82.8233,6.8213,0.4212,54.899261,9.792466,108.3,5.845,1.85,335.95,0.000000,0.000000,0.000000,0.000000
1386888828,0,0,0.0,0,0,0,0,0,0,-0.0292,82.8233,6.8213,0.4212,54.899261,9.792466,108.3,5.845,1.85,335.95,0.000000,0.000000,0.000000,0.000000
1386888828,0,0,0.0,0,0,0,0,0,0,-0.0292,82.8233,6.8213,0.4212,54.899261,9.792466,108.3,5.845,1.85,335.95,0.000000,0.000000,0.000000,0.000000
1386888829,0,0,0.0,0,0,0,0,0,0,-0.0292,82.8233,6.8213,0.4212,54.899261,9.792466,108.3,5.845,1.85,335.95,0.000000,0.000000,0.000000,0.000000
1386888829,0,0,0.0,0,0,0,0,0,0,-0.0292,82.8233,6.8213,0.4212,54.899261,9.792466,108.3,5.845,1.85,335.95,0.000000,0.000000,0.000000,0.000000
1386888829,0,0,0.0,0,0,0,0,0,0,-0.0292,82.8233,6.8213,0.4212,54.899261,9.792466,108.3,5.845,1.85,335.95,0.000000,0.000000,0.000000,0.000000
1386888829,0,0,0.0,0,0,0,0,0,0,-0.0292,82.8233,6.8213,0.4212,54.899261,9.792466,108.3,5.845,1.85,335.95,0.000000,0.000000,0.000000,0.000000
1386888830,0,0,0.0,0,0,0,0,0,0,-0.0292,82.8233,6.8213,0.4212,54.899090,9.790235,108.3,5.845,1.85,335.95,0.000000,0.000000,0.000000,0.000000
1386888830,0,0,0.0,0,0,0,0,0,0,-0.0292,82.8233,6.8213,0.4212,54.899090,9.790235,108.3,5.845,1.85,335.95,0.000000,0.000000,0.000000,0.000000
1386888830,0,0,0.0,0,0,0,0,0,0,-0.0292,82.8233,6.8213,0.4212,54.899090,9.790235,108.3,5.845,1.85,335.95,0.000000,0.000000,0.000000,0.000000
1386888830,0,0,0.0,0,0,0,0,0,0,-0.0292,82.8233,6.8213,0.4212,54.899090,9.790235,108.3,5.845,1.85,335.95,0.000000,0.000000,0.000000,0.000000
1386888831,0,0,0.0,0,0,0,0,0,0,-0.0292,82.8233,6.8213,0.4212,54.899090,9.790235,108.3,5.845,1.85,335.95,0.000000,0.000000,0.000000,0.000000
1386888831,0,0,0.0,0,0,0,0,0,0,-0.0292,82.8233,6.8213,0.4212,54.899090,9.790235,108.3,5.845,1.85,335.95,0.000000,0.000000,0.000000,0.000000
1386888831,0,0,0.0,0,0,0,0,0,0,-0.0292,82.8233,6.8213,0.4212,54.899090,9.790235,108.3,5.845,1.85,335.95,0.000000,0.000000,0.000000,0.000000
1386888831,0,0,0.0,0,0,0,0,0,0,-0.0292,82.8233,6.8213,0.4212,54.899090,9.790235,108.3,5.845,1.85,335.95,0.000000,0.000000,0.000000,0.000000
1386888832,4,0,0.0,0,0,0,0,0,0,-0.0292,82.8233,6.8213,0.4212,54.899090,9.790235,108.3,5.845,1.85,335.95,0.000000,0.000000,0.000000,0.000000
1386888832,1,0,485.9,0,-35,-4,0,665,700,-0.0292,129.6919,6.8213,0.4212,54.899078,9.790258,108.3,5.845,1.85,335.95,54.899090,9.790235,54.895069,9.793790
1386888832,1,0,485.9,0,4,0,0,713,750,-0.0292,163.5920,6.8213,0.4212,54.899059,9.790267,108.3,5.845,1.85,335.95,54.899090,9.790235,54.895069,9.793790
1386888832,1,0,485.9,0,35,4,0,0,700,-0.0292,210.4605,6.8213,0.4212,54.899044,9.790252,108.3,5.845,1.85,335.95,54.899090,9.790235,54.895069,9.793790
1386888833,1,0,485.9,0,35,8,0,870,750,-0.0292,257.3291,6.8213,0.4212,54.899040,9.790221,108.3,5.845,1.85,335.95,54.899090,9.790235,54.895069,9.793790
1386888833,1,0,485.9,0,35,12,0,221,700,-0.0292,304.1976,6.8213,0.4212,54.899052,9.790195,108.3,5.845,1.85,335.95,54.899090,9.790235,54.895069,9.793790
1386888833,1,0,485.9,0,35,16,0,0,650,-0.0292,351.0661,6.8213,0.4212,54.899071,9.790191,108.3,5.845,1.85,335.95,54.899090,9.790235,54.895069,9.793790
1386888833,1,0,485.9,0,-35,12,0,0,600,-0.0292,397.9347,6.8213,0.4212,54.899086,9.790210,108.3,5.845,1.85,335.95,54.899090,9.790235,54.895069,9.793790
1386888834,1,0,485.9,0,-35,8,0,25,550,-0.0292,444.8032,6.8213,0.4212,54.899086,9.790241,108.3,5.845,1.85,335.95,54.899090,9.790235,54.895069,9.793790
1386888834,1,0,485.9,0,-35,4,0,696,600,-0.0292,491.6717,6.8213,0.4212,54.899075,9.790264,108.3,5.845,1.85,335.95,54.899090,9.790235,54.895069,9.793790
1386888834,1,0,485.9,0,6,8,0,713,650,-0.0292,441.8741,6.8213,0.4212,54.899078,9.790296,108.3,5.845,1.85,335.95,54.899090,9.790235,54.895069,9.793790
1386888834,0,0,485.9,0,6,8,0,713,650,-0.0292,441.8741,6.8213,0.4212,54.899078,9.790296,108.3,5.845,1.85,335.95,54.899090,9.790235,54.895069,9.793790
1386888835,0,0,485.9,0,6,8,0,713,650,-0.0292,441.8741,6.8213,0.4212,54.899078,9.790296,108.3,5.845,1.85,335.95,54.899090,9.790235,54.895069,9.793790
1386888835,0,0,485.9,0,6,8,0,713,650,-0.0292,441.8741,6.8213,0.4212,54.899078,9.790296,108.3,5.845,1.85,335.95,54.899090,9.790235,54.895069,9.793790
1386888835,4,0,485.9,0,6,8,0,713,650,-0.0292,441.8741,6.8213,0.4212,54.899078,9.790296,108.3,5.845,1.85,335.95,54.899090,9.790235,54.895069,9.793790
1386888835,1,0,485.9,0,-35,4,0,651,700,-0.0292,488.7426,6.8213,0.4212,54.899063,9.790320,108.3,5.845,1.85,335.95,54.899078,9.790296,54.895069,9.793790
1386888836,1,0,485.9,0,3,0,0,713,750,-0.0292,540.0869,6.8213,0.4212,54.899044,9.790320,108.3,5.845,1.85,335.95,54.899078,9.790296,54.895069,9.793790
1386888836,1,0,485.9,0,35,4,0,713,700,-0.0292,586.9554,6.8213,0.4212,54.899033,9.790298,108.3,5.845,1.85,335.95,54.899078,9.790296,54.895069,9.793790
1386888836,1,0,485.9,0,35,8,0,698,650,-0.0292,633.8240,6.8213,0.4212,54.899033,9.790266,108.3,5.845,1.85,335.95,54.899078,9.790296,54.895069,9.793790
1386888836,1,0,485.9,0,35,12,0,25,600,-0.0292,680.6925,6.8213,0.4212,54.899044,9.790247,108.3,5.845,1.85,335.95,54.899078,9.790296,54.895069,9.793790
1386888837,1,0,485.9,0,-35,8,0,0,550,-0.0292,727.5610,6.8213,0.4212,54.899063,9.790251,108.3,5.845,1.85,335.95,54.899078,9.790296,54.895069,9.793790
1386888837,1,0,485.9,0,-35,4,0,0,500,-0.0292,774.4296,6.8213,0.4212,54.899075,9.790277,108.3,5.845,1.85,335.95,54.899078,9.790296,54.895069,9.793790
1386888837,1,0,485.9,0,-35,0,0,219,450,-0.0292,821.2981,6.8213,0.4212,54.899075,9.790307,108.3,5.845,1.85,335.95,54.899078,9.790296,54.895069,9.793790
1386888837,1,0,485.9,0,-25,-4,0,870,500,-0.0292,769.8910,6.8213,0.4212,54.899086,9.790331,108.3,5.845,1.85,335.95,54.899078,9.790296,54.895069,9.793790
1386888838,1,0,485.9,0,-35,-8,0,154,450,-0.0292,816.7595,6.8213,0.4212,54.899082,9.790361,108.3,5.845,1.85,335.95,54.899078,9.790296,54.895069,9.793790
1386888838,1,0,485.9,0,-29,-12,0,870,500,-0.0292,855.5563,6.8213,0.4212,54.899067,9.790382,108.3,5.845,1.85,335.95,54.899078,9.790296,54.895069,9.793790
1386888838,1,0,485.9,0,10,-8,0,713,550,-0.0292,899.0734,6.8213,0.4212,54.899048,9.790383,108.3,5.845,1.85,335.95,54.899078,9.790296,54.895069,9.793790
1386888838,1,0,485.9,0,35,-4,0,713,600,-0.0292,945.9420,6.8213,0.4212,54.899036,9.790361,108.3,5.845,1.85,335.95,54.899078,9.790296,54.895069,9.793790
1386888839,1,0,485.9,0,35,0,0,713,650,-0.0292,992.8105,6.8213,0.4212,54.899036,9.790330,108.3,5.845,1.85,335.95,54.899078,9.790296,54.895069,9.793790
1386888839,1,0,485.9,0,35,4,0,33,600,-0.0292,1039.6790,6.8213,0.4212,54.899048,9.790310,108.3,5.845,1.85,335.95,54.899078,9.790296,54.895069,9.793790
1386888839,1,0,485.9,0,-35,0,0,0,550,-0.0292,1086.5475,6.8213,0.4212,54.899067,9.790314,108.3,5.845,1.85,335.95,54.899078,9.790296,54.895069,9.793790
1386888839,1,0,485.9,0,-35,-4,0,0,500,-0.0292,1133.4160,6.8213,0.4212,54.899078,9.790339,108.3,5.845,1.85,335.95,54.899078,9.790296,54.895069,9.793790
1386888840,1,0,485.9,0,-35,-8,0,204,450,-0.0292,1180.2845,6.8213,0.4212,54.899075,9.790370,108.3,5.845,1.85,335.95,54.899078,9.790296,54.895069,9.793790
1386888840,1,0,485.9,0,-26,-12,0,870,500,-0.0292,1146.7332,6.8213,0.4212,54.899082,9.790399,108.3,5.845,1.85,335.95,54.899078,9.790296,54.895069,9.793790
1386888840,1,0,485.9,0,-35,-16,0,411,450,-0.0292,1193.6017,6.8213,0.4212,54.899075,9.790427,108.3,5.845,1.85,335.95,54.899078,9.790296,54.895069,9.793790
1386888840,1,0,485.9,0,-12,-12,0,713,500,-0.0292,1149.8365,6.8213,0.4212,54.899082,9.790457,108.3,5.845,1.85,335.95,54.899078,9.790296,54.895069,9.793790
1386888841,1,0,485.9,0,-35,-16,0,461,450,-0.0292,1196.7051,6.8213,0.4212,54.899071,9.790484,108.3,5.845,1.85,335.95,54.899078,9.790296,54.895069,9.793790
1386888841,1,0,485.9,0,-9,-12,0,713,500,-0.0292,1243.9594,6.8213,0.4212,54.899055,9.790493,108.3,5.845,1.85,335.95,54.899078,9.790296,54.895069,9.793790
1386888841,1,0,485.9,0,35,-8,0,0,450,-0.0292,1290.8279,6.8213,0.4212,54.899036,9.790477,108.3,5.845,1.85,335.95,54.899078,9.790296,54.895069,9.793790
1386888841,1,0,485.9,0,35,-4,0,870,500,-0.0292,1337.6964,6.8213,0.4212,54.899033,9.790446,108.3,5.845,1.85,335.95,54.899078,9.790296,54.895069,9.793790
1386888842,1,0,485.9,0,35,0,0,216,450,-0.0292,1384.5649,6.8213,0.4212,54.899040,9.790421,108.3,5.845,1.85,335.95,54.899078,9.790296,54.895069,9.793790
1386888842,1,0,485.9,0,35,4,0,0,400,-0.0292,1431.4335,6.8213,0.4212,54.899059,9.790416,108.3,5.845,1.85,335.95,54.899078,9.790296,54.895069,9.793790
1386888842,1,0,485.9,0,-35,0,0,0,350,-0.0292,1478.3020,6.8213,0.4212,54.899071,9.790435,108.3,5.845,1.85,335.95,54.899078,9.790296,54.895069,9.793790
1386888842,1,0,485.9,0,-35,-4,0,27,300,-0.0292,1525.1705,6.8213,0.4212,54.899075,9.790466,108.3,5.845,1.85,335.95,54.899078,9.790296,54.895069,9.793790
1386888843,1,0,485.9,0,-35,-8,0,701,350,-0.0292,1572.0391,6.8213,0.4212,54.899063,9.790489,108.3,5.845,1.85,335.95,54.899078,9.790296,54.895069,9.793790
1386888843,1,0,485.9,0,6,-4,0,713,400,-0.0292,1522.2415,6.8213,0.4212,54.899067,9.790520,108.3,5.845,1.85,335.95,54.899078,9.790296,54.895069,9.793790
1386888843,1,0,485.9,0,-35,-8,0,656,450,-0.0292,1569.1100,6.8213,0.4212,54.899055,9.790545,108.3,5.845,1.85,335.95,54.899078,9.790296,54.895069,9.793790
1386888843,1,0,485.9,0,3,-4,0,713,500,-0.0292,1620.4543,6.8213,0.4212,54.899036,9.790545,108.3,5.845,1.85,335.95,54.899078,9.790296,54.895069,9.793790
1386888844,1,0,485.9,0,35,0,0,713,550,-0.0292,1667.3229,6.8213,0.4212,54.899025,9.790522,108.3,5.845,1.85,335.95,54.899078,9.790296,54.895069,9.793790
1386888844,1,0,485.9,0,35,4,0,692,600,-0.0292,1714.1914,6.8213,0.4212,54.899029,9.790491,108.3,5.845,1.85,335.95,54.899078,9.790296,54.895069,9.793790
1386888844,1,0,485.9,0,35,8,0,23,550,-0.0292,1761.0599,6.8213,0.4212,54.899040,9.790471,108.3,5.845,1.85,335.95,54.899078,9.790296,54.895069,9.793790
1386888844,1,0,485.9,0,-35,4,0,0,500,-0.0292,1807.9285,6.8213,0.4212,54.899059,9.790476,108.3,5.845,1.85,335.95,54.899078,9.790296,54.895069,9.793790
1386888845,1,0,485.9,0,-35,0,0,0,450,-0.0292,1854.7970,6.8213,0.4212,54.899067,9.790502,108.3,5.845,1.85,335.95,54.899078,9.790296,54.895069,9.793790
1386888845,1,0,485.9,0,-35,-4,0,225,400,-0.0292,1901.6655,6.8213,0.4212,54.899063,9.790532,108.3,5.845,1.85,335.95,54.899078,9.790296,54.895069,9.793790
1386888845,1,0,485.9,0,-24,-8,0,870,450,-0.0292,1879.6661,6.8213,0.4212,54.899067,9.790563,108.3,5.845,1.85,335.95,54.899078,9.790296,54.895069,9.793790
1386888845,1,0,485.9,0,-35,-12,0,616,500,-0.0292,1926.5347,6.8213,0.4212,54.899055,9.790588,108.3,5.845,1.85,335.95,54.899078,9.790296,54.895069,9.793790
1386888846,1,0,485.9,0,1,-8,0,713,550,-0.0292,1898.5128,6.8213,0.4212,54.899052,9.790619,108.3,5.845,1.85,335.95,54.899078,9.790296,54.895069,9.793790
1386888846,1,0,485.9,0,-27,-12,0,870,600,-0.0292,1913.6641,6.8213,0.4212,54.899048,9.790648,108.3,5.845,1.85,335.95,54.899078,9.790296,54.895069,9.793790
1386888846,1,0,485.9,0,-12,-8,0,713,650,-0.0292,1869.8989,6.8213,0.4212,54.899055,9.790677,108.3,5.845,1.85,335.95,54.899078,9.790296,54.895069,9.793790
1386888846,1,0,485.9,0,-35,-12,0,462,600,-0.0292,1916.7675,6.8213,0.4212,54.899044,9.790705,108.3,5.845,1.85,335.95,54.899078,9.790296,54.895069,9.793790
1386888847,1,0,485.9,0,-9,-8,0,713,650,-0.0292,1964.0217,6.8213,0.4212,54.899029,9.790713,108.3,5.845,1.85,335.95,54.899078,9.790296,54.895069,9.793790
1386888847,1,0,485.9,0,35,-4,0,0,600,-0.0292,2010.8903,6.8213,0.4212,54.899010,9.790697,108.3,5.845,1.85,335.95,54.899078,9.790296,54.895069,9.793790
1386888847,0,0,485.9,0,35,-4,0,0,600,-0.0292,2010.8903,6.8213,0.4212,54.899010,9.790697,108.3,5.845,1.85,335.95,54.899078,9.790296,54.895069,9.793790
1386888847,0,0,485.9,0,35,-4,0,0,600,-0.0292,2010.8903,6.8213,0.4212,54.899010,9.790697,108.3,5.845,1.85,335.95,54.899078,9.790296,54.895069,9.793790
1386888848,0,0,485.9,0,35,-4,0,0,600,-0.0292,2010.8903,6.8213,0.4212,54.899010,9.790697,108.3,5.845,1.85,335.95,54.899078,9.790296,54.895069,9.793790
1386888848,0,0,485.9,0,35,-4,0,0,600,-0.0292,2010.8903,6.8213,0.4212,54.899010,9.790697,108.3,5.845,1.85,335.95,54.899078,9.790296,54.895069,9.793790
1386888848,0,0,485.9,0,35,-4,0,0,600,-0.0292,2010.8903,6.8213,0.4212,54.899010,9.790697,108.3,5.845,1.85,335.95,54.899078,9.790296,54.895069,9.793790
1386888848,0,0,485.9,0,35,-4,0,0,600,-0.0292,2010.8903,6.8213,0.4212,54.899010,9.790697,108.3,5.845,1.85,335.95,54.899078,9.790296,54.895069,9.793790
1386888849,0,0,485.9,0,35,-4,0,0,600,-0.0292,2010.8903,6.8213,0.4212,54.899010,9.790697,108.3,5.845,1.85,335.95,54.899078,9.790296,54.895069,9.793790
1386888849,0,0,485.9,0,35,-4,0,0,600,-0.0292,2010.8903,6.8213,0.4212,54.899010,9.790697,108.3,5.845,1.85,335.95,54.899078,9.790296,54.895069,9.793790
1386888849,0,0,485.9,0,35,-4,0,0,600,-0.0292,2010.8903,6.8213,0.4212,54.899010,9.790697,108.3,5.845,1.85,335.95,54.899078,9.790296,54.895069,9.793790
1386888849,0,0,485.9,0,35,-4,0,0,600,-0.0292,2010.8903,6.8213,0.4212,54.899010,9.790697,108.3,5.845,1.85,335.95,54.899078,9.790296,54.895069,9.793790
1386888850,0,0,485.9,0,35,-4,0,0,600,-0.0292,2010.8903,6.8213,0.4212,54.899010,9.790697,108.3,5.845,1.85,335.95,54.899078,9.790296,54.895069,9.793790
1386888850,0,0,485.9,0,35,-4,0,0,600,-0.0292,2010.8903,6.8213,0.4212,54.899010,9.790697,108.3,5.845,1.85,335.95,54.899078,9.790296,54.895069,9.793790
1386888850,0,0,485.9,0,35,-4,0,0,600,-0.0292,2010.8903,6.8213,0.4212,54.899010,9.790697,108.3,5.845,1.85,335.95,54.899078,9.790296,54.895069,9.793790
1386888851,0,0,485.9,0,35,-4,0,0,600,-0.0292,2010.8903,6.8213,0.4212,54.899010,9.790697,108.3,5.845,1.85,335.95,54.899078,9.790296,54.895069,9.793790
1386888851,0,0,485.9,0,35,-4,0,0,600,-0.0292,2010.8903,6.8213,0.4212,54.899010,9.790697,108.3,5.845,1.85,335.95,54.899078,9.790296,54.895069,9.793790
1386888851,0,0,485.9,0,35,-4,0,0,600,-0.0292,2010.8903,6.8213,0.4212,54.899010,9.790697,108.3,5.845,1.85,335.95,54.899078,9.790296,54.895069,9.793790
1386888851,0,0,485.9,0,35,-4,0,0,600,-0.0292,2010.8903,6.8213,0.4212,54.899010,9.790697,108.3,5.845,1.85,335.95,54.899078,9.790296,54.895069,9.793790
