MCU_timestamp,Navigation_System,Manual_Control,Guidance_Heading,Manual_Ctrl_Rudder,Rudder_Desired_Angle,Rudder_Feedback,Manual_Ctrl_Sail,Sail_Desired_Pos,Sail_Feedback,Rate,Heading,Pitch,Roll,Latitude,Longitude,COG,SOG,Wind_Speed,Wind_Angle,Point_Start_Lat,Point_Start_Lon,Point_End_Lat,Point_End_Lon
1386958188,4,0,0.0,0,0,0,0,0,0,-0.0292,5249.7588,6.8213,0.4212,54.896362,9.790213,108.3,5.845,1.85,0.00,0.000000,0.000000,0.000000,0.000000
1386958189,1,0,122.0,0,35,4,0,713,700,-0.0292,5240.4253,6.8213,0.4212,54.896347,9.790202,108.3,5.845,1.85,0.00,54.896362,9.790213,54.895069,9.793790
1386958189,1,0,121.6,0,35,8,0,713,750,-0.0292,5231.0918,6.8213,0.4212,54.896332,9.790196,108.3,5.845,1.85,0.00,54.896362,9.790213,54.895069,9.793790
1386958189,1,0,121.3,0,35,12,0,713,700,-0.0292,5221.7583,6.8213,0.4212,54.896313,9.790195,108.3,5.845,1.85,0.00,54.896362,9.790213,54.895069,9.793790
1386958189,1,0,120.9,0,35,16,0,0,650,-0.0292,5212.4248,6.8213,0.4212,54.896294,9.790199,108.3,5.845,1.85,0.00,54.896362,9.790213,54.895069,9.793790
1386958190,1,0,120.5,0,35,20,0,0,600,-0.0292,5203.0913,6.8213,0.4212,54.896278,9.790208,108.3,5.845,1.85,0.00,54.896362,9.790213,54.895069,9.793790
1386958190,1,0,120.3,0,35,24,0,713,650,-0.0292,5193.7578,6.8213,0.4212,54.896259,9.790221,108.3,5.845,1.85,0.00,54.896362,9.790213,54.895069,9.793790
1386958190,1,0,120.0,0,34,28,0,713,700,-0.0292,5184.6909,6.8213,0.4212,54.896244,9.790239,108.3,5.845,1.85,0.00,54.896362,9.790213,54.895069,9.793790
1386958190,1,0,119.8,0,25,24,0,713,750,-0.0292,5178.0244,6.8213,0.4212,54.896233,9.790260,108.3,5.845,1.85,0.00,54.896362,9.790213,54.895069,9.793790
1386958191,1,0,119.7,0,18,20,0,713,700,-0.0292,5173.2246,6.8213,0.4212,54.896221,9.790283,108.3,5.845,1.85,0.00,54.896362,9.790213,54.895069,9.793790
1386958191,1,0,119.6,0,14,16,0,870,750,-0.0292,5169.4912,6.8213,0.4212,54.896210,9.790307,108.3,5.845,1.85,0.00,54.896362,9.790213,54.895069,9.793790
1386958191,1,0,119.5,0,10,12,0,870,800,-0.0292,5166.8247,6.8213,0.4212,54.896198,9.790332,108.3,5.845,1.85,0.00,54.896362,9.790213,54.895069,9.793790
1386958191,1,0,119.4,0,7,8,0,870,850,-0.0292,5164.9580,6.8213,0.4212,54.896191,9.790358,108.3,5.845,1.85,0.00,54.896362,9.790213,54.895069,9.793790
1386958192,1,0,119.5,0,6,4,0,870,900,-0.0292,5163.3579,6.8213,0.4212,54.896183,9.790384,108.3,5.845,1.85,0.00,54.896362,9.790213,54.895069,9.793790
1386958192,1,0,119.5,0,4,8,0,870,850,-0.0292,5162.2910,6.8213,0.4212,54.896172,9.790411,108.3,5.845,1.85,0.00,54.896362,9.790213,54.895069,9.793790
1386958192,1,0,119.4,0,3,4,0,870,900,-0.0292,5161.4912,6.8213,0.4212,54.896164,9.790438,108.3,5.845,1.85,0.00,54.896362,9.790213,54.895069,9.793790
1386958192,1,0,119.4,0,2,0,0,870,850,-0.0292,5160.9580,6.8213,0.4212,54.896156,9.790464,108.3,5.845,1.85,0.00,54.896362,9.790213,54.895069,9.793790
1386958193,1,0,119.5,0,1,4,0,870,900,-0.0292,5160.6914,6.8213,0.4212,54.896145,9.790491,108.3,5.845,1.85,0.00,54.896362,9.790213,54.895069,9.793790
1386958193,1,0,119.4,0,1,0,0,869,850,-0.0292,5160.4248,6.8213,0.4212,54.896137,9.790518,108.3,5.845,1.85,0.00,54.896362,9.790213,54.895069,9.793790
1386958193,1,0,119.4,0,1,4,0,865,900,-0.0292,5160.1582,6.8213,0.4212,54.896130,9.790545,108.3,5.845,1.85,0.00,54.896362,9.790213,54.895069,9.793790
1386958193,1,0,119.5,0,1,0,0,861,850,-0.0292,5159.8916,6.8213,0.4212,54.896118,9.790572,108.3,5.845,1.85,0.00,54.896362,9.790213,54.895069,9.793790
1386958194,1,0,119.4,0,0,4,0,858,900,-0.0292,5159.8916,6.8213,0.4212,54.896111,9.790600,108.3,5.845,1.85,0.00,54.896362,9.790213,54.895069,9.793790
1386958194,1,0,119.4,0,0,0,0,858,850,-0.0292,5159.8916,6.8213,0.4212,54.896099,9.790627,108.3,5.845,1.85,0.00,54.896362,9.790213,54.895069,9.793790
1386958194,1,0,119.4,0,1,4,0,858,900,-0.0292,5159.6250,6.8213,0.4212,54.896091,9.790653,108.3,5.845,1.85,0.00,54.896362,9.790213,54.895069,9.793790
1386958194,1,0,119.4,0,0,0,0,854,850,-0.0292,5159.6250,6.8213,0.4212,54.896084,9.790681,108.3,5.845,1.85,0.00,54.896362,9.790213,54.895069,9.793790
1386958195,1,0,119.4,0,0,4,0,854,900,-0.0292,5159.6250,6.8213,0.4212,54.896072,9.790708,108.3,5.845,1.85,0.00,54.896362,9.790213,54.895069,9.793790
1386958195,1,0,119.4,0,0,0,0,854,850,-0.0292,5159.6250,6.8213,0.4212,54.896065,9.790734,108.3,5.845,1.85,0.00,54.896362,9.790213,54.895069,9.793790
1386958195,1,0,119.4,0,0,4,0,854,900,-0.0292,5159.6250,6.8213,0.4212,54.896057,9.790762,108.3,5.845,1.85,0.00,54.896362,9.790213,54.895069,9.793790
1386958195,1,0,119.4,0,0,0,0,854,850,-0.0292,5159.6250,6.8213,0.4212,54.896046,9.790789,108.3,5.845,1.85,0.00,54.896362,9.790213,54.895069,9.793790
1386958196,1,0,119.4,0,0,4,0,854,900,-0.0292,5159.6250,6.8213,0.4212,54.896038,9.790815,108.3,5.845,1.85,0.00,54.896362,9.790213,54.895069,9.793790
1386958196,1,0,119.4,0,0,0,0,854,850,-0.0292,5159.6250,6.8213,0.4212,54.896030,9.790843,108.3,5.845,1.85,0.00,54.896362,9.790213,54.895069,9.793790
1386958196,1,0,119.4,0,0,4,0,854,900,-0.0292,5159.6250,6.8213,0.4212,54.896019,9.790870,108.3,5.845,1.85,0.00,54.896362,9.790213,54.895069,9.793790
1386958196,1,0,119.3,0,0,0,0,854,850,-0.0292,5159.6250,6.8213,0.4212,54.896011,9.790897,108.3,5.845,1.85,0.00,54.896362,9.790213,54.895069,9.793790
1386958197,1,0,119.4,0,0,4,0,854,900,-0.0292,5159.6250,6.8213,0.4212,54.896000,9.790925,108.3,5.845,1.85,0.00,54.896362,9.790213,54.895069,9.793790
1386958197,1,0,119.3,0,0,0,0,854,850,-0.0292,5159.6250,6.8213,0.4212,54.895992,9.790952,108.3,5.845,1.85,0.00,54.896362,9.790213,54.895069,9.793790
1386958197,1,0,119.3,0,0,4,0,854,900,-0.0292,5159.6250,6.8213,0.4212,54.895985,9.790979,108.3,5.845,1.85,0.00,54.896362,9.790213,54.895069,9.793790
1386958197,1,0,119.4,0,0,0,0,854,850,-0.0292,5159.6250,6.8213,0.4212,54.895973,9.791006,108.3,5.845,1.85,0.00,54.896362,9.790213,54.895069,9.793790
1386958198,1,0,119.3,0,0,4,0,854,900,-0.0292,5159.6250,6.8213,0.4212,54.895966,9.791033,108.3,5.845,1.85,0.00,54.896362,9.790213,54.895069,9.793790
1386958198,1,0,119.3,0,0,0,0,854,850,-0.0292,5159.6250,6.8213,0.4212,54.895958,9.791060,108.3,5.845,1.85,0.00,54.896362,9.790213,54.895069,9.793790
1386958198,1,0,119.4,0,0,4,0,854,900,-0.0292,5159.6250,6.8213,0.4212,54.895947,9.791087,108.3,5.845,1.85,0.00,54.896362,9.790213,54.895069,9.793790
1386958198,1,0,119.3,0,0,0,0,854,850,-0.0292,5159.6250,6.8213,0.4212,54.895939,9.791115,108.3,5.845,1.85,0.00,54.896362,9.790213,54.895069,9.793790
1386958199,1,0,119.3,0,0,4,0,854,900,-0.0292,5159.6250,6.8213,0.4212,54.895931,9.791142,108.3,5.845,1.85,0.00,54.896362,9.790213,54.895069,9.793790
1386958199,1,0,119.4,0,0,0,0,854,850,-0.0292,5159.6250,6.8213,0.4212,54.895920,9.791169,108.3,5.845,1.85,0.00,54.896362,9.790213,54.895069,9.793790
1386958199,1,0,119.3,0,0,4,0,854,900,-0.0292,5159.6250,6.8213,0.4212,54.895912,9.791197,108.3,5.845,1.85,0.00,54.896362,9.790213,54.895069,9.793790
1386958199,1,0,119.3,0,0,0,0,854,850,-0.0292,5159.6250,6.8213,0.4212,54.895901,9.791224,108.3,5.845,1.85,0.00,54.896362,9.790213,54.895069,9.793790
1386958200,1,0,119.2,0,0,4,0,854,900,-0.0292,5159.6250,6.8213,0.4212,54.895893,9.791250,108.3,5.845,1.85,0.00,54.896362,9.790213,54.895069,9.793790
1386958200,1,0,119.3,0,0,0,0,854,850,-0.0292,5159.6250,6.8213,0.4212,54.895885,9.791278,108.3,5.845,1.85,0.00,54.896362,9.790213,54.895069,9.793790
1386958200,1,0,119.3,0,0,4,0,854,900,-0.0292,5159.6250,6.8213,0.4212,54.895874,9.791305,108.3,5.845,1.85,0.00,54.896362,9.790213,54.895069,9.793790
1386958200,1,0,119.2,0,0,0,0,854,850,-0.0292,5159.6250,6.8213,0.4212,54.895866,9.791331,108.3,5.845,1.85,0.00,54.896362,9.790213,54.895069,9.793790
1386958201,1,0,119.3,0,0,4,0,854,900,-0.0292,5159.6250,6.8213,0.4212,54.895859,9.791359,108.3,5.845,1.85,0.00,54.896362,9.790213,54.895069,9.793790
1386958201,1,0,119.3,0,0,0,0,854,850,-0.0292,5159.6250,6.8213,0.4212,54.895847,9.791386,108.3,5.845,1.85,0.00,54.896362,9.790213,54.895069,9.793790
1386958201,1,0,119.2,0,0,4,0,854,900,-0.0292,5159.6250,6.8213,0.4212,54.895840,9.791413,108.3,5.845,1.85,0.00,54.896362,9.790213,54.895069,9.793790
1386958201,1,0,119.3,0,0,0,0,854,850,-0.0292,5159.6250,6.8213,0.4212,54.895828,9.791441,108.3,5.845,1.85,0.00,54.896362,9.790213,54.895069,9.793790
1386958202,1,0,119.2,0,0,4,0,854,900,-0.0292,5159.6250,6.8213,0.4212,54.895821,9.791468,108.3,5.845,1.85,0.00,54.896362,9.790213,54.895069,9.793790
1386958202,1,0,119.2,0,0,0,0,854,850,-0.0292,5159.6250,6.8213,0.4212,54.895813,9.791495,108.3,5.845,1.85,0.00,54.896362,9.790213,54.895069,9.793790
1386958202,1,0,119.3,0,0,4,0,854,900,-0.0292,5159.6250,6.8213,0.4212,54.895802,9.791522,108.3,5.845,1.85,0.00,54.896362,9.790213,54.895069,9.793790
1386958202,1,0,119.2,0,0,0,0,854,850,-0.0292,5159.6250,6.8213,0.4212,54.895794,9.791549,108.3,5.845,1.85,0.00,54.896362,9.790213,54.895069,9.793790
1386958203,1,0,119.2,0,0,4,0,854,900,-0.0292,5159.6250,6.8213,0.4212,54.895786,9.791576,108.3,5.845,1.85,0.00,54.896362,9.790213,54.895069,9.793790
1386958203,1,0,119.2,0,0,0,0,854,850,-0.0292,5159.6250,6.8213,0.4212,54.895775,9.791603,108.3,5.845,1.85,0.00,54.896362,9.790213,54.895069,9.793790
1386958203,1,0,119.2,0,0,4,0,854,900,-0.0292,5159.6250,6.8213,0.4212,54.895767,9.791630,108.3,5.845,1.85,0.00,54.896362,9.790213,54.895069,9.793790
1386958203,1,0,119.2,0,0,0,0,854,850,-0.0292,5159.6250,6.8213,0.4212,54.895760,9.791657,108.3,5.845,1.85,0.00,54.896362,9.790213,54.895069,9.793790
1386958204,1,0,119.2,0,0,4,0,854,900,-0.0292,5159.6250,6.8213,0.4212,54.895748,9.791684,108.3,5.845,1.85,0.00,54.896362,9.790213,54.895069,9.793790
1386958204,1,0,119.1,0,0,0,0,854,850,-0.0292,5159.6250,6.8213,0.4212,54.895741,9.791712,108.3,5.845,1.85,0.00,54.896362,9.790213,54.895069,9.793790
1386958204,1,0,119.2,0,0,4,0,854,900,-0.0292,5159.6250,6.8213,0.4212,54.895729,9.791739,108.3,5.845,1.85,0.00,54.896362,9.790213,54.895069,9.793790
1386958204,1,0,119.1,0,1,0,0,854,850,-0.0292,5159.3584,6.8213,0.4212,54.895721,9.791766,108.3,5.845,1.85,0.00,54.896362,9.790213,54.895069,9.793790
1386958205,1,0,119.1,0,0,4,0,850,850,-0.0292,5159.3584,6.8213,0.4212,54.895714,9.791794,108.3,5.845,1.85,0.00,54.896362,9.790213,54.895069,9.793790
1386958205,1,0,119.2,0,0,0,0,850,850,-0.0292,5159.3584,6.8213,0.4212,54.895702,9.791821,108.3,5.845,1.85,0.00,54.896362,9.790213,54.895069,9.793790
1386958205,1,0,119.1,0,0,4,0,850,850,-0.0292,5159.3584,6.8213,0.4212,54.895695,9.791847,108.3,5.845,1.85,0.00,54.896362,9.790213,54.895069,9.793790
1386958205,1,0,119.1,0,0,0,0,850,850,-0.0292,5159.3584,6.8213,0.4212,54.895687,9.791875,108.3,5.845,1.85,0.00,54.896362,9.790213,54.895069,9.793790
1386958206,1,0,119.1,0,0,4,0,850,850,-0.0292,5159.3584,6.8213,0.4212,54.895676,9.791902,108.3,5.845,1.85,0.00,54.896362,9.790213,54.895069,9.793790
1386958206,1,0,119.0,0,0,0,0,850,850,-0.0292,5159.3584,6.8213,0.4212,54.895668,9.791929,108.3,5.845,1.85,0.00,54.896362,9.790213,54.895069,9.793790
1386958206,1,0,119.1,0,0,4,0,850,850,-0.0292,5159.3584,6.8213,0.4212,54.895660,9.791957,108.3,5.845,1.85,0.00,54.896362,9.790213,54.895069,9.793790
1386958206,1,0,119.1,0,0,0,0,850,850,-0.0292,5159.3584,6.8213,0.4212,54.895649,9.791984,108.3,5.845,1.85,0.00,54.896362,9.790213,54.895069,9.793790
1386958207,1,0,119.0,0,0,4,0,850,850,-0.0292,5159.3584,6.8213,0.4212,54.895641,9.792011,108.3,5.845,1.85,0.00,54.896362,9.790213,54.895069,9.793790
1386958207,1,0,119.1,0,0,0,0,850,850,-0.0292,5159.3584,6.8213,0.4212,54.895630,9.792039,108.3,5.845,1.85,0.00,54.896362,9.790213,54.895069,9.793790
1386958207,1,0,119.0,0,0,4,0,850,850,-0.0292,5159.3584,6.8213,0.4212,54.895622,9.792066,108.3,5.845,1.85,0.00,54.896362,9.790213,54.895069,9.793790
1386958207,1,0,119.0,0,0,0,0,850,850,-0.0292,5159.3584,6.8213,0.4212,54.895615,9.792093,108.3,5.845,1.85,0.00,54.896362,9.790213,54.895069,9.793790
1386958208,1,0,119.1,0,0,4,0,850,850,-0.0292,5159.3584,6.8213,0.4212,54.895603,9.792120,108.3,5.845,1.85,0.00,54.896362,9.790213,54.895069,9.793790
1386958208,1,0,118.9,0,0,0,0,850,850,-0.0292,5159.3584,6.8213,0.4212,54.895596,9.792147,108.3,5.845,1.85,0.00,54.896362,9.790213,54.895069,9.793790
1386958208,1,0,119.0,0,0,4,0,850,850,-0.0292,5159.3584,6.8213,0.4212,54.895588,9.792174,108.3,5.845,1.85,0.00,54.896362,9.790213,54.895069,9.793790
1386958208,1,0,119.0,0,0,0,0,850,850,-0.0292,5159.3584,6.8213,0.4212,54.895576,9.792201,108.3,5.845,1.85,0.00,54.896362,9.790213,54.895069,9.793790
1386958209,1,0,118.9,0,0,4,0,850,850,-0.0292,5159.3584,6.8213,0.4212,54.895569,9.792229,108.3,5.845,1.85,0.00,54.896362,9.790213,54.895069,9.793790
1386958209,1,0,119.0,0,0,0,0,850,850,-0.0292,5159.3584,6.8213,0.4212,54.895557,9.792256,108.3,5.845,1.85,0.00,54.896362,9.790213,54.895069,9.793790
1386958209,1,0,118.8,0,1,4,0,850,850,-0.0292,5159.0918,6.8213,0.4212,54.895550,9.792283,108.3,5.845,1.85,0.00,54.896362,9.790213,54.895069,9.793790
1386958209,1,0,118.9,0,0,0,0,846,800,-0.0292,5159.0918,6.8213,0.4212,54.895542,9.792311,108.3,5.845,1.85,0.00,54.896362,9.790213,54.895069,9.793790
1386958210,1,0,118.9,0,0,4,0,846,850,-0.0292,5159.0918,6.8213,0.4212,54.895531,9.792338,108.3,5.845,1.85,0.00,54.896362,9.790213,54.895069,9.793790
1386958210,1,0,118.8,0,0,0,0,846,800,-0.0292,5159.0918,6.8213,0.4212,54.895523,9.792365,108.3,5.845,1.85,0.00,54.896362,9.790213,54.895069,9.793790
1386958210,1,0,118.8,0,0,4,0,846,850,-0.0292,5159.0918,6.8213,0.4212,54.895515,9.792393,108.3,5.845,1.85,0.00,54.896362,9.790213,54.895069,9.793790
1386958210,1,0,118.9,0,0,0,0,846,800,-0.0292,5159.0918,6.8213,0.4212,54.895504,9.792420,108.3,5.845,1.85,0.00,54.896362,9.790213,54.895069,9.793790
1386958211,1,0,118.8,0,0,4,0,846,850,-0.0292,5159.0918,6.8213,0.4212,54.895496,9.792447,108.3,5.845,1.85,0.00,54.896362,9.790213,54.895069,9.793790
1386958211,1,0,118.8,0,0,0,0,846,800,-0.0292,5159.0918,6.8213,0.4212,54.895489,9.792475,108.3,5.845,1.85,0.00,54.896362,9.790213,54.895069,9.793790
1386958211,1,0,118.9,0,0,4,0,846,850,-0.0292,5159.0918,6.8213,0.4212,54.895477,9.792501,108.3,5.845,1.85,0.00,54.896362,9.790213,54.895069,9.793790
1386958211,1,0,118.7,0,0,0,0,846,800,-0.0292,5159.0918,6.8213,0.4212,54.895470,9.792529,108.3,5.845,1.85,0.00,54.896362,9.790213,54.895069,9.793790
1386958212,1,0,118.8,0,0,4,0,846,850,-0.0292,5159.0918,6.8213,0.4212,54.895458,9.792557,108.3,5.845,1.85,0.00,54.896362,9.790213,54.895069,9.793790
1386958212,1,0,118.6,0,0,0,0,846,800,-0.0292,5159.0918,6.8213,0.4212,54.895451,9.792583,108.3,5.845,1.85,0.00,54.896362,9.790213,54.895069,9.793790
1386958212,1,0,118.7,0,0,4,0,846,850,-0.0292,5159.0918,6.8213,0.4212,54.895443,9.792611,108.3,5.845,1.85,0.00,54.896362,9.790213,54.895069,9.793790
1386958212,1,0,118.7,0,0,0,0,846,800,-0.0292,5159.0918,6.8213,0.4212,54.895432,9.792639,108.3,5.845,1.85,0.00,54.896362,9.790213,54.895069,9.793790
1386958213,1,0,118.6,0,1,4,0,846,850,-0.0292,5158.8252,6.8213,0.4212,54.895424,9.792665,108.3,5.845,1.85,0.00,54.896362,9.790213,54.895069,9.793790
1386958213,1,0,118.6,0,0,0,0,843,800,-0.0292,5158.8252,6.8213,0.4212,54.895416,9.792693,108.3,5.845,1.85,0.00,54.896362,9.790213,54.895069,9.793790
1386958213,1,0,118.7,0,0,4,0,843,850,-0.0292,5158.8252,6.8213,0.4212,54.895405,9.792721,108.3,5.845,1.85,0.00,54.896362,9.790213,54.895069,9.793790
1386958213,1,0,118.5,0,0,0,0,843,800,-0.0292,5158.8252,6.8213,0.4212,54.895397,9.792747,108.3,5.845,1.85,0.00,54.896362,9.790213,54.895069,9.793790
1386958214,1,0,118.5,0,0,4,0,843,850,-0.0292,5158.8252,6.8213,0.4212,54.895390,9.792775,108.3,5.845,1.85,0.00,54.896362,9.790213,54.895069,9.793790
1386958214,1,0,118.6,0,0,0,0,843,800,-0.0292,5158.8252,6.8213,0.4212,54.895378,9.792803,108.3,5.845,1.85,0.00,54.896362,9.790213,54.895069,9.793790
1386958214,1,0,118.4,0,0,4,0,843,850,-0.0292,5158.8252,6.8213,0.4212,54.895370,9.792830,108.3,5.845,1.85,0.00,54.896362,9.790213,54.895069,9.793790
1386958214,1,0,118.5,0,0,0,0,843,800,-0.0292,5158.8252,6.8213,0.4212,54.895359,9.792857,108.3,5.845,1.85,0.00,54.896362,9.790213,54.895069,9.793790
1386958215,1,0,118.2,0,1,4,0,843,850,-0.0292,5158.5586,6.8213,0.4212,54.895351,9.792885,108.3,5.845,1.85,0.00,54.896362,9.790213,54.895069,9.793790
1386958215,1,0,118.3,0,0,0,0,839,800,-0.0292,5158.5586,6.8213,0.4212,54.895344,9.792912,108.3,5.845,1.85,0.00,54.896362,9.790213,54.895069,9.793790
1386958215,1,0,118.4,0,0,4,0,839,850,-0.0292,5158.5586,6.8213,0.4212,54.895332,9.792940,108.3,5.845,1.85,0.00,54.896362,9.790213,54.895069,9.793790
1386958215,1,0,118.2,0,0,0,0,839,800,-0.0292,5158.5586,6.8213,0.4212,54.895325,9.792967,108.3,5.845,1.85,0.00,54.896362,9.790213,54.895069,9.793790
1386958216,1,0,118.2,0,0,4,0,839,850,-0.0292,5158.5586,6.8213,0.4212,54.895317,9.792994,108.3,5.845,1.85,0.00,54.896362,9.790213,54.895069,9.793790
1386958216,1,0,118.3,0,0,0,0,839,800,-0.0292,5158.5586,6.8213,0.4212,54.895306,9.793022,108.3,5.845,1.85,0.00,54.896362,9.790213,54.895069,9.793790
1386958216,1,0,118.0,0,1,4,0,839,850,-0.0292,5158.2920,6.8213,0.4212,54.895298,9.793049,108.3,5.845,1.85,0.00,54.896362,9.790213,54.895069,9.793790
1386958216,1,0,118.1,0,0,0,0,835,800,-0.0292,5158.2920,6.8213,0.4212,54.895290,9.793077,108.3,5.845,1.85,0.00,54.896362,9.790213,54.895069,9.793790
1386958217,1,0,118.2,0,0,4,0,835,850,-0.0292,5158.2920,6.8213,0.4212,54.895279,9.793104,108.3,5.845,1.85,0.00,54.896362,9.790213,54.895069,9.793790
1386958217,1,0,117.9,0,0,0,0,835,800,-0.0292,5158.2920,6.8213,0.4212,54.895271,9.793131,108.3,5.845,1.85,0.00,54.896362,9.790213,54.895069,9.793790
1386958217,1,0,117.9,0,0,4,0,835,850,-0.0292,5158.2920,6.8213,0.4212,54.895260,9.793159,108.3,5.845,1.85,0.00,54.896362,9.790213,54.895069,9.793790
1386958217,1,0,117.6,0,1,0,0,835,800,-0.0292,5158.0254,6.8213,0.4212,54.895252,9.793186,108.3,5.845,1.85,0.00,54.896362,9.790213,54.895069,9.793790
1386958218,1,0,117.7,0,0,4,0,831,850,-0.0292,5158.0254,6.8213,0.4212,54.895245,9.793214,108.3,5.845,1.85,0.00,54.896362,9.790213,54.895069,9.793790
1386958218,1,0,117.8,0,0,0,0,831,800,-0.0292,5158.0254,6.8213,0.4212,54.895233,9.793242,108.3,5.845,1.85,0.00,54.896362,9.790213,54.895069,9.793790
1386958218,1,0,117.3,0,1,4,0,831,850,-0.0292,5157.7588,6.8213,0.4212,54.895226,9.793269,108.3,5.845,1.85,0.00,54.896362,9.790213,54.895069,9.793790
1386958218,1,0,117.4,0,0,0,0,827,800,-0.0292,5157.7588,6.8213,0.4212,54.895218,9.793297,108.3,5.845,1.85,0.00,54.896362,9.790213,54.895069,9.793790
1386958219,1,0,117.5,0,0,4,0,827,850,-0.0292,5157.7588,6.8213,0.4212,54.895206,9.793324,108.3,5.845,1.85,0.00,54.896362,9.790213,54.895069,9.793790
1386958219,1,0,117.0,0,1,0,0,827,800,-0.0292,5157.4922,6.8213,0.4212,54.895199,9.793352,108.3,5.845,1.85,0.00,54.896362,9.790213,54.895069,9.793790
1386958219,1,0,117.1,0,0,4,0,824,850,-0.0292,5157.4922,6.8213,0.4212,54.895191,9.793380,108.3,5.845,1.85,0.00,54.896362,9.790213,54.895069,9.793790
1386958219,1,0,117.2,0,0,0,0,824,800,-0.0292,5157.4922,6.8213,0.4212,54.895184,9.793407,108.3,5.845,1.85,0.00,54.896362,9.790213,54.895069,9.793790
1386958220,1,0,117.3,0,0,4,0,824,850,-0.0292,5157.4922,6.8213,0.4212,54.895176,9.793435,108.3,5.845,1.85,0.00,54.896362,9.790213,54.895069,9.793790
1386958220,1,0,117.5,0,0,0,0,824,800,-0.0292,5157.4922,6.8213,0.4212,54.895168,9.793463,108.3,5.845,1.85,0.00,54.896362,9.790213,54.895069,9.793790
1386958220,1,0,117.7,0,0,4,0,824,850,-0.0292,5157.4922,6.8213,0.4212,54.895157,9.793490,108.3,5.845,1.85,0.00,54.896362,9.790213,54.895069,9.793790
1386958220,1,0,116.9,0,1,0,0,824,800,-0.0292,5157.2256,6.8213,0.4212,54.895149,9.793518,108.3,5.845,1.85,0.00,54.896362,9.790213,54.895069,9.793790
1386958221,1,0,117.0,0,0,4,0,820,850,-0.0292,5157.2256,6.8213,0.4212,54.895142,9.793546,108.3,5.845,1.85,0.00,54.896362,9.790213,54.895069,9.793790
1386958221,1,0,117.2,0,0,0,0,820,800,-0.0292,5157.2256,6.8213,0.4212,54.895134,9.793573,108.3,5.845,1.85,0.00,54.896362,9.790213,54.895069,9.793790
1386958221,1,0,117.4,0,0,4,0,820,850,-0.0292,5157.2256,6.8213,0.4212,54.895126,9.793602,108.3,5.845,1.85,0.00,54.896362,9.790213,54.895069,9.793790
1386958221,1,0,117.8,0,-1,0,0,820,800,-0.0292,5157.4922,6.8213,0.4212,54.895119,9.793630,108.3,5.845,1.85,0.00,54.896362,9.790213,54.895069,9.793790
1386958222,1,0,118.1,0,-1,-4,0,824,850,-0.0292,5157.7588,6.8213,0.4212,54.895107,9.793657,108.3,5.845,1.85,0.00,54.896362,9.790213,54.895069,9.793790
1386958222,1,0,116.4,0,1,0,0,827,800,-0.0292,5157.4922,6.8213,0.4212,54.895100,9.793685,108.3,5.845,1.85,0.00,54.896362,9.790213,54.895069,9.793790
1386958222,1,0,116.7,0,1,4,0,824,850,-0.0292,5157.2256,6.8213,0.4212,54.895092,9.793713,108.3,5.845,1.85,0.00,54.896362,9.790213,54.895069,9.793790
1386958222,1,0,117.1,0,0,0,0,820,800,-0.0292,5157.2256,6.8213,0.4212,54.895084,9.793740,108.3,5.845,1.85,0.00,54.896362,9.790213,54.895069,9.793790
1386958223,1,0,118.0,0,-1,-4,0,820,850,-0.0292,5157.4922,6.8213,0.4212,54.895077,9.793768,108.3,5.845,1.85,0.00,54.895069,9.793790,54.895348,9.797490
1386958223,1,0,82.8,0,35,0,0,824,800,-0.0292,5148.1587,6.8213,0.4212,54.895069,9.793797,108.3,5.845,1.85,0.00,54.895069,9.793790,54.895348,9.797490
1386958223,1,0,82.6,0,26,4,0,685,750,-0.0292,5141.2256,6.8213,0.4212,54.895061,9.793828,108.3,5.845,1.85,0.00,54.895069,9.793790,54.895348,9.797490
1386958223,1,0,82.3,0,19,8,0,578,700,-0.0292,5136.1587,6.8213,0.4212,54.895061,9.793859,108.3,5.845,1.85,0.00,54.895069,9.793790,54.895348,9.797490
1386958224,1,0,82.2,0,14,12,0,497,650,-0.0292,5132.4253,6.8213,0.4212,54.895061,9.793891,108.3,5.845,1.85,0.00,54.895069,9.793790,54.895348,9.797490
1386958224,1,0,82.2,0,10,8,0,438,600,-0.0292,5129.7588,6.8213,0.4212,54.895061,9.793922,108.3,5.845,1.85,0.00,54.895069,9.793790,54.895348,9.797490
1386958224,1,0,82.1,0,8,12,0,395,550,-0.0292,5127.6255,6.8213,0.4212,54.895061,9.793953,108.3,5.845,1.85,0.00,54.895069,9.793790,54.895348,9.797490
1386958224,1,0,82.0,0,6,8,0,361,500,-0.0292,5126.0254,6.8213,0.4212,54.895065,9.793984,108.3,5.845,1.85,0.00,54.895069,9.793790,54.895348,9.797490
1386958225,1,0,82.1,0,4,4,0,336,450,-0.0292,5124.9585,6.8213,0.4212,54.895069,9.794016,108.3,5.845,1.85,0.00,54.895069,9.793790,54.895348,9.797490
1386958225,1,0,82.1,0,3,0,0,319,400,-0.0292,5124.1587,6.8213,0.4212,54.895069,9.794046,108.3,5.845,1.85,0.00,54.895069,9.793790,54.895348,9.797490
1386958225,1,0,82.0,0,2,4,0,307,350,-0.0292,5123.6255,6.8213,0.4212,54.895069,9.794077,108.3,5.845,1.85,0.00,54.895069,9.793790,54.895348,9.797490
1386958226,1,0,82.0,0,2,0,0,298,300,-0.0292,5123.0923,6.8213,0.4212,54.895069,9.794108,108.3,5.845,1.85,0.00,54.895069,9.793790,54.895348,9.797490
1386958226,1,0,81.9,0,1,4,0,290,250,-0.0292,5122.8257,6.8213,0.4212,54.895069,9.794139,108.3,5.845,1.85,0.00,54.895069,9.793790,54.895348,9.797490
1386958226,1,0,81.8,0,1,0,0,286,300,-0.0292,5122.5591,6.8213,0.4212,54.895069,9.794169,108.3,5.845,1.85,0.00,54.895069,9.793790,54.895348,9.797490
1386958226,1,0,81.8,0,1,4,0,282,250,-0.0292,5122.2925,6.8213,0.4212,54.895069,9.794201,108.3,5.845,1.85,0.00,54.895069,9.793790,54.895348,9.797490
1386958227,1,0,81.7,0,1,0,0,278,300,-0.0292,5122.0259,6.8213,0.4212,54.895069,9.794232,108.3,5.845,1.85,0.00,54.895069,9.793790,54.895348,9.797490
1386958227,1,0,81.6,0,0,4,0,274,250,-0.0292,5122.0259,6.8213,0.4212,54.895069,9.794263,108.3,5.845,1.85,0.00,54.895069,9.793790,54.895348,9.797490
1386958227,1,0,81.5,0,1,0,0,274,300,-0.0292,5121.7593,6.8213,0.4212,54.895069,9.794293,108.3,5.845,1.85,0.00,54.895069,9.793790,54.895348,9.797490
1386958227,1,0,81.4,0,0,4,0,269,250,-0.0292,5121.7593,6.8213,0.4212,54.895069,9.794325,108.3,5.845,1.85,0.00,54.895069,9.793790,54.895348,9.797490
1386958228,1,0,81.4,0,0,0,0,269,300,-0.0292,5121.7593,6.8213,0.4212,54.895069,9.794355,108.3,5.845,1.85,0.00,54.895069,9.793790,54.895348,9.797490
1386958228,1,0,81.3,0,0,4,0,269,250,-0.0292,5121.7593,6.8213,0.4212,54.895069,9.794386,108.3,5.845,1.85,0.00,54.895069,9.793790,54.895348,9.797490
1386958228,1,0,81.2,0,1,0,0,269,300,-0.0292,5121.4927,6.8213,0.4212,54.895069,9.794417,108.3,5.845,1.85,0.00,54.895069,9.793790,54.895348,9.797490
1386958228,1,0,81.1,0,0,4,0,265,250,-0.0292,5121.4927,6.8213,0.4212,54.895069,9.794449,108.3,5.845,1.85,0.00,54.895069,9.793790,54.895348,9.797490
1386958229,1,0,81.0,0,0,0,0,265,300,-0.0292,5121.4927,6.8213,0.4212,54.895069,9.794479,108.3,5.845,1.85,0.00,54.895069,9.793790,54.895348,9.797490
1386958229,1,0,80.9,0,1,4,0,265,250,-0.0292,5121.2261,6.8213,0.4212,54.895069,9.794510,108.3,5.845,1.85,0.00,54.895069,9.793790,54.895348,9.797490
1386958229,1,0,80.8,0,0,0,0,261,300,-0.0292,5121.2261,6.8213,0.4212,54.895069,9.794541,108.3,5.845,1.85,0.00,54.895069,9.793790,54.895348,9.797490
1386958229,1,0,80.7,0,0,4,0,261,250,-0.0292,5121.2261,6.8213,0.4212,54.895069,9.794572,108.3,5.845,1.85,0.00,54.895069,9.793790,54.895348,9.797490
1386958230,1,0,80.6,0,1,0,0,261,300,-0.0292,5120.9595,6.8213,0.4212,54.895069,9.794602,108.3,5.845,1.85,0.00,54.895069,9.793790,54.895348,9.797490
1386958230,1,0,80.5,0,0,4,0,257,250,-0.0292,5120.9595,6.8213,0.4212,54.895069,9.794634,108.3,5.845,1.85,0.00,54.895069,9.793790,54.895348,9.797490
1386958230,1,0,80.4,0,1,0,0,257,300,-0.0292,5120.6929,6.8213,0.4212,54.895069,9.794665,108.3,5.845,1.85,0.00,54.895069,9.793790,54.895348,9.797490
1386958230,1,0,80.3,0,0,4,0,253,250,-0.0292,5120.6929,6.8213,0.4212,54.895069,9.794696,108.3,5.845,1.85,0.00,54.895069,9.793790,54.895348,9.797490
1386958231,1,0,80.2,0,0,0,0,253,300,-0.0292,5120.6929,6.8213,0.4212,54.895069,9.794726,108.3,5.845,1.85,0.00,54.895069,9.793790,54.895348,9.797490
1386958231,1,0,80.1,0,1,4,0,253,250,-0.0292,5120.4263,6.8213,0.4212,54.895069,9.794758,108.3,5.845,1.85,0.00,54.895069,9.793790,54.895348,9.797490
1386958231,1,0,80.0,0,0,0,0,249,200,-0.0292,5120.4263,6.8213,0.4212,54.895069,9.794788,108.3,5.845,1.85,0.00,54.895069,9.793790,54.895348,9.797490
1386958231,1,0,79.9,0,1,4,0,249,250,-0.0292,5120.1597,6.8213,0.4212,54.895069,9.794819,108.3,5.845,1.85,0.00,54.895069,9.793790,54.895348,9.797490
1386958232,1,0,79.8,0,0,0,0,245,200,-0.0292,5120.1597,6.8213,0.4212,54.895069,9.794849,108.3,5.845,1.85,0.00,54.895069,9.793790,54.895348,9.797490
1386958232,1,0,79.7,0,0,4,0,245,250,-0.0292,5120.1597,6.8213,0.4212,54.895069,9.794880,108.3,5.845,1.85,0.00,54.895069,9.793790,54.895348,9.797490
1386958232,1,0,79.6,0,1,0,0,245,200,-0.0292,5119.8931,6.8213,0.4212,54.895069,9.794910,108.3,5.845,1.85,0.00,54.895069,9.793790,54.895348,9.797490
1386958232,1,0,79.4,0,0,4,0,241,250,-0.0292,5119.8931,6.8213,0.4212,54.895069,9.794941,108.3,5.845,1.85,0.00,54.895069,9.793790,54.895348,9.797490
1386958233,1,0,79.3,0,1,0,0,241,200,-0.0292,5119.6265,6.8213,0.4212,54.895069,9.794972,108.3,5.845,1.85,0.00,54.895069,9.793790,54.895348,9.797490
1386958233,1,0,79.2,0,0,4,0,237,250,-0.0292,5119.6265,6.8213,0.4212,54.895069,9.795003,108.3,5.845,1.85,0.00,54.895069,9.793790,54.895348,9.797490
1386958233,1,0,79.0,0,1,0,0,237,200,-0.0292,5119.3599,6.8213,0.4212,54.895069,9.795033,108.3,5.845,1.85,0.00,54.895069,9.793790,54.895348,9.797490
1386958233,1,0,78.9,0,0,4,0,233,250,-0.0292,5119.3599,6.8213,0.4212,54.895069,9.795064,108.3,5.845,1.85,0.00,54.895069,9.793790,54.895348,9.797490
1386958234,1,0,78.8,0,1,0,0,233,200,-0.0292,5119.0933,6.8213,0.4212,54.895069,9.795094,108.3,5.845,1.85,0.00,54.895069,9.793790,54.895348,9.797490
1386958234,1,0,78.6,0,0,4,0,229,250,-0.0292,5119.0933,6.8213,0.4212,54.895069,9.795125,108.3,5.845,1.85,0.00,54.895069,9.793790,54.895348,9.797490
1386958234,1,0,78.5,0,1,0,0,229,200,-0.0292,5118.8267,6.8213,0.4212,54.895069,9.795156,108.3,5.845,1.85,0.00,54.895069,9.793790,54.895348,9.797490
1386958234,1,0,78.4,0,0,4,0,225,250,-0.0292,5118.8267,6.8213,0.4212,54.895069,9.795187,108.3,5.845,1.85,0.00,54.895069,9.793790,54.895348,9.797490
1386958235,1,0,78.2,0,1,0,0,225,200,-0.0292,5118.5601,6.8213,0.4212,54.895069,9.795218,108.3,5.845,1.85,0.00,54.895069,9.793790,54.895348,9.797490
1386958235,1,0,78.0,0,1,4,0,221,250,-0.0292,5118.2935,6.8213,0.4212,54.895069,9.795248,108.3,5.845,1.85,0.00,54.895069,9.793790,54.895348,9.797490
1386958235,1,0,77.9,0,0,0,0,217,200,-0.0292,5118.2935,6.8213,0.4212,54.895069,9.795279,108.3,5.845,1.85,0.00,54.895069,9.793790,54.895348,9.797490
1386958235,1,0,77.7,0,1,4,0,217,250,-0.0292,5118.0269,6.8213,0.4212,54.895069,9.795309,108.3,5.845,1.85,0.00,54.895069,9.793790,54.895348,9.797490
1386958236,1,0,77.6,0,0,0,0,213,200,-0.0292,5118.0269,6.8213,0.4212,54.895069,9.795340,108.3,5.845,1.85,0.00,54.895069,9.793790,54.895348,9.797490
1386958236,1,0,77.4,0,1,4,0,213,250,-0.0292,5117.7603,6.8213,0.4212,54.895069,9.795370,108.3,5.845,1.85,0.00,54.895069,9.793790,54.895348,9.797490
1386958236,1,0,77.2,0,1,0,0,209,200,-0.0292,5117.4937,6.8213,0.4212,54.895069,9.795401,108.3,5.845,1.85,0.00,54.895069,9.793790,54.895348,9.797490
1386958236,1,0,77.0,0,0,4,0,205,250,-0.0292,5117.4937,6.8213,0.4212,54.895069,9.795431,108.3,5.845,1.85,0.00,54.895069,9.793790,54.895348,9.797490
1386958237,1,0,76.8,0,1,0,0,205,200,-0.0292,5117.2271,6.8213,0.4212,54.895069,9.795462,108.3,5.845,1.85,0.00,54.895069,9.793790,54.895348,9.797490
1386958237,1,0,76.7,0,1,4,0,201,250,-0.0292,5116.9604,6.8213,0.4212,54.895069,9.795491,108.3,5.845,1.85,0.00,54.895069,9.793790,54.895348,9.797490
1386958237,1,0,76.5,0,0,0,0,198,200,-0.0292,5116.9604,6.8213,0.4212,54.895069,9.795522,108.3,5.845,1.85,0.00,54.895069,9.793790,54.895348,9.797490
1386958237,1,0,76.3,0,1,4,0,198,150,-0.0292,5116.6938,6.8213,0.4212,54.895073,9.795552,108.3,5.845,1.85,0.00,54.895069,9.793790,54.895348,9.797490
1386958238,1,0,76.2,0,0,0,0,194,200,-0.0292,5116.6938,6.8213,0.4212,54.895077,9.795582,108.3,5.845,1.85,0.00,54.895069,9.793790,54.895348,9.797490
1386958238,1,0,76.2,0,0,4,0,194,150,-0.0292,5116.6938,6.8213,0.4212,54.895081,9.795612,108.3,5.845,1.85,0.00,54.895069,9.793790,54.895348,9.797490
1386958238,1,0,76.2,0,1,0,0,194,200,-0.0292,5116.4272,6.8213,0.4212,54.895084,9.795643,108.3,5.845,1.85,0.00,54.895069,9.793790,54.895348,9.797490
1386958238,1,0,76.2,0,0,4,0,190,150,-0.0292,5116.4272,6.8213,0.4212,54.895088,9.795673,108.3,5.845,1.85,0.00,54.895069,9.793790,54.895348,9.797490
1386958239,1,0,76.1,0,0,0,0,190,200,-0.0292,5116.4272,6.8213,0.4212,54.895092,9.795704,108.3,5.845,1.85,0.00,54.895069,9.793790,54.895348,9.797490
1386958239,1,0,76.1,0,0,4,0,190,150,-0.0292,5116.4272,6.8213,0.4212,54.895100,9.795734,108.3,5.845,1.85,0.00,54.895069,9.793790,54.895348,9.797490
1386958239,1,0,76.3,0,0,0,0,190,200,-0.0292,5116.4272,6.8213,0.4212,54.895103,9.795765,108.3,5.845,1.85,0.00,54.895069,9.793790,54.895348,9.797490
1386958239,1,0,76.3,0,0,4,0,190,150,-0.0292,5116.4272,6.8213,0.4212,54.895107,9.795794,108.3,5.845,1.85,0.00,54.895069,9.793790,54.895348,9.797490
1386958240,1,0,76.2,0,0,0,0,190,200,-0.0292,5116.4272,6.8213,0.4212,54.895111,9.795825,108.3,5.845,1.85,0.00,54.895069,9.793790,54.895348,9.797490
1386958240,1,0,76.2,0,0,4,0,190,150,-0.0292,5116.4272,6.8213,0.4212,54.895115,9.795856,108.3,5.845,1.85,0.00,54.895069,9.793790,54.895348,9.797490
1386958240,1,0,76.2,0,0,0,0,190,200,-0.0292,5116.4272,6.8213,0.4212,54.895123,9.795886,108.3,5.845,1.85,0.00,54.895069,9.793790,54.895348,9.797490
1386958240,1,0,76.4,0,0,4,0,190,150,-0.0292,5116.4272,6.8213,0.4212,54.895126,9.795917,108.3,5.845,1.85,0.00,54.895069,9.793790,54.895348,9.797490
1386958241,1,0,76.3,0,0,0,0,190,200,-0.0292,5116.4272,6.8213,0.4212,54.895130,9.795947,108.3,5.845,1.85,0.00,54.895069,9.793790,54.895348,9.797490
1386958241,1,0,76.3,0,0,4,0,190,150,-0.0292,5116.4272,6.8213,0.4212,54.895134,9.795978,108.3,5.845,1.85,0.00,54.895069,9.793790,54.895348,9.797490
1386958241,1,0,76.3,0,0,0,0,190,200,-0.0292,5116.4272,6.8213,0.4212,54.895138,9.796007,108.3,5.845,1.85,0.00,54.895069,9.793790,54.895348,9.797490
1386958241,1,0,76.3,0,0,4,0,190,150,-0.0292,5116.4272,6.8213,0.4212,54.895142,9.796038,108.3,5.845,1.85,0.00,54.895069,9.793790,54.895348,9.797490
1386958242,1,0,76.2,0,0,0,0,190,200,-0.0292,5116.4272,6.8213,0.4212,54.895149,9.796068,108.3,5.845,1.85,0.00,54.895069,9.793790,54.895348,9.797490
1386958242,1,0,76.4,0,0,4,0,190,150,-0.0292,5116.4272,6.8213,0.4212,54.895153,9.796098,108.3,5.845,1.85,0.00,54.895069,9.793790,54.895348,9.797490
1386958242,1,0,76.4,0,0,0,0,190,200,-0.0292,5116.4272,6.8213,0.4212,54.895157,9.796128,108.3,5.845,1.85,0.00,54.895069,9.793790,54.895348,9.797490
1386958242,1,0,76.4,0,0,4,0,190,150,-0.0292,5116.4272,6.8213,0.4212,54.895161,9.796159,108.3,5.845,1.85,0.00,54.895069,9.793790,54.895348,9.797490
1386958243,1,0,76.4,0,0,0,0,190,200,-0.0292,5116.4272,6.8213,0.4212,54.895164,9.796189,108.3,5.845,1.85,0.00,54.895069,9.793790,54.895348,9.797490
1386958243,1,0,76.3,0,0,4,0,190,150,-0.0292,5116.4272,6.8213,0.4212,54.895172,9.796219,108.3,5.845,1.85,0.00,54.895069,9.793790,54.895348,9.797490
1386958243,1,0,76.6,0,0,0,0,190,200,-0.0292,5116.4272,6.8213,0.4212,54.895176,9.796249,108.3,5.845,1.85,0.00,54.895069,9.793790,54.895348,9.797490
1386958243,1,0,76.6,0,0,4,0,190,150,-0.0292,5116.4272,6.8213,0.4212,54.895180,9.796280,108.3,5.845,1.85,0.00,54.895069,9.793790,54.895348,9.797490
1386958244,1,0,76.5,0,0,0,0,190,200,-0.0292,5116.4272,6.8213,0.4212,54.895184,9.796309,108.3,5.845,1.85,0.00,54.895069,9.793790,54.895348,9.797490
1386958244,1,0,76.5,0,0,4,0,190,150,-0.0292,5116.4272,6.8213,0.4212,54.895187,9.796340,108.3,5.845,1.85,0.00,54.895069,9.793790,54.895348,9.797490
1386958244,1,0,76.5,0,0,0,0,190,200,-0.0292,5116.4272,6.8213,0.4212,54.895191,9.796371,108.3,5.845,1.85,0.00,54.895069,9.793790,54.895348,9.797490
1386958244,1,0,76.4,0,0,4,0,190,150,-0.0292,5116.4272,6.8213,0.4212,54.895199,9.796401,108.3,5.845,1.85,0.00,54.895069,9.793790,54.895348,9.797490
1386958245,1,0,76.7,0,0,0,0,190,200,-0.0292,5116.4272,6.8213,0.4212,54.895203,9.796432,108.3,5.845,1.85,0.00,54.895069,9.793790,54.895348,9.797490
1386958245,1,0,76.7,0,0,4,0,190,150,-0.0292,5116.4272,6.8213,0.4212,54.895206,9.796462,108.3,5.845,1.85,0.00,54.895069,9.793790,54.895348,9.797490
1386958245,1,0,76.7,0,0,0,0,190,200,-0.0292,5116.4272,6.8213,0.4212,54.895210,9.796493,108.3,5.845,1.85,0.00,54.895069,9.793790,54.895348,9.797490
1386958245,1,0,76.6,0,0,4,0,190,150,-0.0292,5116.4272,6.8213,0.4212,54.895214,9.796522,108.3,5.845,1.85,0.00,54.895069,9.793790,54.895348,9.797490
1386958246,1,0,76.6,0,0,0,0,190,200,-0.0292,5116.4272,6.8213,0.4212,54.895222,9.796553,108.3,5.845,1.85,0.00,54.895069,9.793790,54.895348,9.797490
1386958246,1,0,76.9,0,-1,-4,0,190,150,-0.0292,5116.6938,6.8213,0.4212,54.895226,9.796583,108.3,5.845,1.85,0.00,54.895069,9.793790,54.895348,9.797490
1386958246,1,0,76.9,0,0,0,0,194,200,-0.0292,5116.6938,6.8213,0.4212,54.895229,9.796614,108.3,5.845,1.85,0.00,54.895069,9.793790,54.895348,9.797490
1386958246,1,0,76.9,0,0,4,0,194,150,-0.0292,5116.6938,6.8213,0.4212,54.895233,9.796644,108.3,5.845,1.85,0.00,54.895069,9.793790,54.895348,9.797490
1386958247,1,0,76.8,0,0,0,0,194,200,-0.0292,5116.6938,6.8213,0.4212,54.895237,9.796675,108.3,5.845,1.85,0.00,54.895069,9.793790,54.895348,9.797490
1386958247,1,0,76.8,0,0,4,0,194,150,-0.0292,5116.6938,6.8213,0.4212,54.895241,9.796705,108.3,5.845,1.85,0.00,54.895069,9.793790,54.895348,9.797490
1386958247,1,0,76.8,0,0,0,0,194,200,-0.0292,5116.6938,6.8213,0.4212,54.895248,9.796735,108.3,5.845,1.85,0.00,54.895069,9.793790,54.895348,9.797490
1386958247,1,0,77.2,0,-1,-4,0,194,150,-0.0292,5116.9604,6.8213,0.4212,54.895252,9.796765,108.3,5.845,1.85,0.00,54.895069,9.793790,54.895348,9.797490
1386958248,1,0,77.2,0,0,0,0,198,200,-0.0292,5116.9604,6.8213,0.4212,54.895256,9.796796,108.3,5.845,1.85,0.00,54.895069,9.793790,54.895348,9.797490
1386958248,1,0,77.2,0,0,4,0,198,150,-0.0292,5116.9604,6.8213,0.4212,54.895260,9.796826,108.3,5.845,1.85,0.00,54.895069,9.793790,54.895348,9.797490
1386958248,1,0,77.1,0,0,0,0,198,200,-0.0292,5116.9604,6.8213,0.4212,54.895264,9.796857,108.3,5.845,1.85,0.00,54.895069,9.793790,54.895348,9.797490
1386958248,1,0,77.1,0,0,4,0,198,150,-0.0292,5116.9604,6.8213,0.4212,54.895271,9.796887,108.3,5.845,1.85,0.00,54.895069,9.793790,54.895348,9.797490
1386958249,1,0,77.7,0,-1,0,0,198,200,-0.0292,5117.2271,6.8213,0.4212,54.895275,9.796918,108.3,5.845,1.85,0.00,54.895069,9.793790,54.895348,9.797490
1386958249,1,0,77.7,0,0,4,0,201,250,-0.0292,5117.2271,6.8213,0.4212,54.895279,9.796947,108.3,5.845,1.85,0.00,54.895069,9.793790,54.895348,9.797490
1386958249,1,0,77.7,0,0,0,0,201,200,-0.0292,5117.2271,6.8213,0.4212,54.895283,9.796978,108.3,5.845,1.85,0.00,54.895069,9.793790,54.895348,9.797490
1386958249,1,0,77.7,0,0,4,0,201,250,-0.0292,5117.2271,6.8213,0.4212,54.895287,9.797009,108.3,5.845,1.85,0.00,54.895069,9.793790,54.895348,9.797490
1386958250,1,0,77.6,0,0,0,0,201,200,-0.0292,5117.2271,6.8213,0.4212,54.895290,9.797039,108.3,5.845,1.85,0.00,54.895069,9.793790,54.895348,9.797490
1386958250,1,0,77.6,0,0,4,0,201,250,-0.0292,5117.2271,6.8213,0.4212,54.895290,9.797070,108.3,5.845,1.85,0.00,54.895069,9.793790,54.895348,9.797490
1386958250,1,0,76.8,0,0,0,0,201,200,-0.0292,5117.2271,6.8213,0.4212,54.895290,9.797100,108.3,5.845,1.85,0.00,54.895069,9.793790,54.895348,9.797490
1386958250,1,0,75.8,0,1,4,0,201,250,-0.0292,5116.9604,6.8213,0.4212,54.895290,9.797131,108.3,5.845,1.85,0.00,54.895069,9.793790,54.895348,9.797490
1386958251,1,0,55.0,0,22,8,0,198,200,-0.0292,5111.0938,6.8213,0.4212,54.895294,9.797160,108.3,5.845,1.85,0.00,54.895069,9.793790,54.895348,9.797490
1386958251,1,0,55.0,0,16,12,0,117,150,-0.0292,5106.8271,6.8213,0.4212,54.895298,9.797189,108.3,5.845,1.85,0.00,54.895069,9.793790,54.895348,9.797490
1386958251,1,0,55.0,0,12,16,0,68,100,-0.0292,5103.6270,6.8213,0.4212,54.895306,9.797216,108.3,5.845,1.85,0.00,54.895069,9.793790,54.895348,9.797490
1386958251,1,0,75.2,0,-12,12,0,38,50,-0.0292,5106.8271,6.8213,0.4212,54.895313,9.797246,108.3,5.845,1.85,0.00,54.895069,9.793790,54.895348,9.797490
1386958252,1,0,76.3,0,-10,8,0,68,100,-0.0292,5109.4937,6.8213,0.4212,54.895321,9.797276,108.3,5.845,1.85,0.00,54.895069,9.793790,54.895348,9.797490
1386958252,1,0,77.9,0,-8,4,0,98,50,-0.0292,5111.6270,6.8213,0.4212,54.895325,9.797305,108.3,5.845,1.85,0.00,54.895069,9.793790,54.895348,9.797490
1386958252,1,0,77.9,0,-6,0,0,124,100,-0.0292,5113.2271,6.8213,0.4212,54.895329,9.797335,108.3,5.845,1.85,0.00,54.895069,9.793790,54.895348,9.797490
1386958252,1,0,78.0,0,-5,-4,0,145,150,-0.0292,5114.5605,6.8213,0.4212,54.895332,9.797365,108.3,5.845,1.85,0.00,54.895069,9.793790,54.895348,9.797490
1386958253,1,0,78.1,0,-4,0,0,163,200,-0.0292,5115.6274,6.8213,0.4212,54.895336,9.797396,108.3,5.845,1.85,0.00,54.895069,9.793790,54.895348,9.797490
1386958253,1,0,78.2,0,-3,-4,0,178,150,-0.0292,5116.4272,6.8213,0.4212,54.895344,9.797425,108.3,5.845,1.85,0.00,54.895069,9.793790,54.895348,9.797490
1386958253,1,0,84.2,0,-8,-8,0,190,200,-0.0292,5118.5605,6.8213,0.4212,54.895348,9.797456,108.3,5.845,1.85,0.00,54.895348,9.797490,54.894039,9.801540
1386958253,1,0,119.0,0,-35,-12,0,221,250,-0.0292,5127.8940,6.8213,0.4212,54.895348,9.797487,108.3,5.845,1.85,0.00,54.895348,9.797490,54.894039,9.801540
1386958254,1,0,119.2,0,-31,-16,0,366,300,-0.0292,5136.1606,6.8213,0.4212,54.895344,9.797518,108.3,5.845,1.85,0.00,54.895348,9.797490,54.894039,9.801540
1386958254,1,0,119.3,0,-23,-20,0,498,350,-0.0292,5142.2939,6.8213,0.4212,54.895340,9.797548,108.3,5.845,1.85,0.00,54.895348,9.797490,54.894039,9.801540
1386958254,1,0,119.4,0,-17,-16,0,595,400,-0.0292,5146.8271,6.8213,0.4212,54.895332,9.797579,108.3,5.845,1.85,0.00,54.895348,9.797490,54.894039,9.801540
1386958254,1,0,119.4,0,-13,-12,0,665,450,-0.0292,5150.2939,6.8213,0.4212,54.895329,9.797608,108.3,5.845,1.85,0.00,54.895348,9.797490,54.894039,9.801540
1386958255,1,0,119.5,0,-9,-8,0,718,500,-0.0292,5152.6938,6.8213,0.4212,54.895321,9.797637,108.3,5.845,1.85,0.00,54.895348,9.797490,54.894039,9.801540
1386958255,1,0,119.6,0,-7,-4,0,754,550,-0.0292,5154.5605,6.8213,0.4212,54.895313,9.797666,108.3,5.845,1.85,0.00,54.895348,9.797490,54.894039,9.801540
1386958255,1,0,119.6,0,-5,-8,0,781,600,-0.0292,5155.8940,6.8213,0.4212,54.895306,9.797693,108.3,5.845,1.85,0.00,54.895348,9.797490,54.894039,9.801540
1386958255,1,0,119.6,0,-4,-4,0,801,650,-0.0292,5156.9609,6.8213,0.4212,54.895298,9.797721,108.3,5.845,1.85,0.00,54.895348,9.797490,54.894039,9.801540
1386958256,1,0,119.7,0,-3,0,0,816,700,-0.0292,5157.7607,6.8213,0.4212,54.895290,9.797749,108.3,5.845,1.85,0.00,54.895348,9.797490,54.894039,9.801540
1386958256,1,0,119.7,0,-2,-4,0,827,750,-0.0292,5158.2939,6.8213,0.4212,54.895279,9.797776,108.3,5.845,1.85,0.00,54.895348,9.797490,54.894039,9.801540
1386958256,1,0,119.6,0,-1,0,0,835,800,-0.0292,5158.5605,6.8213,0.4212,54.895271,9.797803,108.3,5.845,1.85,0.00,54.895348,9.797490,54.894039,9.801540
1386958257,1,0,119.7,0,-1,-4,0,839,850,-0.0292,5158.8271,6.8213,0.4212,54.895260,9.797831,108.3,5.845,1.85,0.00,54.895348,9.797490,54.894039,9.801540
1386958257,1,0,119.6,0,-1,0,0,843,800,-0.0292,5159.0938,6.8213,0.4212,54.895252,9.797857,108.3,5.845,1.85,0.00,54.895348,9.797490,54.894039,9.801540
1386958257,1,0,119.6,0,-1,-4,0,846,850,-0.0292,5159.3604,6.8213,0.4212,54.895245,9.797885,108.3,5.845,1.85,0.00,54.895348,9.797490,54.894039,9.801540
1386958257,1,0,119.7,0,0,0,0,850,850,-0.0292,5159.3604,6.8213,0.4212,54.895233,9.797913,108.3,5.845,1.85,0.00,54.895348,9.797490,54.894039,9.801540
1386958258,1,0,119.6,0,0,4,0,850,850,-0.0292,5159.3604,6.8213,0.4212,54.895226,9.797939,108.3,5.845,1.85,0.00,54.895348,9.797490,54.894039,9.801540
1386958258,1,0,119.7,0,0,0,0,850,850,-0.0292,5159.3604,6.8213,0.4212,54.895218,9.797967,108.3,5.845,1.85,0.00,54.895348,9.797490,54.894039,9.801540
1386958258,1,0,119.7,0,0,4,0,850,850,-0.0292,5159.3604,6.8213,0.4212,54.895206,9.797994,108.3,5.845,1.85,0.00,54.895348,9.797490,54.894039,9.801540
1386958258,1,0,119.6,0,0,0,0,850,850,-0.0292,5159.3604,6.8213,0.4212,54.895199,9.798020,108.3,5.845,1.85,0.00,54.895348,9.797490,54.894039,9.801540
1386958259,1,0,119.7,0,0,4,0,850,850,-0.0292,5159.3604,6.8213,0.4212,54.895187,9.798048,108.3,5.845,1.85,0.00,54.895348,9.797490,54.894039,9.801540
1386958259,1,0,119.6,0,0,0,0,850,850,-0.0292,5159.3604,6.8213,0.4212,54.895180,9.798075,108.3,5.845,1.85,0.00,54.895348,9.797490,54.894039,9.801540
1386958259,1,0,119.6,0,0,4,0,850,850,-0.0292,5159.3604,6.8213,0.4212,54.895172,9.798102,108.3,5.845,1.85,0.00,54.895348,9.797490,54.894039,9.801540
1386958259,1,0,119.7,0,0,0,0,850,850,-0.0292,5159.3604,6.8213,0.4212,54.895161,9.798130,108.3,5.845,1.85,0.00,54.895348,9.797490,54.894039,9.801540
1386958260,1,0,119.6,0,0,4,0,850,850,-0.0292,5159.3604,6.8213,0.4212,54.895153,9.798157,108.3,5.845,1.85,0.00,54.895348,9.797490,54.894039,9.801540
1386958260,1,0,119.6,0,0,0,0,850,850,-0.0292,5159.3604,6.8213,0.4212,54.895145,9.798184,108.3,5.845,1.85,0.00,54.895348,9.797490,54.894039,9.801540
1386958260,1,0,119.7,0,0,4,0,850,850,-0.0292,5159.3604,6.8213,0.4212,54.895134,9.798212,108.3,5.845,1.85,0.00,54.895348,9.797490,54.894039,9.801540
1386958260,1,0,119.6,0,0,0,0,850,850,-0.0292,5159.3604,6.8213,0.4212,54.895126,9.798239,108.3,5.845,1.85,0.00,54.895348,9.797490,54.894039,9.801540
1386958261,1,0,119.6,0,0,4,0,850,850,-0.0292,5159.3604,6.8213,0.4212,54.895115,9.798266,108.3,5.845,1.85,0.00,54.895348,9.797490,54.894039,9.801540
1386958261,1,0,119.6,0,0,0,0,850,850,-0.0292,5159.3604,6.8213,0.4212,54.895107,9.798293,108.3,5.845,1.85,0.00,54.895348,9.797490,54.894039,9.801540
1386958261,1,0,119.6,0,0,4,0,850,850,-0.0292,5159.3604,6.8213,0.4212,54.895100,9.798320,108.3,5.845,1.85,0.00,54.895348,9.797490,54.894039,9.801540
1386958261,1,0,119.6,0,0,0,0,850,850,-0.0292,5159.3604,6.8213,0.4212,54.895088,9.798347,108.3,5.845,1.85,0.00,54.895348,9.797490,54.894039,9.801540
1386958262,1,0,119.6,0,0,4,0,850,850,-0.0292,5159.3604,6.8213,0.4212,54.895081,9.798374,108.3,5.845,1.85,0.00,54.895348,9.797490,54.894039,9.801540
1386958262,1,0,119.6,0,0,0,0,850,850,-0.0292,5159.3604,6.8213,0.4212,54.895073,9.798402,108.3,5.845,1.85,0.00,54.895348,9.797490,54.894039,9.801540
1386958262,1,0,119.7,0,0,4,0,850,850,-0.0292,5159.3604,6.8213,0.4212,54.895061,9.798429,108.3,5.845,1.85,0.00,54.895348,9.797490,54.894039,9.801540
1386958262,1,0,119.6,0,0,0,0,850,850,-0.0292,5159.3604,6.8213,0.4212,54.895054,9.798456,108.3,5.845,1.85,0.00,54.895348,9.797490,54.894039,9.801540
1386958263,1,0,119.6,0,0,4,0,850,850,-0.0292,5159.3604,6.8213,0.4212,54.895046,9.798484,108.3,5.845,1.85,0.00,54.895348,9.797490,54.894039,9.801540
1386958263,1,0,119.7,0,0,0,0,850,850,-0.0292,5159.3604,6.8213,0.4212,54.895035,9.798512,108.3,5.845,1.85,0.00,54.895348,9.797490,54.894039,9.801540
1386958263,1,0,119.6,0,0,4,0,850,850,-0.0292,5159.3604,6.8213,0.4212,54.895027,9.798538,108.3,5.845,1.85,0.00,54.895348,9.797490,54.894039,9.801540
1386958263,1,0,119.6,0,0,0,0,850,850,-0.0292,5159.3604,6.8213,0.4212,54.895016,9.798566,108.3,5.845,1.85,0.00,54.895348,9.797490,54.894039,9.801540
1386958264,1,0,119.6,0,0,4,0,850,850,-0.0292,5159.3604,6.8213,0.4212,54.895008,9.798593,108.3,5.845,1.85,0.00,54.895348,9.797490,54.894039,9.801540
1386958264,1,0,119.6,0,0,0,0,850,850,-0.0292,5159.3604,6.8213,0.4212,54.895000,9.798619,108.3,5.845,1.85,0.00,54.895348,9.797490,54.894039,9.801540
1386958264,1,0,119.6,0,0,4,0,850,850,-0.0292,5159.3604,6.8213,0.4212,54.894989,9.798647,108.3,5.845,1.85,0.00,54.895348,9.797490,54.894039,9.801540
1386958264,1,0,119.6,0,0,0,0,850,850,-0.0292,5159.3604,6.8213,0.4212,54.894981,9.798674,108.3,5.845,1.85,0.00,54.895348,9.797490,54.894039,9.801540
1386958265,1,0,119.6,0,0,4,0,850,850,-0.0292,5159.3604,6.8213,0.4212,54.894974,9.798701,108.3,5.845,1.85,0.00,54.895348,9.797490,54.894039,9.801540
1386958265,1,0,119.6,0,0,0,0,850,850,-0.0292,5159.3604,6.8213,0.4212,54.894962,9.798729,108.3,5.845,1.85,0.00,54.895348,9.797490,54.894039,9.801540
1386958265,1,0,119.6,0,0,4,0,850,850,-0.0292,5159.3604,6.8213,0.4212,54.894955,9.798756,108.3,5.845,1.85,0.00,54.895348,9.797490,54.894039,9.801540
1386958265,1,0,119.6,0,0,0,0,850,850,-0.0292,5159.3604,6.8213,0.4212,54.894947,9.798783,108.3,5.845,1.85,0.00,54.895348,9.797490,54.894039,9.801540
1386958266,1,0,119.6,0,0,4,0,850,850,-0.0292,5159.3604,6.8213,0.4212,54.894936,9.798811,108.3,5.845,1.85,0.00,54.895348,9.797490,54.894039,9.801540
1386958266,1,0,119.6,0,0,0,0,850,850,-0.0292,5159.3604,6.8213,0.4212,54.894928,9.798838,108.3,5.845,1.85,0.00,54.895348,9.797490,54.894039,9.801540
1386958266,1,0,119.6,0,0,4,0,850,850,-0.0292,5159.3604,6.8213,0.4212,54.894917,9.798865,108.3,5.845,1.85,0.00,54.895348,9.797490,54.894039,9.801540
1386958266,1,0,119.5,0,0,0,0,850,850,-0.0292,5159.3604,6.8213,0.4212,54.894909,9.798892,108.3,5.845,1.85,0.00,54.895348,9.797490,54.894039,9.801540
1386958267,1,0,119.6,0,0,4,0,850,850,-0.0292,5159.3604,6.8213,0.4212,54.894901,9.798919,108.3,5.845,1.85,0.00,54.895348,9.797490,54.894039,9.801540
1386958267,1,0,119.6,0,0,0,0,850,850,-0.0292,5159.3604,6.8213,0.4212,54.894890,9.798946,108.3,5.845,1.85,0.00,54.895348,9.797490,54.894039,9.801540
1386958267,1,0,119.5,0,0,4,0,850,850,-0.0292,5159.3604,6.8213,0.4212,54.894882,9.798973,108.3,5.845,1.85,0.00,54.895348,9.797490,54.894039,9.801540
1386958267,1,0,119.6,0,0,0,0,850,850,-0.0292,5159.3604,6.8213,0.4212,54.894875,9.799001,108.3,5.845,1.85,0.00,54.895348,9.797490,54.894039,9.801540
1386958268,1,0,119.6,0,0,4,0,850,850,-0.0292,5159.3604,6.8213,0.4212,54.894863,9.799028,108.3,5.845,1.85,0.00,54.895348,9.797490,54.894039,9.801540
1386958268,1,0,119.5,0,0,0,0,850,850,-0.0292,5159.3604,6.8213,0.4212,54.894855,9.799055,108.3,5.845,1.85,0.00,54.895348,9.797490,54.894039,9.801540
1386958268,1,0,119.6,0,0,4,0,850,850,-0.0292,5159.3604,6.8213,0.4212,54.894844,9.799083,108.3,5.845,1.85,0.00,54.895348,9.797490,54.894039,9.801540
1386958268,1,0,119.5,0,0,0,0,850,850,-0.0292,5159.3604,6.8213,0.4212,54.894836,9.799110,108.3,5.845,1.85,0.00,54.895348,9.797490,54.894039,9.801540
1386958269,1,0,119.6,0,0,4,0,850,850,-0.0292,5159.3604,6.8213,0.4212,54.894829,9.799137,108.3,5.845,1.85,0.00,54.895348,9.797490,54.894039,9.801540
1386958269,1,0,119.6,0,0,0,0,850,850,-0.0292,5159.3604,6.8213,0.4212,54.894817,9.799165,108.3,5.845,1.85,0.00,54.895348,9.797490,54.894039,9.801540
1386958269,1,0,119.5,0,0,4,0,850,850,-0.0292,5159.3604,6.8213,0.4212,54.894810,9.799191,108.3,5.845,1.85,0.00,54.895348,9.797490,54.894039,9.801540
1386958269,1,0,119.6,0,0,0,0,850,850,-0.0292,5159.3604,6.8213,0.4212,54.894802,9.799218,108.3,5.845,1.85,0.00,54.895348,9.797490,54.894039,9.801540
1386958270,1,0,119.6,0,0,4,0,850,850,-0.0292,5159.3604,6.8213,0.4212,54.894791,9.799246,108.3,5.845,1.85,0.00,54.895348,9.797490,54.894039,9.801540
1386958270,1,0,119.5,0,0,0,0,850,850,-0.0292,5159.3604,6.8213,0.4212,54.894783,9.799273,108.3,5.845,1.85,0.00,54.895348,9.797490,54.894039,9.801540
1386958270,1,0,119.5,0,0,4,0,850,850,-0.0292,5159.3604,6.8213,0.4212,54.894775,9.799300,108.3,5.845,1.85,0.00,54.895348,9.797490,54.894039,9.801540
1386958270,1,0,119.6,0,0,0,0,850,850,-0.0292,5159.3604,6.8213,0.4212,54.894764,9.799328,108.3,5.845,1.85,0.00,54.895348,9.797490,54.894039,9.801540
1386958271,1,0,119.5,0,0,4,0,850,850,-0.0292,5159.3604,6.8213,0.4212,54.894756,9.799355,108.3,5.845,1.85,0.00,54.895348,9.797490,54.894039,9.801540
1386958271,1,0,119.6,0,0,0,0,850,850,-0.0292,5159.3604,6.8213,0.4212,54.894745,9.799382,108.3,5.845,1.85,0.00,54.895348,9.797490,54.894039,9.801540
1386958271,1,0,119.5,0,0,4,0,850,850,-0.0292,5159.3604,6.8213,0.4212,54.894737,9.799410,108.3,5.845,1.85,0.00,54.895348,9.797490,54.894039,9.801540
1386958271,1,0,119.5,0,0,0,0,850,850,-0.0292,5159.3604,6.8213,0.4212,54.894730,9.799437,108.3,5.845,1.85,0.00,54.895348,9.797490,54.894039,9.801540
1386958272,1,0,119.6,0,0,4,0,850,850,-0.0292,5159.3604,6.8213,0.4212,54.894718,9.799464,108.3,5.845,1.85,0.00,54.895348,9.797490,54.894039,9.801540
1386958272,1,0,119.5,0,0,0,0,850,850,-0.0292,5159.3604,6.8213,0.4212,54.894711,9.799491,108.3,5.845,1.85,0.00,54.895348,9.797490,54.894039,9.801540
1386958272,1,0,119.5,0,0,4,0,850,850,-0.0292,5159.3604,6.8213,0.4212,54.894703,9.799518,108.3,5.845,1.85,0.00,54.895348,9.797490,54.894039,9.801540
1386958272,1,0,119.6,0,0,0,0,850,850,-0.0292,5159.3604,6.8213,0.4212,54.894691,9.799545,108.3,5.845,1.85,0.00,54.895348,9.797490,54.894039,9.801540
1386958273,1,0,119.5,0,0,4,0,850,850,-0.0292,5159.3604,6.8213,0.4212,54.894684,9.799572,108.3,5.845,1.85,0.00,54.895348,9.797490,54.894039,9.801540
1386958273,1,0,119.5,0,0,0,0,850,850,-0.0292,5159.3604,6.8213,0.4212,54.894672,9.799600,108.3,5.845,1.85,0.00,54.895348,9.797490,54.894039,9.801540
1386958273,1,0,119.4,0,0,4,0,850,850,-0.0292,5159.3604,6.8213,0.4212,54.894665,9.799627,108.3,5.845,1.85,0.00,54.895348,9.797490,54.894039,9.801540
1386958273,1,0,119.5,0,0,0,0,850,850,-0.0292,5159.3604,6.8213,0.4212,54.894657,9.799654,108.3,5.845,1.85,0.00,54.895348,9.797490,54.894039,9.801540
1386958274,1,0,119.5,0,0,4,0,850,850,-0.0292,5159.3604,6.8213,0.4212,54.894646,9.799682,108.3,5.845,1.85,0.00,54.895348,9.797490,54.894039,9.801540
1386958274,1,0,119.4,0,0,0,0,850,850,-0.0292,5159.3604,6.8213,0.4212,54.894638,9.799708,108.3,5.845,1.85,0.00,54.895348,9.797490,54.894039,9.801540
1386958274,1,0,119.5,0,0,4,0,850,850,-0.0292,5159.3604,6.8213,0.4212,54.894630,9.799735,108.3,5.845,1.85,0.00,54.895348,9.797490,54.894039,9.801540
1386958274,1,0,119.5,0,0,0,0,850,850,-0.0292,5159.3604,6.8213,0.4212,54.894619,9.799763,108.3,5.845,1.85,0.00,54.895348,9.797490,54.894039,9.801540
1386958275,1,0,119.4,0,0,4,0,850,850,-0.0292,5159.3604,6.8213,0.4212,54.894611,9.799789,108.3,5.845,1.85,0.00,54.895348,9.797490,54.894039,9.801540
1386958275,1,0,119.5,0,0,0,0,850,850,-0.0292,5159.3604,6.8213,0.4212,54.894604,9.799817,108.3,5.845,1.85,0.00,54.895348,9.797490,54.894039,9.801540
1386958275,1,0,119.5,0,0,4,0,850,850,-0.0292,5159.3604,6.8213,0.4212,54.894592,9.799845,108.3,5.845,1.85,0.00,54.895348,9.797490,54.894039,9.801540
1386958275,1,0,119.4,0,0,0,0,850,850,-0.0292,5159.3604,6.8213,0.4212,54.894585,9.799871,108.3,5.845,1.85,0.00,54.895348,9.797490,54.894039,9.801540
1386958276,1,0,119.5,0,0,4,0,850,850,-0.0292,5159.3604,6.8213,0.4212,54.894573,9.799899,108.3,5.845,1.85,0.00,54.895348,9.797490,54.894039,9.801540
1386958276,1,0,119.4,0,0,0,0,850,850,-0.0292,5159.3604,6.8213,0.4212,54.894566,9.799927,108.3,5.845,1.85,0.00,54.895348,9.797490,54.894039,9.801540
1386958276,1,0,119.4,0,0,4,0,850,850,-0.0292,5159.3604,6.8213,0.4212,54.894558,9.799953,108.3,5.845,1.85,0.00,54.895348,9.797490,54.894039,9.801540
1386958276,1,0,119.5,0,0,0,0,850,850,-0.0292,5159.3604,6.8213,0.4212,54.894547,9.799981,108.3,5.845,1.85,0.00,54.895348,9.797490,54.894039,9.801540
1386958277,1,0,119.4,0,0,4,0,850,850,-0.0292,5159.3604,6.8213,0.4212,54.894539,9.800008,108.3,5.845,1.85,0.00,54.895348,9.797490,54.894039,9.801540
1386958277,1,0,119.4,0,0,0,0,850,850,-0.0292,5159.3604,6.8213,0.4212,54.894531,9.800035,108.3,5.845,1.85,0.00,54.895348,9.797490,54.894039,9.801540
1386958277,1,0,119.5,0,0,4,0,850,850,-0.0292,5159.3604,6.8213,0.4212,54.894520,9.800062,108.3,5.845,1.85,0.00,54.895348,9.797490,54.894039,9.801540
1386958277,1,0,119.3,0,0,0,0,850,850,-0.0292,5159.3604,6.8213,0.4212,54.894512,9.800089,108.3,5.845,1.85,0.00,54.895348,9.797490,54.894039,9.801540
1386958278,1,0,119.4,0,0,4,0,850,850,-0.0292,5159.3604,6.8213,0.4212,54.894505,9.800117,108.3,5.845,1.85,0.00,54.895348,9.797490,54.894039,9.801540
1386958278,1,0,119.5,0,0,0,0,850,850,-0.0292,5159.3604,6.8213,0.4212,54.894493,9.800144,108.3,5.845,1.85,0.00,54.895348,9.797490,54.894039,9.801540
1386958278,1,0,119.3,0,0,4,0,850,850,-0.0292,5159.3604,6.8213,0.4212,54.894485,9.800171,108.3,5.845,1.85,0.00,54.895348,9.797490,54.894039,9.801540
1386958278,1,0,119.4,0,0,0,0,850,850,-0.0292,5159.3604,6.8213,0.4212,54.894474,9.800199,108.3,5.845,1.85,0.00,54.895348,9.797490,54.894039,9.801540
1386958279,1,0,119.3,0,0,4,0,850,850,-0.0292,5159.3604,6.8213,0.4212,54.894466,9.800226,108.3,5.845,1.85,0.00,54.895348,9.797490,54.894039,9.801540
1386958279,1,0,119.3,0,0,0,0,850,850,-0.0292,5159.3604,6.8213,0.4212,54.894459,9.800253,108.3,5.845,1.85,0.00,54.895348,9.797490,54.894039,9.801540
1386958279,1,0,119.4,0,0,4,0,850,850,-0.0292,5159.3604,6.8213,0.4212,54.894447,9.800281,108.3,5.845,1.85,0.00,54.895348,9.797490,54.894039,9.801540
1386958279,1,0,119.2,0,0,0,0,850,850,-0.0292,5159.3604,6.8213,0.4212,54.894440,9.800307,108.3,5.845,1.85,0.00,54.895348,9.797490,54.894039,9.801540
1386958280,1,0,119.3,0,0,4,0,850,850,-0.0292,5159.3604,6.8213,0.4212,54.894432,9.800334,108.3,5.845,1.85,0.00,54.895348,9.797490,54.894039,9.801540
1386958280,1,0,119.4,0,0,0,0,850,850,-0.0292,5159.3604,6.8213,0.4212,54.894421,9.800362,108.3,5.845,1.85,0.00,54.895348,9.797490,54.894039,9.801540
1386958280,1,0,119.2,0,0,4,0,850,850,-0.0292,5159.3604,6.8213,0.4212,54.894413,9.800388,108.3,5.845,1.85,0.00,54.895348,9.797490,54.894039,9.801540
1386958280,1,0,119.3,0,0,0,0,850,850,-0.0292,5159.3604,6.8213,0.4212,54.894402,9.800416,108.3,5.845,1.85,0.00,54.895348,9.797490,54.894039,9.801540
1386958281,1,0,119.1,0,0,4,0,850,850,-0.0292,5159.3604,6.8213,0.4212,54.894394,9.800444,108.3,5.845,1.85,0.00,54.895348,9.797490,54.894039,9.801540
1386958281,1,0,119.2,0,0,0,0,850,850,-0.0292,5159.3604,6.8213,0.4212,54.894386,9.800470,108.3,5.845,1.85,0.00,54.895348,9.797490,54.894039,9.801540
1386958281,1,0,119.3,0,0,4,0,850,850,-0.0292,5159.3604,6.8213,0.4212,54.894375,9.800498,108.3,5.845,1.85,0.00,54.895348,9.797490,54.894039,9.801540
1386958281,1,0,119.1,0,0,0,0,850,850,-0.0292,5159.3604,6.8213,0.4212,54.894367,9.800526,108.3,5.845,1.85,0.00,54.895348,9.797490,54.894039,9.801540
1386958282,1,0,119.2,0,0,4,0,850,850,-0.0292,5159.3604,6.8213,0.4212,54.894360,9.800552,108.3,5.845,1.85,0.00,54.895348,9.797490,54.894039,9.801540
1386958282,1,0,119.3,0,0,0,0,850,850,-0.0292,5159.3604,6.8213,0.4212,54.894348,9.800580,108.3,5.845,1.85,0.00,54.895348,9.797490,54.894039,9.801540
1386958282,1,0,119.1,0,0,4,0,850,850,-0.0292,5159.3604,6.8213,0.4212,54.894341,9.800607,108.3,5.845,1.85,0.00,54.895348,9.797490,54.894039,9.801540
1386958282,1,0,119.2,0,0,0,0,850,850,-0.0292,5159.3604,6.8213,0.4212,54.894333,9.800633,108.3,5.845,1.85,0.00,54.895348,9.797490,54.894039,9.801540
1386958283,1,0,119.2,0,0,4,0,850,850,-0.0292,5159.3604,6.8213,0.4212,54.894321,9.800661,108.3,5.845,1.85,0.00,54.895348,9.797490,54.894039,9.801540
1386958283,1,0,119.0,0,0,0,0,850,850,-0.0292,5159.3604,6.8213,0.4212,54.894314,9.800688,108.3,5.845,1.85,0.00,54.895348,9.797490,54.894039,9.801540
1386958283,1,0,119.1,0,0,4,0,850,850,-0.0292,5159.3604,6.8213,0.4212,54.894302,9.800715,108.3,5.845,1.85,0.00,54.895348,9.797490,54.894039,9.801540
1386958283,1,0,118.9,0,0,0,0,850,850,-0.0292,5159.3604,6.8213,0.4212,54.894295,9.800743,108.3,5.845,1.85,0.00,54.895348,9.797490,54.894039,9.801540
1386958284,1,0,119.0,0,0,4,0,850,850,-0.0292,5159.3604,6.8213,0.4212,54.894287,9.800770,108.3,5.845,1.85,0.00,54.895348,9.797490,54.894039,9.801540
1386958284,1,0,119.1,0,0,0,0,850,850,-0.0292,5159.3604,6.8213,0.4212,54.894276,9.800797,108.3,5.845,1.85,0.00,54.895348,9.797490,54.894039,9.801540
1386958284,1,0,118.8,0,1,4,0,850,850,-0.0292,5159.0938,6.8213,0.4212,54.894268,9.800825,108.3,5.845,1.85,0.00,54.895348,9.797490,54.894039,9.801540
1386958284,1,0,118.9,0,0,0,0,846,800,-0.0292,5159.0938,6.8213,0.4212,54.894260,9.800852,108.3,5.845,1.85,0.00,54.895348,9.797490,54.894039,9.801540
1386958285,1,0,119.0,0,0,4,0,846,850,-0.0292,5159.0938,6.8213,0.4212,54.894249,9.800879,108.3,5.845,1.85,0.00,54.895348,9.797490,54.894039,9.801540
1386958285,1,0,118.8,0,0,0,0,846,800,-0.0292,5159.0938,6.8213,0.4212,54.894241,9.800907,108.3,5.845,1.85,0.00,54.895348,9.797490,54.894039,9.801540
1386958285,1,0,118.9,0,0,4,0,846,850,-0.0292,5159.0938,6.8213,0.4212,54.894234,9.800934,108.3,5.845,1.85,0.00,54.895348,9.797490,54.894039,9.801540
1386958285,1,0,119.0,0,0,0,0,846,800,-0.0292,5159.0938,6.8213,0.4212,54.894222,9.800961,108.3,5.845,1.85,0.00,54.895348,9.797490,54.894039,9.801540
1386958286,1,0,118.7,0,0,4,0,846,850,-0.0292,5159.0938,6.8213,0.4212,54.894215,9.800988,108.3,5.845,1.85,0.00,54.895348,9.797490,54.894039,9.801540
1386958286,1,0,118.8,0,0,0,0,846,800,-0.0292,5159.0938,6.8213,0.4212,54.894203,9.801016,108.3,5.845,1.85,0.00,54.895348,9.797490,54.894039,9.801540
1386958286,1,0,118.4,0,1,4,0,846,850,-0.0292,5158.8271,6.8213,0.4212,54.894196,9.801044,108.3,5.845,1.85,0.00,54.895348,9.797490,54.894039,9.801540
1386958287,1,0,118.5,0,0,0,0,843,800,-0.0292,5158.8271,6.8213,0.4212,54.894188,9.801070,108.3,5.845,1.85,0.00,54.895348,9.797490,54.894039,9.801540
1386958287,1,0,118.7,0,0,4,0,843,850,-0.0292,5158.8271,6.8213,0.4212,54.894176,9.801098,108.3,5.845,1.85,0.00,54.895348,9.797490,54.894039,9.801540
1386958287,1,0,118.2,0,1,0,0,843,800,-0.0292,5158.5605,6.8213,0.4212,54.894169,9.801126,108.3,5.845,1.85,0.00,54.895348,9.797490,54.894039,9.801540
1386958287,1,0,118.4,0,0,4,0,839,850,-0.0292,5158.5605,6.8213,0.4212,54.894161,9.801152,108.3,5.845,1.85,0.00,54.895348,9.797490,54.894039,9.801540
1386958288,1,0,118.5,0,0,0,0,839,800,-0.0292,5158.5605,6.8213,0.4212,54.894150,9.801180,108.3,5.845,1.85,0.00,54.895348,9.797490,54.894039,9.801540
1386958288,1,0,117.9,0,1,4,0,839,850,-0.0292,5158.2939,6.8213,0.4212,54.894142,9.801208,108.3,5.845,1.85,0.00,54.895348,9.797490,54.894039,9.801540
1386958288,1,0,118.1,0,0,0,0,835,800,-0.0292,5158.2939,6.8213,0.4212,54.894135,9.801234,108.3,5.845,1.85,0.00,54.895348,9.797490,54.894039,9.801540
1386958288,1,0,118.3,0,0,4,0,835,850,-0.0292,5158.2939,6.8213,0.4212,54.894123,9.801262,108.3,5.845,1.85,0.00,54.895348,9.797490,54.894039,9.801540
1386958289,1,0,117.5,0,1,0,0,835,800,-0.0292,5158.0273,6.8213,0.4212,54.894115,9.801290,108.3,5.845,1.85,0.00,54.895348,9.797490,54.894039,9.801540
1386958289,1,0,117.7,0,0,4,0,831,850,-0.0292,5158.0273,6.8213,0.4212,54.894104,9.801317,108.3,5.845,1.85,0.00,54.895348,9.797490,54.894039,9.801540
1386958289,1,0,116.7,0,1,0,0,831,800,-0.0292,5157.7607,6.8213,0.4212,54.894096,9.801345,108.3,5.845,1.85,0.00,54.895348,9.797490,54.894039,9.801540
1386958289,1,0,116.8,0,1,4,0,827,850,-0.0292,5157.4941,6.8213,0.4212,54.894089,9.801373,108.3,5.845,1.85,0.00,54.895348,9.797490,54.894039,9.801540
1386958290,1,0,117.0,0,0,0,0,824,800,-0.0292,5157.4941,6.8213,0.4212,54.894077,9.801400,108.3,5.845,1.85,0.00,54.895348,9.797490,54.894039,9.801540
