MCU_timestamp,Navigation_System,Manual_Control,Guidance_Heading,Manual_Ctrl_Rudder,Rudder_Desired_Angle,Rudder_Feedback,Manual_Ctrl_Sail,Sail_Desired_Pos,Sail_Feedback,Rate,Heading,Pitch,Roll,Latitude,Longitude,COG,SOG,Wind_Speed,Wind_Angle,Point_Start_Lat,Point_Start_Lon,Point_End_Lat,Point_End_Lon
1386864594,0,0,0.0,0,0,-16,0,0,0,-0.0292,173.4921,6.8213,0.4212,54.890266,9.806615,108.3,5.845,1.85,335.95,0.000000,0.000000,0.000000,0.000000
1386864594,0,0,0.0,0,0,-16,0,0,0,-0.0292,173.4921,6.8213,0.4212,54.890266,9.806615,108.3,5.845,1.85,335.95,0.000000,0.000000,0.000000,0.000000
1386864594,0,0,0.0,0,0,-16,0,0,0,-0.0292,173.4921,6.8213,0.4212,54.890266,9.806615,108.3,5.845,1.85,335.95,0.000000,0.000000,0.000000,0.000000
1386864594,0,0,0.0,0,0,-16,0,0,0,-0.0292,173.4921,6.8213,0.4212,54.890266,9.806615,108.3,5.845,1.85,335.95,0.000000,0.000000,0.000000,0.000000
1386864595,0,0,0.0,0,0,-16,0,0,0,-0.0292,173.4921,6.8213,0.4212,54.890266,9.806615,108.3,5.845,1.85,335.95,0.000000,0.000000,0.000000,0.000000
1386864595,0,0,0.0,0,0,-16,0,0,0,-0.0292,173.4921,6.8213,0.4212,54.890266,9.806615,108.3,5.845,1.85,335.95,0.000000,0.000000,0.000000,0.000000
1386864595,0,0,0.0,0,0,-16,0,0,0,-0.0292,173.4921,6.8213,0.4212,54.890266,9.806615,108.3,5.845,1.85,335.95,0.000000,0.000000,0.000000,0.000000
1386864595,0,0,0.0,0,0,-16,0,0,0,-0.0292,173.4921,6.8213,0.4212,54.890266,9.806615,108.3,5.845,1.85,335.95,0.000000,0.000000,0.000000,0.000000
1386864596,0,0,0.0,0,0,-16,0,0,0,-0.0292,173.4921,6.8213,0.4212,54.890266,9.806615,108.3,5.845,1.85,335.95,0.000000,0.000000,0.000000,0.000000
1386864596,0,0,0.0,0,0,-16,0,0,0,-0.0292,173.4921,6.8213,0.4212,54.890266,9.806615,108.3,5.845,1.85,335.95,0.000000,0.000000,0.000000,0.000000
1386864596,0,0,0.0,0,0,-16,0,0,0,-0.0292,173.4921,6.8213,0.4212,54.890266,9.806615,108.3,5.845,1.85,335.95,0.000000,0.000000,0.000000,0.000000
1386864596,0,0,0.0,0,0,-16,0,0,0,-0.0292,173.4921,6.8213,0.4212,54.890266,9.806615,108.3,5.845,1.85,335.95,0.000000,0.000000,0.000000,0.000000
1386864597,0,0,0.0,0,0,-16,0,0,0,-0.0292,173.4921,6.8213,0.4212,54.890266,9.806615,108.3,5.845,1.85,335.95,0.000000,0.000000,0.000000,0.000000
1386864597,0,0,0.0,0,0,-16,0,0,0,-0.0292,173.4921,6.8213,0.4212,54.890266,9.806615,108.3,5.845,1.85,335.95,0.000000,0.000000,0.000000,0.000000
1386864597,0,0,0.0,0,0,-16,0,0,0,-0.0292,173.4921,6.8213,0.4212,54.890266,9.806615,108.3,5.845,1.85,335.95,0.000000,0.000000,0.000000,0.000000
1386864597,0,0,0.0,0,0,-16,0,0,0,-0.0292,173.4921,6.8213,0.4212,54.890266,9.806615,108.3,5.845,1.85,335.95,0.000000,0.000000,0.000000,0.000000
1386864598,0,0,0.0,0,0,-16,0,0,0,-0.0292,173.4921,6.8213,0.4212,54.890266,9.806615,108.3,5.845,1.85,335.95,0.000000,0.000000,0.000000,0.000000
1386864598,0,0,0.0,0,0,-16,0,0,0,-0.0292,173.4921,6.8213,0.4212,54.890266,9.806615,108.3,5.845,1.85,335.95,0.000000,0.000000,0.000000,0.000000
1386864598,0,0,0.0,0,0,-16,0,0,0,-0.0292,173.4921,6.8213,0.4212,54.890266,9.806615,108.3,5.845,1.85,335.95,0.000000,0.000000,0.000000,0.000000
1386864598,0,0,0.0,0,0,-16,0,0,0,-0.0292,173.4921,6.8213,0.4212,54.890266,9.806615,108.3,5.845,1.85,335.95,0.000000,0.000000,0.000000,0.000000
1386864599,0,0,0.0,0,0,-16,0,0,0,-0.0292,173.4921,6.8213,0.4212,54.890266,9.806615,108.3,5.845,1.85,335.95,0.000000,0.000000,0.000000,0.000000
1386864599,0,0,0.0,0,0,-16,0,0,0,-0.0292,173.4921,6.8213,0.4212,54.890266,9.806615,108.3,5.845,1.85,335.95,0.000000,0.000000,0.000000,0.000000
1386864599,0,0,0.0,0,0,-16,0,0,0,-0.0292,173.4921,6.8213,0.4212,54.890266,9.806615,108.3,5.845,1.85,335.95,0.000000,0.000000,0.000000,0.000000
1386864599,0,0,0.0,0,0,-16,0,0,0,-0.0292,173.4921,6.8213,0.4212,54.890266,9.806615,108.3,5.845,1.85,335.95,0.000000,0.000000,0.000000,0.000000
1386864600,0,0,0.0,0,0,-16,0,0,0,-0.0292,173.4921,6.8213,0.4212,54.890266,9.806615,108.3,5.845,1.85,335.95,0.000000,0.000000,0.000000,0.000000
1386864600,0,0,0.0,0,0,-16,0,0,0,-0.0292,173.4921,6.8213,0.4212,54.890266,9.806615,108.3,5.845,1.85,335.95,0.000000,0.000000,0.000000,0.000000
1386864600,0,0,0.0,0,0,-16,0,0,0,-0.0292,173.4921,6.8213,0.4212,54.890266,9.806615,108.3,5.845,1.85,335.95,0.000000,0.000000,0.000000,0.000000
1386864600,0,0,0.0,0,0,-16,0,0,0,-0.0292,173.4921,6.8213,0.4212,54.890266,9.806615,108.3,5.845,1.85,335.95,0.000000,0.000000,0.000000,0.000000
1386864601,0,0,0.0,0,0,-16,0,0,0,-0.0292,173.4921,6.8213,0.4212,54.890266,9.806615,108.3,5.845,1.85,335.95,0.000000,0.000000,0.000000,0.000000
1386864601,0,0,0.0,0,0,-16,0,0,0,-0.0292,173.4921,6.8213,0.4212,54.890266,9.806615,108.3,5.845,1.85,335.95,0.000000,0.000000,0.000000,0.000000
1386864601,0,0,0.0,0,0,-16,0,0,0,-0.0292,173.4921,6.8213,0.4212,54.890266,9.806615,108.3,5.845,1.85,335.95,0.000000,0.000000,0.000000,0.000000
1386864601,0,0,0.0,0,0,-16,0,0,0,-0.0292,173.4921,6.8213,0.4212,54.890266,9.806615,108.3,5.845,1.85,335.95,0.000000,0.000000,0.000000,0.000000
1386864602,0,0,0.0,0,0,-16,0,0,0,-0.0292,173.4921,6.8213,0.4212,54.890266,9.806615,108.3,5.845,1.85,335.95,0.000000,0.000000,0.000000,0.000000
1386864602,0,0,0.0,0,0,-16,0,0,0,-0.0292,173.4921,6.8213,0.4212,54.890266,9.806615,108.3,5.845,1.85,335.95,0.000000,0.000000,0.000000,0.000000
1386864602,0,0,0.0,0,0,-16,0,0,0,-0.0292,173.4921,6.8213,0.4212,54.890266,9.806615,108.3,5.845,1.85,335.95,0.000000,0.000000,0.000000,0.000000
1386864602,0,0,0.0,0,0,-16,0,0,0,-0.0292,173.4921,6.8213,0.4212,54.890266,9.806615,108.3,5.845,1.85,335.95,0.000000,0.000000,0.000000,0.000000
1386864603,0,0,0.0,0,0,-16,0,0,0,-0.0292,173.4921,6.8213,0.4212,54.890266,9.806615,108.3,5.845,1.85,335.95,0.000000,0.000000,0.000000,0.000000
1386864603,0,0,0.0,0,0,-16,0,0,0,-0.0292,173.4921,6.8213,0.4212,54.890266,9.806615,108.3,5.845,1.85,335.95,0.000000,0.000000,0.000000,0.000000
1386864603,0,0,0.0,0,0,-16,0,0,0,-0.0292,173.4921,6.8213,0.4212,54.890266,9.806615,108.3,5.845,1.85,335.95,0.000000,0.000000,0.000000,0.000000
1386864603,0,0,0.0,0,0,-16,0,0,0,-0.0292,173.4921,6.8213,0.4212,54.890266,9.806615,108.3,5.845,1.85,335.95,0.000000,0.000000,0.000000,0.000000
1386864604,0,0,0.0,0,0,-16,0,0,0,-0.0292,173.4921,6.8213,0.4212,54.890266,9.806615,108.3,5.845,1.85,335.95,0.000000,0.000000,0.000000,0.000000
1386864604,0,0,0.0,0,0,-16,0,0,0,-0.0292,173.4921,6.8213,0.4212,54.890266,9.806615,108.3,5.845,1.85,335.95,0.000000,0.000000,0.000000,0.000000
1386864604,0,0,0.0,0,0,-16,0,0,0,-0.0292,173.4921,6.8213,0.4212,54.890266,9.806615,108.3,5.845,1.85,335.95,0.000000,0.000000,0.000000,0.000000
1386864604,0,0,0.0,0,0,-16,0,0,0,-0.0292,173.4921,6.8213,0.4212,54.890266,9.806615,108.3,5.845,1.85,335.95,0.000000,0.000000,0.000000,0.000000
1386864605,0,0,0.0,0,0,-16,0,0,0,-0.0292,173.4921,6.8213,0.4212,54.890266,9.806615,108.3,5.845,1.85,335.95,0.000000,0.000000,0.000000,0.000000
1386864605,0,0,0.0,0,0,-16,0,0,0,-0.0292,173.4921,6.8213,0.4212,54.890266,9.806615,108.3,5.845,1.85,335.95,0.000000,0.000000,0.000000,0.000000
1386864605,0,0,0.0,0,0,-16,0,0,0,-0.0292,173.4921,6.8213,0.4212,54.890266,9.806615,108.3,5.845,1.85,335.95,0.000000,0.000000,0.000000,0.000000
1386864605,0,0,0.0,0,0,-16,0,0,0,-0.0292,173.4921,6.8213,0.4212,54.890266,9.806615,108.3,5.845,1.85,335.95,0.000000,0.000000,0.000000,0.000000
1386864606,0,0,0.0,0,0,-16,0,0,0,-0.0292,173.4921,6.8213,0.4212,54.890266,9.806615,108.3,5.845,1.85,335.95,0.000000,0.000000,0.000000,0.000000
1386864606,0,0,0.0,0,0,-16,0,0,0,-0.0292,173.4921,6.8213,0.4212,54.890266,9.806615,108.3,5.845,1.85,335.95,0.000000,0.000000,0.000000,0.000000
1386864606,0,0,0.0,0,0,-16,0,0,0,-0.0292,173.4921,6.8213,0.4212,54.890266,9.806615,108.3,5.845,1.85,335.95,0.000000,0.000000,0.000000,0.000000
1386864606,0,0,0.0,0,0,-16,0,0,0,-0.0292,173.4921,6.8213,0.4212,54.890266,9.806615,108.3,5.845,1.85,335.95,0.000000,0.000000,0.000000,0.000000
1386864607,0,0,0.0,0,0,-16,0,0,0,-0.0292,173.4921,6.8213,0.4212,54.890266,9.806615,108.3,5.845,1.85,335.95,0.000000,0.000000,0.000000,0.000000
1386864607,0,0,0.0,0,0,-16,0,0,0,-0.0292,173.4921,6.8213,0.4212,54.890266,9.806615,108.3,5.845,1.85,335.95,0.000000,0.000000,0.000000,0.000000
1386864607,0,0,0.0,0,0,-16,0,0,0,-0.0292,173.4921,6.8213,0.4212,54.890266,9.806615,108.3,5.845,1.85,335.95,0.000000,0.000000,0.000000,0.000000
1386864607,0,0,0.0,0,0,-16,0,0,0,-0.0292,173.4921,6.8213,0.4212,54.890266,9.806615,108.3,5.845,1.85,335.95,0.000000,0.000000,0.000000,0.000000
1386864608,0,0,0.0,0,0,-16,0,0,0,-0.0292,173.4921,6.8213,0.4212,54.890266,9.806615,108.3,5.845,1.85,335.95,0.000000,0.000000,0.000000,0.000000
1386864608,0,0,0.0,0,0,-16,0,0,0,-0.0292,173.4921,6.8213,0.4212,54.890266,9.806615,108.3,5.845,1.85,335.95,0.000000,0.000000,0.000000,0.000000
1386864608,0,0,0.0,0,0,-16,0,0,0,-0.0292,173.4921,6.8213,0.4212,54.890266,9.806615,108.3,5.845,1.85,335.95,0.000000,0.000000,0.000000,0.000000
1386864608,0,0,0.0,0,0,-16,0,0,0,-0.0292,173.4921,6.8213,0.4212,54.890266,9.806615,108.3,5.845,1.85,335.95,0.000000,0.000000,0.000000,0.000000
1386864609,0,0,0.0,0,0,-16,0,0,0,-0.0292,173.4921,6.8213,0.4212,54.890266,9.806615,108.3,5.845,1.85,335.95,0.000000,0.000000,0.000000,0.000000
1386864609,0,0,0.0,0,0,-16,0,0,0,-0.0292,173.4921,6.8213,0.4212,54.890266,9.806615,108.3,5.845,1.85,335.95,0.000000,0.000000,0.000000,0.000000
1386864609,0,0,0.0,0,0,-16,0,0,0,-0.0292,173.4921,6.8213,0.4212,54.890266,9.806615,108.3,5.845,1.85,335.95,0.000000,0.000000,0.000000,0.000000
1386864609,0,0,0.0,0,0,-16,0,0,0,-0.0292,173.4921,6.8213,0.4212,54.890266,9.806615,108.3,5.845,1.85,335.95,0.000000,0.000000,0.000000,0.000000
1386864610,0,0,0.0,0,0,-16,0,0,0,-0.0292,173.4921,6.8213,0.4212,54.890266,9.806615,108.3,5.845,1.85,335.95,0.000000,0.000000,0.000000,0.000000
1386864610,0,0,0.0,0,0,-16,0,0,0,-0.0292,173.4921,6.8213,0.4212,54.890266,9.806615,108.3,5.845,1.85,335.95,0.000000,0.000000,0.000000,0.000000
1386864610,0,0,0.0,0,0,-16,0,0,0,-0.0292,173.4921,6.8213,0.4212,54.890266,9.806615,108.3,5.845,1.85,335.95,0.000000,0.000000,0.000000,0.000000
1386864610,0,0,0.0,0,0,-16,0,0,0,-0.0292,173.4921,6.8213,0.4212,54.890266,9.806615,108.3,5.845,1.85,335.95,0.000000,0.000000,0.000000,0.000000
1386864611,0,0,0.0,0,0,-16,0,0,0,-0.0292,173.4921,6.8213,0.4212,54.890266,9.806615,108.3,5.845,1.85,335.95,0.000000,0.000000,0.000000,0.000000
1386864611,0,0,0.0,0,0,-16,0,0,0,-0.0292,173.4921,6.8213,0.4212,54.890266,9.806615,108.3,5.845,1.85,335.95,0.000000,0.000000,0.000000,0.000000
1386864611,0,0,0.0,0,0,-16,0,0,0,-0.0292,173.4921,6.8213,0.4212,54.890266,9.806615,108.3,5.845,1.85,335.95,0.000000,0.000000,0.000000,0.000000
1386864611,0,0,0.0,0,0,-16,0,0,0,-0.0292,173.4921,6.8213,0.4212,54.890266,9.806615,108.3,5.845,1.85,335.95,0.000000,0.000000,0.000000,0.000000
1386864612,0,0,0.0,0,0,-16,0,0,0,-0.0292,173.4921,6.8213,0.4212,54.890266,9.806615,108.3,5.845,1.85,335.95,0.000000,0.000000,0.000000,0.000000
1386864612,0,0,0.0,0,0,-16,0,0,0,-0.0292,173.4921,6.8213,0.4212,54.890266,9.806615,108.3,5.845,1.85,335.95,0.000000,0.000000,0.000000,0.000000
1386864612,0,0,0.0,0,0,-16,0,0,0,-0.0292,173.4921,6.8213,0.4212,54.890266,9.806615,108.3,5.845,1.85,335.95,0.000000,0.000000,0.000000,0.000000
1386864612,0,0,0.0,0,0,-16,0,0,0,-0.0292,173.4921,6.8213,0.4212,54.890266,9.806615,108.3,5.845,1.85,335.95,0.000000,0.000000,0.000000,0.000000
1386864613,0,0,0.0,0,0,-16,0,0,0,-0.0292,173.4921,6.8213,0.4212,54.890266,9.806615,108.3,5.845,1.85,335.95,0.000000,0.000000,0.000000,0.000000
1386864613,0,0,0.0,0,0,-16,0,0,0,-0.0292,173.4921,6.8213,0.4212,54.890266,9.806615,108.3,5.845,1.85,335.95,0.000000,0.000000,0.000000,0.000000
1386864613,0,0,0.0,0,0,-16,0,0,0,-0.0292,173.4921,6.8213,0.4212,54.890266,9.806615,108.3,5.845,1.85,335.95,0.000000,0.000000,0.000000,0.000000
1386864613,0,0,0.0,0,0,-16,0,0,0,-0.0292,173.4921,6.8213,0.4212,54.890266,9.806615,108.3,5.845,1.85,335.95,0.000000,0.000000,0.000000,0.000000
1386864614,0,0,0.0,0,0,-16,0,0,0,-0.0292,173.4921,6.8213,0.4212,54.890266,9.806615,108.3,5.845,1.85,335.95,0.000000,0.000000,0.000000,0.000000
1386864614,0,0,0.0,0,0,-16,0,0,0,-0.0292,173.4921,6.8213,0.4212,54.890266,9.806615,108.3,5.845,1.85,335.95,0.000000,0.000000,0.000000,0.000000
1386864614,0,0,0.0,0,0,-16,0,0,0,-0.0292,173.4921,6.8213,0.4212,54.890266,9.806615,108.3,5.845,1.85,335.95,0.000000,0.000000,0.000000,0.000000
1386864614,0,0,0.0,0,0,-16,0,0,0,-0.0292,173.4921,6.8213,0.4212,54.890266,9.806615,108.3,5.845,1.85,335.95,0.000000,0.000000,0.000000,0.000000
1386864615,0,0,0.0,0,0,-16,0,0,0,-0.0292,173.4921,6.8213,0.4212,54.890266,9.806615,108.3,5.845,1.85,335.95,0.000000,0.000000,0.000000,0.000000
1386864615,0,0,0.0,0,0,-16,0,0,0,-0.0292,173.4921,6.8213,0.4212,54.890266,9.806615,108.3,5.845,1.85,335.95,0.000000,0.000000,0.000000,0.000000
1386864615,0,0,0.0,0,0,-16,0,0,0,-0.0292,173.4921,6.8213,0.4212,54.890266,9.806615,108.3,5.845,1.85,335.95,0.000000,0.000000,0.000000,0.000000
1386864615,0,0,0.0,0,0,-16,0,0,0,-0.0292,173.4921,6.8213,0.4212,54.890266,9.806615,108.3,5.845,1.85,335.95,0.000000,0.000000,0.000000,0.000000
1386864616,0,0,0.0,0,0,-16,0,0,0,-0.0292,173.4921,6.8213,0.4212,54.890266,9.806615,108.3,5.845,1.85,335.95,0.000000,0.000000,0.000000,0.000000
1386864616,0,0,0.0,0,0,-16,0,0,0,-0.0292,173.4921,6.8213,0.4212,54.890266,9.806615,108.3,5.845,1.85,335.95,0.000000,0.000000,0.000000,0.000000
1386864616,0,0,0.0,0,0,-16,0,0,0,-0.0292,173.4921,6.8213,0.4212,54.890266,9.806615,108.3,5.845,1.85,335.95,0.000000,0.000000,0.000000,0.000000
1386864616,0,0,0.0,0,0,-16,0,0,0,-0.0292,173.4921,6.8213,0.4212,54.890266,9.806615,108.3,5.845,1.85,335.95,0.000000,0.000000,0.000000,0.000000
1386864617,0,0,0.0,0,0,-16,0,0,0,-0.0292,173.4921,6.8213,0.4212,54.890266,9.806615,108.3,5.845,1.85,335.95,0.000000,0.000000,0.000000,0.000000
1386864617,0,0,0.0,0,0,-16,0,0,0,-0.0292,173.4921,6.8213,0.4212,54.890266,9.806615,108.3,5.845,1.85,335.95,0.000000,0.000000,0.000000,0.000000
1386864617,0,0,0.0,0,0,-16,0,0,0,-0.0292,173.4921,6.8213,0.4212,54.890266,9.806615,108.3,5.845,1.85,335.95,0.000000,0.000000,0.000000,0.000000
1386864617,0,0,0.0,0,0,-16,0,0,0,-0.0292,173.4921,6.8213,0.4212,54.890266,9.806615,108.3,5.845,1.85,335.95,0.000000,0.000000,0.000000,0.000000
1386864618,0,0,0.0,0,0,-16,0,0,0,-0.0292,173.4921,6.8213,0.4212,54.890266,9.806615,108.3,5.845,1.85,335.95,0.000000,0.000000,0.000000,0.000000
1386864618,0,0,0.0,0,0,-16,0,0,0,-0.0292,173.4921,6.8213,0.4212,54.890266,9.806615,108.3,5.845,1.85,335.95,0.000000,0.000000,0.000000,0.000000
1386864618,4,0,0.0,0,0,-16,0,0,0,-0.0292,173.4921,6.8213,0.4212,54.890266,9.806615,108.3,5.845,1.85,335.95,0.000000,0.000000,0.000000,0.000000
1386864618,1,0,280.9,0,-35,-20,0,409,50,-0.0292,182.8255,6.8213,0.4212,54.890251,9.806613,108.3,5.845,1.85,335.95,54.890266,9.806615,54.895069,9.793790
1386864619,1,0,280.9,0,-35,-24,0,409,75,-0.0292,192.1588,6.8213,0.4212,54.890232,9.806606,108.3,5.845,1.85,335.95,54.890266,9.806615,54.895069,9.793790
1386864619,1,0,280.9,0,-35,-28,0,409,100,-0.0292,201.4921,6.8213,0.4212,54.890213,9.806595,108.3,5.845,1.85,335.95,54.890266,9.806615,54.895069,9.793790
1386864619,1,0,280.9,0,-35,-32,0,578,125,-0.0292,210.8254,6.8213,0.4212,54.890198,9.806579,108.3,5.845,1.85,335.95,54.890266,9.806615,54.895069,9.793790
1386864619,1,0,280.9,0,-35,-36,0,533,150,-0.0292,220.1588,6.8213,0.4212,54.890186,9.806559,108.3,5.845,1.85,335.95,54.890266,9.806615,54.895069,9.793790
1386864620,1,0,280.9,0,-35,-32,0,459,175,-0.0292,229.4921,6.8213,0.4212,54.890175,9.806536,108.3,5.845,1.85,335.95,54.890266,9.806615,54.895069,9.793790
1386864620,1,0,280.9,0,-35,-36,0,378,200,-0.0292,238.8254,6.8213,0.4212,54.890163,9.806509,108.3,5.845,1.85,335.95,54.890266,9.806615,54.895069,9.793790
1386864620,1,0,280.9,0,-35,-32,0,294,225,-0.0292,248.1588,6.8213,0.4212,54.890156,9.806480,108.3,5.845,1.85,335.95,54.890266,9.806615,54.895069,9.793790
1386864620,1,0,280.9,0,-33,-36,0,209,200,-0.0292,256.9587,6.8213,0.4212,54.890152,9.806450,108.3,5.845,1.85,335.95,54.890266,9.806615,54.895069,9.793790
1386864621,1,0,280.9,0,-24,-32,0,130,175,-0.0292,263.3587,6.8213,0.4212,54.890148,9.806418,108.3,5.845,1.85,335.95,54.890266,9.806615,54.895069,9.793790
1386864621,1,0,280.9,0,-18,-28,0,78,150,-0.0292,268.1587,6.8213,0.4212,54.890148,9.806387,108.3,5.845,1.85,335.95,54.890266,9.806615,54.895069,9.793790
1386864621,1,0,280.9,0,-13,-24,0,44,125,-0.0292,271.6254,6.8213,0.4212,54.890152,9.806356,108.3,5.845,1.85,335.95,54.890266,9.806615,54.895069,9.793790
1386864621,1,0,280.9,0,-9,-20,0,24,100,-0.0292,274.0254,6.8213,0.4212,54.890152,9.806325,108.3,5.845,1.85,335.95,54.890266,9.806615,54.895069,9.793790
1386864622,1,0,280.9,0,-7,-16,0,14,75,-0.0292,275.8921,6.8213,0.4212,54.890152,9.806293,108.3,5.845,1.85,335.95,54.890266,9.806615,54.895069,9.793790
1386864622,1,0,280.9,0,-5,-12,0,7,50,-0.0292,277.2254,6.8213,0.4212,54.890152,9.806263,108.3,5.845,1.85,335.95,54.890266,9.806615,54.895069,9.793790
1386864622,1,0,280.9,0,-4,-8,0,4,25,-0.0292,278.2921,6.8213,0.4212,54.890152,9.806231,108.3,5.845,1.85,335.95,54.890266,9.806615,54.895069,9.793790
1386864622,1,0,280.9,0,-3,-4,0,2,0,-0.0292,279.0921,6.8213,0.4212,54.890152,9.806200,108.3,5.845,1.85,335.95,54.890266,9.806615,54.895069,9.793790
1386864623,1,0,280.9,0,-2,0,0,1,25,-0.0292,279.6254,6.8213,0.4212,54.890152,9.806170,108.3,5.845,1.85,335.95,54.890266,9.806615,54.895069,9.793790
1386864623,1,0,280.9,0,-1,-4,0,0,0,-0.0292,279.8921,6.8213,0.4212,54.890152,9.806139,108.3,5.845,1.85,335.95,54.890266,9.806615,54.895069,9.793790
1386864623,1,0,280.9,0,-1,0,0,0,25,-0.0292,280.1587,6.8213,0.4212,54.890152,9.806108,108.3,5.845,1.85,335.95,54.890266,9.806615,54.895069,9.793790
1386864623,1,0,485.9,0,35,4,0,0,0,-0.0292,270.8254,6.8213,0.4212,54.899719,9.786662,108.3,5.845,1.85,335.95,54.890266,9.806615,54.895069,9.793790
1386864624,1,0,485.9,0,35,8,0,29,25,-0.0292,261.4920,6.8213,0.4212,54.899715,9.786632,108.3,5.845,1.85,335.95,54.890266,9.806615,54.895069,9.793790
1386864624,1,0,485.9,0,35,12,0,93,50,-0.0292,252.1587,6.8213,0.4212,54.899712,9.786601,108.3,5.845,1.85,335.95,54.890266,9.806615,54.895069,9.793790
1386864624,1,0,485.9,0,35,16,0,172,75,-0.0292,242.8254,6.8213,0.4212,54.899704,9.786573,108.3,5.845,1.85,335.95,54.890266,9.806615,54.895069,9.793790
1386864624,1,0,485.9,0,35,20,0,258,100,-0.0292,233.4921,6.8213,0.4212,54.899693,9.786549,108.3,5.845,1.85,335.95,54.890266,9.806615,54.895069,9.793790
1386864625,1,0,485.9,0,35,24,0,343,125,-0.0292,224.1587,6.8213,0.4212,54.899681,9.786527,108.3,5.845,1.85,335.95,54.890266,9.806615,54.895069,9.793790
1386864625,1,0,485.9,0,35,28,0,425,150,-0.0292,214.8254,6.8213,0.4212,54.899666,9.786509,108.3,5.845,1.85,335.95,54.890266,9.806615,54.895069,9.793790
1386864625,0,0,485.9,0,35,28,0,425,150,-0.0292,214.8254,6.8213,0.4212,54.899666,9.786509,108.3,5.845,1.85,335.95,54.890266,9.806615,54.895069,9.793790
1386864625,0,0,485.9,0,35,28,0,425,150,-0.0292,214.8254,6.8213,0.4212,54.899666,9.786509,108.3,5.845,1.85,335.95,54.890266,9.806615,54.895069,9.793790
1386864626,0,0,485.9,0,35,28,0,425,150,-0.0292,214.8254,6.8213,0.4212,54.899666,9.786509,108.3,5.845,1.85,335.95,54.890266,9.806615,54.895069,9.793790
1386864626,0,0,485.9,0,35,28,0,425,150,-0.0292,214.8254,6.8213,0.4212,54.899666,9.786509,108.3,5.845,1.85,335.95,54.890266,9.806615,54.895069,9.793790
1386864626,4,0,485.9,0,35,28,0,425,150,-0.0292,214.8254,6.8213,0.4212,54.899666,9.786509,108.3,5.845,1.85,335.95,54.890266,9.806615,54.895069,9.793790
1386864627,1,0,485.9,0,35,32,0,502,175,-0.0292,205.4921,6.8213,0.4212,54.899651,9.786495,108.3,5.845,1.85,335.95,54.899666,9.786509,54.895069,9.793790
1386864627,1,0,485.9,0,35,36,0,573,200,-0.0292,196.1587,6.8213,0.4212,54.899632,9.786487,108.3,5.845,1.85,335.95,54.899666,9.786509,54.895069,9.793790
1386864627,1,0,485.9,0,35,32,0,409,225,-0.0292,186.8254,6.8213,0.4212,54.899612,9.786483,108.3,5.845,1.85,335.95,54.899666,9.786509,54.895069,9.793790
1386864627,1,0,485.9,0,35,36,0,409,250,-0.0292,177.4921,6.8213,0.4212,54.899597,9.786485,108.3,5.845,1.85,335.95,54.899666,9.786509,54.895069,9.793790
1386864628,1,0,485.9,0,35,32,0,409,275,-0.0292,168.1588,6.8213,0.4212,54.899578,9.786491,108.3,5.845,1.85,335.95,54.899666,9.786509,54.895069,9.793790
1386864628,1,0,485.9,0,35,36,0,409,300,-0.0292,158.8254,6.8213,0.4212,54.899559,9.786503,108.3,5.845,1.85,335.95,54.899666,9.786509,54.895069,9.793790
1386864628,1,0,485.9,0,33,32,0,0,275,-0.0292,150.0254,6.8213,0.4212,54.899544,9.786518,108.3,5.845,1.85,335.95,54.899666,9.786509,54.895069,9.793790
1386864628,1,0,485.9,0,24,28,0,0,250,-0.0292,143.6254,6.8213,0.4212,54.899532,9.786536,108.3,5.845,1.85,335.95,54.899666,9.786509,54.895069,9.793790
1386864629,1,0,485.9,0,18,24,0,409,275,-0.0292,138.8254,6.8213,0.4212,54.899517,9.786557,108.3,5.845,1.85,335.95,54.899666,9.786509,54.895069,9.793790
1386864629,1,0,485.9,0,13,20,0,409,300,-0.0292,135.3588,6.8213,0.4212,54.899506,9.786579,108.3,5.845,1.85,335.95,54.899666,9.786509,54.895069,9.793790
1386864629,1,0,485.9,0,9,16,0,409,325,-0.0292,132.9588,6.8213,0.4212,54.899494,9.786602,108.3,5.845,1.85,335.95,54.899666,9.786509,54.895069,9.793790
1386864629,1,0,485.9,0,7,12,0,409,350,-0.0292,131.0921,6.8213,0.4212,54.899483,9.786626,108.3,5.845,1.85,335.95,54.899666,9.786509,54.895069,9.793790
1386864630,1,0,485.9,0,5,8,0,409,375,-0.0292,129.7588,6.8213,0.4212,54.899471,9.786651,108.3,5.845,1.85,335.95,54.899666,9.786509,54.895069,9.793790
1386864630,1,0,485.9,0,4,4,0,409,400,-0.0292,128.6921,6.8213,0.4212,54.899456,9.786675,108.3,5.845,1.85,335.95,54.899666,9.786509,54.895069,9.793790
1386864630,1,0,485.9,0,3,0,0,409,425,-0.0292,127.8921,6.8213,0.4212,54.899445,9.786699,108.3,5.845,1.85,335.95,54.899666,9.786509,54.895069,9.793790
1386864630,1,0,485.9,0,2,4,0,409,400,-0.0292,127.3588,6.8213,0.4212,54.899437,9.786724,108.3,5.845,1.85,335.95,54.899666,9.786509,54.895069,9.793790
1386864631,1,0,485.9,0,1,0,0,409,425,-0.0292,127.0921,6.8213,0.4212,54.899426,9.786749,108.3,5.845,1.85,335.95,54.899666,9.786509,54.895069,9.793790
1386864631,1,0,485.9,0,1,4,0,409,400,-0.0292,126.8254,6.8213,0.4212,54.899414,9.786774,108.3,5.845,1.85,335.95,54.899666,9.786509,54.895069,9.793790
1386864631,1,0,485.9,0,1,0,0,409,425,-0.0292,126.5588,6.8213,0.4212,54.899403,9.786798,108.3,5.845,1.85,335.95,54.899666,9.786509,54.895069,9.793790
1386864631,1,0,485.9,0,1,4,0,409,400,-0.0292,126.2921,6.8213,0.4212,54.899391,9.786824,108.3,5.845,1.85,335.95,54.899666,9.786509,54.895069,9.793790
1386864632,1,0,485.9,0,0,0,0,409,425,-0.0292,126.2921,6.8213,0.4212,54.899380,9.786849,108.3,5.845,1.85,335.95,54.899666,9.786509,54.895069,9.793790
1386864632,1,0,485.9,0,0,4,0,409,400,-0.0292,126.2921,6.8213,0.4212,54.899368,9.786874,108.3,5.845,1.85,335.95,54.899666,9.786509,54.895069,9.793790
1386864632,1,0,485.9,0,0,0,0,409,425,-0.0292,126.2921,6.8213,0.4212,54.899361,9.786900,108.3,5.845,1.85,335.95,54.899666,9.786509,54.895069,9.793790
1386864632,1,0,485.9,0,0,4,0,409,400,-0.0292,126.2921,6.8213,0.4212,54.899349,9.786924,108.3,5.845,1.85,335.95,54.899666,9.786509,54.895069,9.793790
1386864633,1,0,485.9,0,0,0,0,409,425,-0.0292,126.2921,6.8213,0.4212,54.899338,9.786950,108.3,5.845,1.85,335.95,54.899666,9.786509,54.895069,9.793790
1386864633,1,0,485.9,0,0,4,0,409,400,-0.0292,126.2921,6.8213,0.4212,54.899326,9.786975,108.3,5.845,1.85,335.95,54.899666,9.786509,54.895069,9.793790
1386864633,1,0,485.9,0,0,0,0,409,425,-0.0292,126.2921,6.8213,0.4212,54.899315,9.787000,108.3,5.845,1.85,335.95,54.899666,9.786509,54.895069,9.793790
1386864633,1,0,485.9,0,0,4,0,409,400,-0.0292,126.2921,6.8213,0.4212,54.899303,9.787025,108.3,5.845,1.85,335.95,54.899666,9.786509,54.895069,9.793790
1386864634,1,0,485.9,0,0,0,0,409,425,-0.0292,126.2921,6.8213,0.4212,54.899292,9.787050,108.3,5.845,1.85,335.95,54.899666,9.786509,54.895069,9.793790
1386864634,1,0,485.9,0,0,4,0,409,400,-0.0292,126.2921,6.8213,0.4212,54.899281,9.787076,108.3,5.845,1.85,335.95,54.899666,9.786509,54.895069,9.793790
1386864634,1,0,485.9,0,0,0,0,409,425,-0.0292,126.2921,6.8213,0.4212,54.899269,9.787101,108.3,5.845,1.85,335.95,54.899666,9.786509,54.895069,9.793790
1386864634,1,0,485.9,0,0,4,0,409,400,-0.0292,126.2921,6.8213,0.4212,54.899261,9.787127,108.3,5.845,1.85,335.95,54.899666,9.786509,54.895069,9.793790
1386864635,1,0,485.9,0,0,0,0,409,425,-0.0292,126.2921,6.8213,0.4212,54.899250,9.787151,108.3,5.845,1.85,335.95,54.899666,9.786509,54.895069,9.793790
1386864635,1,0,485.9,0,0,4,0,409,400,-0.0292,126.2921,6.8213,0.4212,54.899559,9.788350,108.3,5.845,1.85,335.95,54.899666,9.786509,54.895069,9.793790
1386864635,1,0,485.9,0,0,0,0,409,425,-0.0292,126.2921,6.8213,0.4212,54.899548,9.788375,108.3,5.845,1.85,335.95,54.899666,9.786509,54.895069,9.793790
1386864635,1,0,485.9,0,0,4,0,409,400,-0.0292,126.2921,6.8213,0.4212,54.899536,9.788401,108.3,5.845,1.85,335.95,54.899666,9.786509,54.895069,9.793790
1386864636,1,0,485.9,0,0,0,0,409,425,-0.0292,126.2921,6.8213,0.4212,54.899525,9.788425,108.3,5.845,1.85,335.95,54.899666,9.786509,54.895069,9.793790
1386864636,1,0,485.9,0,0,4,0,409,400,-0.0292,126.2921,6.8213,0.4212,54.899513,9.788451,108.3,5.845,1.85,335.95,54.899666,9.786509,54.895069,9.793790
1386864636,1,0,485.9,0,0,0,0,409,425,-0.0292,126.2921,6.8213,0.4212,54.899502,9.788476,108.3,5.845,1.85,335.95,54.899666,9.786509,54.895069,9.793790
1386864636,1,0,485.9,0,0,4,0,409,400,-0.0292,126.2921,6.8213,0.4212,54.899490,9.788501,108.3,5.845,1.85,335.95,54.899666,9.786509,54.895069,9.793790
1386864637,1,0,485.9,0,0,0,0,409,425,-0.0292,126.2921,6.8213,0.4212,54.899483,9.788527,108.3,5.845,1.85,335.95,54.899666,9.786509,54.895069,9.793790
1386864637,1,0,485.9,0,0,4,0,409,400,-0.0292,126.2921,6.8213,0.4212,54.899471,9.788551,108.3,5.845,1.85,335.95,54.899666,9.786509,54.895069,9.793790
1386864637,1,0,485.9,0,0,0,0,409,425,-0.0292,126.2921,6.8213,0.4212,54.899460,9.788577,108.3,5.845,1.85,335.95,54.899666,9.786509,54.895069,9.793790
1386864637,1,0,485.9,0,0,4,0,409,400,-0.0292,126.2921,6.8213,0.4212,54.899448,9.788602,108.3,5.845,1.85,335.95,54.899666,9.786509,54.895069,9.793790
1386864638,1,0,485.9,0,0,0,0,409,425,-0.0292,126.2921,6.8213,0.4212,54.899437,9.788627,108.3,5.845,1.85,335.95,54.899666,9.786509,54.895069,9.793790
1386864638,1,0,485.9,0,0,4,0,409,400,-0.0292,126.2921,6.8213,0.4212,54.899426,9.788651,108.3,5.845,1.85,335.95,54.899666,9.786509,54.895069,9.793790
1386864638,1,0,485.9,0,0,0,0,409,425,-0.0292,126.2921,6.8213,0.4212,54.899414,9.788676,108.3,5.845,1.85,335.95,54.899666,9.786509,54.895069,9.793790
1386864638,1,0,485.9,0,0,4,0,409,400,-0.0292,126.2921,6.8213,0.4212,54.899403,9.788702,108.3,5.845,1.85,335.95,54.899666,9.786509,54.895069,9.793790
1386864639,1,0,485.9,0,0,0,0,409,425,-0.0292,126.2921,6.8213,0.4212,54.899391,9.788727,108.3,5.845,1.85,335.95,54.899666,9.786509,54.895069,9.793790
1386864639,1,0,485.9,0,0,4,0,409,400,-0.0292,126.2921,6.8213,0.4212,54.899380,9.788753,108.3,5.845,1.85,335.95,54.899666,9.786509,54.895069,9.793790
1386864639,1,0,485.9,0,0,0,0,409,425,-0.0292,126.2921,6.8213,0.4212,54.899368,9.788777,108.3,5.845,1.85,335.95,54.899666,9.786509,54.895069,9.793790
1386864639,1,0,485.9,0,0,4,0,409,400,-0.0292,126.2921,6.8213,0.4212,54.899265,9.790195,108.3,5.845,1.85,335.95,54.899666,9.786509,54.895069,9.793790
1386864640,1,0,485.9,0,0,0,0,409,425,-0.0292,126.2921,6.8213,0.4212,54.899254,9.790219,108.3,5.845,1.85,335.95,54.899666,9.786509,54.895069,9.793790
1386864640,1,0,485.9,0,0,4,0,409,400,-0.0292,126.2921,6.8213,0.4212,54.899242,9.790245,108.3,5.845,1.85,335.95,54.899666,9.786509,54.895069,9.793790
1386864640,1,0,485.9,0,0,0,0,409,425,-0.0292,126.2921,6.8213,0.4212,54.899231,9.790270,108.3,5.845,1.85,335.95,54.899666,9.786509,54.895069,9.793790
1386864640,1,0,485.9,0,0,4,0,409,400,-0.0292,126.2921,6.8213,0.4212,54.899220,9.790296,108.3,5.845,1.85,335.95,54.899666,9.786509,54.895069,9.793790
1386864641,1,0,485.9,0,0,0,0,409,425,-0.0292,126.2921,6.8213,0.4212,54.899212,9.790320,108.3,5.845,1.85,335.95,54.899666,9.786509,54.895069,9.793790
1386864641,1,0,485.9,0,0,4,0,409,400,-0.0292,126.2921,6.8213,0.4212,54.899200,9.790345,108.3,5.845,1.85,335.95,54.899666,9.786509,54.895069,9.793790
1386864641,1,0,485.9,0,0,0,0,409,425,-0.0292,126.2921,6.8213,0.4212,54.899193,9.790371,108.3,5.845,1.85,335.95,54.899666,9.786509,54.895069,9.793790
1386864641,1,0,485.9,0,0,4,0,409,400,-0.0292,126.2921,6.8213,0.4212,54.899181,9.790396,108.3,5.845,1.85,335.95,54.899666,9.786509,54.895069,9.793790
1386864642,1,0,485.9,0,0,0,0,409,425,-0.0292,126.2921,6.8213,0.4212,54.899170,9.790421,108.3,5.845,1.85,335.95,54.899666,9.786509,54.895069,9.793790
1386864642,1,0,485.9,0,0,4,0,409,400,-0.0292,126.2921,6.8213,0.4212,54.899158,9.790446,108.3,5.845,1.85,335.95,54.899666,9.786509,54.895069,9.793790
1386864642,1,0,485.9,0,0,0,0,409,425,-0.0292,126.2921,6.8213,0.4212,54.899586,9.791654,108.3,5.845,1.85,335.95,54.899666,9.786509,54.895069,9.793790
1386864642,1,0,485.9,0,0,4,0,409,400,-0.0292,126.2921,6.8213,0.4212,54.899574,9.791678,108.3,5.845,1.85,335.95,54.899666,9.786509,54.895069,9.793790
1386864643,1,0,485.9,0,0,0,0,409,425,-0.0292,126.2921,6.8213,0.4212,54.899563,9.791704,108.3,5.845,1.85,335.95,54.899666,9.786509,54.895069,9.793790
1386864643,1,0,485.9,0,0,4,0,409,400,-0.0292,126.2921,6.8213,0.4212,54.899551,9.791729,108.3,5.845,1.85,335.95,54.899666,9.786509,54.895069,9.793790
1386864643,1,0,485.9,0,0,0,0,409,425,-0.0292,126.2921,6.8213,0.4212,54.899540,9.791755,108.3,5.845,1.85,335.95,54.899666,9.786509,54.895069,9.793790
1386864643,1,0,485.9,0,0,4,0,409,400,-0.0292,126.2921,6.8213,0.4212,54.899532,9.791780,108.3,5.845,1.85,335.95,54.899666,9.786509,54.895069,9.793790
1386864644,1,0,485.9,0,0,0,0,409,425,-0.0292,126.2921,6.8213,0.4212,54.899521,9.791804,108.3,5.845,1.85,335.95,54.899666,9.786509,54.895069,9.793790
1386864644,1,0,485.9,0,0,4,0,409,400,-0.0292,126.2921,6.8213,0.4212,54.899509,9.791830,108.3,5.845,1.85,335.95,54.899666,9.786509,54.895069,9.793790
1386864644,1,0,485.9,0,0,0,0,409,425,-0.0292,126.2921,6.8213,0.4212,54.899498,9.791855,108.3,5.845,1.85,335.95,54.899666,9.786509,54.895069,9.793790
1386864644,1,0,485.9,0,0,4,0,409,400,-0.0292,126.2921,6.8213,0.4212,54.899487,9.791881,108.3,5.845,1.85,335.95,54.899666,9.786509,54.895069,9.793790
1386864645,1,0,485.9,0,0,0,0,409,425,-0.0292,126.2921,6.8213,0.4212,54.899475,9.791905,108.3,5.845,1.85,335.95,54.899666,9.786509,54.895069,9.793790
1386864645,1,0,485.9,0,0,4,0,409,400,-0.0292,126.2921,6.8213,0.4212,54.899464,9.791930,108.3,5.845,1.85,335.95,54.899666,9.786509,54.895069,9.793790
1386864645,1,0,485.9,0,0,0,0,409,425,-0.0292,126.2921,6.8213,0.4212,54.899452,9.791956,108.3,5.845,1.85,335.95,54.899666,9.786509,54.895069,9.793790
1386864645,1,0,485.9,0,0,4,0,409,400,-0.0292,126.2921,6.8213,0.4212,54.899441,9.791981,108.3,5.845,1.85,335.95,54.899666,9.786509,54.895069,9.793790
1386864646,1,0,485.9,0,0,0,0,409,425,-0.0292,126.2921,6.8213,0.4212,54.899433,9.792006,108.3,5.845,1.85,335.95,54.899666,9.786509,54.895069,9.793790
1386864646,1,0,485.9,0,0,4,0,409,400,-0.0292,126.2921,6.8213,0.4212,54.899422,9.792031,108.3,5.845,1.85,335.95,54.899666,9.786509,54.895069,9.793790
1386864646,1,0,485.9,0,0,0,0,409,425,-0.0292,126.2921,6.8213,0.4212,54.899414,9.792056,108.3,5.845,1.85,335.95,54.899666,9.786509,54.895069,9.793790
1386864646,1,0,485.9,0,0,4,0,409,400,-0.0292,126.2921,6.8213,0.4212,54.899403,9.792081,108.3,5.845,1.85,335.95,54.899666,9.786509,54.895069,9.793790
1386864647,1,0,485.9,0,0,0,0,409,425,-0.0292,126.2921,6.8213,0.4212,54.899391,9.792106,108.3,5.845,1.85,335.95,54.899666,9.786509,54.895069,9.793790
1386864647,1,0,485.9,0,0,4,0,409,400,-0.0292,126.2921,6.8213,0.4212,54.899380,9.792131,108.3,5.845,1.85,335.95,54.899666,9.786509,54.895069,9.793790
1386864647,1,0,485.9,0,0,0,0,409,425,-0.0292,126.2921,6.8213,0.4212,54.899368,9.792156,108.3,5.845,1.85,335.95,54.899666,9.786509,54.895069,9.793790
1386864647,1,0,485.9,0,0,4,0,409,400,-0.0292,126.2921,6.8213,0.4212,54.899361,9.792182,108.3,5.845,1.85,335.95,54.899666,9.786509,54.895069,9.793790
1386864648,1,0,485.9,0,0,0,0,409,425,-0.0292,126.2921,6.8213,0.4212,54.899349,9.792207,108.3,5.845,1.85,335.95,54.899666,9.786509,54.895069,9.793790
1386864648,1,0,485.9,0,0,4,0,409,400,-0.0292,126.2921,6.8213,0.4212,54.899338,9.792232,108.3,5.845,1.85,335.95,54.899666,9.786509,54.895069,9.793790
1386864648,1,0,485.9,0,0,0,0,409,425,-0.0292,126.2921,6.8213,0.4212,54.899326,9.792257,108.3,5.845,1.85,335.95,54.899666,9.786509,54.895069,9.793790
1386864648,1,0,485.9,0,0,4,0,409,400,-0.0292,126.2921,6.8213,0.4212,54.899315,9.792282,108.3,5.845,1.85,335.95,54.899666,9.786509,54.895069,9.793790
1386864649,1,0,485.9,0,0,0,0,409,425,-0.0292,126.2921,6.8213,0.4212,54.899303,9.792308,108.3,5.845,1.85,335.95,54.899666,9.786509,54.895069,9.793790
1386864649,1,0,485.9,0,0,4,0,409,400,-0.0292,126.2921,6.8213,0.4212,54.899292,9.792333,108.3,5.845,1.85,335.95,54.899666,9.786509,54.895069,9.793790
1386864649,1,0,485.9,0,0,0,0,409,425,-0.0292,126.2921,6.8213,0.4212,54.899281,9.792357,108.3,5.845,1.85,335.95,54.899666,9.786509,54.895069,9.793790
1386864649,1,0,485.9,0,0,4,0,409,400,-0.0292,126.2921,6.8213,0.4212,54.899269,9.792382,108.3,5.845,1.85,335.95,54.899666,9.786509,54.895069,9.793790
1386864650,1,0,485.9,0,0,0,0,409,425,-0.0292,126.2921,6.8213,0.4212,54.899261,9.792407,108.3,5.845,1.85,335.95,54.899666,9.786509,54.895069,9.793790
1386864650,1,0,485.9,0,0,4,0,409,400,-0.0292,126.2921,6.8213,0.4212,54.899250,9.792433,108.3,5.845,1.85,335.95,54.899666,9.786509,54.895069,9.793790
1386864650,1,0,485.9,0,0,0,0,409,425,-0.0292,126.2921,6.8213,0.4212,54.899239,9.792458,108.3,5.845,1.85,335.95,54.899666,9.786509,54.895069,9.793790
1386864650,1,0,485.9,0,0,4,0,409,400,-0.0292,126.2921,6.8213,0.4212,54.899227,9.792483,108.3,5.845,1.85,335.95,54.899666,9.786509,54.895069,9.793790
1386864651,1,0,485.9,0,0,0,0,409,425,-0.0292,126.2921,6.8213,0.4212,54.899216,9.792508,108.3,5.845,1.85,335.95,54.899666,9.786509,54.895069,9.793790
1386864651,1,0,485.9,0,0,4,0,409,400,-0.0292,126.2921,6.8213,0.4212,54.899204,9.792533,108.3,5.845,1.85,335.95,54.899666,9.786509,54.895069,9.793790
1386864651,1,0,485.9,0,0,0,0,409,425,-0.0292,126.2921,6.8213,0.4212,54.899193,9.792559,108.3,5.845,1.85,335.95,54.899666,9.786509,54.895069,9.793790
1386864651,1,0,485.9,0,0,4,0,409,400,-0.0292,126.2921,6.8213,0.4212,54.899181,9.792583,108.3,5.845,1.85,335.95,54.899666,9.786509,54.895069,9.793790
1386864652,1,0,485.9,0,0,0,0,409,425,-0.0292,126.2921,6.8213,0.4212,54.899170,9.792609,108.3,5.845,1.85,335.95,54.899666,9.786509,54.895069,9.793790
1386864652,1,0,485.9,0,0,4,0,409,400,-0.0292,126.2921,6.8213,0.4212,54.899158,9.792634,108.3,5.845,1.85,335.95,54.899666,9.786509,54.895069,9.793790
1386864652,1,0,485.9,0,0,0,0,409,425,-0.0292,126.2921,6.8213,0.4212,54.899147,9.792659,108.3,5.845,1.85,335.95,54.899666,9.786509,54.895069,9.793790
1386864652,1,0,485.9,0,0,4,0,409,400,-0.0292,126.2921,6.8213,0.4212,54.899139,9.792685,108.3,5.845,1.85,335.95,54.899666,9.786509,54.895069,9.793790
1386864653,1,0,485.9,0,0,0,0,409,425,-0.0292,126.2921,6.8213,0.4212,54.899128,9.792709,108.3,5.845,1.85,335.95,54.899666,9.786509,54.895069,9.793790
1386864653,1,0,485.9,0,0,4,0,409,400,-0.0292,126.2921,6.8213,0.4212,54.899117,9.792735,108.3,5.845,1.85,335.95,54.899666,9.786509,54.895069,9.793790
1386864653,1,0,485.9,0,0,0,0,409,425,-0.0292,126.2921,6.8213,0.4212,54.899105,9.792760,108.3,5.845,1.85,335.95,54.899666,9.786509,54.895069,9.793790
1386864653,1,0,485.9,0,0,4,0,409,400,-0.0292,126.2921,6.8213,0.4212,54.899094,9.792785,108.3,5.845,1.85,335.95,54.899666,9.786509,54.895069,9.793790
1386864654,1,0,485.9,0,0,0,0,409,425,-0.0292,126.2921,6.8213,0.4212,54.899082,9.792809,108.3,5.845,1.85,335.95,54.899666,9.786509,54.895069,9.793790
1386864654,1,0,485.9,0,0,4,0,409,400,-0.0292,126.2921,6.8213,0.4212,54.899071,9.792834,108.3,5.845,1.85,335.95,54.899666,9.786509,54.895069,9.793790
1386864654,1,0,485.9,0,0,0,0,409,425,-0.0292,126.2921,6.8213,0.4212,54.899059,9.792860,108.3,5.845,1.85,335.95,54.899666,9.786509,54.895069,9.793790
1386864654,1,0,485.9,0,0,4,0,409,400,-0.0292,126.2921,6.8213,0.4212,54.899048,9.792885,108.3,5.845,1.85,335.95,54.899666,9.786509,54.895069,9.793790
1386864655,1,0,485.9,0,0,0,0,409,425,-0.0292,126.2921,6.8213,0.4212,54.899040,9.792911,108.3,5.845,1.85,335.95,54.899666,9.786509,54.895069,9.793790
1386864655,1,0,485.9,0,0,4,0,409,400,-0.0292,126.2921,6.8213,0.4212,54.899029,9.792935,108.3,5.845,1.85,335.95,54.899666,9.786509,54.895069,9.793790
1386864655,1,0,485.9,0,0,0,0,409,425,-0.0292,126.2921,6.8213,0.4212,54.899017,9.792960,108.3,5.845,1.85,335.95,54.899666,9.786509,54.895069,9.793790
1386864655,1,0,485.9,0,0,4,0,409,400,-0.0292,126.2921,6.8213,0.4212,54.899006,9.792986,108.3,5.845,1.85,335.95,54.899666,9.786509,54.895069,9.793790
1386864656,1,0,485.9,0,0,0,0,409,425,-0.0292,126.2921,6.8213,0.4212,54.898994,9.793011,108.3,5.845,1.85,335.95,54.899666,9.786509,54.895069,9.793790
1386864656,1,0,485.9,0,0,4,0,409,400,-0.0292,126.2921,6.8213,0.4212,54.898983,9.793036,108.3,5.845,1.85,335.95,54.899666,9.786509,54.895069,9.793790
1386864656,1,0,485.9,0,0,0,0,409,425,-0.0292,126.2921,6.8213,0.4212,54.898972,9.793061,108.3,5.845,1.85,335.95,54.899666,9.786509,54.895069,9.793790
1386864656,1,0,485.9,0,0,4,0,409,400,-0.0292,126.2921,6.8213,0.4212,54.898960,9.793086,108.3,5.845,1.85,335.95,54.899666,9.786509,54.895069,9.793790
1386864657,1,0,485.9,0,0,0,0,409,425,-0.0292,126.2921,6.8213,0.4212,54.898949,9.793111,108.3,5.845,1.85,335.95,54.899666,9.786509,54.895069,9.793790
1386864657,1,0,485.9,0,0,4,0,409,400,-0.0292,126.2921,6.8213,0.4212,54.898937,9.793136,108.3,5.845,1.85,335.95,54.899666,9.786509,54.895069,9.793790
1386864657,1,0,485.9,0,0,0,0,409,425,-0.0292,126.2921,6.8213,0.4212,54.898926,9.793161,108.3,5.845,1.85,335.95,54.899666,9.786509,54.895069,9.793790
1386864657,1,0,485.9,0,0,4,0,409,400,-0.0292,126.2921,6.8213,0.4212,54.898918,9.793186,108.3,5.845,1.85,335.95,54.899666,9.786509,54.895069,9.793790
1386864658,1,0,485.9,0,0,0,0,409,425,-0.0292,126.2921,6.8213,0.4212,54.898907,9.793212,108.3,5.845,1.85,335.95,54.899666,9.786509,54.895069,9.793790
1386864658,1,0,485.9,0,0,4,0,409,400,-0.0292,126.2921,6.8213,0.4212,54.898895,9.793237,108.3,5.845,1.85,335.95,54.899666,9.786509,54.895069,9.793790
1386864658,1,0,485.9,0,0,0,0,409,425,-0.0292,126.2921,6.8213,0.4212,54.898884,9.793262,108.3,5.845,1.85,335.95,54.899666,9.786509,54.895069,9.793790
1386864658,1,0,485.9,0,0,4,0,409,400,-0.0292,126.2921,6.8213,0.4212,54.898872,9.793287,108.3,5.845,1.85,335.95,54.899666,9.786509,54.895069,9.793790
1386864659,1,0,485.9,0,0,0,0,409,425,-0.0292,126.2921,6.8213,0.4212,54.898861,9.793312,108.3,5.845,1.85,335.95,54.899666,9.786509,54.895069,9.793790
1386864659,1,0,485.9,0,0,4,0,409,400,-0.0292,126.2921,6.8213,0.4212,54.898849,9.793338,108.3,5.845,1.85,335.95,54.899666,9.786509,54.895069,9.793790
1386864659,1,0,485.9,0,0,0,0,409,425,-0.0292,126.2921,6.8213,0.4212,54.898838,9.793363,108.3,5.845,1.85,335.95,54.899666,9.786509,54.895069,9.793790
1386864659,1,0,485.9,0,0,4,0,409,400,-0.0292,126.2921,6.8213,0.4212,54.898827,9.793387,108.3,5.845,1.85,335.95,54.899666,9.786509,54.895069,9.793790
1386864660,1,0,485.9,0,0,0,0,409,425,-0.0292,126.2921,6.8213,0.4212,54.898819,9.793413,108.3,5.845,1.85,335.95,54.899666,9.786509,54.895069,9.793790
1386864660,1,0,485.9,0,0,4,0,409,400,-0.0292,126.2921,6.8213,0.4212,54.898808,9.793438,108.3,5.845,1.85,335.95,54.899666,9.786509,54.895069,9.793790
1386864660,1,0,485.9,0,0,0,0,409,425,-0.0292,126.2921,6.8213,0.4212,54.898796,9.793464,108.3,5.845,1.85,335.95,54.899666,9.786509,54.895069,9.793790
1386864661,1,0,485.9,0,0,4,0,409,400,-0.0292,126.2921,6.8213,0.4212,54.898785,9.793489,108.3,5.845,1.85,335.95,54.899666,9.786509,54.895069,9.793790
1386864661,1,0,485.9,0,0,0,0,409,425,-0.0292,126.2921,6.8213,0.4212,54.898773,9.793514,108.3,5.845,1.85,335.95,54.899666,9.786509,54.895069,9.793790
1386864661,1,0,485.9,0,0,4,0,409,400,-0.0292,126.2921,6.8213,0.4212,54.898762,9.793539,108.3,5.845,1.85,335.95,54.899666,9.786509,54.895069,9.793790
1386864661,1,0,485.9,0,0,0,0,409,425,-0.0292,126.2921,6.8213,0.4212,54.898750,9.793564,108.3,5.845,1.85,335.95,54.899666,9.786509,54.895069,9.793790
1386864662,1,0,485.9,0,0,4,0,409,400,-0.0292,126.2921,6.8213,0.4212,54.898739,9.793590,108.3,5.845,1.85,335.95,54.899666,9.786509,54.895069,9.793790
1386864662,1,0,485.9,0,0,0,0,409,425,-0.0292,126.2921,6.8213,0.4212,54.898727,9.793614,108.3,5.845,1.85,335.95,54.899666,9.786509,54.895069,9.793790
1386864662,1,0,485.9,0,0,4,0,409,400,-0.0292,126.2921,6.8213,0.4212,54.898720,9.793640,108.3,5.845,1.85,335.95,54.899666,9.786509,54.895069,9.793790
1386864662,1,0,485.9,0,0,0,0,409,425,-0.0292,126.2921,6.8213,0.4212,54.898708,9.793665,108.3,5.845,1.85,335.95,54.899666,9.786509,54.895069,9.793790
1386864663,1,0,485.9,0,0,4,0,409,400,-0.0292,126.2921,6.8213,0.4212,54.898701,9.793690,108.3,5.845,1.85,335.95,54.899666,9.786509,54.895069,9.793790
1386864663,1,0,485.9,0,0,0,0,409,425,-0.0292,126.2921,6.8213,0.4212,54.898689,9.793715,108.3,5.845,1.85,335.95,54.899666,9.786509,54.895069,9.793790
1386864663,1,0,485.9,0,0,4,0,409,400,-0.0292,126.2921,6.8213,0.4212,54.898678,9.793740,108.3,5.845,1.85,335.95,54.899666,9.786509,54.895069,9.793790
1386864663,1,0,485.9,0,0,0,0,409,425,-0.0292,126.2921,6.8213,0.4212,54.898666,9.793766,108.3,5.845,1.85,335.95,54.899666,9.786509,54.895069,9.793790
1386864664,1,0,485.9,0,0,4,0,409,400,-0.0292,126.2921,6.8213,0.4212,54.898655,9.793791,108.3,5.845,1.85,335.95,54.899666,9.786509,54.895069,9.793790
1386864664,1,0,485.9,0,0,0,0,409,425,-0.0292,126.2921,6.8213,0.4212,54.898647,9.793816,108.3,5.845,1.85,335.95,54.899666,9.786509,54.895069,9.793790
1386864664,1,0,485.9,0,0,4,0,409,400,-0.0292,126.2921,6.8213,0.4212,54.898636,9.793841,108.3,5.845,1.85,335.95,54.899666,9.786509,54.895069,9.793790
1386864664,1,0,485.9,0,0,0,0,409,425,-0.0292,126.2921,6.8213,0.4212,54.898624,9.793866,108.3,5.845,1.85,335.95,54.899666,9.786509,54.895069,9.793790
1386864665,1,0,485.9,0,0,4,0,409,400,-0.0292,126.2921,6.8213,0.4212,54.898613,9.793892,108.3,5.845,1.85,335.95,54.899666,9.786509,54.895069,9.793790
1386864665,1,0,485.9,0,0,0,0,409,425,-0.0292,126.2921,6.8213,0.4212,54.898602,9.793917,108.3,5.845,1.85,335.95,54.899666,9.786509,54.895069,9.793790
1386864665,1,0,485.9,0,0,4,0,409,400,-0.0292,126.2921,6.8213,0.4212,54.898590,9.793942,108.3,5.845,1.85,335.95,54.899666,9.786509,54.895069,9.793790
1386864665,1,0,485.9,0,0,0,0,409,425,-0.0292,126.2921,6.8213,0.4212,54.898579,9.793967,108.3,5.845,1.85,335.95,54.899666,9.786509,54.895069,9.793790
1386864666,1,0,485.9,0,0,4,0,409,400,-0.0292,126.2921,6.8213,0.4212,54.898567,9.793992,108.3,5.845,1.85,335.95,54.899666,9.786509,54.895069,9.793790
1386864666,1,0,485.9,0,0,0,0,409,425,-0.0292,126.2921,6.8213,0.4212,54.898556,9.794018,108.3,5.845,1.85,335.95,54.899666,9.786509,54.895069,9.793790
1386864666,1,0,485.9,0,0,4,0,409,400,-0.0292,126.2921,6.8213,0.4212,54.898548,9.794043,108.3,5.845,1.85,335.95,54.899666,9.786509,54.895069,9.793790
1386864666,1,0,485.9,0,0,0,0,409,425,-0.0292,126.2921,6.8213,0.4212,54.898537,9.794068,108.3,5.845,1.85,335.95,54.899666,9.786509,54.895069,9.793790
1386864667,1,0,485.9,0,0,4,0,409,400,-0.0292,126.2921,6.8213,0.4212,54.898525,9.794093,108.3,5.845,1.85,335.95,54.899666,9.786509,54.895069,9.793790
1386864667,1,0,485.9,0,0,0,0,409,425,-0.0292,126.2921,6.8213,0.4212,54.898514,9.794118,108.3,5.845,1.85,335.95,54.899666,9.786509,54.895069,9.793790
1386864667,1,0,485.9,0,0,4,0,409,400,-0.0292,126.2921,6.8213,0.4212,54.898502,9.794144,108.3,5.845,1.85,335.95,54.899666,9.786509,54.895069,9.793790
1386864667,1,0,485.9,0,0,0,0,409,425,-0.0292,126.2921,6.8213,0.4212,54.898491,9.794168,108.3,5.845,1.85,335.95,54.899666,9.786509,54.895069,9.793790
1386864668,1,0,485.9,0,0,4,0,409,400,-0.0292,126.2921,6.8213,0.4212,54.898479,9.794194,108.3,5.845,1.85,335.95,54.899666,9.786509,54.895069,9.793790
1386864668,1,0,485.9,0,0,0,0,409,425,-0.0292,126.2921,6.8213,0.4212,54.898468,9.794219,108.3,5.845,1.85,335.95,54.899666,9.786509,54.895069,9.793790
1386864668,1,0,485.9,0,0,4,0,409,400,-0.0292,126.2921,6.8213,0.4212,54.898457,9.794244,108.3,5.845,1.85,335.95,54.899666,9.786509,54.895069,9.793790
1386864668,1,0,485.9,0,0,0,0,409,425,-0.0292,126.2921,6.8213,0.4212,54.898445,9.794270,108.3,5.845,1.85,335.95,54.899666,9.786509,54.895069,9.793790
1386864669,1,0,485.9,0,0,4,0,409,400,-0.0292,126.2921,6.8213,0.4212,54.898434,9.794294,108.3,5.845,1.85,335.95,54.899666,9.786509,54.895069,9.793790
1386864669,1,0,485.9,0,0,0,0,409,425,-0.0292,126.2921,6.8213,0.4212,54.898426,9.794320,108.3,5.845,1.85,335.95,54.899666,9.786509,54.895069,9.793790
1386864669,1,0,485.9,0,0,4,0,409,400,-0.0292,126.2921,6.8213,0.4212,54.898415,9.794345,108.3,5.845,1.85,335.95,54.899666,9.786509,54.895069,9.793790
1386864669,1,0,485.9,0,0,0,0,409,425,-0.0292,126.2921,6.8213,0.4212,54.898403,9.794371,108.3,5.845,1.85,335.95,54.899666,9.786509,54.895069,9.793790
1386864670,1,0,485.9,0,0,4,0,409,400,-0.0292,126.2921,6.8213,0.4212,54.898392,9.794395,108.3,5.845,1.85,335.95,54.899666,9.786509,54.895069,9.793790
1386864670,1,0,485.9,0,0,0,0,409,425,-0.0292,126.2921,6.8213,0.4212,54.898380,9.794420,108.3,5.845,1.85,335.95,54.899666,9.786509,54.895069,9.793790
1386864670,1,0,485.9,0,0,4,0,0,400,-0.0292,126.2921,6.8213,0.4212,54.898369,9.794446,108.3,5.845,1.85,335.95,54.899666,9.786509,54.895069,9.793790
1386864670,1,0,485.9,0,0,0,0,0,375,-0.0292,126.2921,6.8213,0.4212,54.898357,9.794471,108.3,5.845,1.85,335.95,54.899666,9.786509,54.895069,9.793790
1386864671,1,0,485.9,0,0,4,0,0,350,-0.0292,126.2921,6.8213,0.4212,54.898346,9.794497,108.3,5.845,1.85,335.95,54.899666,9.786509,54.895069,9.793790
1386864671,1,0,485.9,0,0,0,0,0,325,-0.0292,126.2921,6.8213,0.4212,54.898335,9.794521,108.3,5.845,1.85,335.95,54.899666,9.786509,54.895069,9.793790
1386864671,1,0,485.9,0,0,4,0,0,300,-0.0292,126.2921,6.8213,0.4212,54.898327,9.794546,108.3,5.845,1.85,335.95,54.899666,9.786509,54.895069,9.793790
1386864671,1,0,485.9,0,0,0,0,0,275,-0.0292,126.2921,6.8213,0.4212,54.898315,9.794572,108.3,5.845,1.85,335.95,54.899666,9.786509,54.895069,9.793790
1386864672,1,0,485.9,0,0,4,0,0,250,-0.0292,126.2921,6.8213,0.4212,54.898304,9.794597,108.3,5.845,1.85,335.95,54.899666,9.786509,54.895069,9.793790
1386864672,1,0,485.9,0,0,0,0,0,225,-0.0292,126.2921,6.8213,0.4212,54.898293,9.794622,108.3,5.845,1.85,335.95,54.899666,9.786509,54.895069,9.793790
1386864672,1,0,485.9,0,0,4,0,0,200,-0.0292,126.2921,6.8213,0.4212,54.898281,9.794647,108.3,5.845,1.85,335.95,54.899666,9.786509,54.895069,9.793790
1386864672,1,0,485.9,0,0,0,0,0,175,-0.0292,126.2921,6.8213,0.4212,54.898270,9.794672,108.3,5.845,1.85,335.95,54.899666,9.786509,54.895069,9.793790
1386864673,1,0,485.9,0,0,4,0,0,150,-0.0292,126.2921,6.8213,0.4212,54.898258,9.794697,108.3,5.845,1.85,335.95,54.899666,9.786509,54.895069,9.793790
1386864673,1,0,485.9,0,0,0,0,0,125,-0.0292,126.2921,6.8213,0.4212,54.898247,9.794722,108.3,5.845,1.85,335.95,54.899666,9.786509,54.895069,9.793790
1386864673,1,0,485.9,0,0,4,0,0,100,-0.0292,126.2921,6.8213,0.4212,54.898235,9.794747,108.3,5.845,1.85,335.95,54.899666,9.786509,54.895069,9.793790
1386864673,1,0,485.9,0,0,0,0,0,75,-0.0292,126.2921,6.8213,0.4212,54.898224,9.794772,108.3,5.845,1.85,335.95,54.899666,9.786509,54.895069,9.793790
1386864674,1,0,485.9,0,0,4,0,0,50,-0.0292,126.2921,6.8213,0.4212,54.898212,9.794798,108.3,5.845,1.85,335.95,54.899666,9.786509,54.895069,9.793790
1386864674,1,0,485.9,0,0,0,0,0,25,-0.0292,126.2921,6.8213,0.4212,54.898205,9.794823,108.3,5.845,1.85,335.95,54.899666,9.786509,54.895069,9.793790
1386864674,1,0,485.9,0,0,4,0,0,0,-0.0292,126.2921,6.8213,0.4212,54.898193,9.794847,108.3,5.845,1.85,335.95,54.899666,9.786509,54.895069,9.793790
1386864674,1,0,485.9,0,0,0,0,0,25,-0.0292,126.2921,6.8213,0.4212,54.898182,9.794873,108.3,5.845,1.85,335.95,54.899666,9.786509,54.895069,9.793790
1386864675,1,0,362.4,0,35,4,0,0,0,-0.0292,116.9588,6.8213,0.4212,54.898174,9.794901,108.3,5.845,1.85,335.95,54.899666,9.786509,54.895069,9.793790
1386864675,1,0,335.9,0,35,8,0,0,25,-0.0292,107.6254,6.8213,0.4212,54.898167,9.794931,108.3,5.845,1.85,335.95,54.899666,9.786509,54.895069,9.793790
1386864675,1,0,335.9,0,35,12,0,0,0,-0.0292,98.2921,6.8213,0.4212,54.898167,9.794963,108.3,5.845,1.85,335.95,54.899666,9.786509,54.895069,9.793790
1386864675,1,0,335.9,0,35,16,0,0,25,-0.0292,88.9587,6.8213,0.4212,54.898170,9.794994,108.3,5.845,1.85,335.95,54.899666,9.786509,54.895069,9.793790
1386864676,1,0,335.9,0,35,20,0,0,0,-0.0292,79.6254,6.8213,0.4212,54.898170,9.795025,108.3,5.845,1.85,335.95,54.899666,9.786509,54.895069,9.793790
1386864676,1,0,425.9,0,14,16,0,0,25,-0.0292,75.8921,6.8213,0.4212,54.898174,9.795055,108.3,5.845,1.85,335.95,54.899666,9.786509,54.895069,9.793790
1386864676,1,0,362.3,0,35,20,0,0,0,-0.0292,66.5587,6.8213,0.4212,54.898182,9.795084,108.3,5.845,1.85,335.95,54.899666,9.786509,54.895069,9.793790
1386864676,1,0,245.9,0,-35,16,0,0,25,-0.0292,75.8921,6.8213,0.4212,54.898186,9.795114,108.3,5.845,1.85,335.95,54.899666,9.786509,54.895069,9.793790
1386864677,1,0,335.9,0,35,20,0,0,0,-0.0292,66.5587,6.8213,0.4212,54.898193,9.795142,108.3,5.845,1.85,335.95,54.899666,9.786509,54.895069,9.793790
1386864677,1,0,335.9,0,35,24,0,0,25,-0.0292,57.2254,6.8213,0.4212,54.898201,9.795169,108.3,5.845,1.85,335.95,54.899666,9.786509,54.895069,9.793790
1386864677,1,0,425.9,0,-9,20,0,0,0,-0.0292,59.6254,6.8213,0.4212,54.898209,9.795196,108.3,5.845,1.85,335.95,54.899666,9.786509,54.895069,9.793790
1386864677,1,0,309.6,0,35,24,0,0,25,-0.0292,50.2921,6.8213,0.4212,54.898220,9.795220,108.3,5.845,1.85,335.95,54.899666,9.786509,54.895069,9.793790
1386864678,1,0,335.9,0,35,28,0,0,0,-0.0292,40.9588,6.8213,0.4212,54.898232,9.795240,108.3,5.845,1.85,335.95,54.899666,9.786509,54.895069,9.793790
1386864678,1,0,245.9,0,35,32,0,0,25,-0.0292,31.6254,6.8213,0.4212,54.898247,9.795258,108.3,5.845,1.85,335.95,54.899666,9.786509,54.895069,9.793790
1386864678,1,0,335.9,0,35,36,0,0,0,-0.0292,22.2921,6.8213,0.4212,54.898262,9.795269,108.3,5.845,1.85,335.95,54.899666,9.786509,54.895069,9.793790
1386864678,1,0,425.9,0,-35,32,0,0,25,-0.0292,31.6254,6.8213,0.4212,54.898277,9.795285,108.3,5.845,1.85,335.95,54.899666,9.786509,54.895069,9.793790
1386864679,1,0,335.9,0,35,36,0,0,0,-0.0292,22.2921,6.8213,0.4212,54.898293,9.795298,108.3,5.845,1.85,335.95,54.899666,9.786509,54.895069,9.793790
1386864679,1,0,335.9,0,35,32,0,0,25,-0.0292,12.9588,6.8213,0.4212,54.898308,9.795304,108.3,5.845,1.85,335.95,54.899666,9.786509,54.895069,9.793790
1386864679,1,0,335.9,0,35,36,0,0,0,-0.0292,3.6254,6.8213,0.4212,54.898327,9.795306,108.3,5.845,1.85,335.95,54.899666,9.786509,54.895069,9.793790
1386864679,1,0,425.9,0,-35,32,0,0,25,-0.0292,12.9588,6.8213,0.4212,54.898346,9.795313,108.3,5.845,1.85,335.95,54.899666,9.786509,54.895069,9.793790
1386864680,1,0,335.9,0,35,36,0,0,0,-0.0292,3.6254,6.8213,0.4212,54.898361,9.795315,108.3,5.845,1.85,335.95,54.899666,9.786509,54.895069,9.793790
1386864680,0,0,335.9,0,35,36,0,0,0,-0.0292,3.6254,6.8213,0.4212,54.898361,9.795315,108.3,5.845,1.85,335.95,54.899666,9.786509,54.895069,9.793790
1386864680,0,0,335.9,0,35,36,0,0,0,-0.0292,3.6254,6.8213,0.4212,54.898361,9.795315,108.3,5.845,1.85,335.95,54.899666,9.786509,54.895069,9.793790
1386864680,0,0,335.9,0,35,36,0,0,0,-0.0292,3.6254,6.8213,0.4212,54.898361,9.795315,108.3,5.845,1.85,335.95,54.899666,9.786509,54.895069,9.793790
1386864681,0,0,335.9,0,35,36,0,0,0,-0.0292,3.6254,6.8213,0.4212,54.898361,9.795315,108.3,5.845,1.85,335.95,54.899666,9.786509,54.895069,9.793790
1386864681,0,0,335.9,0,35,36,0,0,0,-0.0292,3.6254,6.8213,0.4212,54.898361,9.795315,108.3,5.845,1.85,335.95,54.899666,9.786509,54.895069,9.793790
1386864681,0,0,335.9,0,35,36,0,0,0,-0.0292,3.6254,6.8213,0.4212,54.898361,9.795315,108.3,5.845,1.85,335.95,54.899666,9.786509,54.895069,9.793790
1386864681,0,0,335.9,0,35,36,0,0,0,-0.0292,3.6254,6.8213,0.4212,54.898361,9.795315,108.3,5.845,1.85,335.95,54.899666,9.786509,54.895069,9.793790
1386864682,0,0,335.9,0,35,36,0,0,0,-0.0292,3.6254,6.8213,0.4212,54.898361,9.795315,108.3,5.845,1.85,335.95,54.899666,9.786509,54.895069,9.793790
1386864682,0,0,335.9,0,35,36,0,0,0,-0.0292,3.6254,6.8213,0.4212,54.898361,9.795315,108.3,5.845,1.85,335.95,54.899666,9.786509,54.895069,9.793790
1386864682,0,0,335.9,0,35,36,0,0,0,-0.0292,3.6254,6.8213,0.4212,54.898361,9.795315,108.3,5.845,1.85,335.95,54.899666,9.786509,54.895069,9.793790
1386864682,0,0,335.9,0,35,36,0,0,0,-0.0292,3.6254,6.8213,0.4212,54.898361,9.795315,108.3,5.845,1.85,335.95,54.899666,9.786509,54.895069,9.793790
1386864683,0,0,335.9,0,35,36,0,0,0,-0.0292,3.6254,6.8213,0.4212,54.898361,9.795315,108.3,5.845,1.85,335.95,54.899666,9.786509,54.895069,9.793790
1386864683,0,0,335.9,0,35,36,0,0,0,-0.0292,3.6254,6.8213,0.4212,54.898361,9.795315,108.3,5.845,1.85,335.95,54.899666,9.786509,54.895069,9.793790
1386864683,0,0,335.9,0,35,36,0,0,0,-0.0292,3.6254,6.8213,0.4212,54.898361,9.795315,108.3,5.845,1.85,335.95,54.899666,9.786509,54.895069,9.793790
1386864683,0,0,335.9,0,35,36,0,0,0,-0.0292,3.6254,6.8213,0.4212,54.898361,9.795315,108.3,5.845,1.85,335.95,54.899666,9.786509,54.895069,9.793790
1386864684,0,0,335.9,0,35,36,0,0,0,-0.0292,3.6254,6.8213,0.4212,54.898361,9.795315,108.3,5.845,1.85,335.95,54.899666,9.786509,54.895069,9.793790
1386864684,0,0,335.9,0,35,36,0,0,0,-0.0292,3.6254,6.8213,0.4212,54.898361,9.795315,108.3,5.845,1.85,335.95,54.899666,9.786509,54.895069,9.793790
1386864684,0,0,335.9,0,35,36,0,0,0,-0.0292,3.6254,6.8213,0.4212,54.898361,9.795315,108.3,5.845,1.85,335.95,54.899666,9.786509,54.895069,9.793790
1386864684,0,0,335.9,0,35,36,0,0,0,-0.0292,3.6254,6.8213,0.4212,54.898361,9.795315,108.3,5.845,1.85,335.95,54.899666,9.786509,54.895069,9.793790
1386864685,0,0,335.9,0,35,36,0,0,0,-0.0292,3.6254,6.8213,0.4212,54.898361,9.795315,108.3,5.845,1.85,335.95,54.899666,9.786509,54.895069,9.793790
1386864685,0,0,335.9,0,35,36,0,0,0,-0.0292,3.6254,6.8213,0.4212,54.898361,9.795315,108.3,5.845,1.85,335.95,54.899666,9.786509,54.895069,9.793790
1386864685,0,0,335.9,0,35,36,0,0,0,-0.0292,3.6254,6.8213,0.4212,54.898361,9.795315,108.3,5.845,1.85,335.95,54.899666,9.786509,54.895069,9.793790
1386864685,0,0,335.9,0,35,36,0,0,0,-0.0292,3.6254,6.8213,0.4212,54.898361,9.795315,108.3,5.845,1.85,335.95,54.899666,9.786509,54.895069,9.793790
1386864686,0,0,335.9,0,35,36,0,0,0,-0.0292,3.6254,6.8213,0.4212,54.898361,9.795315,108.3,5.845,1.85,335.95,54.899666,9.786509,54.895069,9.793790
1386864686,0,0,335.9,0,35,36,0,0,0,-0.0292,3.6254,6.8213,0.4212,54.898361,9.795315,108.3,5.845,1.85,335.95,54.899666,9.786509,54.895069,9.793790
1386864686,0,0,335.9,0,35,36,0,0,0,-0.0292,3.6254,6.8213,0.4212,54.898361,9.795315,108.3,5.845,1.85,335.95,54.899666,9.786509,54.895069,9.793790
1386864686,0,0,335.9,0,35,36,0,0,0,-0.0292,3.6254,6.8213,0.4212,54.898361,9.795315,108.3,5.845,1.85,335.95,54.899666,9.786509,54.895069,9.793790
1386864687,0,0,335.9,0,35,36,0,0,0,-0.0292,3.6254,6.8213,0.4212,54.898361,9.795315,108.3,5.845,1.85,335.95,54.899666,9.786509,54.895069,9.793790
1386864687,0,0,335.9,0,35,36,0,0,0,-0.0292,3.6254,6.8213,0.4212,54.898361,9.795315,108.3,5.845,1.85,335.95,54.899666,9.786509,54.895069,9.793790
1386864687,0,0,335.9,0,35,36,0,0,0,-0.0292,3.6254,6.8213,0.4212,54.898361,9.795315,108.3,5.845,1.85,335.95,54.899666,9.786509,54.895069,9.793790
1386864687,0,0,335.9,0,35,36,0,0,0,-0.0292,3.6254,6.8213,0.4212,54.898361,9.795315,108.3,5.845,1.85,335.95,54.899666,9.786509,54.895069,9.793790
1386864688,0,0,335.9,0,35,36,0,0,0,-0.0292,3.6254,6.8213,0.4212,54.898361,9.795315,108.3,5.845,1.85,335.95,54.899666,9.786509,54.895069,9.793790
1386864688,0,0,335.9,0,35,36,0,0,0,-0.0292,3.6254,6.8213,0.4212,54.898361,9.795315,108.3,5.845,1.85,335.95,54.899666,9.786509,54.895069,9.793790
1386864688,0,0,335.9,0,35,36,0,0,0,-0.0292,3.6254,6.8213,0.4212,54.898361,9.795315,108.3,5.845,1.85,335.95,54.899666,9.786509,54.895069,9.793790
1386864688,0,0,335.9,0,35,36,0,0,0,-0.0292,3.6254,6.8213,0.4212,54.898361,9.795315,108.3,5.845,1.85,335.95,54.899666,9.786509,54.895069,9.793790
1386864689,0,0,335.9,0,35,36,0,0,0,-0.0292,3.6254,6.8213,0.4212,54.898361,9.795315,108.3,5.845,1.85,335.95,54.899666,9.786509,54.895069,9.793790
1386864689,0,0,335.9,0,35,36,0,0,0,-0.0292,3.6254,6.8213,0.4212,54.898361,9.795315,108.3,5.845,1.85,335.95,54.899666,9.786509,54.895069,9.793790
1386864689,0,0,335.9,0,35,36,0,0,0,-0.0292,3.6254,6.8213,0.4212,54.898361,9.795315,108.3,5.845,1.85,335.95,54.899666,9.786509,54.895069,9.793790
1386864689,0,0,335.9,0,35,36,0,0,0,-0.0292,3.6254,6.8213,0.4212,54.898361,9.795315,108.3,5.845,1.85,335.95,54.899666,9.786509,54.895069,9.793790
1386864690,0,0,335.9,0,35,36,0,0,0,-0.0292,3.6254,6.8213,0.4212,54.898361,9.795315,108.3,5.845,1.85,335.95,54.899666,9.786509,54.895069,9.793790
1386864690,0,0,335.9,0,35,36,0,0,0,-0.0292,3.6254,6.8213,0.4212,54.898361,9.795315,108.3,5.845,1.85,335.95,54.899666,9.786509,54.895069,9.793790
1386864690,0,0,335.9,0,35,36,0,0,0,-0.0292,3.6254,6.8213,0.4212,54.898361,9.795315,108.3,5.845,1.85,335.95,54.899666,9.786509,54.895069,9.793790
1386864690,0,0,335.9,0,35,36,0,0,0,-0.0292,3.6254,6.8213,0.4212,54.898361,9.795315,108.3,5.845,1.85,335.95,54.899666,9.786509,54.895069,9.793790
1386864691,0,0,335.9,0,35,36,0,0,0,-0.0292,3.6254,6.8213,0.4212,54.898361,9.795315,108.3,5.845,1.85,335.95,54.899666,9.786509,54.895069,9.793790
1386864691,0,0,335.9,0,35,36,0,0,0,-0.0292,3.6254,6.8213,0.4212,54.898361,9.795315,108.3,5.845,1.85,335.95,54.899666,9.786509,54.895069,9.793790
1386864691,0,0,335.9,0,35,36,0,0,0,-0.0292,3.6254,6.8213,0.4212,54.898361,9.795315,108.3,5.845,1.85,335.95,54.899666,9.786509,54.895069,9.793790
1386864691,0,0,335.9,0,35,36,0,0,0,-0.0292,3.6254,6.8213,0.4212,54.898361,9.795315,108.3,5.845,1.85,335.95,54.899666,9.786509,54.895069,9.793790
1386864692,0,0,335.9,0,35,36,0,0,0,-0.0292,3.6254,6.8213,0.4212,54.898361,9.795315,108.3,5.845,1.85,335.95,54.899666,9.786509,54.895069,9.793790
1386864692,0,0,335.9,0,35,36,0,0,0,-0.0292,3.6254,6.8213,0.4212,54.898361,9.795315,108.3,5.845,1.85,335.95,54.899666,9.786509,54.895069,9.793790
1386864692,0,0,335.9,0,35,36,0,0,0,-0.0292,3.6254,6.8213,0.4212,54.898361,9.795315,108.3,5.845,1.85,335.95,54.899666,9.786509,54.895069,9.793790
1386864692,0,0,335.9,0,35,36,0,0,0,-0.0292,3.6254,6.8213,0.4212,54.898361,9.795315,108.3,5.845,1.85,335.95,54.899666,9.786509,54.895069,9.793790
1386864693,0,0,335.9,0,35,36,0,0,0,-0.0292,3.6254,6.8213,0.4212,54.898361,9.795315,108.3,5.845,1.85,335.95,54.899666,9.786509,54.895069,9.793790
1386864693,0,0,335.9,0,35,36,0,0,0,-0.0292,3.6254,6.8213,0.4212,54.898361,9.795315,108.3,5.845,1.85,335.95,54.899666,9.786509,54.895069,9.793790
1386864693,0,0,335.9,0,35,36,0,0,0,-0.0292,3.6254,6.8213,0.4212,54.898361,9.795315,108.3,5.845,1.85,335.95,54.899666,9.786509,54.895069,9.793790
1386864693,0,0,335.9,0,35,36,0,0,0,-0.0292,3.6254,6.8213,0.4212,54.898361,9.795315,108.3,5.845,1.85,335.95,54.899666,9.786509,54.895069,9.793790
1386864694,0,0,335.9,0,35,36,0,0,0,-0.0292,3.6254,6.8213,0.4212,54.898361,9.795315,108.3,5.845,1.85,335.95,54.899666,9.786509,54.895069,9.793790
1386864694,0,0,335.9,0,35,36,0,0,0,-0.0292,3.6254,6.8213,0.4212,54.898361,9.795315,108.3,5.845,1.85,335.95,54.899666,9.786509,54.895069,9.793790
1386864694,0,0,335.9,0,35,36,0,0,0,-0.0292,3.6254,6.8213,0.4212,54.898361,9.795315,108.3,5.845,1.85,335.95,54.899666,9.786509,54.895069,9.793790
1386864694,0,0,335.9,0,35,36,0,0,0,-0.0292,3.6254,6.8213,0.4212,54.898361,9.795315,108.3,5.845,1.85,335.95,54.899666,9.786509,54.895069,9.793790
1386864695,0,0,335.9,0,35,36,0,0,0,-0.0292,3.6254,6.8213,0.4212,54.898361,9.795315,108.3,5.845,1.85,335.95,54.899666,9.786509,54.895069,9.793790
1386864695,0,0,335.9,0,35,36,0,0,0,-0.0292,3.6254,6.8213,0.4212,54.898361,9.795315,108.3,5.845,1.85,335.95,54.899666,9.786509,54.895069,9.793790
1386864695,0,0,335.9,0,35,36,0,0,0,-0.0292,3.6254,6.8213,0.4212,54.898361,9.795315,108.3,5.845,1.85,335.95,54.899666,9.786509,54.895069,9.793790
1386864695,0,0,335.9,0,35,36,0,0,0,-0.0292,3.6254,6.8213,0.4212,54.898361,9.795315,108.3,5.845,1.85,335.95,54.899666,9.786509,54.895069,9.793790
