MCU_timestamp,Navigation_System,Manual_Control,Guidance_Heading,Manual_Ctrl_Rudder,Rudder_Desired_Angle,Rudder_Feedback,Manual_Ctrl_Sail,Sail_Desired_Pos,Sail_Feedback,Rate,Heading,Pitch,Roll,Latitude,Longitude,COG,SOG,Wind_Speed,Wind_Angle,Point_Start_Lat,Point_Start_Lon,Point_End_Lat,Point_End_Lon
1386875625,0,0,0.0,0,0,0,0,0,0,-0.0292,545.4922,6.8213,0.4212,54.885998,9.806495,108.3,5.845,1.85,335.95,0.000000,0.000000,0.000000,0.000000
1386875625,0,0,0.0,0,0,0,0,0,0,-0.0292,545.4922,6.8213,0.4212,54.885998,9.806495,108.3,5.845,1.85,335.95,0.000000,0.000000,0.000000,0.000000
1386875626,0,0,0.0,0,0,0,0,0,0,-0.0292,545.4922,6.8213,0.4212,54.885998,9.806495,108.3,5.845,1.85,335.95,0.000000,0.000000,0.000000,0.000000
1386875626,0,0,0.0,0,0,0,0,0,0,-0.0292,545.4922,6.8213,0.4212,54.885998,9.806495,108.3,5.845,1.85,335.95,0.000000,0.000000,0.000000,0.000000
1386875626,0,0,0.0,0,0,0,0,0,0,-0.0292,545.4922,6.8213,0.4212,54.885998,9.806495,108.3,5.845,1.85,335.95,0.000000,0.000000,0.000000,0.000000
1386875626,0,0,0.0,0,0,0,0,0,0,-0.0292,545.4922,6.8213,0.4212,54.885998,9.806495,108.3,5.845,1.85,335.95,0.000000,0.000000,0.000000,0.000000
1386875627,0,0,0.0,0,0,0,0,0,0,-0.0292,545.4922,6.8213,0.4212,54.885998,9.806495,108.3,5.845,1.85,335.95,0.000000,0.000000,0.000000,0.000000
1386875627,0,0,0.0,0,0,0,0,0,0,-0.0292,545.4922,6.8213,0.4212,54.885998,9.806495,108.3,5.845,1.85,335.95,0.000000,0.000000,0.000000,0.000000
1386875627,0,0,0.0,0,0,0,0,0,0,-0.0292,545.4922,6.8213,0.4212,54.885998,9.806495,108.3,5.845,1.85,335.95,0.000000,0.000000,0.000000,0.000000
1386875627,0,0,0.0,0,0,0,0,0,0,-0.0292,545.4922,6.8213,0.4212,54.885998,9.806495,108.3,5.845,1.85,335.95,0.000000,0.000000,0.000000,0.000000
1386875628,0,0,0.0,0,0,0,0,0,0,-0.0292,545.4922,6.8213,0.4212,54.885998,9.806495,108.3,5.845,1.85,335.95,0.000000,0.000000,0.000000,0.000000
1386875628,0,0,0.0,0,0,0,0,0,0,-0.0292,545.4922,6.8213,0.4212,54.885998,9.806495,108.3,5.845,1.85,335.95,0.000000,0.000000,0.000000,0.000000
1386875628,4,0,0.0,0,0,0,0,0,0,-0.0292,545.4922,6.8213,0.4212,54.885998,9.806495,108.3,5.845,1.85,335.95,0.000000,0.000000,0.000000,0.000000
1386875628,1,0,485.9,0,35,4,0,409,425,-0.0292,536.1589,6.8213,0.4212,54.885979,9.806497,108.3,5.845,1.85,335.95,54.885998,9.806495,54.895069,9.793790
1386875629,1,0,485.9,0,35,8,0,409,400,-0.0292,526.8256,6.8213,0.4212,54.885960,9.806503,108.3,5.845,1.85,335.95,54.885998,9.806495,54.895069,9.793790
1386875629,1,0,485.9,0,35,12,0,409,425,-0.0292,517.4923,6.8213,0.4212,54.885944,9.806516,108.3,5.845,1.85,335.95,54.885998,9.806495,54.895069,9.793790
1386875629,1,0,485.9,0,32,16,0,0,400,-0.0292,508.9590,6.8213,0.4212,54.885933,9.806532,108.3,5.845,1.85,335.95,54.885998,9.806495,54.895069,9.793790
1386875629,1,0,485.9,0,23,20,0,0,375,-0.0292,502.8257,6.8213,0.4212,54.885918,9.806551,108.3,5.845,1.85,335.95,54.885998,9.806495,54.895069,9.793790
1386875630,1,0,485.9,0,17,16,0,409,400,-0.0292,498.2923,6.8213,0.4212,54.885906,9.806572,108.3,5.845,1.85,335.95,54.885998,9.806495,54.895069,9.793790
1386875630,1,0,485.9,0,12,12,0,409,425,-0.0292,495.0923,6.8213,0.4212,54.885895,9.806594,108.3,5.845,1.85,335.95,54.885998,9.806495,54.895069,9.793790
1386875630,1,0,485.9,0,9,8,0,409,400,-0.0292,492.6923,6.8213,0.4212,54.885883,9.806617,108.3,5.845,1.85,335.95,54.885998,9.806495,54.895069,9.793790
1386875630,1,0,485.9,0,7,4,0,409,425,-0.0292,490.8257,6.8213,0.4212,54.885872,9.806641,108.3,5.845,1.85,335.95,54.885998,9.806495,54.895069,9.793790
1386875631,1,0,485.9,0,5,8,0,409,400,-0.0292,489.4923,6.8213,0.4212,54.885857,9.806665,108.3,5.845,1.85,335.95,54.885998,9.806495,54.895069,9.793790
1386875631,1,0,485.9,0,4,4,0,409,425,-0.0292,488.4256,6.8213,0.4212,54.885845,9.806690,108.3,5.845,1.85,335.95,54.885998,9.806495,54.895069,9.793790
1386875631,1,0,485.9,0,2,0,0,409,400,-0.0292,487.8923,6.8213,0.4212,54.885838,9.806715,108.3,5.845,1.85,335.95,54.885998,9.806495,54.895069,9.793790
1386875631,1,0,485.9,0,2,4,0,409,425,-0.0292,487.3590,6.8213,0.4212,54.885826,9.806740,108.3,5.845,1.85,335.95,54.885998,9.806495,54.895069,9.793790
1386875632,1,0,485.9,0,1,0,0,409,400,-0.0292,487.0923,6.8213,0.4212,54.885815,9.806765,108.3,5.845,1.85,335.95,54.885998,9.806495,54.895069,9.793790
1386875632,1,0,485.9,0,1,4,0,409,425,-0.0292,486.8257,6.8213,0.4212,54.885803,9.806789,108.3,5.845,1.85,335.95,54.885998,9.806495,54.895069,9.793790
1386875632,1,0,485.9,0,1,0,0,409,400,-0.0292,486.5590,6.8213,0.4212,54.885792,9.806814,108.3,5.845,1.85,335.95,54.885998,9.806495,54.895069,9.793790
1386875632,1,0,485.9,0,1,4,0,409,425,-0.0292,486.2923,6.8213,0.4212,54.885784,9.806840,108.3,5.845,1.85,335.95,54.885998,9.806495,54.895069,9.793790
1386875633,1,0,485.9,0,0,0,0,409,400,-0.0292,486.2923,6.8213,0.4212,54.885773,9.806865,108.3,5.845,1.85,335.95,54.885998,9.806495,54.895069,9.793790
1386875633,1,0,485.9,0,0,4,0,409,425,-0.0292,486.2923,6.8213,0.4212,54.885761,9.806890,108.3,5.845,1.85,335.95,54.885998,9.806495,54.895069,9.793790
1386875633,1,0,485.9,0,0,0,0,409,400,-0.0292,486.2923,6.8213,0.4212,54.885750,9.806915,108.3,5.845,1.85,335.95,54.885998,9.806495,54.895069,9.793790
1386875633,1,0,485.9,0,0,4,0,0,375,-0.0292,486.2923,6.8213,0.4212,54.885738,9.806940,108.3,5.845,1.85,335.95,54.885998,9.806495,54.895069,9.793790
1386875634,1,0,485.9,0,0,0,0,0,350,-0.0292,486.2923,6.8213,0.4212,54.885727,9.806966,108.3,5.845,1.85,335.95,54.885998,9.806495,54.895069,9.793790
1386875634,1,0,485.9,0,0,4,0,0,325,-0.0292,486.2923,6.8213,0.4212,54.885715,9.806991,108.3,5.845,1.85,335.95,54.885998,9.806495,54.895069,9.793790
1386875634,1,0,485.9,0,0,0,0,0,300,-0.0292,486.2923,6.8213,0.4212,54.885704,9.807016,108.3,5.845,1.85,335.95,54.885998,9.806495,54.895069,9.793790
1386875634,1,0,485.9,0,0,4,0,0,275,-0.0292,486.2923,6.8213,0.4212,54.885693,9.807041,108.3,5.845,1.85,335.95,54.885998,9.806495,54.895069,9.793790
1386875635,1,0,485.9,0,0,0,0,0,250,-0.0292,486.2923,6.8213,0.4212,54.885685,9.807066,108.3,5.845,1.85,335.95,54.885998,9.806495,54.895069,9.793790
1386875635,1,0,485.9,0,0,4,0,0,225,-0.0292,486.2923,6.8213,0.4212,54.885674,9.807092,108.3,5.845,1.85,335.95,54.885998,9.806495,54.895069,9.793790
1386875635,1,0,485.9,0,0,0,0,0,200,-0.0292,486.2923,6.8213,0.4212,54.885666,9.807117,108.3,5.845,1.85,335.95,54.885998,9.806495,54.895069,9.793790
1386875635,1,0,485.9,0,0,4,0,0,175,-0.0292,486.2923,6.8213,0.4212,54.885654,9.807142,108.3,5.845,1.85,335.95,54.885998,9.806495,54.895069,9.793790
1386875636,1,0,485.9,0,0,0,0,0,150,-0.0292,486.2923,6.8213,0.4212,54.885643,9.807167,108.3,5.845,1.85,335.95,54.885998,9.806495,54.895069,9.793790
1386875636,1,0,485.9,0,0,4,0,0,125,-0.0292,486.2923,6.8213,0.4212,54.885632,9.807192,108.3,5.845,1.85,335.95,54.885998,9.806495,54.895069,9.793790
1386875636,1,0,485.9,0,0,0,0,0,100,-0.0292,486.2923,6.8213,0.4212,54.885620,9.807218,108.3,5.845,1.85,335.95,54.885998,9.806495,54.895069,9.793790
1386875636,1,0,485.9,0,0,4,0,0,75,-0.0292,486.2923,6.8213,0.4212,54.885612,9.807242,108.3,5.845,1.85,335.95,54.885998,9.806495,54.895069,9.793790
1386875637,1,0,485.9,0,0,0,0,0,50,-0.0292,486.2923,6.8213,0.4212,54.885601,9.807268,108.3,5.845,1.85,335.95,54.885998,9.806495,54.895069,9.793790
1386875637,1,0,485.9,0,0,4,0,0,25,-0.0292,486.2923,6.8213,0.4212,54.885590,9.807293,108.3,5.845,1.85,335.95,54.885998,9.806495,54.895069,9.793790
1386875637,1,0,485.9,0,0,0,0,0,0,-0.0292,486.2923,6.8213,0.4212,54.885578,9.807318,108.3,5.845,1.85,335.95,54.885998,9.806495,54.895069,9.793790
1386875637,1,0,485.9,0,0,4,0,0,25,-0.0292,486.2923,6.8213,0.4212,54.885567,9.807343,108.3,5.845,1.85,335.95,54.885998,9.806495,54.895069,9.793790
1386875638,1,0,545.9,0,-35,0,0,0,0,-0.0292,495.6257,6.8213,0.4212,54.885555,9.807364,108.3,5.845,1.85,335.95,54.885998,9.806495,54.895069,9.793790
1386875638,1,0,545.9,0,-35,-4,0,0,25,-0.0292,504.9590,6.8213,0.4212,54.885540,9.807383,108.3,5.845,1.85,335.95,54.885998,9.806495,54.895069,9.793790
1386875638,1,0,545.9,0,-35,-8,0,0,0,-0.0292,514.2924,6.8213,0.4212,54.885525,9.807396,108.3,5.845,1.85,335.95,54.885998,9.806495,54.895069,9.793790
1386875638,1,0,545.9,0,-32,-12,0,0,25,-0.0292,522.8257,6.8213,0.4212,54.885509,9.807405,108.3,5.845,1.85,335.95,54.885998,9.806495,54.895069,9.793790
1386875639,1,0,545.9,0,-23,-16,0,0,0,-0.0292,528.9590,6.8213,0.4212,54.885490,9.807411,108.3,5.845,1.85,335.95,54.885998,9.806495,54.895069,9.793790
1386875639,1,0,545.9,0,-17,-20,0,0,25,-0.0292,533.4924,6.8213,0.4212,54.885471,9.807415,108.3,5.845,1.85,335.95,54.885998,9.806495,54.895069,9.793790
1386875639,1,0,545.9,0,-12,-16,0,0,0,-0.0292,536.6924,6.8213,0.4212,54.885456,9.807417,108.3,5.845,1.85,335.95,54.885998,9.806495,54.895069,9.793790
1386875639,1,0,545.9,0,-9,-12,0,0,25,-0.0292,539.0924,6.8213,0.4212,54.885437,9.807418,108.3,5.845,1.85,335.95,54.885998,9.806495,54.895069,9.793790
1386875640,1,0,545.9,0,-7,-8,0,409,50,-0.0292,540.9590,6.8213,0.4212,54.885418,9.807418,108.3,5.845,1.85,335.95,54.885998,9.806495,54.895069,9.793790
1386875640,1,0,545.9,0,-5,-4,0,409,75,-0.0292,542.2924,6.8213,0.4212,54.885399,9.807417,108.3,5.845,1.85,335.95,54.885998,9.806495,54.895069,9.793790
1386875640,1,0,545.9,0,-4,0,0,409,100,-0.0292,543.3590,6.8213,0.4212,54.885384,9.807416,108.3,5.845,1.85,335.95,54.885998,9.806495,54.895069,9.793790
1386875640,1,0,545.9,0,-3,-4,0,409,125,-0.0292,544.1590,6.8213,0.4212,54.885365,9.807414,108.3,5.845,1.85,335.95,54.885998,9.806495,54.895069,9.793790
1386875641,1,0,545.9,0,-2,0,0,409,150,-0.0292,544.6923,6.8213,0.4212,54.885345,9.807412,108.3,5.845,1.85,335.95,54.885998,9.806495,54.895069,9.793790
1386875641,1,0,545.9,0,-1,-4,0,409,175,-0.0292,544.9590,6.8213,0.4212,54.885326,9.807409,108.3,5.845,1.85,335.95,54.885998,9.806495,54.895069,9.793790
1386875641,1,0,545.9,0,-1,0,0,409,200,-0.0292,545.2256,6.8213,0.4212,54.885311,9.807406,108.3,5.845,1.85,335.95,54.885998,9.806495,54.895069,9.793790
1386875641,1,0,545.9,0,-1,-4,0,409,225,-0.0292,545.4923,6.8213,0.4212,54.885292,9.807404,108.3,5.845,1.85,335.95,54.885998,9.806495,54.895069,9.793790
1386875642,1,0,545.9,0,0,0,0,409,250,-0.0292,545.4923,6.8213,0.4212,54.885273,9.807401,108.3,5.845,1.85,335.95,54.885998,9.806495,54.895069,9.793790
1386875642,1,0,545.9,0,0,4,0,409,275,-0.0292,545.4923,6.8213,0.4212,54.885258,9.807398,108.3,5.845,1.85,335.95,54.885998,9.806495,54.895069,9.793790
1386875642,1,0,545.9,0,0,0,0,409,300,-0.0292,545.4923,6.8213,0.4212,54.885239,9.807395,108.3,5.845,1.85,335.95,54.885998,9.806495,54.895069,9.793790
1386875642,1,0,545.9,0,0,4,0,409,325,-0.0292,545.4923,6.8213,0.4212,54.885220,9.807392,108.3,5.845,1.85,335.95,54.885998,9.806495,54.895069,9.793790
1386875643,1,0,545.9,0,0,0,0,409,350,-0.0292,545.4923,6.8213,0.4212,54.885201,9.807389,108.3,5.845,1.85,335.95,54.885998,9.806495,54.895069,9.793790
1386875643,1,0,545.9,0,0,4,0,409,375,-0.0292,545.4923,6.8213,0.4212,54.885185,9.807386,108.3,5.845,1.85,335.95,54.885998,9.806495,54.895069,9.793790
1386875643,1,0,545.9,0,0,0,0,409,400,-0.0292,545.4923,6.8213,0.4212,54.885166,9.807384,108.3,5.845,1.85,335.95,54.885998,9.806495,54.895069,9.793790
1386875643,1,0,545.9,0,0,4,0,409,425,-0.0292,545.4923,6.8213,0.4212,54.885147,9.807381,108.3,5.845,1.85,335.95,54.885998,9.806495,54.895069,9.793790
1386875644,1,0,545.9,0,0,0,0,409,400,-0.0292,545.4923,6.8213,0.4212,54.885128,9.807377,108.3,5.845,1.85,335.95,54.885998,9.806495,54.895069,9.793790
1386875644,1,0,545.9,0,0,4,0,409,425,-0.0292,545.4923,6.8213,0.4212,54.885113,9.807374,108.3,5.845,1.85,335.95,54.885998,9.806495,54.895069,9.793790
1386875644,1,0,545.9,0,0,0,0,409,400,-0.0292,545.4923,6.8213,0.4212,54.885094,9.807371,108.3,5.845,1.85,335.95,54.885998,9.806495,54.895069,9.793790
1386875644,1,0,545.9,0,0,4,0,409,425,-0.0292,545.4923,6.8213,0.4212,54.885075,9.807368,108.3,5.845,1.85,335.95,54.885998,9.806495,54.895069,9.793790
1386875645,1,0,545.9,0,0,0,0,409,400,-0.0292,545.4923,6.8213,0.4212,54.885056,9.807365,108.3,5.845,1.85,335.95,54.885998,9.806495,54.895069,9.793790
1386875645,1,0,545.9,0,0,4,0,409,425,-0.0292,545.4923,6.8213,0.4212,54.885040,9.807363,108.3,5.845,1.85,335.95,54.885998,9.806495,54.895069,9.793790
1386875645,1,0,545.9,0,0,0,0,409,400,-0.0292,545.4923,6.8213,0.4212,54.885021,9.807360,108.3,5.845,1.85,335.95,54.885998,9.806495,54.895069,9.793790
1386875645,1,0,545.9,0,0,4,0,409,425,-0.0292,545.4923,6.8213,0.4212,54.885002,9.807357,108.3,5.845,1.85,335.95,54.885998,9.806495,54.895069,9.793790
1386875646,1,0,545.9,0,0,0,0,409,400,-0.0292,545.4923,6.8213,0.4212,54.884987,9.807354,108.3,5.845,1.85,335.95,54.885998,9.806495,54.895069,9.793790
1386875646,1,0,545.9,0,0,4,0,409,425,-0.0292,545.4923,6.8213,0.4212,54.884968,9.807351,108.3,5.845,1.85,335.95,54.885998,9.806495,54.895069,9.793790
1386875646,1,0,545.9,0,0,0,0,409,400,-0.0292,545.4923,6.8213,0.4212,54.884949,9.807348,108.3,5.845,1.85,335.95,54.885998,9.806495,54.895069,9.793790
1386875646,1,0,545.9,0,0,4,0,409,425,-0.0292,545.4923,6.8213,0.4212,54.884930,9.807345,108.3,5.845,1.85,335.95,54.885998,9.806495,54.895069,9.793790
1386875647,1,0,545.9,0,0,0,0,409,400,-0.0292,545.4923,6.8213,0.4212,54.884914,9.807343,108.3,5.845,1.85,335.95,54.885998,9.806495,54.895069,9.793790
1386875647,1,0,545.9,0,0,4,0,409,425,-0.0292,545.4923,6.8213,0.4212,54.884895,9.807340,108.3,5.845,1.85,335.95,54.885998,9.806495,54.895069,9.793790
1386875647,1,0,545.9,0,0,0,0,409,400,-0.0292,545.4923,6.8213,0.4212,54.884876,9.807336,108.3,5.845,1.85,335.95,54.885998,9.806495,54.895069,9.793790
1386875647,1,0,545.9,0,0,4,0,409,425,-0.0292,545.4923,6.8213,0.4212,54.884857,9.807332,108.3,5.845,1.85,335.95,54.885998,9.806495,54.895069,9.793790
1386875648,1,0,545.9,0,0,0,0,409,400,-0.0292,545.4923,6.8213,0.4212,54.884842,9.807329,108.3,5.845,1.85,335.95,54.885998,9.806495,54.895069,9.793790
1386875648,0,0,545.9,0,0,0,0,409,400,-0.0292,545.4923,6.8213,0.4212,54.884842,9.807329,108.3,5.845,1.85,335.95,54.885998,9.806495,54.895069,9.793790
1386875648,0,0,545.9,0,0,0,0,409,400,-0.0292,545.4923,6.8213,0.4212,54.884842,9.807329,108.3,5.845,1.85,335.95,54.885998,9.806495,54.895069,9.793790
1386875648,0,0,545.9,0,0,0,0,409,400,-0.0292,545.4923,6.8213,0.4212,54.884842,9.807329,108.3,5.845,1.85,335.95,54.885998,9.806495,54.895069,9.793790
1386875649,0,0,545.9,0,0,0,0,409,400,-0.0292,545.4923,6.8213,0.4212,54.884842,9.807329,108.3,5.845,1.85,335.95,54.885998,9.806495,54.895069,9.793790
1386875649,0,0,545.9,0,0,0,0,409,400,-0.0292,545.4923,6.8213,0.4212,54.884842,9.807329,108.3,5.845,1.85,335.95,54.885998,9.806495,54.895069,9.793790
1386875649,0,0,545.9,0,0,0,0,409,400,-0.0292,545.4923,6.8213,0.4212,54.884842,9.807329,108.3,5.845,1.85,335.95,54.885998,9.806495,54.895069,9.793790
1386875649,0,0,545.9,0,0,0,0,409,400,-0.0292,545.4923,6.8213,0.4212,54.884842,9.807329,108.3,5.845,1.85,335.95,54.885998,9.806495,54.895069,9.793790
1386875650,0,0,545.9,0,0,0,0,409,400,-0.0292,545.4923,6.8213,0.4212,54.884842,9.807329,108.3,5.845,1.85,335.95,54.885998,9.806495,54.895069,9.793790
1386875650,0,0,545.9,0,0,0,0,409,400,-0.0292,545.4923,6.8213,0.4212,54.884842,9.807329,108.3,5.845,1.85,335.95,54.885998,9.806495,54.895069,9.793790
