MCU_timestamp,Navigation_System,Manual_Control,Guidance_Heading,Manual_Ctrl_Rudder,Rudder_Desired_Angle,Rudder_Feedback,Manual_Ctrl_Sail,Sail_Desired_Pos,Sail_Feedback,Rate,Heading,Pitch,Roll,Latitude,Longitude,COG,SOG,Wind_Speed,Wind_Angle,Point_Start_Lat,Point_Start_Lon,Point_End_Lat,Point_End_Lon
1386885486,0,0,0.0,0,0,16,0,0,0,-0.0292,37.2244,6.8213,0.4212,54.894459,9.794345,108.3,5.845,1.85,335.95,0.000000,0.000000,0.000000,0.000000
1386885486,0,0,0.0,0,0,16,0,0,0,-0.0292,37.2244,6.8213,0.4212,54.894459,9.794345,108.3,5.845,1.85,335.95,0.000000,0.000000,0.000000,0.000000
1386885486,0,0,0.0,0,0,16,0,0,0,-0.0292,37.2244,6.8213,0.4212,54.894459,9.794345,108.3,5.845,1.85,335.95,0.000000,0.000000,0.000000,0.000000
1386885487,0,0,0.0,0,0,16,0,0,0,-0.0292,37.2244,6.8213,0.4212,54.894459,9.794345,108.3,5.845,1.85,335.95,0.000000,0.000000,0.000000,0.000000
1386885487,0,0,0.0,0,0,16,0,0,0,-0.0292,37.2244,6.8213,0.4212,54.894459,9.794345,108.3,5.845,1.85,335.95,0.000000,0.000000,0.000000,0.000000
1386885487,0,0,0.0,0,0,16,0,0,0,-0.0292,37.2244,6.8213,0.4212,54.894459,9.794345,108.3,5.845,1.85,335.95,0.000000,0.000000,0.000000,0.000000
1386885487,0,0,0.0,0,0,16,0,0,0,-0.0292,37.2244,6.8213,0.4212,54.894459,9.794345,108.3,5.845,1.85,335.95,0.000000,0.000000,0.000000,0.000000
1386885488,0,0,0.0,0,0,16,0,0,0,-0.0292,37.2244,6.8213,0.4212,54.894459,9.794345,108.3,5.845,1.85,335.95,0.000000,0.000000,0.000000,0.000000
1386885488,0,0,0.0,0,0,16,0,0,0,-0.0292,37.2244,6.8213,0.4212,54.894459,9.794345,108.3,5.845,1.85,335.95,0.000000,0.000000,0.000000,0.000000
1386885488,0,0,0.0,0,0,16,0,0,0,-0.0292,37.2244,6.8213,0.4212,54.894459,9.794345,108.3,5.845,1.85,335.95,0.000000,0.000000,0.000000,0.000000
1386885488,0,0,0.0,0,0,16,0,0,0,-0.0292,37.2244,6.8213,0.4212,54.894459,9.794345,108.3,5.845,1.85,335.95,0.000000,0.000000,0.000000,0.000000
1386885489,0,0,0.0,0,0,16,0,0,0,-0.0292,37.2244,6.8213,0.4212,54.894459,9.794345,108.3,5.845,1.85,335.95,0.000000,0.000000,0.000000,0.000000
1386885489,0,0,0.0,0,0,16,0,0,0,-0.0292,37.2244,6.8213,0.4212,54.894459,9.794345,108.3,5.845,1.85,335.95,0.000000,0.000000,0.000000,0.000000
1386885489,0,0,0.0,0,0,16,0,0,0,-0.0292,37.2244,6.8213,0.4212,54.894459,9.794345,108.3,5.845,1.85,335.95,0.000000,0.000000,0.000000,0.000000
1386885489,0,0,0.0,0,0,16,0,0,0,-0.0292,37.2244,6.8213,0.4212,54.894459,9.794345,108.3,5.845,1.85,335.95,0.000000,0.000000,0.000000,0.000000
1386885490,0,0,0.0,0,0,16,0,0,0,-0.0292,37.2244,6.8213,0.4212,54.894459,9.794345,108.3,5.845,1.85,335.95,0.000000,0.000000,0.000000,0.000000
1386885490,0,0,0.0,0,0,16,0,0,0,-0.0292,37.2244,6.8213,0.4212,54.894459,9.794345,108.3,5.845,1.85,335.95,0.000000,0.000000,0.000000,0.000000
1386885490,0,0,0.0,0,0,16,0,0,0,-0.0292,37.2244,6.8213,0.4212,54.894459,9.794345,108.3,5.845,1.85,335.95,0.000000,0.000000,0.000000,0.000000
1386885490,0,0,0.0,0,0,16,0,0,0,-0.0292,37.2244,6.8213,0.4212,54.894459,9.794345,108.3,5.845,1.85,335.95,0.000000,0.000000,0.000000,0.000000
1386885491,0,0,0.0,0,0,16,0,0,0,-0.0292,37.2244,6.8213,0.4212,54.894459,9.794345,108.3,5.845,1.85,335.95,0.000000,0.000000,0.000000,0.000000
1386885491,0,0,0.0,0,0,16,0,0,0,-0.0292,37.2244,6.8213,0.4212,54.894459,9.794345,108.3,5.845,1.85,335.95,0.000000,0.000000,0.000000,0.000000
1386885491,0,0,0.0,0,0,16,0,0,0,-0.0292,37.2244,6.8213,0.4212,54.894459,9.794345,108.3,5.845,1.85,335.95,0.000000,0.000000,0.000000,0.000000
1386885491,0,0,0.0,0,0,16,0,0,0,-0.0292,37.2244,6.8213,0.4212,54.894459,9.794345,108.3,5.845,1.85,335.95,0.000000,0.000000,0.000000,0.000000
1386885492,0,0,0.0,0,0,16,0,0,0,-0.0292,37.2244,6.8213,0.4212,54.894459,9.794345,108.3,5.845,1.85,335.95,0.000000,0.000000,0.000000,0.000000
1386885492,0,0,0.0,0,0,16,0,0,0,-0.0292,37.2244,6.8213,0.4212,54.894459,9.794345,108.3,5.845,1.85,335.95,0.000000,0.000000,0.000000,0.000000
1386885492,0,0,0.0,0,0,16,0,0,0,-0.0292,37.2244,6.8213,0.4212,54.894459,9.794345,108.3,5.845,1.85,335.95,0.000000,0.000000,0.000000,0.000000
1386885492,0,0,0.0,0,0,16,0,0,0,-0.0292,37.2244,6.8213,0.4212,54.894459,9.794345,108.3,5.845,1.85,335.95,0.000000,0.000000,0.000000,0.000000
1386885493,0,0,0.0,0,0,16,0,0,0,-0.0292,37.2244,6.8213,0.4212,54.894459,9.794345,108.3,5.845,1.85,335.95,0.000000,0.000000,0.000000,0.000000
1386885493,0,0,0.0,0,0,16,0,0,0,-0.0292,37.2244,6.8213,0.4212,54.895607,9.790385,108.3,5.845,1.85,335.95,0.000000,0.000000,0.000000,0.000000
1386885493,0,0,0.0,0,0,16,0,0,0,-0.0292,37.2244,6.8213,0.4212,54.895607,9.790385,108.3,5.845,1.85,335.95,0.000000,0.000000,0.000000,0.000000
1386885493,0,0,0.0,0,0,16,0,0,0,-0.0292,37.2244,6.8213,0.4212,54.895607,9.790385,108.3,5.845,1.85,335.95,0.000000,0.000000,0.000000,0.000000
1386885494,0,0,0.0,0,0,16,0,0,0,-0.0292,37.2244,6.8213,0.4212,54.895607,9.790385,108.3,5.845,1.85,335.95,0.000000,0.000000,0.000000,0.000000
1386885494,0,0,0.0,0,0,16,0,0,0,-0.0292,37.2244,6.8213,0.4212,54.895607,9.790385,108.3,5.845,1.85,335.95,0.000000,0.000000,0.000000,0.000000
1386885494,0,0,0.0,0,0,16,0,0,0,-0.0292,37.2244,6.8213,0.4212,54.895607,9.790385,108.3,5.845,1.85,335.95,0.000000,0.000000,0.000000,0.000000
1386885494,0,0,0.0,0,0,16,0,0,0,-0.0292,37.2244,6.8213,0.4212,54.895607,9.790385,108.3,5.845,1.85,335.95,0.000000,0.000000,0.000000,0.000000
1386885495,0,0,0.0,0,0,16,0,0,0,-0.0292,37.2244,6.8213,0.4212,54.895607,9.790385,108.3,5.845,1.85,335.95,0.000000,0.000000,0.000000,0.000000
1386885495,0,0,0.0,0,0,16,0,0,0,-0.0292,37.2244,6.8213,0.4212,54.895607,9.790385,108.3,5.845,1.85,335.95,0.000000,0.000000,0.000000,0.000000
1386885495,0,0,0.0,0,0,16,0,0,0,-0.0292,37.2244,6.8213,0.4212,54.895607,9.790385,108.3,5.845,1.85,335.95,0.000000,0.000000,0.000000,0.000000
1386885495,0,0,0.0,0,0,16,0,0,0,-0.0292,37.2244,6.8213,0.4212,54.895607,9.790385,108.3,5.845,1.85,335.95,0.000000,0.000000,0.000000,0.000000
1386885496,0,0,0.0,0,0,16,0,0,0,-0.0292,37.2244,6.8213,0.4212,54.895607,9.790385,108.3,5.845,1.85,335.95,0.000000,0.000000,0.000000,0.000000
1386885496,0,0,0.0,0,0,16,0,0,0,-0.0292,37.2244,6.8213,0.4212,54.895607,9.790385,108.3,5.845,1.85,335.95,0.000000,0.000000,0.000000,0.000000
1386885496,0,0,0.0,0,0,16,0,0,0,-0.0292,37.2244,6.8213,0.4212,54.895607,9.790385,108.3,5.845,1.85,335.95,0.000000,0.000000,0.000000,0.000000
1386885496,4,0,0.0,0,0,16,0,0,0,-0.0292,37.2244,6.8213,0.4212,54.895607,9.790385,108.3,5.845,1.85,335.95,0.000000,0.000000,0.000000,0.000000
1386885497,1,0,465.3,0,-35,12,0,11,250,-0.0292,46.5577,6.8213,0.4212,54.895622,9.790408,108.3,5.845,1.85,335.95,54.895607,9.790385,54.895069,9.793790
1386885497,1,0,465.8,0,-35,8,0,63,225,-0.0292,55.8910,6.8213,0.4212,54.895634,9.790434,108.3,5.845,1.85,335.95,54.895607,9.790385,54.895069,9.793790
1386885497,1,0,466.2,0,-35,4,0,138,200,-0.0292,65.2244,6.8213,0.4212,54.895645,9.790462,108.3,5.845,1.85,335.95,54.895607,9.790385,54.895069,9.793790
1386885497,1,0,466.7,0,-35,0,0,222,225,-0.0292,74.5577,6.8213,0.4212,54.895649,9.790492,108.3,5.845,1.85,335.95,54.895607,9.790385,54.895069,9.793790
1386885498,1,0,466.9,0,-32,-4,0,308,250,-0.0292,83.0910,6.8213,0.4212,54.895653,9.790523,108.3,5.845,1.85,335.95,54.895607,9.790385,54.895069,9.793790
1386885498,1,0,467.2,0,-24,-8,0,384,275,-0.0292,89.4910,6.8213,0.4212,54.895653,9.790554,108.3,5.845,1.85,335.95,54.895607,9.790385,54.895069,9.793790
1386885498,1,0,467.3,0,-18,-12,0,440,300,-0.0292,94.2910,6.8213,0.4212,54.895653,9.790586,108.3,5.845,1.85,335.95,54.895607,9.790385,54.895069,9.793790
1386885498,1,0,467.5,0,-13,-16,0,480,325,-0.0292,97.7577,6.8213,0.4212,54.895653,9.790616,108.3,5.845,1.85,335.95,54.895607,9.790385,54.895069,9.793790
1386885499,1,0,467.6,0,-10,-12,0,500,350,-0.0292,100.4244,6.8213,0.4212,54.895649,9.790648,108.3,5.845,1.85,335.95,54.895607,9.790385,54.895069,9.793790
1386885499,0,0,467.6,0,-10,-12,0,500,350,-0.0292,100.4244,6.8213,0.4212,54.895649,9.790648,108.3,5.845,1.85,335.95,54.895607,9.790385,54.895069,9.793790
1386885499,0,0,467.6,0,-10,-12,0,500,350,-0.0292,100.4244,6.8213,0.4212,54.895649,9.790648,108.3,5.845,1.85,335.95,54.895607,9.790385,54.895069,9.793790
1386885499,0,0,467.6,0,-10,-12,0,500,350,-0.0292,100.4244,6.8213,0.4212,54.895649,9.790648,108.3,5.845,1.85,335.95,54.895607,9.790385,54.895069,9.793790
1386885500,0,0,467.6,0,-10,-12,0,500,350,-0.0292,100.4244,6.8213,0.4212,54.895649,9.790648,108.3,5.845,1.85,335.95,54.895607,9.790385,54.895069,9.793790
1386885500,0,0,467.6,0,-10,-12,0,500,350,-0.0292,100.4244,6.8213,0.4212,54.895649,9.790648,108.3,5.845,1.85,335.95,54.895607,9.790385,54.895069,9.793790
1386885500,0,0,467.6,0,-10,-12,0,500,350,-0.0292,100.4244,6.8213,0.4212,54.895649,9.790648,108.3,5.845,1.85,335.95,54.895607,9.790385,54.895069,9.793790
1386885500,4,0,467.6,0,-10,-12,0,500,350,-0.0292,100.4244,6.8213,0.4212,54.895649,9.790648,108.3,5.845,1.85,335.95,54.895607,9.790385,54.895069,9.793790
1386885501,1,0,467.7,0,-7,-8,0,500,375,-0.0292,102.2910,6.8213,0.4212,54.895645,9.790678,108.3,5.845,1.85,335.95,54.895649,9.790648,54.895069,9.793790
1386885501,1,0,467.7,0,-5,-4,0,500,400,-0.0292,103.6244,6.8213,0.4212,54.895641,9.790709,108.3,5.845,1.85,335.95,54.895649,9.790648,54.895069,9.793790
1386885501,1,0,467.8,0,-4,0,0,500,425,-0.0292,104.6910,6.8213,0.4212,54.895638,9.790738,108.3,5.845,1.85,335.95,54.895649,9.790648,54.895069,9.793790
1386885501,1,0,467.8,0,-3,-4,0,500,450,-0.0292,105.4911,6.8213,0.4212,54.895630,9.790769,108.3,5.845,1.85,335.95,54.895649,9.790648,54.895069,9.793790
1386885502,1,0,467.8,0,-2,0,0,500,475,-0.0292,106.0244,6.8213,0.4212,54.895626,9.790799,108.3,5.845,1.85,335.95,54.895649,9.790648,54.895069,9.793790
1386885502,1,0,467.8,0,-2,-4,0,500,500,-0.0292,106.5577,6.8213,0.4212,54.895622,9.790829,108.3,5.845,1.85,335.95,54.895649,9.790648,54.895069,9.793790
1386885502,1,0,467.9,0,-1,0,0,500,525,-0.0292,106.8244,6.8213,0.4212,54.895618,9.790859,108.3,5.845,1.85,335.95,54.895649,9.790648,54.895069,9.793790
1386885502,1,0,467.9,0,-1,-4,0,500,500,-0.0292,107.0911,6.8213,0.4212,54.895611,9.790889,108.3,5.845,1.85,335.95,54.895649,9.790648,54.895069,9.793790
1386885503,1,0,467.9,0,-1,0,0,500,525,-0.0292,107.3577,6.8213,0.4212,54.895603,9.790918,108.3,5.845,1.85,335.95,54.895649,9.790648,54.895069,9.793790
1386885503,1,0,467.8,0,0,4,0,500,500,-0.0292,107.3577,6.8213,0.4212,54.895599,9.790948,108.3,5.845,1.85,335.95,54.895649,9.790648,54.895069,9.793790
1386885503,1,0,467.9,0,-1,0,0,500,525,-0.0292,107.6244,6.8213,0.4212,54.895596,9.790977,108.3,5.845,1.85,335.95,54.895649,9.790648,54.895069,9.793790
1386885503,1,0,467.9,0,0,4,0,500,500,-0.0292,107.6244,6.8213,0.4212,54.895588,9.791007,108.3,5.845,1.85,335.95,54.895649,9.790648,54.895069,9.793790
1386885504,1,0,467.9,0,0,0,0,500,525,-0.0292,107.6244,6.8213,0.4212,54.895580,9.791037,108.3,5.845,1.85,335.95,54.895649,9.790648,54.895069,9.793790
1386885504,1,0,467.8,0,0,4,0,500,500,-0.0292,107.6244,6.8213,0.4212,54.895576,9.791067,108.3,5.845,1.85,335.95,54.895649,9.790648,54.895069,9.793790
1386885504,1,0,467.9,0,0,0,0,500,525,-0.0292,107.6244,6.8213,0.4212,54.895573,9.791097,108.3,5.845,1.85,335.95,54.895649,9.790648,54.895069,9.793790
1386885504,1,0,467.9,0,0,4,0,500,500,-0.0292,107.6244,6.8213,0.4212,54.895569,9.791126,108.3,5.845,1.85,335.95,54.895649,9.790648,54.895069,9.793790
1386885505,0,0,467.9,0,0,4,0,500,500,-0.0292,107.6244,6.8213,0.4212,54.895569,9.791126,108.3,5.845,1.85,335.95,54.895649,9.790648,54.895069,9.793790
1386885505,0,0,467.9,0,0,4,0,500,500,-0.0292,107.6244,6.8213,0.4212,54.895569,9.791126,108.3,5.845,1.85,335.95,54.895649,9.790648,54.895069,9.793790
1386885505,0,0,467.9,0,0,4,0,500,500,-0.0292,107.6244,6.8213,0.4212,54.895569,9.791126,108.3,5.845,1.85,335.95,54.895649,9.790648,54.895069,9.793790
1386885505,0,0,467.9,0,0,4,0,500,500,-0.0292,107.6244,6.8213,0.4212,54.895569,9.791126,108.3,5.845,1.85,335.95,54.895649,9.790648,54.895069,9.793790
1386885506,0,0,467.9,0,0,4,0,500,500,-0.0292,107.6244,6.8213,0.4212,54.895569,9.791126,108.3,5.845,1.85,335.95,54.895649,9.790648,54.895069,9.793790
1386885506,0,0,467.9,0,0,4,0,500,500,-0.0292,107.6244,6.8213,0.4212,54.895569,9.791126,108.3,5.845,1.85,335.95,54.895649,9.790648,54.895069,9.793790
1386885506,0,0,467.9,0,0,4,0,500,500,-0.0292,107.6244,6.8213,0.4212,54.898312,9.790406,108.3,5.845,1.85,335.95,54.895649,9.790648,54.895069,9.793790
1386885506,0,0,467.9,0,0,4,0,500,500,-0.0292,107.6244,6.8213,0.4212,54.898312,9.790406,108.3,5.845,1.85,335.95,54.895649,9.790648,54.895069,9.793790
1386885507,0,0,467.9,0,0,4,0,500,500,-0.0292,107.6244,6.8213,0.4212,54.898312,9.790406,108.3,5.845,1.85,335.95,54.895649,9.790648,54.895069,9.793790
1386885507,0,0,467.9,0,0,4,0,500,500,-0.0292,107.6244,6.8213,0.4212,54.898312,9.790406,108.3,5.845,1.85,335.95,54.895649,9.790648,54.895069,9.793790
1386885507,0,0,467.9,0,0,4,0,500,500,-0.0292,107.6244,6.8213,0.4212,54.898312,9.790406,108.3,5.845,1.85,335.95,54.895649,9.790648,54.895069,9.793790
1386885507,0,0,467.9,0,0,4,0,500,500,-0.0292,107.6244,6.8213,0.4212,54.898312,9.790406,108.3,5.845,1.85,335.95,54.895649,9.790648,54.895069,9.793790
1386885508,4,0,467.9,0,0,4,0,500,500,-0.0292,107.6244,6.8213,0.4212,54.898312,9.790406,108.3,5.845,1.85,335.95,54.895649,9.790648,54.895069,9.793790
1386885508,1,0,485.9,0,-18,0,0,500,525,-0.0292,112.4244,6.8213,0.4212,54.898308,9.790435,108.3,5.845,1.85,335.95,54.898312,9.790406,54.895069,9.793790
1386885508,1,0,485.9,0,-14,-4,0,409,500,-0.0292,116.1577,6.8213,0.4212,54.898300,9.790463,108.3,5.845,1.85,335.95,54.898312,9.790406,54.895069,9.793790
1386885508,1,0,485.9,0,-10,-8,0,409,475,-0.0292,118.8244,6.8213,0.4212,54.898293,9.790491,108.3,5.845,1.85,335.95,54.898312,9.790406,54.895069,9.793790
1386885509,1,0,485.9,0,-7,-4,0,409,450,-0.0292,120.6911,6.8213,0.4212,54.898281,9.790518,108.3,5.845,1.85,335.95,54.898312,9.790406,54.895069,9.793790
1386885509,1,0,485.9,0,-5,-8,0,409,425,-0.0292,122.0244,6.8213,0.4212,54.898273,9.790545,108.3,5.845,1.85,335.95,54.898312,9.790406,54.895069,9.793790
1386885509,1,0,485.9,0,-4,-4,0,409,400,-0.0292,123.0911,6.8213,0.4212,54.898262,9.790570,108.3,5.845,1.85,335.95,54.898312,9.790406,54.895069,9.793790
1386885509,1,0,485.9,0,-3,0,0,409,425,-0.0292,123.8911,6.8213,0.4212,54.898254,9.790597,108.3,5.845,1.85,335.95,54.898312,9.790406,54.895069,9.793790
1386885510,1,0,485.9,0,-2,-4,0,409,400,-0.0292,124.4244,6.8213,0.4212,54.898243,9.790623,108.3,5.845,1.85,335.95,54.898312,9.790406,54.895069,9.793790
1386885510,1,0,485.9,0,-2,0,0,409,425,-0.0292,124.9577,6.8213,0.4212,54.898232,9.790648,108.3,5.845,1.85,335.95,54.898312,9.790406,54.895069,9.793790
1386885510,1,0,485.9,0,-1,-4,0,409,400,-0.0292,125.2244,6.8213,0.4212,54.898220,9.790673,108.3,5.845,1.85,335.95,54.898312,9.790406,54.895069,9.793790
1386885510,1,0,485.9,0,-1,0,0,409,425,-0.0292,125.4911,6.8213,0.4212,54.898209,9.790698,108.3,5.845,1.85,335.95,54.898312,9.790406,54.895069,9.793790
1386885511,1,0,485.9,0,0,4,0,409,400,-0.0292,125.4911,6.8213,0.4212,54.898197,9.790724,108.3,5.845,1.85,335.95,54.898312,9.790406,54.895069,9.793790
1386885511,1,0,485.9,0,0,0,0,409,425,-0.0292,125.4911,6.8213,0.4212,54.898186,9.790750,108.3,5.845,1.85,335.95,54.898312,9.790406,54.895069,9.793790
1386885511,1,0,485.9,0,0,4,0,409,400,-0.0292,125.4911,6.8213,0.4212,54.898178,9.790774,108.3,5.845,1.85,335.95,54.898312,9.790406,54.895069,9.793790
1386885511,1,0,485.9,0,0,0,0,409,425,-0.0292,125.4911,6.8213,0.4212,54.898167,9.790800,108.3,5.845,1.85,335.95,54.898312,9.790406,54.895069,9.793790
1386885512,1,0,485.9,0,0,4,0,409,400,-0.0292,125.4911,6.8213,0.4212,54.898159,9.790825,108.3,5.845,1.85,335.95,54.898312,9.790406,54.895069,9.793790
1386885512,1,0,485.9,0,0,0,0,409,425,-0.0292,125.4911,6.8213,0.4212,54.898148,9.790851,108.3,5.845,1.85,335.95,54.898312,9.790406,54.895069,9.793790
1386885512,1,0,485.9,0,0,4,0,409,400,-0.0292,125.4911,6.8213,0.4212,54.898136,9.790876,108.3,5.845,1.85,335.95,54.898312,9.790406,54.895069,9.793790
1386885512,1,0,485.9,0,0,0,0,409,425,-0.0292,125.4911,6.8213,0.4212,54.898129,9.790901,108.3,5.845,1.85,335.95,54.898312,9.790406,54.895069,9.793790
1386885513,1,0,485.9,0,0,4,0,409,400,-0.0292,125.4911,6.8213,0.4212,54.898117,9.790927,108.3,5.845,1.85,335.95,54.898312,9.790406,54.895069,9.793790
1386885513,1,0,485.9,0,0,0,0,409,425,-0.0292,125.4911,6.8213,0.4212,54.898109,9.790952,108.3,5.845,1.85,335.95,54.898312,9.790406,54.895069,9.793790
1386885513,1,0,485.9,0,0,4,0,409,400,-0.0292,125.4911,6.8213,0.4212,54.898098,9.790977,108.3,5.845,1.85,335.95,54.898312,9.790406,54.895069,9.793790
1386885513,1,0,485.9,0,0,0,0,409,425,-0.0292,125.4911,6.8213,0.4212,54.898087,9.791003,108.3,5.845,1.85,335.95,54.898312,9.790406,54.895069,9.793790
1386885514,1,0,485.9,0,0,4,0,409,400,-0.0292,125.4911,6.8213,0.4212,54.898075,9.791028,108.3,5.845,1.85,335.95,54.898312,9.790406,54.895069,9.793790
1386885514,1,0,485.9,0,0,0,0,409,425,-0.0292,125.4911,6.8213,0.4212,54.898064,9.791054,108.3,5.845,1.85,335.95,54.898312,9.790406,54.895069,9.793790
1386885514,1,0,485.9,0,0,4,0,409,400,-0.0292,125.4911,6.8213,0.4212,54.898056,9.791079,108.3,5.845,1.85,335.95,54.898312,9.790406,54.895069,9.793790
1386885514,1,0,485.9,0,0,0,0,409,425,-0.0292,125.4911,6.8213,0.4212,54.898045,9.791104,108.3,5.845,1.85,335.95,54.898312,9.790406,54.895069,9.793790
1386885515,1,0,485.9,0,0,4,0,409,400,-0.0292,125.4911,6.8213,0.4212,54.898037,9.791130,108.3,5.845,1.85,335.95,54.898312,9.790406,54.895069,9.793790
1386885515,1,0,485.9,0,0,0,0,409,425,-0.0292,125.4911,6.8213,0.4212,54.898026,9.791156,108.3,5.845,1.85,335.95,54.898312,9.790406,54.895069,9.793790
1386885515,1,0,485.9,0,0,4,0,409,400,-0.0292,125.4911,6.8213,0.4212,54.898014,9.791182,108.3,5.845,1.85,335.95,54.898312,9.790406,54.895069,9.793790
1386885515,1,0,485.9,0,0,0,0,409,425,-0.0292,125.4911,6.8213,0.4212,54.898006,9.791206,108.3,5.845,1.85,335.95,54.898312,9.790406,54.895069,9.793790
1386885516,1,0,485.9,0,0,4,0,409,400,-0.0292,125.4911,6.8213,0.4212,54.897995,9.791232,108.3,5.845,1.85,335.95,54.898312,9.790406,54.895069,9.793790
1386885516,1,0,485.9,0,0,0,0,409,425,-0.0292,125.4911,6.8213,0.4212,54.897987,9.791258,108.3,5.845,1.85,335.95,54.898312,9.790406,54.895069,9.793790
1386885516,1,0,485.9,0,0,4,0,409,400,-0.0292,125.4911,6.8213,0.4212,54.897976,9.791284,108.3,5.845,1.85,335.95,54.898312,9.790406,54.895069,9.793790
1386885516,1,0,485.9,0,0,0,0,409,425,-0.0292,125.4911,6.8213,0.4212,54.897964,9.791309,108.3,5.845,1.85,335.95,54.898312,9.790406,54.895069,9.793790
1386885517,1,0,485.9,0,0,4,0,409,400,-0.0292,125.4911,6.8213,0.4212,54.897957,9.791334,108.3,5.845,1.85,335.95,54.898312,9.790406,54.895069,9.793790
1386885517,1,0,485.9,0,0,0,0,409,425,-0.0292,125.4911,6.8213,0.4212,54.897945,9.791360,108.3,5.845,1.85,335.95,54.898312,9.790406,54.895069,9.793790
1386885517,1,0,485.9,0,0,4,0,409,400,-0.0292,125.4911,6.8213,0.4212,54.897938,9.791385,108.3,5.845,1.85,335.95,54.898312,9.790406,54.895069,9.793790
1386885517,1,0,485.9,0,0,0,0,409,425,-0.0292,125.4911,6.8213,0.4212,54.897926,9.791410,108.3,5.845,1.85,335.95,54.898312,9.790406,54.895069,9.793790
1386885518,1,0,485.9,0,0,4,0,409,400,-0.0292,125.4911,6.8213,0.4212,54.897915,9.791436,108.3,5.845,1.85,335.95,54.898312,9.790406,54.895069,9.793790
1386885518,1,0,485.9,0,0,0,0,409,425,-0.0292,125.4911,6.8213,0.4212,54.897907,9.791461,108.3,5.845,1.85,335.95,54.898312,9.790406,54.895069,9.793790
1386885518,1,0,485.9,0,0,4,0,409,400,-0.0292,125.4911,6.8213,0.4212,54.897896,9.791487,108.3,5.845,1.85,335.95,54.898312,9.790406,54.895069,9.793790
1386885518,1,0,485.9,0,0,0,0,409,425,-0.0292,125.4911,6.8213,0.4212,54.897888,9.791512,108.3,5.845,1.85,335.95,54.898312,9.790406,54.895069,9.793790
1386885519,1,0,485.9,0,0,4,0,409,400,-0.0292,125.4911,6.8213,0.4212,54.897877,9.791537,108.3,5.845,1.85,335.95,54.898312,9.790406,54.895069,9.793790
1386885519,1,0,485.9,0,0,0,0,409,425,-0.0292,125.4911,6.8213,0.4212,54.897865,9.791563,108.3,5.845,1.85,335.95,54.898312,9.790406,54.895069,9.793790
1386885519,1,0,485.9,0,0,4,0,409,400,-0.0292,125.4911,6.8213,0.4212,54.897854,9.791588,108.3,5.845,1.85,335.95,54.898312,9.790406,54.895069,9.793790
1386885519,1,0,485.9,0,0,0,0,409,425,-0.0292,125.4911,6.8213,0.4212,54.897842,9.791614,108.3,5.845,1.85,335.95,54.898312,9.790406,54.895069,9.793790
1386885520,1,0,485.9,0,0,4,0,409,400,-0.0292,125.4911,6.8213,0.4212,54.897835,9.791638,108.3,5.845,1.85,335.95,54.898312,9.790406,54.895069,9.793790
1386885520,1,0,485.9,0,0,0,0,409,425,-0.0292,125.4911,6.8213,0.4212,54.897823,9.791664,108.3,5.845,1.85,335.95,54.898312,9.790406,54.895069,9.793790
1386885520,1,0,485.9,0,0,4,0,409,400,-0.0292,125.4911,6.8213,0.4212,54.897816,9.791690,108.3,5.845,1.85,335.95,54.898312,9.790406,54.895069,9.793790
1386885520,1,0,485.9,0,0,0,0,409,425,-0.0292,125.4911,6.8213,0.4212,54.897804,9.791715,108.3,5.845,1.85,335.95,54.898312,9.790406,54.895069,9.793790
1386885521,1,0,485.9,0,0,4,0,409,400,-0.0292,125.4911,6.8213,0.4212,54.897793,9.791740,108.3,5.845,1.85,335.95,54.898312,9.790406,54.895069,9.793790
1386885521,1,0,485.9,0,0,0,0,409,425,-0.0292,125.4911,6.8213,0.4212,54.897785,9.791765,108.3,5.845,1.85,335.95,54.898312,9.790406,54.895069,9.793790
1386885521,1,0,485.9,0,0,4,0,409,400,-0.0292,125.4911,6.8213,0.4212,54.897774,9.791791,108.3,5.845,1.85,335.95,54.898312,9.790406,54.895069,9.793790
1386885521,1,0,485.9,0,0,0,0,409,425,-0.0292,125.4911,6.8213,0.4212,54.897766,9.791817,108.3,5.845,1.85,335.95,54.898312,9.790406,54.895069,9.793790
1386885522,1,0,485.9,0,0,4,0,409,400,-0.0292,125.4911,6.8213,0.4212,54.897755,9.791842,108.3,5.845,1.85,335.95,54.898312,9.790406,54.895069,9.793790
1386885522,1,0,485.9,0,0,0,0,409,425,-0.0292,125.4911,6.8213,0.4212,54.897743,9.791867,108.3,5.845,1.85,335.95,54.898312,9.790406,54.895069,9.793790
1386885522,1,0,485.9,0,0,4,0,409,400,-0.0292,125.4911,6.8213,0.4212,54.897736,9.791892,108.3,5.845,1.85,335.95,54.898312,9.790406,54.895069,9.793790
1386885522,1,0,485.9,0,0,0,0,409,425,-0.0292,125.4911,6.8213,0.4212,54.897724,9.791918,108.3,5.845,1.85,335.95,54.898312,9.790406,54.895069,9.793790
1386885523,1,0,485.9,0,0,4,0,409,400,-0.0292,125.4911,6.8213,0.4212,54.897717,9.791944,108.3,5.845,1.85,335.95,54.898312,9.790406,54.895069,9.793790
1386885523,1,0,485.9,0,0,0,0,409,425,-0.0292,125.4911,6.8213,0.4212,54.897705,9.791969,108.3,5.845,1.85,335.95,54.898312,9.790406,54.895069,9.793790
1386885523,1,0,485.9,0,0,4,0,409,400,-0.0292,125.4911,6.8213,0.4212,54.897694,9.791995,108.3,5.845,1.85,335.95,54.898312,9.790406,54.895069,9.793790
1386885523,1,0,485.9,0,0,0,0,409,425,-0.0292,125.4911,6.8213,0.4212,54.897686,9.792020,108.3,5.845,1.85,335.95,54.898312,9.790406,54.895069,9.793790
1386885524,1,0,485.9,0,0,4,0,409,400,-0.0292,125.4911,6.8213,0.4212,54.897675,9.792046,108.3,5.845,1.85,335.95,54.898312,9.790406,54.895069,9.793790
1386885524,1,0,485.9,0,0,0,0,409,425,-0.0292,125.4911,6.8213,0.4212,54.897667,9.792070,108.3,5.845,1.85,335.95,54.898312,9.790406,54.895069,9.793790
1386885524,1,0,485.9,0,0,4,0,409,400,-0.0292,125.4911,6.8213,0.4212,54.897655,9.792096,108.3,5.845,1.85,335.95,54.898312,9.790406,54.895069,9.793790
1386885525,1,0,485.9,0,0,0,0,409,425,-0.0292,125.4911,6.8213,0.4212,54.897644,9.792122,108.3,5.845,1.85,335.95,54.898312,9.790406,54.895069,9.793790
1386885525,1,0,485.9,0,0,4,0,409,400,-0.0292,125.4911,6.8213,0.4212,54.897633,9.792147,108.3,5.845,1.85,335.95,54.898312,9.790406,54.895069,9.793790
1386885525,1,0,485.9,0,0,0,0,409,425,-0.0292,125.4911,6.8213,0.4212,54.897621,9.792172,108.3,5.845,1.85,335.95,54.898312,9.790406,54.895069,9.793790
1386885525,1,0,485.9,0,0,4,0,409,400,-0.0292,125.4911,6.8213,0.4212,54.897614,9.792197,108.3,5.845,1.85,335.95,54.898312,9.790406,54.895069,9.793790
1386885526,1,0,485.9,0,0,0,0,409,425,-0.0292,125.4911,6.8213,0.4212,54.897602,9.792223,108.3,5.845,1.85,335.95,54.898312,9.790406,54.895069,9.793790
1386885526,1,0,485.9,0,0,4,0,409,400,-0.0292,125.4911,6.8213,0.4212,54.897591,9.792249,108.3,5.845,1.85,335.95,54.898312,9.790406,54.895069,9.793790
1386885526,1,0,485.9,0,0,0,0,409,425,-0.0292,125.4911,6.8213,0.4212,54.897579,9.792274,108.3,5.845,1.85,335.95,54.898312,9.790406,54.895069,9.793790
1386885526,1,0,485.9,0,0,4,0,409,400,-0.0292,125.4911,6.8213,0.4212,54.897568,9.792299,108.3,5.845,1.85,335.95,54.898312,9.790406,54.895069,9.793790
1386885527,1,0,485.9,0,0,0,0,409,425,-0.0292,125.4911,6.8213,0.4212,54.897556,9.792324,108.3,5.845,1.85,335.95,54.898312,9.790406,54.895069,9.793790
1386885527,1,0,485.9,0,0,4,0,409,400,-0.0292,125.4911,6.8213,0.4212,54.897545,9.792350,108.3,5.845,1.85,335.95,54.898312,9.790406,54.895069,9.793790
1386885527,1,0,485.9,0,0,0,0,409,425,-0.0292,125.4911,6.8213,0.4212,54.897533,9.792376,108.3,5.845,1.85,335.95,54.898312,9.790406,54.895069,9.793790
1386885527,1,0,485.9,0,0,4,0,409,400,-0.0292,125.4911,6.8213,0.4212,54.897522,9.792400,108.3,5.845,1.85,335.95,54.898312,9.790406,54.895069,9.793790
1386885528,1,0,485.9,0,0,0,0,409,425,-0.0292,125.4911,6.8213,0.4212,54.897514,9.792426,108.3,5.845,1.85,335.95,54.898312,9.790406,54.895069,9.793790
1386885528,1,0,485.9,0,0,4,0,409,400,-0.0292,125.4911,6.8213,0.4212,54.897503,9.792451,108.3,5.845,1.85,335.95,54.898312,9.790406,54.895069,9.793790
1386885528,1,0,485.9,0,0,0,0,409,425,-0.0292,125.4911,6.8213,0.4212,54.897495,9.792477,108.3,5.845,1.85,335.95,54.898312,9.790406,54.895069,9.793790
1386885528,1,0,485.9,0,0,4,0,409,400,-0.0292,125.4911,6.8213,0.4212,54.897484,9.792502,108.3,5.845,1.85,335.95,54.898312,9.790406,54.895069,9.793790
1386885529,1,0,485.9,0,0,0,0,409,425,-0.0292,125.4911,6.8213,0.4212,54.897472,9.792528,108.3,5.845,1.85,335.95,54.898312,9.790406,54.895069,9.793790
1386885529,1,0,485.9,0,0,4,0,409,400,-0.0292,125.4911,6.8213,0.4212,54.897465,9.792554,108.3,5.845,1.85,335.95,54.898312,9.790406,54.895069,9.793790
1386885529,1,0,485.9,0,0,0,0,409,425,-0.0292,125.4911,6.8213,0.4212,54.897453,9.792579,108.3,5.845,1.85,335.95,54.898312,9.790406,54.895069,9.793790
1386885529,1,0,485.9,0,0,4,0,409,400,-0.0292,125.4911,6.8213,0.4212,54.897446,9.792604,108.3,5.845,1.85,335.95,54.898312,9.790406,54.895069,9.793790
1386885530,1,0,485.9,0,0,0,0,409,425,-0.0292,125.4911,6.8213,0.4212,54.897434,9.792630,108.3,5.845,1.85,335.95,54.898312,9.790406,54.895069,9.793790
1386885530,1,0,485.9,0,0,4,0,409,400,-0.0292,125.4911,6.8213,0.4212,54.897423,9.792656,108.3,5.845,1.85,335.95,54.898312,9.790406,54.895069,9.793790
1386885530,1,0,485.9,0,0,0,0,409,425,-0.0292,125.4911,6.8213,0.4212,54.897415,9.792682,108.3,5.845,1.85,335.95,54.898312,9.790406,54.895069,9.793790
1386885530,1,0,485.9,0,0,4,0,409,400,-0.0292,125.4911,6.8213,0.4212,54.897404,9.792706,108.3,5.845,1.85,335.95,54.898312,9.790406,54.895069,9.793790
1386885531,1,0,485.9,0,0,0,0,409,425,-0.0292,125.4911,6.8213,0.4212,54.897396,9.792732,108.3,5.845,1.85,335.95,54.898312,9.790406,54.895069,9.793790
1386885531,1,0,485.9,0,0,4,0,409,400,-0.0292,125.4911,6.8213,0.4212,54.897385,9.792758,108.3,5.845,1.85,335.95,54.898312,9.790406,54.895069,9.793790
1386885531,1,0,485.9,0,0,0,0,409,425,-0.0292,125.4911,6.8213,0.4212,54.897373,9.792784,108.3,5.845,1.85,335.95,54.898312,9.790406,54.895069,9.793790
1386885531,1,0,485.9,0,0,4,0,409,400,-0.0292,125.4911,6.8213,0.4212,54.897362,9.792809,108.3,5.845,1.85,335.95,54.898312,9.790406,54.895069,9.793790
1386885532,1,0,485.9,0,0,0,0,409,425,-0.0292,125.4911,6.8213,0.4212,54.897350,9.792834,108.3,5.845,1.85,335.95,54.898312,9.790406,54.895069,9.793790
1386885532,1,0,485.9,0,0,4,0,409,400,-0.0292,125.4911,6.8213,0.4212,54.897343,9.792860,108.3,5.845,1.85,335.95,54.898312,9.790406,54.895069,9.793790
1386885532,1,0,485.9,0,0,0,0,409,425,-0.0292,125.4911,6.8213,0.4212,54.897331,9.792885,108.3,5.845,1.85,335.95,54.898312,9.790406,54.895069,9.793790
1386885532,1,0,485.9,0,0,4,0,409,400,-0.0292,125.4911,6.8213,0.4212,54.897324,9.792911,108.3,5.845,1.85,335.95,54.898312,9.790406,54.895069,9.793790
1386885533,1,0,485.9,0,0,0,0,409,425,-0.0292,125.4911,6.8213,0.4212,54.897312,9.792936,108.3,5.845,1.85,335.95,54.898312,9.790406,54.895069,9.793790
1386885533,1,0,485.9,0,0,4,0,409,400,-0.0292,125.4911,6.8213,0.4212,54.897301,9.792961,108.3,5.845,1.85,335.95,54.898312,9.790406,54.895069,9.793790
1386885533,1,0,485.9,0,0,0,0,409,425,-0.0292,125.4911,6.8213,0.4212,54.897293,9.792987,108.3,5.845,1.85,335.95,54.898312,9.790406,54.895069,9.793790
1386885533,1,0,485.9,0,0,4,0,409,400,-0.0292,125.4911,6.8213,0.4212,54.897282,9.793012,108.3,5.845,1.85,335.95,54.898312,9.790406,54.895069,9.793790
1386885534,1,0,485.9,0,0,0,0,409,425,-0.0292,125.4911,6.8213,0.4212,54.897274,9.793037,108.3,5.845,1.85,335.95,54.898312,9.790406,54.895069,9.793790
1386885534,1,0,485.9,0,0,4,0,409,400,-0.0292,125.4911,6.8213,0.4212,54.897263,9.793063,108.3,5.845,1.85,335.95,54.898312,9.790406,54.895069,9.793790
1386885534,1,0,485.9,0,0,0,0,409,425,-0.0292,125.4911,6.8213,0.4212,54.897251,9.793088,108.3,5.845,1.85,335.95,54.898312,9.790406,54.895069,9.793790
1386885534,1,0,485.9,0,0,4,0,409,400,-0.0292,125.4911,6.8213,0.4212,54.897243,9.793114,108.3,5.845,1.85,335.95,54.898312,9.790406,54.895069,9.793790
1386885535,1,0,485.9,0,0,0,0,409,425,-0.0292,125.4911,6.8213,0.4212,54.897232,9.793139,108.3,5.845,1.85,335.95,54.898312,9.790406,54.895069,9.793790
1386885535,1,0,485.9,0,0,4,0,409,400,-0.0292,125.4911,6.8213,0.4212,54.897224,9.793164,108.3,5.845,1.85,335.95,54.898312,9.790406,54.895069,9.793790
1386885535,1,0,485.9,0,0,0,0,409,425,-0.0292,125.4911,6.8213,0.4212,54.897213,9.793190,108.3,5.845,1.85,335.95,54.898312,9.790406,54.895069,9.793790
1386885535,1,0,485.9,0,0,4,0,409,400,-0.0292,125.4911,6.8213,0.4212,54.897202,9.793215,108.3,5.845,1.85,335.95,54.898312,9.790406,54.895069,9.793790
1386885536,1,0,485.9,0,0,0,0,409,425,-0.0292,125.4911,6.8213,0.4212,54.897194,9.793241,108.3,5.845,1.85,335.95,54.898312,9.790406,54.895069,9.793790
1386885536,1,0,485.9,0,0,4,0,409,400,-0.0292,125.4911,6.8213,0.4212,54.897182,9.793265,108.3,5.845,1.85,335.95,54.898312,9.790406,54.895069,9.793790
1386885536,1,0,485.9,0,0,0,0,409,425,-0.0292,125.4911,6.8213,0.4212,54.897175,9.793291,108.3,5.845,1.85,335.95,54.898312,9.790406,54.895069,9.793790
1386885536,1,0,485.9,0,0,4,0,409,400,-0.0292,125.4911,6.8213,0.4212,54.897163,9.793317,108.3,5.845,1.85,335.95,54.898312,9.790406,54.895069,9.793790
1386885537,1,0,485.9,0,0,0,0,409,425,-0.0292,125.4911,6.8213,0.4212,54.897152,9.793343,108.3,5.845,1.85,335.95,54.898312,9.790406,54.895069,9.793790
1386885537,1,0,485.9,0,0,4,0,409,400,-0.0292,125.4911,6.8213,0.4212,54.897141,9.793368,108.3,5.845,1.85,335.95,54.898312,9.790406,54.895069,9.793790
1386885537,1,0,485.9,0,0,0,0,409,425,-0.0292,125.4911,6.8213,0.4212,54.897129,9.793393,108.3,5.845,1.85,335.95,54.898312,9.790406,54.895069,9.793790
1386885537,1,0,485.9,0,0,4,0,409,400,-0.0292,125.4911,6.8213,0.4212,54.897121,9.793419,108.3,5.845,1.85,335.95,54.898312,9.790406,54.895069,9.793790
1386885538,1,0,485.9,0,0,0,0,409,425,-0.0292,125.4911,6.8213,0.4212,54.897110,9.793445,108.3,5.845,1.85,335.95,54.898312,9.790406,54.895069,9.793790
1386885538,1,0,485.9,0,0,4,0,409,400,-0.0292,125.4911,6.8213,0.4212,54.897102,9.793470,108.3,5.845,1.85,335.95,54.898312,9.790406,54.895069,9.793790
1386885538,1,0,485.9,0,0,0,0,409,425,-0.0292,125.4911,6.8213,0.4212,54.897091,9.793496,108.3,5.845,1.85,335.95,54.898312,9.790406,54.895069,9.793790
1386885538,1,0,485.9,0,0,4,0,409,400,-0.0292,125.4911,6.8213,0.4212,54.897079,9.793521,108.3,5.845,1.85,335.95,54.898312,9.790406,54.895069,9.793790
1386885539,1,0,485.9,0,0,0,0,409,425,-0.0292,125.4911,6.8213,0.4212,54.897072,9.793547,108.3,5.845,1.85,335.95,54.898312,9.790406,54.895069,9.793790
1386885539,1,0,485.9,0,0,4,0,409,400,-0.0292,125.4911,6.8213,0.4212,54.897060,9.793572,108.3,5.845,1.85,335.95,54.898312,9.790406,54.895069,9.793790
1386885539,1,0,485.9,0,0,0,0,409,425,-0.0292,125.4911,6.8213,0.4212,54.897053,9.793598,108.3,5.845,1.85,335.95,54.898312,9.790406,54.895069,9.793790
1386885539,1,0,485.9,0,0,4,0,409,400,-0.0292,125.4911,6.8213,0.4212,54.897041,9.793624,108.3,5.845,1.85,335.95,54.898312,9.790406,54.895069,9.793790
1386885540,1,0,485.9,0,0,0,0,409,425,-0.0292,125.4911,6.8213,0.4212,54.897030,9.793649,108.3,5.845,1.85,335.95,54.898312,9.790406,54.895069,9.793790
1386885540,1,0,485.9,0,0,4,0,409,400,-0.0292,125.4911,6.8213,0.4212,54.897022,9.793674,108.3,5.845,1.85,335.95,54.898312,9.790406,54.895069,9.793790
1386885540,1,0,485.9,0,0,0,0,409,425,-0.0292,125.4911,6.8213,0.4212,54.897011,9.793699,108.3,5.845,1.85,335.95,54.898312,9.790406,54.895069,9.793790
1386885540,1,0,485.9,0,0,4,0,409,400,-0.0292,125.4911,6.8213,0.4212,54.897003,9.793725,108.3,5.845,1.85,335.95,54.898312,9.790406,54.895069,9.793790
1386885541,1,0,485.9,0,0,0,0,409,425,-0.0292,125.4911,6.8213,0.4212,54.896992,9.793751,108.3,5.845,1.85,335.95,54.898312,9.790406,54.895069,9.793790
1386885541,1,0,485.9,0,0,4,0,409,400,-0.0292,125.4911,6.8213,0.4212,54.896980,9.793776,108.3,5.845,1.85,335.95,54.898312,9.790406,54.895069,9.793790
1386885541,1,0,485.9,0,0,0,0,409,425,-0.0292,125.4911,6.8213,0.4212,54.896973,9.793801,108.3,5.845,1.85,335.95,54.898312,9.790406,54.895069,9.793790
1386885541,1,0,485.9,0,0,4,0,409,400,-0.0292,125.4911,6.8213,0.4212,54.896961,9.793826,108.3,5.845,1.85,335.95,54.898312,9.790406,54.895069,9.793790
1386885542,1,0,485.9,0,0,0,0,409,425,-0.0292,125.4911,6.8213,0.4212,54.896954,9.793852,108.3,5.845,1.85,335.95,54.898312,9.790406,54.895069,9.793790
1386885542,1,0,485.9,0,0,4,0,409,400,-0.0292,125.4911,6.8213,0.4212,54.896942,9.793878,108.3,5.845,1.85,335.95,54.898312,9.790406,54.895069,9.793790
1386885542,1,0,485.9,0,0,0,0,409,425,-0.0292,125.4911,6.8213,0.4212,54.896931,9.793902,108.3,5.845,1.85,335.95,54.898312,9.790406,54.895069,9.793790
1386885542,1,0,485.9,0,0,4,0,409,400,-0.0292,125.4911,6.8213,0.4212,54.896919,9.793928,108.3,5.845,1.85,335.95,54.898312,9.790406,54.895069,9.793790
1386885543,1,0,485.9,0,0,0,0,409,425,-0.0292,125.4911,6.8213,0.4212,54.896908,9.793953,108.3,5.845,1.85,335.95,54.898312,9.790406,54.895069,9.793790
1386885543,1,0,485.9,0,0,4,0,409,400,-0.0292,125.4911,6.8213,0.4212,54.896900,9.793979,108.3,5.845,1.85,335.95,54.898312,9.790406,54.895069,9.793790
1386885543,1,0,485.9,0,0,0,0,409,425,-0.0292,125.4911,6.8213,0.4212,54.896889,9.794004,108.3,5.845,1.85,335.95,54.898312,9.790406,54.895069,9.793790
1386885543,1,0,485.9,0,0,4,0,409,400,-0.0292,125.4911,6.8213,0.4212,54.896881,9.794029,108.3,5.845,1.85,335.95,54.898312,9.790406,54.895069,9.793790
1386885544,1,0,485.9,0,0,0,0,409,425,-0.0292,125.4911,6.8213,0.4212,54.896870,9.794055,108.3,5.845,1.85,335.95,54.898312,9.790406,54.895069,9.793790
1386885544,1,0,485.9,0,0,4,0,409,400,-0.0292,125.4911,6.8213,0.4212,54.896858,9.794080,108.3,5.845,1.85,335.95,54.898312,9.790406,54.895069,9.793790
1386885544,1,0,485.9,0,0,0,0,409,425,-0.0292,125.4911,6.8213,0.4212,54.896851,9.794106,108.3,5.845,1.85,335.95,54.898312,9.790406,54.895069,9.793790
1386885544,1,0,485.9,0,0,4,0,409,400,-0.0292,125.4911,6.8213,0.4212,54.896839,9.794131,108.3,5.845,1.85,335.95,54.898312,9.790406,54.895069,9.793790
1386885545,1,0,485.9,0,0,0,0,409,425,-0.0292,125.4911,6.8213,0.4212,54.896832,9.794157,108.3,5.845,1.85,335.95,54.898312,9.790406,54.895069,9.793790
1386885545,1,0,485.9,0,0,4,0,0,400,-0.0292,125.4911,6.8213,0.4212,54.896820,9.794183,108.3,5.845,1.85,335.95,54.898312,9.790406,54.895069,9.793790
1386885545,1,0,485.9,0,0,0,0,0,375,-0.0292,125.4911,6.8213,0.4212,54.896809,9.794208,108.3,5.845,1.85,335.95,54.898312,9.790406,54.895069,9.793790
1386885545,1,0,485.9,0,0,4,0,0,350,-0.0292,125.4911,6.8213,0.4212,54.896801,9.794233,108.3,5.845,1.85,335.95,54.898312,9.790406,54.895069,9.793790
1386885546,1,0,485.9,0,0,0,0,0,325,-0.0292,125.4911,6.8213,0.4212,54.896790,9.794259,108.3,5.845,1.85,335.95,54.898312,9.790406,54.895069,9.793790
1386885546,1,0,485.9,0,0,4,0,0,300,-0.0292,125.4911,6.8213,0.4212,54.896782,9.794285,108.3,5.845,1.85,335.95,54.898312,9.790406,54.895069,9.793790
1386885546,1,0,485.9,0,0,0,0,0,275,-0.0292,125.4911,6.8213,0.4212,54.896770,9.794311,108.3,5.845,1.85,335.95,54.898312,9.790406,54.895069,9.793790
1386885546,1,0,485.9,0,0,4,0,0,250,-0.0292,125.4911,6.8213,0.4212,54.896759,9.794335,108.3,5.845,1.85,335.95,54.898312,9.790406,54.895069,9.793790
1386885547,1,0,485.9,0,0,0,0,0,225,-0.0292,125.4911,6.8213,0.4212,54.896751,9.794361,108.3,5.845,1.85,335.95,54.898312,9.790406,54.895069,9.793790
1386885547,1,0,485.9,0,0,4,0,0,200,-0.0292,125.4911,6.8213,0.4212,54.896740,9.794387,108.3,5.845,1.85,335.95,54.898312,9.790406,54.895069,9.793790
1386885547,1,0,485.9,0,0,0,0,0,175,-0.0292,125.4911,6.8213,0.4212,54.896732,9.794413,108.3,5.845,1.85,335.95,54.898312,9.790406,54.895069,9.793790
1386885547,1,0,485.9,0,0,4,0,0,150,-0.0292,125.4911,6.8213,0.4212,54.896721,9.794438,108.3,5.845,1.85,335.95,54.898312,9.790406,54.895069,9.793790
1386885548,1,0,485.9,0,0,0,0,0,125,-0.0292,125.4911,6.8213,0.4212,54.896709,9.794463,108.3,5.845,1.85,335.95,54.898312,9.790406,54.895069,9.793790
1386885548,1,0,485.9,0,0,4,0,0,100,-0.0292,125.4911,6.8213,0.4212,54.896698,9.794489,108.3,5.845,1.85,335.95,54.898312,9.790406,54.895069,9.793790
1386885548,1,0,485.9,0,0,0,0,0,75,-0.0292,125.4911,6.8213,0.4212,54.896687,9.794514,108.3,5.845,1.85,335.95,54.898312,9.790406,54.895069,9.793790
1386885548,1,0,485.9,0,0,4,0,0,50,-0.0292,125.4911,6.8213,0.4212,54.896679,9.794539,108.3,5.845,1.85,335.95,54.898312,9.790406,54.895069,9.793790
1386885549,1,0,485.9,0,0,0,0,0,25,-0.0292,125.4911,6.8213,0.4212,54.896667,9.794565,108.3,5.845,1.85,335.95,54.898312,9.790406,54.895069,9.793790
1386885549,1,0,485.9,0,0,4,0,0,0,-0.0292,125.4911,6.8213,0.4212,54.896660,9.794590,108.3,5.845,1.85,335.95,54.898312,9.790406,54.895069,9.793790
1386885549,1,0,485.9,0,0,0,0,0,25,-0.0292,125.4911,6.8213,0.4212,54.896648,9.794616,108.3,5.845,1.85,335.95,54.898312,9.790406,54.895069,9.793790
1386885549,1,0,545.9,0,-35,-4,0,0,0,-0.0292,134.8244,6.8213,0.4212,54.896633,9.794638,108.3,5.845,1.85,335.95,54.898312,9.790406,54.895069,9.793790
1386885550,1,0,545.9,0,-35,-8,0,0,25,-0.0292,144.1577,6.8213,0.4212,54.896618,9.794656,108.3,5.845,1.85,335.95,54.898312,9.790406,54.895069,9.793790
1386885550,1,0,545.9,0,-35,-12,0,0,0,-0.0292,153.4911,6.8213,0.4212,54.896603,9.794669,108.3,5.845,1.85,335.95,54.898312,9.790406,54.895069,9.793790
1386885550,1,0,545.9,0,-32,-16,0,0,25,-0.0292,162.0244,6.8213,0.4212,54.896584,9.794679,108.3,5.845,1.85,335.95,54.898312,9.790406,54.895069,9.793790
1386885550,1,0,545.9,0,-24,-20,0,0,0,-0.0292,168.4244,6.8213,0.4212,54.896564,9.794685,108.3,5.845,1.85,335.95,54.898312,9.790406,54.895069,9.793790
1386885551,1,0,545.9,0,-18,-16,0,0,25,-0.0292,173.2244,6.8213,0.4212,54.896549,9.794689,108.3,5.845,1.85,335.95,54.898312,9.790406,54.895069,9.793790
1386885551,1,0,545.9,0,-13,-12,0,0,0,-0.0292,176.6911,6.8213,0.4212,54.896530,9.794690,108.3,5.845,1.85,335.95,54.898312,9.790406,54.895069,9.793790
1386885551,1,0,545.9,0,-9,-8,0,0,25,-0.0292,179.0910,6.8213,0.4212,54.896511,9.794690,108.3,5.845,1.85,335.95,54.898312,9.790406,54.895069,9.793790
1386885551,1,0,545.9,0,-7,-4,0,409,50,-0.0292,180.9577,6.8213,0.4212,54.896492,9.794689,108.3,5.845,1.85,335.95,54.898312,9.790406,54.895069,9.793790
1386885552,1,0,545.9,0,-5,-8,0,409,75,-0.0292,182.2910,6.8213,0.4212,54.896477,9.794687,108.3,5.845,1.85,335.95,54.898312,9.790406,54.895069,9.793790
1386885552,1,0,545.9,0,-4,-4,0,409,100,-0.0292,183.3577,6.8213,0.4212,54.896458,9.794686,108.3,5.845,1.85,335.95,54.898312,9.790406,54.895069,9.793790
1386885552,1,0,545.9,0,-3,0,0,409,125,-0.0292,184.1577,6.8213,0.4212,54.896439,9.794684,108.3,5.845,1.85,335.95,54.898312,9.790406,54.895069,9.793790
1386885552,1,0,545.9,0,-2,-4,0,409,150,-0.0292,184.6911,6.8213,0.4212,54.896423,9.794683,108.3,5.845,1.85,335.95,54.898312,9.790406,54.895069,9.793790
1386885553,1,0,545.9,0,-1,0,0,409,175,-0.0292,184.9577,6.8213,0.4212,54.896404,9.794681,108.3,5.845,1.85,335.95,54.898312,9.790406,54.895069,9.793790
1386885553,1,0,545.9,0,-1,-4,0,409,200,-0.0292,185.2244,6.8213,0.4212,54.896385,9.794678,108.3,5.845,1.85,335.95,54.898312,9.790406,54.895069,9.793790
1386885553,1,0,545.9,0,-1,0,0,409,225,-0.0292,185.4910,6.8213,0.4212,54.896366,9.794675,108.3,5.845,1.85,335.95,54.898312,9.790406,54.895069,9.793790
1386885553,1,0,545.9,0,0,4,0,409,250,-0.0292,185.4910,6.8213,0.4212,54.896351,9.794672,108.3,5.845,1.85,335.95,54.898312,9.790406,54.895069,9.793790
1386885554,1,0,545.9,0,0,0,0,409,275,-0.0292,185.4910,6.8213,0.4212,54.896332,9.794669,108.3,5.845,1.85,335.95,54.898312,9.790406,54.895069,9.793790
1386885554,1,0,545.9,0,0,4,0,409,300,-0.0292,185.4910,6.8213,0.4212,54.896313,9.794666,108.3,5.845,1.85,335.95,54.898312,9.790406,54.895069,9.793790
1386885554,1,0,545.9,0,0,0,0,409,325,-0.0292,185.4910,6.8213,0.4212,54.896294,9.794663,108.3,5.845,1.85,335.95,54.898312,9.790406,54.895069,9.793790
1386885554,1,0,546.4,0,-1,-4,0,409,350,-0.0292,185.7577,6.8213,0.4212,54.896278,9.794661,108.3,5.845,1.85,335.95,54.898312,9.790406,54.895069,9.793790
1386885555,1,0,562.6,0,-17,-8,0,409,375,-0.0292,190.2910,6.8213,0.4212,54.896259,9.794655,108.3,5.845,1.85,335.95,54.898312,9.790406,54.895069,9.793790
1386885555,1,0,562.8,0,-13,-12,0,409,400,-0.0292,193.7577,6.8213,0.4212,54.896240,9.794647,108.3,5.845,1.85,335.95,54.898312,9.790406,54.895069,9.793790
1386885555,1,0,563.0,0,-9,-8,0,409,425,-0.0292,196.1577,6.8213,0.4212,54.896225,9.794638,108.3,5.845,1.85,335.95,54.898312,9.790406,54.895069,9.793790
1386885555,1,0,563.0,0,-7,-4,0,409,400,-0.0292,198.0244,6.8213,0.4212,54.896206,9.794628,108.3,5.845,1.85,335.95,54.898312,9.790406,54.895069,9.793790
1386885556,1,0,563.1,0,-5,-8,0,409,425,-0.0292,199.3577,6.8213,0.4212,54.896187,9.794618,108.3,5.845,1.85,335.95,54.898312,9.790406,54.895069,9.793790
1386885556,1,0,563.2,0,-4,-4,0,409,400,-0.0292,200.4244,6.8213,0.4212,54.896172,9.794606,108.3,5.845,1.85,335.95,54.898312,9.790406,54.895069,9.793790
1386885556,1,0,563.2,0,-3,0,0,409,425,-0.0292,201.2244,6.8213,0.4212,54.896156,9.794595,108.3,5.845,1.85,335.95,54.898312,9.790406,54.895069,9.793790
1386885556,1,0,563.2,0,-2,-4,0,500,450,-0.0292,201.7577,6.8213,0.4212,54.896137,9.794583,108.3,5.845,1.85,335.95,54.898312,9.790406,54.895069,9.793790
1386885557,1,0,563.3,0,-2,0,0,500,475,-0.0292,202.2910,6.8213,0.4212,54.896122,9.794572,108.3,5.845,1.85,335.95,54.898312,9.790406,54.895069,9.793790
1386885557,1,0,563.3,0,-1,-4,0,500,500,-0.0292,202.5577,6.8213,0.4212,54.896107,9.794559,108.3,5.845,1.85,335.95,54.898312,9.790406,54.895069,9.793790
1386885557,1,0,563.2,0,-1,0,0,500,525,-0.0292,202.8244,6.8213,0.4212,54.896088,9.794548,108.3,5.845,1.85,335.95,54.898312,9.790406,54.895069,9.793790
1386885558,1,0,563.3,0,0,4,0,500,500,-0.0292,202.8244,6.8213,0.4212,54.896072,9.794537,108.3,5.845,1.85,335.95,54.898312,9.790406,54.895069,9.793790
1386885558,1,0,563.3,0,0,0,0,500,525,-0.0292,202.8244,6.8213,0.4212,54.896057,9.794524,108.3,5.845,1.85,335.95,54.898312,9.790406,54.895069,9.793790
1386885558,1,0,563.3,0,0,4,0,500,500,-0.0292,202.8244,6.8213,0.4212,54.896038,9.794512,108.3,5.845,1.85,335.95,54.898312,9.790406,54.895069,9.793790
1386885558,1,0,563.3,0,0,0,0,500,525,-0.0292,202.8244,6.8213,0.4212,54.896023,9.794500,108.3,5.845,1.85,335.95,54.898312,9.790406,54.895069,9.793790
1386885559,1,0,563.3,0,0,4,0,500,500,-0.0292,202.8244,6.8213,0.4212,54.896008,9.794488,108.3,5.845,1.85,335.95,54.898312,9.790406,54.895069,9.793790
1386885559,1,0,563.3,0,0,0,0,500,525,-0.0292,202.8244,6.8213,0.4212,54.895988,9.794476,108.3,5.845,1.85,335.95,54.898312,9.790406,54.895069,9.793790
1386885559,1,0,563.3,0,-1,-4,0,500,500,-0.0292,203.0910,6.8213,0.4212,54.895973,9.794463,108.3,5.845,1.85,335.95,54.898312,9.790406,54.895069,9.793790
1386885559,1,0,563.3,0,0,0,0,500,525,-0.0292,203.0910,6.8213,0.4212,54.895958,9.794451,108.3,5.845,1.85,335.95,54.898312,9.790406,54.895069,9.793790
1386885560,1,0,563.3,0,0,4,0,500,500,-0.0292,203.0910,6.8213,0.4212,54.895939,9.794438,108.3,5.845,1.85,335.95,54.898312,9.790406,54.895069,9.793790
1386885560,1,0,563.3,0,0,0,0,500,525,-0.0292,203.0910,6.8213,0.4212,54.895920,9.794426,108.3,5.845,1.85,335.95,54.898312,9.790406,54.895069,9.793790
1386885560,1,0,563.4,0,0,4,0,500,500,-0.0292,203.0910,6.8213,0.4212,54.895905,9.794415,108.3,5.845,1.85,335.95,54.898312,9.790406,54.895069,9.793790
1386885560,1,0,563.4,0,0,0,0,500,525,-0.0292,203.0910,6.8213,0.4212,54.895889,9.794402,108.3,5.845,1.85,335.95,54.898312,9.790406,54.895069,9.793790
1386885561,1,0,563.4,0,0,4,0,500,500,-0.0292,203.0910,6.8213,0.4212,54.895870,9.794390,108.3,5.845,1.85,335.95,54.898312,9.790406,54.895069,9.793790
1386885561,1,0,563.4,0,0,0,0,500,525,-0.0292,203.0910,6.8213,0.4212,54.895855,9.794377,108.3,5.845,1.85,335.95,54.898312,9.790406,54.895069,9.793790
1386885561,1,0,563.4,0,0,4,0,500,500,-0.0292,203.0910,6.8213,0.4212,54.895840,9.794365,108.3,5.845,1.85,335.95,54.898312,9.790406,54.895069,9.793790
1386885561,1,0,563.4,0,0,0,0,500,525,-0.0292,203.0910,6.8213,0.4212,54.895821,9.794353,108.3,5.845,1.85,335.95,54.898312,9.790406,54.895069,9.793790
1386885562,1,0,563.4,0,0,4,0,500,500,-0.0292,203.0910,6.8213,0.4212,54.895805,9.794340,108.3,5.845,1.85,335.95,54.898312,9.790406,54.895069,9.793790
1386885562,1,0,563.4,0,0,0,0,500,525,-0.0292,203.0910,6.8213,0.4212,54.895790,9.794329,108.3,5.845,1.85,335.95,54.898312,9.790406,54.895069,9.793790
1386885562,1,0,563.4,0,0,4,0,500,500,-0.0292,203.0910,6.8213,0.4212,54.895771,9.794316,108.3,5.845,1.85,335.95,54.898312,9.790406,54.895069,9.793790
1386885562,1,0,563.5,0,0,0,0,500,525,-0.0292,203.0910,6.8213,0.4212,54.895756,9.794304,108.3,5.845,1.85,335.95,54.898312,9.790406,54.895069,9.793790
1386885563,1,0,563.4,0,0,4,0,500,500,-0.0292,203.0910,6.8213,0.4212,54.895741,9.794291,108.3,5.845,1.85,335.95,54.898312,9.790406,54.895069,9.793790
1386885563,1,0,563.4,0,0,0,0,500,525,-0.0292,203.0910,6.8213,0.4212,54.895721,9.794279,108.3,5.845,1.85,335.95,54.898312,9.790406,54.895069,9.793790
1386885563,1,0,563.5,0,0,4,0,500,500,-0.0292,203.0910,6.8213,0.4212,54.895706,9.794267,108.3,5.845,1.85,335.95,54.898312,9.790406,54.895069,9.793790
1386885563,1,0,563.4,0,0,0,0,500,525,-0.0292,203.0910,6.8213,0.4212,54.895691,9.794254,108.3,5.845,1.85,335.95,54.898312,9.790406,54.895069,9.793790
1386885564,1,0,563.4,0,0,4,0,500,500,-0.0292,203.0910,6.8213,0.4212,54.895672,9.794243,108.3,5.845,1.85,335.95,54.898312,9.790406,54.895069,9.793790
1386885564,1,0,563.5,0,0,0,0,500,525,-0.0292,203.0910,6.8213,0.4212,54.895657,9.794230,108.3,5.845,1.85,335.95,54.898312,9.790406,54.895069,9.793790
1386885564,1,0,563.5,0,0,4,0,500,500,-0.0292,203.0910,6.8213,0.4212,54.895641,9.794218,108.3,5.845,1.85,335.95,54.898312,9.790406,54.895069,9.793790
1386885564,1,0,563.4,0,0,0,0,500,525,-0.0292,203.0910,6.8213,0.4212,54.895622,9.794206,108.3,5.845,1.85,335.95,54.898312,9.790406,54.895069,9.793790
1386885565,1,0,563.5,0,0,4,0,500,500,-0.0292,203.0910,6.8213,0.4212,54.895607,9.794193,108.3,5.845,1.85,335.95,54.898312,9.790406,54.895069,9.793790
1386885565,1,0,563.5,0,0,0,0,500,525,-0.0292,203.0910,6.8213,0.4212,54.895592,9.794181,108.3,5.845,1.85,335.95,54.898312,9.790406,54.895069,9.793790
1386885565,1,0,563.4,0,0,4,0,500,500,-0.0292,203.0910,6.8213,0.4212,54.895573,9.794168,108.3,5.845,1.85,335.95,54.898312,9.790406,54.895069,9.793790
1386885565,1,0,563.5,0,0,0,0,500,525,-0.0292,203.0910,6.8213,0.4212,54.895557,9.794157,108.3,5.845,1.85,335.95,54.898312,9.790406,54.895069,9.793790
1386885566,1,0,563.5,0,0,4,0,500,500,-0.0292,203.0910,6.8213,0.4212,54.895542,9.794145,108.3,5.845,1.85,335.95,54.898312,9.790406,54.895069,9.793790
1386885566,1,0,563.5,0,0,0,0,500,525,-0.0292,203.0910,6.8213,0.4212,54.895523,9.794132,108.3,5.845,1.85,335.95,54.898312,9.790406,54.895069,9.793790
1386885566,1,0,563.6,0,0,4,0,500,500,-0.0292,203.0910,6.8213,0.4212,54.895508,9.794120,108.3,5.845,1.85,335.95,54.898312,9.790406,54.895069,9.793790
1386885566,1,0,563.5,0,0,0,0,500,525,-0.0292,203.0910,6.8213,0.4212,54.895493,9.794107,108.3,5.845,1.85,335.95,54.898312,9.790406,54.895069,9.793790
1386885567,1,0,563.5,0,0,4,0,500,500,-0.0292,203.0910,6.8213,0.4212,54.895473,9.794095,108.3,5.845,1.85,335.95,54.898312,9.790406,54.895069,9.793790
1386885567,1,0,563.6,0,0,0,0,500,525,-0.0292,203.0910,6.8213,0.4212,54.895458,9.794083,108.3,5.845,1.85,335.95,54.898312,9.790406,54.895069,9.793790
1386885567,1,0,563.5,0,0,4,0,500,500,-0.0292,203.0910,6.8213,0.4212,54.895443,9.794071,108.3,5.845,1.85,335.95,54.898312,9.790406,54.895069,9.793790
1386885567,1,0,563.5,0,0,0,0,500,525,-0.0292,203.0910,6.8213,0.4212,54.895424,9.794059,108.3,5.845,1.85,335.95,54.898312,9.790406,54.895069,9.793790
1386885568,1,0,563.7,0,-1,-4,0,500,500,-0.0292,203.3577,6.8213,0.4212,54.895409,9.794046,108.3,5.845,1.85,335.95,54.898312,9.790406,54.895069,9.793790
1386885568,1,0,563.6,0,0,0,0,500,525,-0.0292,203.3577,6.8213,0.4212,54.895393,9.794034,108.3,5.845,1.85,335.95,54.898312,9.790406,54.895069,9.793790
1386885568,1,0,563.5,0,0,4,0,500,500,-0.0292,203.3577,6.8213,0.4212,54.895374,9.794022,108.3,5.845,1.85,335.95,54.898312,9.790406,54.895069,9.793790
1386885568,1,0,563.7,0,0,0,0,500,525,-0.0292,203.3577,6.8213,0.4212,54.895359,9.794009,108.3,5.845,1.85,335.95,54.898312,9.790406,54.895069,9.793790
1386885569,1,0,563.6,0,0,4,0,500,500,-0.0292,203.3577,6.8213,0.4212,54.895344,9.793997,108.3,5.845,1.85,335.95,54.898312,9.790406,54.895069,9.793790
1386885569,1,0,563.6,0,0,0,0,500,525,-0.0292,203.3577,6.8213,0.4212,54.895325,9.793984,108.3,5.845,1.85,335.95,54.898312,9.790406,54.895069,9.793790
1386885569,1,0,563.8,0,0,4,0,500,500,-0.0292,203.3577,6.8213,0.4212,54.895309,9.793972,108.3,5.845,1.85,335.95,54.898312,9.790406,54.895069,9.793790
1386885569,1,0,563.7,0,0,0,0,500,525,-0.0292,203.3577,6.8213,0.4212,54.895294,9.793960,108.3,5.845,1.85,335.95,54.898312,9.790406,54.895069,9.793790
1386885570,1,0,563.6,0,0,4,0,500,500,-0.0292,203.3577,6.8213,0.4212,54.895275,9.793948,108.3,5.845,1.85,335.95,54.898312,9.790406,54.895069,9.793790
1386885570,1,0,564.0,0,-1,0,0,500,525,-0.0292,203.6244,6.8213,0.4212,54.895260,9.793936,108.3,5.845,1.85,335.95,54.898312,9.790406,54.895069,9.793790
1386885570,1,0,563.9,0,0,4,0,500,500,-0.0292,203.6244,6.8213,0.4212,54.895245,9.793923,108.3,5.845,1.85,335.95,54.898312,9.790406,54.895069,9.793790
1386885570,1,0,563.8,0,0,0,0,500,525,-0.0292,203.6244,6.8213,0.4212,54.895226,9.793911,108.3,5.845,1.85,335.95,54.898312,9.790406,54.895069,9.793790
1386885571,1,0,564.1,0,-1,-4,0,500,500,-0.0292,203.8910,6.8213,0.4212,54.895210,9.793899,108.3,5.845,1.85,335.95,54.898312,9.790406,54.895069,9.793790
1386885571,1,0,564.0,0,0,0,0,500,525,-0.0292,203.8910,6.8213,0.4212,54.895195,9.793886,108.3,5.845,1.85,335.95,54.898312,9.790406,54.895069,9.793790
1386885571,1,0,563.9,0,0,4,0,500,500,-0.0292,203.8910,6.8213,0.4212,54.895176,9.793874,108.3,5.845,1.85,335.95,54.898312,9.790406,54.895069,9.793790
1386885571,1,0,564.4,0,-1,0,0,500,525,-0.0292,204.1577,6.8213,0.4212,54.895161,9.793861,108.3,5.845,1.85,335.95,54.898312,9.790406,54.895069,9.793790
1386885572,1,0,564.3,0,0,4,0,500,500,-0.0292,204.1577,6.8213,0.4212,54.895145,9.793849,108.3,5.845,1.85,335.95,54.898312,9.790406,54.895069,9.793790
1386885572,1,0,564.2,0,0,0,0,500,525,-0.0292,204.1577,6.8213,0.4212,54.895126,9.793837,108.3,5.845,1.85,335.95,54.898312,9.790406,54.895069,9.793790
1386885572,1,0,565.3,0,-1,-4,0,500,500,-0.0292,204.4243,6.8213,0.4212,54.895107,9.793823,108.3,5.845,1.85,335.95,54.898312,9.790406,54.895069,9.793790
1386885572,1,0,566.9,0,-2,0,0,500,525,-0.0292,204.9577,6.8213,0.4212,54.895092,9.793811,108.3,5.845,1.85,335.95,54.895069,9.793790,54.895348,9.797490
1386885573,1,0,545.9,0,19,4,0,500,500,-0.0292,199.8910,6.8213,0.4212,54.895077,9.793800,108.3,5.845,1.85,335.95,54.895069,9.793790,54.895348,9.797490
1386885573,1,0,545.9,0,14,8,0,409,475,-0.0292,196.1577,6.8213,0.4212,54.895058,9.793792,108.3,5.845,1.85,335.95,54.895069,9.793790,54.895348,9.797490
1386885573,1,0,545.9,0,10,12,0,409,450,-0.0292,193.4910,6.8213,0.4212,54.895039,9.793784,108.3,5.845,1.85,335.95,54.895069,9.793790,54.895348,9.797490
1386885573,1,0,545.9,0,8,8,0,409,425,-0.0292,191.3577,6.8213,0.4212,54.895023,9.793778,108.3,5.845,1.85,335.95,54.895069,9.793790,54.895348,9.797490
1386885574,1,0,545.9,0,5,4,0,0,400,-0.0292,190.0244,6.8213,0.4212,54.895004,9.793774,108.3,5.845,1.85,335.95,54.895069,9.793790,54.895348,9.797490
1386885574,1,0,545.9,0,4,8,0,0,375,-0.0292,188.9577,6.8213,0.4212,54.894985,9.793769,108.3,5.845,1.85,335.95,54.895069,9.793790,54.895348,9.797490
1386885574,1,0,545.9,0,3,4,0,0,350,-0.0292,188.1577,6.8213,0.4212,54.894966,9.793764,108.3,5.845,1.85,335.95,54.895069,9.793790,54.895348,9.797490
1386885574,1,0,545.9,0,2,0,0,0,325,-0.0292,187.6243,6.8213,0.4212,54.894951,9.793760,108.3,5.845,1.85,335.95,54.895069,9.793790,54.895348,9.797490
1386885575,1,0,545.9,0,2,4,0,0,300,-0.0292,187.0910,6.8213,0.4212,54.894932,9.793756,108.3,5.845,1.85,335.95,54.895069,9.793790,54.895348,9.797490
1386885575,1,0,545.9,0,1,0,0,0,275,-0.0292,186.8243,6.8213,0.4212,54.894913,9.793753,108.3,5.845,1.85,335.95,54.895069,9.793790,54.895348,9.797490
1386885575,1,0,545.9,0,1,4,0,0,250,-0.0292,186.5577,6.8213,0.4212,54.894894,9.793749,108.3,5.845,1.85,335.95,54.895069,9.793790,54.895348,9.797490
1386885575,1,0,545.9,0,1,0,0,0,225,-0.0292,186.2910,6.8213,0.4212,54.894878,9.793745,108.3,5.845,1.85,335.95,54.895069,9.793790,54.895348,9.797490
1386885576,1,0,545.9,0,0,4,0,0,200,-0.0292,186.2910,6.8213,0.4212,54.894859,9.793742,108.3,5.845,1.85,335.95,54.895069,9.793790,54.895348,9.797490
1386885576,1,0,545.9,0,0,0,0,0,175,-0.0292,186.2910,6.8213,0.4212,54.894840,9.793739,108.3,5.845,1.85,335.95,54.895069,9.793790,54.895348,9.797490
1386885576,1,0,545.9,0,0,4,0,0,150,-0.0292,186.2910,6.8213,0.4212,54.894825,9.793736,108.3,5.845,1.85,335.95,54.895069,9.793790,54.895348,9.797490
1386885576,1,0,545.9,0,0,0,0,0,125,-0.0292,186.2910,6.8213,0.4212,54.894806,9.793734,108.3,5.845,1.85,335.95,54.895069,9.793790,54.895348,9.797490
1386885577,1,0,545.9,0,0,4,0,0,100,-0.0292,186.2910,6.8213,0.4212,54.894787,9.793731,108.3,5.845,1.85,335.95,54.895069,9.793790,54.895348,9.797490
1386885577,1,0,545.9,0,0,0,0,0,75,-0.0292,186.2910,6.8213,0.4212,54.894768,9.793728,108.3,5.845,1.85,335.95,54.895069,9.793790,54.895348,9.797490
1386885577,1,0,545.9,0,0,4,0,0,50,-0.0292,186.2910,6.8213,0.4212,54.894753,9.793724,108.3,5.845,1.85,335.95,54.895069,9.793790,54.895348,9.797490
1386885577,1,0,545.9,0,0,0,0,0,25,-0.0292,186.2910,6.8213,0.4212,54.894733,9.793720,108.3,5.845,1.85,335.95,54.895069,9.793790,54.895348,9.797490
1386885578,1,0,545.9,0,0,4,0,0,0,-0.0292,186.2910,6.8213,0.4212,54.894714,9.793716,108.3,5.845,1.85,335.95,54.895069,9.793790,54.895348,9.797490
1386885578,1,0,545.9,0,0,0,0,0,25,-0.0292,186.2910,6.8213,0.4212,54.894695,9.793713,108.3,5.845,1.85,335.95,54.895069,9.793790,54.895348,9.797490
1386885578,1,0,485.9,0,35,4,0,0,0,-0.0292,176.9577,6.8213,0.4212,54.894680,9.793714,108.3,5.845,1.85,335.95,54.895069,9.793790,54.895348,9.797490
1386885578,1,0,485.9,0,35,8,0,0,25,-0.0292,167.6244,6.8213,0.4212,54.894661,9.793720,108.3,5.845,1.85,335.95,54.895069,9.793790,54.895348,9.797490
1386885579,1,0,485.9,0,35,12,0,0,0,-0.0292,158.2910,6.8213,0.4212,54.894642,9.793732,108.3,5.845,1.85,335.95,54.895069,9.793790,54.895348,9.797490
1386885579,1,0,485.9,0,32,16,0,0,25,-0.0292,149.7577,6.8213,0.4212,54.894627,9.793748,108.3,5.845,1.85,335.95,54.895069,9.793790,54.895348,9.797490
1386885579,1,0,485.9,0,24,20,0,0,0,-0.0292,143.3577,6.8213,0.4212,54.894611,9.793766,108.3,5.845,1.85,335.95,54.895069,9.793790,54.895348,9.797490
1386885579,1,0,485.9,0,17,16,0,0,25,-0.0292,138.8244,6.8213,0.4212,54.894596,9.793787,108.3,5.845,1.85,335.95,54.895069,9.793790,54.895348,9.797490
1386885580,1,0,485.9,0,13,12,0,0,0,-0.0292,135.3577,6.8213,0.4212,54.894585,9.793809,108.3,5.845,1.85,335.95,54.895069,9.793790,54.895348,9.797490
1386885580,1,0,485.9,0,9,8,0,0,25,-0.0292,132.9577,6.8213,0.4212,54.894573,9.793832,108.3,5.845,1.85,335.95,54.895069,9.793790,54.895348,9.797490
1386885580,1,0,485.9,0,7,4,0,409,50,-0.0292,131.0910,6.8213,0.4212,54.894562,9.793855,108.3,5.845,1.85,335.95,54.895069,9.793790,54.895348,9.797490
1386885580,1,0,485.9,0,5,8,0,409,75,-0.0292,129.7577,6.8213,0.4212,54.894550,9.793879,108.3,5.845,1.85,335.95,54.895069,9.793790,54.895348,9.797490
1386885581,1,0,485.9,0,4,4,0,409,100,-0.0292,128.6910,6.8213,0.4212,54.894543,9.793902,108.3,5.845,1.85,335.95,54.895069,9.793790,54.895348,9.797490
1386885581,1,0,485.9,0,3,0,0,409,125,-0.0292,127.8910,6.8213,0.4212,54.894531,9.793927,108.3,5.845,1.85,335.95,54.895069,9.793790,54.895348,9.797490
1386885581,1,0,485.9,0,2,4,0,409,150,-0.0292,127.3577,6.8213,0.4212,54.894520,9.793952,108.3,5.845,1.85,335.95,54.895069,9.793790,54.895348,9.797490
1386885581,1,0,485.9,0,1,0,0,409,175,-0.0292,127.0910,6.8213,0.4212,54.894508,9.793977,108.3,5.845,1.85,335.95,54.895069,9.793790,54.895348,9.797490
1386885582,1,0,485.9,0,1,4,0,409,200,-0.0292,126.8244,6.8213,0.4212,54.894497,9.794002,108.3,5.845,1.85,335.95,54.895069,9.793790,54.895348,9.797490
1386885582,1,0,485.9,0,1,0,0,409,225,-0.0292,126.5577,6.8213,0.4212,54.894485,9.794027,108.3,5.845,1.85,335.95,54.895069,9.793790,54.895348,9.797490
1386885582,1,0,485.9,0,1,4,0,409,250,-0.0292,126.2910,6.8213,0.4212,54.894474,9.794052,108.3,5.845,1.85,335.95,54.895069,9.793790,54.895348,9.797490
1386885582,1,0,485.9,0,0,0,0,409,275,-0.0292,126.2910,6.8213,0.4212,54.894466,9.794077,108.3,5.845,1.85,335.95,54.895069,9.793790,54.895348,9.797490
1386885583,1,0,485.9,0,0,4,0,409,300,-0.0292,126.2910,6.8213,0.4212,54.894455,9.794103,108.3,5.845,1.85,335.95,54.895069,9.793790,54.895348,9.797490
1386885583,1,0,485.9,0,0,0,0,409,325,-0.0292,126.2910,6.8213,0.4212,54.894444,9.794127,108.3,5.845,1.85,335.95,54.895069,9.793790,54.895348,9.797490
1386885583,1,0,443.2,0,35,4,0,409,350,-0.0292,116.9577,6.8213,0.4212,54.894436,9.794156,108.3,5.845,1.85,335.95,54.895069,9.793790,54.895348,9.797490
1386885583,1,0,424.7,0,35,8,0,409,375,-0.0292,107.6244,6.8213,0.4212,54.894428,9.794186,108.3,5.845,1.85,335.95,54.895069,9.793790,54.895348,9.797490
1386885584,1,0,424.3,0,35,12,0,500,400,-0.0292,98.2910,6.8213,0.4212,54.894428,9.794216,108.3,5.845,1.85,335.95,54.895069,9.793790,54.895348,9.797490
1386885584,1,0,424.1,0,34,16,0,500,425,-0.0292,89.2243,6.8213,0.4212,54.894432,9.794248,108.3,5.845,1.85,335.95,54.895069,9.793790,54.895348,9.797490
1386885584,1,0,424.0,0,25,20,0,438,450,-0.0292,82.5577,6.8213,0.4212,54.894432,9.794279,108.3,5.845,1.85,335.95,54.895069,9.793790,54.895348,9.797490
1386885584,1,0,423.8,0,19,16,0,380,425,-0.0292,77.4910,6.8213,0.4212,54.894436,9.794310,108.3,5.845,1.85,335.95,54.895069,9.793790,54.895348,9.797490
1386885585,1,0,423.6,0,14,12,0,334,400,-0.0292,73.7577,6.8213,0.4212,54.894440,9.794339,108.3,5.845,1.85,335.95,54.895069,9.793790,54.895348,9.797490
1386885585,1,0,423.5,0,10,8,0,301,375,-0.0292,71.0910,6.8213,0.4212,54.894444,9.794369,108.3,5.845,1.85,335.95,54.895069,9.793790,54.895348,9.797490
1386885585,1,0,423.4,0,8,12,0,276,350,-0.0292,68.9577,6.8213,0.4212,54.894451,9.794398,108.3,5.845,1.85,335.95,54.895069,9.793790,54.895348,9.797490
1386885585,1,0,423.4,0,6,8,0,257,325,-0.0292,67.3577,6.8213,0.4212,54.894459,9.794427,108.3,5.845,1.85,335.95,54.895069,9.793790,54.895348,9.797490
1386885586,1,0,423.4,0,4,4,0,242,300,-0.0292,66.2910,6.8213,0.4212,54.894466,9.794456,108.3,5.845,1.85,335.95,54.895069,9.793790,54.895348,9.797490
1386885586,1,0,423.4,0,3,0,0,232,275,-0.0292,65.4910,6.8213,0.4212,54.894474,9.794484,108.3,5.845,1.85,335.95,54.895069,9.793790,54.895348,9.797490
1386885586,1,0,423.3,0,2,4,0,225,250,-0.0292,64.9577,6.8213,0.4212,54.894482,9.794512,108.3,5.845,1.85,335.95,54.895069,9.793790,54.895348,9.797490
1386885586,1,0,423.3,0,2,0,0,220,225,-0.0292,64.4244,6.8213,0.4212,54.894489,9.794540,108.3,5.845,1.85,335.95,54.895069,9.793790,54.895348,9.797490
1386885587,1,0,423.3,0,1,4,0,215,200,-0.0292,64.1577,6.8213,0.4212,54.894497,9.794568,108.3,5.845,1.85,335.95,54.895069,9.793790,54.895348,9.797490
