MCU_timestamp,Navigation_System,Manual_Control,Guidance_Heading,Manual_Ctrl_Rudder,Rudder_Desired_Angle,Rudder_Feedback,Manual_Ctrl_Sail,Sail_Desired_Pos,Sail_Feedback,Rate,Heading,Pitch,Roll,Latitude,Longitude,COG,SOG,Wind_Speed,Wind_Angle,Point_Start_Lat,Point_Start_Lon,Point_End_Lat,Point_End_Lon
1386888937,0,0,0.0,0,0,8,0,0,0,-0.0292,3201.1816,6.8213,0.4212,54.898979,9.790910,108.3,5.845,1.85,335.95,0.000000,0.000000,0.000000,0.000000
1386888937,0,0,0.0,0,0,8,0,0,0,-0.0292,3201.1816,6.8213,0.4212,54.898979,9.790910,108.3,5.845,1.85,335.95,0.000000,0.000000,0.000000,0.000000
1386888938,0,0,0.0,0,0,8,0,0,0,-0.0292,3201.1816,6.8213,0.4212,54.898979,9.790910,108.3,5.845,1.85,335.95,0.000000,0.000000,0.000000,0.000000
1386888938,0,0,0.0,0,0,8,0,0,0,-0.0292,3201.1816,6.8213,0.4212,54.898979,9.790910,108.3,5.845,1.85,335.95,0.000000,0.000000,0.000000,0.000000
1386888938,0,0,0.0,0,0,8,0,0,0,-0.0292,3201.1816,6.8213,0.4212,54.898979,9.790910,108.3,5.845,1.85,335.95,0.000000,0.000000,0.000000,0.000000
1386888938,0,0,0.0,0,0,8,0,0,0,-0.0292,3201.1816,6.8213,0.4212,54.898979,9.790910,108.3,5.845,1.85,335.95,0.000000,0.000000,0.000000,0.000000
1386888939,0,0,0.0,0,0,8,0,0,0,-0.0292,3201.1816,6.8213,0.4212,54.898979,9.790910,108.3,5.845,1.85,335.95,0.000000,0.000000,0.000000,0.000000
1386888939,0,0,0.0,0,0,8,0,0,0,-0.0292,3201.1816,6.8213,0.4212,54.898979,9.790910,108.3,5.845,1.85,335.95,0.000000,0.000000,0.000000,0.000000
1386888939,0,0,0.0,0,0,8,0,0,0,-0.0292,3201.1816,6.8213,0.4212,54.898979,9.790910,108.3,5.845,1.85,335.95,0.000000,0.000000,0.000000,0.000000
1386888940,0,0,0.0,0,0,8,0,0,0,-0.0292,3201.1816,6.8213,0.4212,54.898979,9.790910,108.3,5.845,1.85,335.95,0.000000,0.000000,0.000000,0.000000
1386888940,0,0,0.0,0,0,8,0,0,0,-0.0292,3201.1816,6.8213,0.4212,54.898979,9.790910,108.3,5.845,1.85,335.95,0.000000,0.000000,0.000000,0.000000
1386888940,0,0,0.0,0,0,8,0,0,0,-0.0292,3201.1816,6.8213,0.4212,54.898979,9.790910,108.3,5.845,1.85,335.95,0.000000,0.000000,0.000000,0.000000
1386888940,0,0,0.0,0,0,8,0,0,0,-0.0292,3201.1816,6.8213,0.4212,54.898979,9.790910,108.3,5.845,1.85,335.95,0.000000,0.000000,0.000000,0.000000
1386888941,0,0,0.0,0,0,8,0,0,0,-0.0292,3201.1816,6.8213,0.4212,54.898979,9.790910,108.3,5.845,1.85,335.95,0.000000,0.000000,0.000000,0.000000
1386888941,0,0,0.0,0,0,8,0,0,0,-0.0292,3201.1816,6.8213,0.4212,54.898979,9.790910,108.3,5.845,1.85,335.95,0.000000,0.000000,0.000000,0.000000
1386888941,0,0,0.0,0,0,8,0,0,0,-0.0292,3201.1816,6.8213,0.4212,54.898979,9.790910,108.3,5.845,1.85,335.95,0.000000,0.000000,0.000000,0.000000
1386888941,0,0,0.0,0,0,8,0,0,0,-0.0292,3201.1816,6.8213,0.4212,54.898979,9.790910,108.3,5.845,1.85,335.95,0.000000,0.000000,0.000000,0.000000
1386888942,0,0,0.0,0,0,8,0,0,0,-0.0292,3201.1816,6.8213,0.4212,54.898979,9.790910,108.3,5.845,1.85,335.95,0.000000,0.000000,0.000000,0.000000
1386888942,4,0,0.0,0,0,8,0,0,0,-0.0292,3201.1816,6.8213,0.4212,54.898979,9.790910,108.3,5.845,1.85,335.95,0.000000,0.000000,0.000000,0.000000
1386888942,1,0,485.9,0,-35,4,0,0,600,-0.0292,3210.5149,6.8213,0.4212,54.898998,9.790895,108.3,5.845,1.85,335.95,54.898979,9.790910,54.895069,9.793790
1386888942,1,0,485.9,0,-35,0,0,0,550,-0.0292,3219.8481,6.8213,0.4212,54.899017,9.790884,108.3,5.845,1.85,335.95,54.898979,9.790910,54.895069,9.793790
1386888943,1,0,485.9,0,-35,-4,0,0,500,-0.0292,3229.1814,6.8213,0.4212,54.899036,9.790878,108.3,5.845,1.85,335.95,54.898979,9.790910,54.895069,9.793790
1386888943,1,0,485.9,0,-35,-8,0,0,450,-0.0292,3238.5146,6.8213,0.4212,54.899055,9.790877,108.3,5.845,1.85,335.95,54.898979,9.790910,54.895069,9.793790
1386888943,1,0,485.9,0,-35,-12,0,0,400,-0.0292,3247.8479,6.8213,0.4212,54.899071,9.790881,108.3,5.845,1.85,335.95,54.898979,9.790910,54.895069,9.793790
1386888943,1,0,485.9,0,-35,-16,0,0,350,-0.0292,3257.1812,6.8213,0.4212,54.899090,9.790890,108.3,5.845,1.85,335.95,54.898979,9.790910,54.895069,9.793790
1386888944,1,0,485.9,0,-35,-20,0,0,300,-0.0292,3266.5144,6.8213,0.4212,54.899105,9.790903,108.3,5.845,1.85,335.95,54.898979,9.790910,54.895069,9.793790
1386888944,1,0,485.9,0,-35,-24,0,0,250,-0.0292,3275.8477,6.8213,0.4212,54.899117,9.790921,108.3,5.845,1.85,335.95,54.898979,9.790910,54.895069,9.793790
1386888944,1,0,485.9,0,-35,-28,0,12,200,-0.0292,3285.1809,6.8213,0.4212,54.899128,9.790943,108.3,5.845,1.85,335.95,54.898979,9.790910,54.895069,9.793790
1386888944,1,0,485.9,0,-35,-32,0,94,150,-0.0292,3294.5142,6.8213,0.4212,54.899136,9.790969,108.3,5.845,1.85,335.95,54.898979,9.790910,54.895069,9.793790
1386888945,1,0,485.9,0,-35,-36,0,221,200,-0.0292,3303.8474,6.8213,0.4212,54.899143,9.790997,108.3,5.845,1.85,335.95,54.898979,9.790910,54.895069,9.793790
1386888945,1,0,485.9,0,-35,-32,0,365,250,-0.0292,3313.1807,6.8213,0.4212,54.899151,9.791027,108.3,5.845,1.85,335.95,54.898979,9.790910,54.895069,9.793790
1386888945,1,0,485.9,0,-35,-36,0,514,300,-0.0292,3322.5139,6.8213,0.4212,54.899155,9.791059,108.3,5.845,1.85,335.95,54.898979,9.790910,54.895069,9.793790
1386888945,1,0,485.9,0,-35,-32,0,661,350,-0.0292,3331.8472,6.8213,0.4212,54.899151,9.791090,108.3,5.845,1.85,335.95,54.898979,9.790910,54.895069,9.793790
1386888946,1,0,485.9,0,-34,-36,0,800,400,-0.0292,3340.9138,6.8213,0.4212,54.899151,9.791121,108.3,5.845,1.85,335.95,54.898979,9.790910,54.895069,9.793790
1386888946,1,0,485.9,0,-25,-32,0,870,450,-0.0292,3347.5806,6.8213,0.4212,54.899147,9.791150,108.3,5.845,1.85,335.95,54.898979,9.790910,54.895069,9.793790
1386888946,1,0,485.9,0,-18,-28,0,870,500,-0.0292,3352.3806,6.8213,0.4212,54.899143,9.791179,108.3,5.845,1.85,335.95,54.898979,9.790910,54.895069,9.793790
1386888946,1,0,485.9,0,-14,-24,0,713,550,-0.0292,3356.1140,6.8213,0.4212,54.899136,9.791206,108.3,5.845,1.85,335.95,54.898979,9.790910,54.895069,9.793790
1386888947,1,0,485.9,0,-10,-20,0,713,600,-0.0292,3358.7808,6.8213,0.4212,54.899128,9.791234,108.3,5.845,1.85,335.95,54.898979,9.790910,54.895069,9.793790
1386888947,1,0,485.9,0,-7,-16,0,0,550,-0.0292,3360.6475,6.8213,0.4212,54.899117,9.791261,108.3,5.845,1.85,335.95,54.898979,9.790910,54.895069,9.793790
1386888947,1,0,485.9,0,-5,-12,0,0,500,-0.0292,3361.9807,6.8213,0.4212,54.899109,9.791286,108.3,5.845,1.85,335.95,54.898979,9.790910,54.895069,9.793790
1386888947,1,0,485.9,0,-4,-8,0,0,450,-0.0292,3363.0474,6.8213,0.4212,54.899097,9.791313,108.3,5.845,1.85,335.95,54.898979,9.790910,54.895069,9.793790
1386888948,1,0,485.9,0,-3,-4,0,0,400,-0.0292,3363.8474,6.8213,0.4212,54.899090,9.791339,108.3,5.845,1.85,335.95,54.898979,9.790910,54.895069,9.793790
1386888948,1,0,485.9,0,-2,0,0,0,350,-0.0292,3364.3809,6.8213,0.4212,54.899078,9.791365,108.3,5.845,1.85,335.95,54.898979,9.790910,54.895069,9.793790
1386888948,1,0,485.9,0,-2,-4,0,0,300,-0.0292,3364.9143,6.8213,0.4212,54.899067,9.791390,108.3,5.845,1.85,335.95,54.898979,9.790910,54.895069,9.793790
1386888948,1,0,485.9,0,-1,0,0,0,250,-0.0292,3365.1809,6.8213,0.4212,54.899055,9.791415,108.3,5.845,1.85,335.95,54.898979,9.790910,54.895069,9.793790
1386888949,1,0,485.9,0,-1,-4,0,0,200,-0.0292,3365.4475,6.8213,0.4212,54.899044,9.791441,108.3,5.845,1.85,335.95,54.898979,9.790910,54.895069,9.793790
1386888949,1,0,485.9,0,0,0,0,0,150,-0.0292,3365.4475,6.8213,0.4212,54.899033,9.791466,108.3,5.845,1.85,335.95,54.898979,9.790910,54.895069,9.793790
1386888949,1,0,485.9,0,0,4,0,0,100,-0.0292,3365.4475,6.8213,0.4212,54.899021,9.791492,108.3,5.845,1.85,335.95,54.898979,9.790910,54.895069,9.793790
1386888949,1,0,485.9,0,0,0,0,0,50,-0.0292,3365.4475,6.8213,0.4212,54.899010,9.791517,108.3,5.845,1.85,335.95,54.898979,9.790910,54.895069,9.793790
1386888950,1,0,485.9,0,0,4,0,0,0,-0.0292,3365.4475,6.8213,0.4212,54.898998,9.791542,108.3,5.845,1.85,335.95,54.898979,9.790910,54.895069,9.793790
1386888950,1,0,485.9,0,0,0,0,0,50,-0.0292,3365.4475,6.8213,0.4212,54.898991,9.791568,108.3,5.845,1.85,335.95,54.898979,9.790910,54.895069,9.793790
1386888950,1,0,545.9,0,-35,-4,0,0,0,-0.0292,3374.7808,6.8213,0.4212,54.898979,9.791590,108.3,5.845,1.85,335.95,54.898979,9.790910,54.895069,9.793790
1386888950,1,0,545.9,0,-35,-8,0,0,50,-0.0292,3384.1140,6.8213,0.4212,54.898968,9.791608,108.3,5.845,1.85,335.95,54.898979,9.790910,54.895069,9.793790
1386888951,1,0,545.9,0,-35,-12,0,0,0,-0.0292,3393.4473,6.8213,0.4212,54.898952,9.791621,108.3,5.845,1.85,335.95,54.898979,9.790910,54.895069,9.793790
1386888951,1,0,545.9,0,-32,-16,0,0,50,-0.0292,3401.9807,6.8213,0.4212,54.898937,9.791631,108.3,5.845,1.85,335.95,54.898979,9.790910,54.895069,9.793790
1386888951,1,0,545.9,0,-24,-20,0,0,0,-0.0292,3408.3806,6.8213,0.4212,54.898918,9.791637,108.3,5.845,1.85,335.95,54.898979,9.790910,54.895069,9.793790
1386888951,1,0,545.9,0,-18,-16,0,0,50,-0.0292,3413.1807,6.8213,0.4212,54.898899,9.791641,108.3,5.845,1.85,335.95,54.898979,9.790910,54.895069,9.793790
1386888952,1,0,545.9,0,-13,-12,0,0,0,-0.0292,3416.6472,6.8213,0.4212,54.898884,9.791643,108.3,5.845,1.85,335.95,54.898979,9.790910,54.895069,9.793790
1386888952,1,0,545.9,0,-9,-8,0,0,50,-0.0292,3419.0471,6.8213,0.4212,54.898865,9.791644,108.3,5.845,1.85,335.95,54.898979,9.790910,54.895069,9.793790
1386888952,1,0,545.9,0,-7,-4,0,713,100,-0.0292,3420.9138,6.8213,0.4212,54.898846,9.791644,108.3,5.845,1.85,335.95,54.898979,9.790910,54.895069,9.793790
1386888952,1,0,545.9,0,-5,-8,0,713,150,-0.0292,3422.2471,6.8213,0.4212,54.898827,9.791643,108.3,5.845,1.85,335.95,54.898979,9.790910,54.895069,9.793790
1386888953,1,0,545.9,0,-4,-4,0,713,200,-0.0292,3423.3137,6.8213,0.4212,54.898811,9.791642,108.3,5.845,1.85,335.95,54.898979,9.790910,54.895069,9.793790
1386888953,1,0,545.9,0,-3,0,0,713,250,-0.0292,3424.1138,6.8213,0.4212,54.898792,9.791640,108.3,5.845,1.85,335.95,54.898979,9.790910,54.895069,9.793790
1386888953,1,0,545.9,0,-2,-4,0,713,300,-0.0292,3424.6472,6.8213,0.4212,54.898773,9.791638,108.3,5.845,1.85,335.95,54.898979,9.790910,54.895069,9.793790
1386888953,1,0,545.9,0,-1,0,0,713,350,-0.0292,3424.9138,6.8213,0.4212,54.898754,9.791636,108.3,5.845,1.85,335.95,54.898979,9.790910,54.895069,9.793790
1386888954,1,0,545.9,0,-1,-4,0,713,400,-0.0292,3425.1804,6.8213,0.4212,54.898739,9.791634,108.3,5.845,1.85,335.95,54.898979,9.790910,54.895069,9.793790
1386888954,1,0,545.9,0,-1,0,0,713,450,-0.0292,3425.4470,6.8213,0.4212,54.898720,9.791631,108.3,5.845,1.85,335.95,54.898979,9.790910,54.895069,9.793790
1386888954,1,0,545.9,0,0,4,0,713,500,-0.0292,3425.4470,6.8213,0.4212,54.898701,9.791628,108.3,5.845,1.85,335.95,54.898979,9.790910,54.895069,9.793790
1386888954,1,0,545.9,0,0,0,0,713,550,-0.0292,3425.4470,6.8213,0.4212,54.898682,9.791625,108.3,5.845,1.85,335.95,54.898979,9.790910,54.895069,9.793790
1386888955,1,0,545.9,0,0,4,0,713,600,-0.0292,3425.4470,6.8213,0.4212,54.898666,9.791622,108.3,5.845,1.85,335.95,54.898979,9.790910,54.895069,9.793790
1386888955,1,0,545.9,0,0,0,0,713,650,-0.0292,3425.4470,6.8213,0.4212,54.898647,9.791619,108.3,5.845,1.85,335.95,54.898979,9.790910,54.895069,9.793790
1386888955,1,0,545.9,0,0,4,0,713,700,-0.0292,3425.4470,6.8213,0.4212,54.898628,9.791616,108.3,5.845,1.85,335.95,54.898979,9.790910,54.895069,9.793790
1386888955,1,0,545.9,0,0,0,0,713,750,-0.0292,3425.4470,6.8213,0.4212,54.898613,9.791614,108.3,5.845,1.85,335.95,54.898979,9.790910,54.895069,9.793790
1386888956,1,0,545.9,0,0,4,0,713,700,-0.0292,3425.4470,6.8213,0.4212,54.898594,9.791611,108.3,5.845,1.85,335.95,54.898979,9.790910,54.895069,9.793790
1386888956,1,0,545.9,0,0,0,0,713,750,-0.0292,3425.4470,6.8213,0.4212,54.898575,9.791608,108.3,5.845,1.85,335.95,54.898979,9.790910,54.895069,9.793790
1386888956,1,0,545.9,0,0,4,0,713,700,-0.0292,3425.4470,6.8213,0.4212,54.898556,9.791605,108.3,5.845,1.85,335.95,54.898979,9.790910,54.895069,9.793790
1386888956,1,0,545.9,0,0,0,0,713,750,-0.0292,3425.4470,6.8213,0.4212,54.898540,9.791601,108.3,5.845,1.85,335.95,54.898979,9.790910,54.895069,9.793790
1386888957,1,0,545.9,0,0,4,0,713,700,-0.0292,3425.4470,6.8213,0.4212,54.898521,9.791598,108.3,5.845,1.85,335.95,54.898979,9.790910,54.895069,9.793790
1386888957,1,0,545.9,0,0,0,0,713,750,-0.0292,3425.4470,6.8213,0.4212,54.898502,9.791595,108.3,5.845,1.85,335.95,54.898979,9.790910,54.895069,9.793790
1386888957,1,0,545.9,0,0,4,0,713,700,-0.0292,3425.4470,6.8213,0.4212,54.898483,9.791593,108.3,5.845,1.85,335.95,54.898979,9.790910,54.895069,9.793790
1386888957,1,0,545.9,0,0,0,0,713,750,-0.0292,3425.4470,6.8213,0.4212,54.898468,9.791590,108.3,5.845,1.85,335.95,54.898979,9.790910,54.895069,9.793790
1386888958,1,0,545.9,0,0,4,0,713,700,-0.0292,3425.4470,6.8213,0.4212,54.898449,9.791587,108.3,5.845,1.85,335.95,54.898979,9.790910,54.895069,9.793790
1386888958,1,0,545.9,0,0,0,0,713,750,-0.0292,3425.4470,6.8213,0.4212,54.898430,9.791584,108.3,5.845,1.85,335.95,54.898979,9.790910,54.895069,9.793790
1386888958,1,0,545.9,0,0,4,0,713,700,-0.0292,3425.4470,6.8213,0.4212,54.898411,9.791581,108.3,5.845,1.85,335.95,54.898979,9.790910,54.895069,9.793790
1386888958,1,0,545.9,0,0,0,0,713,750,-0.0292,3425.4470,6.8213,0.4212,54.898396,9.791578,108.3,5.845,1.85,335.95,54.898979,9.790910,54.895069,9.793790
1386888959,1,0,545.9,0,0,4,0,713,700,-0.0292,3425.4470,6.8213,0.4212,54.898376,9.791575,108.3,5.845,1.85,335.95,54.898979,9.790910,54.895069,9.793790
1386888959,1,0,545.9,0,0,0,0,713,750,-0.0292,3425.4470,6.8213,0.4212,54.898357,9.791573,108.3,5.845,1.85,335.95,54.898979,9.790910,54.895069,9.793790
1386888959,1,0,545.9,0,0,4,0,713,700,-0.0292,3425.4470,6.8213,0.4212,54.898342,9.791570,108.3,5.845,1.85,335.95,54.898979,9.790910,54.895069,9.793790
1386888959,1,0,545.9,0,0,0,0,713,750,-0.0292,3425.4470,6.8213,0.4212,54.898323,9.791567,108.3,5.845,1.85,335.95,54.898979,9.790910,54.895069,9.793790
1386888960,1,0,545.9,0,0,4,0,713,700,-0.0292,3425.4470,6.8213,0.4212,54.898304,9.791564,108.3,5.845,1.85,335.95,54.898979,9.790910,54.895069,9.793790
1386888960,1,0,545.9,0,0,0,0,713,750,-0.0292,3425.4470,6.8213,0.4212,54.898285,9.791560,108.3,5.845,1.85,335.95,54.898979,9.790910,54.895069,9.793790
1386888960,1,0,545.9,0,0,4,0,713,700,-0.0292,3425.4470,6.8213,0.4212,54.898270,9.791556,108.3,5.845,1.85,335.95,54.898979,9.790910,54.895069,9.793790
1386888960,1,0,545.9,0,0,0,0,713,750,-0.0292,3425.4470,6.8213,0.4212,54.898251,9.791553,108.3,5.845,1.85,335.95,54.898979,9.790910,54.895069,9.793790
1386888961,1,0,545.9,0,0,4,0,713,700,-0.0292,3425.4470,6.8213,0.4212,54.898232,9.791551,108.3,5.845,1.85,335.95,54.898979,9.790910,54.895069,9.793790
1386888961,1,0,545.9,0,0,0,0,713,750,-0.0292,3425.4470,6.8213,0.4212,54.898212,9.791548,108.3,5.845,1.85,335.95,54.898979,9.790910,54.895069,9.793790
1386888961,1,0,545.9,0,0,4,0,713,700,-0.0292,3425.4470,6.8213,0.4212,54.898197,9.791545,108.3,5.845,1.85,335.95,54.898979,9.790910,54.895069,9.793790
1386888961,1,0,545.9,0,0,0,0,713,750,-0.0292,3425.4470,6.8213,0.4212,54.898178,9.791542,108.3,5.845,1.85,335.95,54.898979,9.790910,54.895069,9.793790
1386888962,1,0,545.9,0,0,4,0,713,700,-0.0292,3425.4470,6.8213,0.4212,54.898159,9.791539,108.3,5.845,1.85,335.95,54.898979,9.790910,54.895069,9.793790
1386888962,1,0,545.9,0,0,0,0,713,750,-0.0292,3425.4470,6.8213,0.4212,54.898140,9.791536,108.3,5.845,1.85,335.95,54.898979,9.790910,54.895069,9.793790
1386888962,1,0,545.9,0,0,4,0,713,700,-0.0292,3425.4470,6.8213,0.4212,54.898125,9.791533,108.3,5.845,1.85,335.95,54.898979,9.790910,54.895069,9.793790
1386888962,1,0,545.9,0,0,0,0,713,750,-0.0292,3425.4470,6.8213,0.4212,54.898106,9.791531,108.3,5.845,1.85,335.95,54.898979,9.790910,54.895069,9.793790
1386888963,1,0,545.9,0,0,4,0,713,700,-0.0292,3425.4470,6.8213,0.4212,54.898087,9.791528,108.3,5.845,1.85,335.95,54.898979,9.790910,54.895069,9.793790
1386888963,1,0,545.9,0,0,0,0,713,750,-0.0292,3425.4470,6.8213,0.4212,54.898071,9.791525,108.3,5.845,1.85,335.95,54.898979,9.790910,54.895069,9.793790
1386888963,1,0,545.9,0,0,4,0,713,700,-0.0292,3425.4470,6.8213,0.4212,54.898052,9.791522,108.3,5.845,1.85,335.95,54.898979,9.790910,54.895069,9.793790
1386888963,1,0,545.9,0,0,0,0,713,750,-0.0292,3425.4470,6.8213,0.4212,54.898033,9.791519,108.3,5.845,1.85,335.95,54.898979,9.790910,54.895069,9.793790
1386888964,1,0,545.9,0,0,4,0,713,700,-0.0292,3425.4470,6.8213,0.4212,54.898014,9.791515,108.3,5.845,1.85,335.95,54.898979,9.790910,54.895069,9.793790
1386888964,1,0,545.9,0,0,0,0,713,750,-0.0292,3425.4470,6.8213,0.4212,54.897999,9.791512,108.3,5.845,1.85,335.95,54.898979,9.790910,54.895069,9.793790
1386888964,1,0,545.9,0,0,4,0,713,700,-0.0292,3425.4470,6.8213,0.4212,54.897980,9.791510,108.3,5.845,1.85,335.95,54.898979,9.790910,54.895069,9.793790
1386888964,1,0,545.9,0,0,0,0,713,750,-0.0292,3425.4470,6.8213,0.4212,54.897961,9.791507,108.3,5.845,1.85,335.95,54.898979,9.790910,54.895069,9.793790
1386888965,1,0,545.9,0,0,4,0,713,700,-0.0292,3425.4470,6.8213,0.4212,54.897942,9.791504,108.3,5.845,1.85,335.95,54.898979,9.790910,54.895069,9.793790
1386888965,1,0,545.9,0,0,0,0,713,750,-0.0292,3425.4470,6.8213,0.4212,54.897926,9.791501,108.3,5.845,1.85,335.95,54.898979,9.790910,54.895069,9.793790
1386888965,1,0,545.9,0,0,4,0,713,700,-0.0292,3425.4470,6.8213,0.4212,54.897907,9.791498,108.3,5.845,1.85,335.95,54.898979,9.790910,54.895069,9.793790
1386888965,1,0,545.9,0,0,0,0,713,750,-0.0292,3425.4470,6.8213,0.4212,54.897888,9.791495,108.3,5.845,1.85,335.95,54.898979,9.790910,54.895069,9.793790
1386888966,1,0,545.9,0,0,4,0,713,700,-0.0292,3425.4470,6.8213,0.4212,54.897869,9.791492,108.3,5.845,1.85,335.95,54.898979,9.790910,54.895069,9.793790
1386888966,1,0,545.9,0,0,0,0,713,750,-0.0292,3425.4470,6.8213,0.4212,54.897854,9.791490,108.3,5.845,1.85,335.95,54.898979,9.790910,54.895069,9.793790
1386888966,1,0,545.9,0,0,4,0,713,700,-0.0292,3425.4470,6.8213,0.4212,54.897835,9.791487,108.3,5.845,1.85,335.95,54.898979,9.790910,54.895069,9.793790
1386888966,1,0,545.9,0,0,0,0,713,750,-0.0292,3425.4470,6.8213,0.4212,54.897816,9.791484,108.3,5.845,1.85,335.95,54.898979,9.790910,54.895069,9.793790
1386888967,1,0,545.9,0,0,4,0,713,700,-0.0292,3425.4470,6.8213,0.4212,54.897800,9.791481,108.3,5.845,1.85,335.95,54.898979,9.790910,54.895069,9.793790
1386888967,1,0,545.9,0,0,0,0,713,750,-0.0292,3425.4470,6.8213,0.4212,54.897781,9.791478,108.3,5.845,1.85,335.95,54.898979,9.790910,54.895069,9.793790
1386888967,1,0,545.9,0,0,4,0,713,700,-0.0292,3425.4470,6.8213,0.4212,54.897762,9.791474,108.3,5.845,1.85,335.95,54.898979,9.790910,54.895069,9.793790
1386888967,1,0,545.9,0,0,0,0,713,750,-0.0292,3425.4470,6.8213,0.4212,54.897743,9.791471,108.3,5.845,1.85,335.95,54.898979,9.790910,54.895069,9.793790
1386888968,1,0,545.9,0,0,4,0,713,700,-0.0292,3425.4470,6.8213,0.4212,54.897728,9.791468,108.3,5.845,1.85,335.95,54.898979,9.790910,54.895069,9.793790
1386888968,1,0,545.9,0,0,0,0,713,750,-0.0292,3425.4470,6.8213,0.4212,54.897709,9.791465,108.3,5.845,1.85,335.95,54.898979,9.790910,54.895069,9.793790
1386888968,1,0,545.9,0,0,4,0,713,700,-0.0292,3425.4470,6.8213,0.4212,54.897690,9.791462,108.3,5.845,1.85,335.95,54.898979,9.790910,54.895069,9.793790
1386888968,1,0,545.9,0,0,0,0,713,750,-0.0292,3425.4470,6.8213,0.4212,54.897671,9.791459,108.3,5.845,1.85,335.95,54.898979,9.790910,54.895069,9.793790
1386888969,1,0,545.9,0,0,4,0,713,700,-0.0292,3425.4470,6.8213,0.4212,54.897655,9.791456,108.3,5.845,1.85,335.95,54.898979,9.790910,54.895069,9.793790
1386888969,1,0,545.9,0,0,0,0,713,750,-0.0292,3425.4470,6.8213,0.4212,54.897636,9.791453,108.3,5.845,1.85,335.95,54.898979,9.790910,54.895069,9.793790
1386888969,1,0,545.9,0,0,4,0,713,700,-0.0292,3425.4470,6.8213,0.4212,54.897617,9.791451,108.3,5.845,1.85,335.95,54.898979,9.790910,54.895069,9.793790
1386888969,1,0,545.9,0,0,0,0,713,750,-0.0292,3425.4470,6.8213,0.4212,54.897598,9.791448,108.3,5.845,1.85,335.95,54.898979,9.790910,54.895069,9.793790
1386888970,1,0,545.9,0,0,4,0,713,700,-0.0292,3425.4470,6.8213,0.4212,54.897583,9.791445,108.3,5.845,1.85,335.95,54.898979,9.790910,54.895069,9.793790
1386888970,1,0,545.9,0,0,0,0,713,750,-0.0292,3425.4470,6.8213,0.4212,54.897564,9.791442,108.3,5.845,1.85,335.95,54.898979,9.790910,54.895069,9.793790
1386888970,1,0,545.9,0,0,4,0,713,700,-0.0292,3425.4470,6.8213,0.4212,54.897545,9.791439,108.3,5.845,1.85,335.95,54.898979,9.790910,54.895069,9.793790
1386888970,1,0,545.9,0,0,0,0,713,750,-0.0292,3425.4470,6.8213,0.4212,54.897526,9.791436,108.3,5.845,1.85,335.95,54.898979,9.790910,54.895069,9.793790
1386888971,1,0,545.9,0,0,4,0,713,700,-0.0292,3425.4470,6.8213,0.4212,54.897511,9.791433,108.3,5.845,1.85,335.95,54.898979,9.790910,54.895069,9.793790
1386888971,1,0,545.9,0,0,0,0,713,750,-0.0292,3425.4470,6.8213,0.4212,54.897491,9.791430,108.3,5.845,1.85,335.95,54.898979,9.790910,54.895069,9.793790
1386888971,1,0,545.9,0,0,4,0,713,700,-0.0292,3425.4470,6.8213,0.4212,54.897472,9.791427,108.3,5.845,1.85,335.95,54.898979,9.790910,54.895069,9.793790
1386888971,1,0,545.9,0,0,0,0,713,750,-0.0292,3425.4470,6.8213,0.4212,54.897457,9.791424,108.3,5.845,1.85,335.95,54.898979,9.790910,54.895069,9.793790
1386888972,1,0,545.9,0,0,4,0,713,700,-0.0292,3425.4470,6.8213,0.4212,54.897438,9.791421,108.3,5.845,1.85,335.95,54.898979,9.790910,54.895069,9.793790
1386888972,1,0,545.9,0,0,0,0,713,750,-0.0292,3425.4470,6.8213,0.4212,54.897419,9.791418,108.3,5.845,1.85,335.95,54.898979,9.790910,54.895069,9.793790
1386888972,1,0,545.9,0,0,4,0,713,700,-0.0292,3425.4470,6.8213,0.4212,54.897400,9.791415,108.3,5.845,1.85,335.95,54.898979,9.790910,54.895069,9.793790
1386888972,1,0,545.9,0,0,0,0,713,750,-0.0292,3425.4470,6.8213,0.4212,54.897385,9.791412,108.3,5.845,1.85,335.95,54.898979,9.790910,54.895069,9.793790
1386888973,1,0,545.9,0,0,4,0,713,700,-0.0292,3425.4470,6.8213,0.4212,54.897366,9.791409,108.3,5.845,1.85,335.95,54.898979,9.790910,54.895069,9.793790
1386888973,1,0,545.9,0,0,0,0,713,750,-0.0292,3425.4470,6.8213,0.4212,54.897346,9.791407,108.3,5.845,1.85,335.95,54.898979,9.790910,54.895069,9.793790
1386888973,1,0,545.9,0,0,4,0,713,700,-0.0292,3425.4470,6.8213,0.4212,54.897327,9.791404,108.3,5.845,1.85,335.95,54.898979,9.790910,54.895069,9.793790
1386888973,1,0,545.9,0,0,0,0,713,750,-0.0292,3425.4470,6.8213,0.4212,54.897312,9.791401,108.3,5.845,1.85,335.95,54.898979,9.790910,54.895069,9.793790
1386888974,1,0,545.9,0,0,4,0,713,700,-0.0292,3425.4470,6.8213,0.4212,54.897293,9.791398,108.3,5.845,1.85,335.95,54.898979,9.790910,54.895069,9.793790
1386888974,1,0,545.9,0,0,0,0,713,750,-0.0292,3425.4470,6.8213,0.4212,54.897274,9.791395,108.3,5.845,1.85,335.95,54.898979,9.790910,54.895069,9.793790
1386888974,1,0,545.9,0,0,4,0,713,700,-0.0292,3425.4470,6.8213,0.4212,54.897255,9.791392,108.3,5.845,1.85,335.95,54.898979,9.790910,54.895069,9.793790
1386888974,1,0,545.9,0,0,0,0,713,750,-0.0292,3425.4470,6.8213,0.4212,54.897240,9.791389,108.3,5.845,1.85,335.95,54.898979,9.790910,54.895069,9.793790
1386888975,1,0,545.9,0,0,4,0,713,700,-0.0292,3425.4470,6.8213,0.4212,54.897221,9.791385,108.3,5.845,1.85,335.95,54.898979,9.790910,54.895069,9.793790
1386888975,1,0,545.9,0,0,0,0,713,750,-0.0292,3425.4470,6.8213,0.4212,54.897202,9.791382,108.3,5.845,1.85,335.95,54.898979,9.790910,54.895069,9.793790
1386888975,1,0,545.9,0,0,4,0,713,700,-0.0292,3425.4470,6.8213,0.4212,54.897186,9.791379,108.3,5.845,1.85,335.95,54.898979,9.790910,54.895069,9.793790
1386888975,1,0,545.9,0,0,0,0,713,750,-0.0292,3425.4470,6.8213,0.4212,54.897167,9.791376,108.3,5.845,1.85,335.95,54.898979,9.790910,54.895069,9.793790
1386888976,1,0,545.9,0,0,4,0,713,700,-0.0292,3425.4470,6.8213,0.4212,54.897148,9.791373,108.3,5.845,1.85,335.95,54.898979,9.790910,54.895069,9.793790
1386888976,1,0,545.9,0,0,0,0,713,750,-0.0292,3425.4470,6.8213,0.4212,54.897129,9.791370,108.3,5.845,1.85,335.95,54.898979,9.790910,54.895069,9.793790
1386888976,1,0,545.9,0,0,4,0,713,700,-0.0292,3425.4470,6.8213,0.4212,54.897114,9.791368,108.3,5.845,1.85,335.95,54.898979,9.790910,54.895069,9.793790
1386888977,1,0,545.9,0,0,0,0,713,750,-0.0292,3425.4470,6.8213,0.4212,54.897095,9.791365,108.3,5.845,1.85,335.95,54.898979,9.790910,54.895069,9.793790
1386888977,1,0,545.9,0,0,4,0,713,700,-0.0292,3425.4470,6.8213,0.4212,54.897076,9.791362,108.3,5.845,1.85,335.95,54.898979,9.790910,54.895069,9.793790
1386888977,1,0,545.9,0,0,0,0,713,750,-0.0292,3425.4470,6.8213,0.4212,54.897057,9.791359,108.3,5.845,1.85,335.95,54.898979,9.790910,54.895069,9.793790
1386888977,1,0,545.9,0,0,4,0,713,700,-0.0292,3425.4470,6.8213,0.4212,54.897041,9.791356,108.3,5.845,1.85,335.95,54.898979,9.790910,54.895069,9.793790
1386888978,1,0,545.9,0,0,0,0,713,750,-0.0292,3425.4470,6.8213,0.4212,54.897022,9.791353,108.3,5.845,1.85,335.95,54.898979,9.790910,54.895069,9.793790
1386888978,1,0,545.9,0,0,4,0,713,700,-0.0292,3425.4470,6.8213,0.4212,54.897003,9.791350,108.3,5.845,1.85,335.95,54.898979,9.790910,54.895069,9.793790
1386888978,1,0,545.9,0,0,0,0,713,750,-0.0292,3425.4470,6.8213,0.4212,54.896984,9.791348,108.3,5.845,1.85,335.95,54.898979,9.790910,54.895069,9.793790
1386888978,1,0,545.9,0,0,4,0,713,700,-0.0292,3425.4470,6.8213,0.4212,54.896969,9.791344,108.3,5.845,1.85,335.95,54.898979,9.790910,54.895069,9.793790
1386888979,1,0,545.9,0,0,0,0,713,750,-0.0292,3425.4470,6.8213,0.4212,54.896950,9.791341,108.3,5.845,1.85,335.95,54.898979,9.790910,54.895069,9.793790
1386888979,1,0,545.9,0,0,4,0,713,700,-0.0292,3425.4470,6.8213,0.4212,54.896931,9.791338,108.3,5.845,1.85,335.95,54.898979,9.790910,54.895069,9.793790
1386888979,1,0,545.9,0,0,0,0,713,750,-0.0292,3425.4470,6.8213,0.4212,54.896915,9.791335,108.3,5.845,1.85,335.95,54.898979,9.790910,54.895069,9.793790
1386888979,1,0,545.9,0,0,4,0,713,700,-0.0292,3425.4470,6.8213,0.4212,54.896896,9.791332,108.3,5.845,1.85,335.95,54.898979,9.790910,54.895069,9.793790
1386888980,1,0,545.9,0,0,0,0,713,750,-0.0292,3425.4470,6.8213,0.4212,54.896877,9.791329,108.3,5.845,1.85,335.95,54.898979,9.790910,54.895069,9.793790
1386888980,1,0,545.9,0,0,4,0,713,700,-0.0292,3425.4470,6.8213,0.4212,54.896858,9.791327,108.3,5.845,1.85,335.95,54.898979,9.790910,54.895069,9.793790
1386888980,1,0,545.9,0,0,0,0,713,750,-0.0292,3425.4470,6.8213,0.4212,54.896843,9.791324,108.3,5.845,1.85,335.95,54.898979,9.790910,54.895069,9.793790
1386888980,1,0,545.9,0,0,4,0,713,700,-0.0292,3425.4470,6.8213,0.4212,54.896824,9.791321,108.3,5.845,1.85,335.95,54.898979,9.790910,54.895069,9.793790
1386888981,1,0,545.9,0,0,0,0,713,750,-0.0292,3425.4470,6.8213,0.4212,54.896805,9.791318,108.3,5.845,1.85,335.95,54.898979,9.790910,54.895069,9.793790
1386888981,1,0,545.9,0,0,4,0,713,700,-0.0292,3425.4470,6.8213,0.4212,54.896786,9.791315,108.3,5.845,1.85,335.95,54.898979,9.790910,54.895069,9.793790
1386888981,1,0,545.9,0,0,0,0,713,750,-0.0292,3425.4470,6.8213,0.4212,54.896770,9.791312,108.3,5.845,1.85,335.95,54.898979,9.790910,54.895069,9.793790
1386888981,1,0,545.9,0,0,4,0,713,700,-0.0292,3425.4470,6.8213,0.4212,54.896751,9.791309,108.3,5.845,1.85,335.95,54.898979,9.790910,54.895069,9.793790
1386888982,1,0,545.9,0,0,0,0,713,750,-0.0292,3425.4470,6.8213,0.4212,54.896732,9.791306,108.3,5.845,1.85,335.95,54.898979,9.790910,54.895069,9.793790
1386888982,1,0,545.9,0,0,4,0,713,700,-0.0292,3425.4470,6.8213,0.4212,54.896713,9.791303,108.3,5.845,1.85,335.95,54.898979,9.790910,54.895069,9.793790
1386888982,1,0,545.9,0,0,0,0,713,750,-0.0292,3425.4470,6.8213,0.4212,54.896698,9.791299,108.3,5.845,1.85,335.95,54.898979,9.790910,54.895069,9.793790
1386888982,1,0,545.9,0,0,4,0,713,700,-0.0292,3425.4470,6.8213,0.4212,54.896679,9.791296,108.3,5.845,1.85,335.95,54.898979,9.790910,54.895069,9.793790
1386888983,1,0,545.9,0,0,0,0,713,750,-0.0292,3425.4470,6.8213,0.4212,54.896660,9.791293,108.3,5.845,1.85,335.95,54.898979,9.790910,54.895069,9.793790
1386888983,1,0,545.9,0,0,4,0,713,700,-0.0292,3425.4470,6.8213,0.4212,54.896645,9.791290,108.3,5.845,1.85,335.95,54.898979,9.790910,54.895069,9.793790
1386888983,1,0,545.9,0,0,0,0,713,750,-0.0292,3425.4470,6.8213,0.4212,54.896626,9.791287,108.3,5.845,1.85,335.95,54.898979,9.790910,54.895069,9.793790
1386888983,1,0,545.9,0,0,4,0,713,700,-0.0292,3425.4470,6.8213,0.4212,54.896606,9.791285,108.3,5.845,1.85,335.95,54.898979,9.790910,54.895069,9.793790
1386888984,1,0,545.9,0,0,0,0,713,750,-0.0292,3425.4470,6.8213,0.4212,54.896587,9.791282,108.3,5.845,1.85,335.95,54.898979,9.790910,54.895069,9.793790
1386888984,1,0,545.9,0,0,4,0,713,700,-0.0292,3425.4470,6.8213,0.4212,54.896572,9.791279,108.3,5.845,1.85,335.95,54.898979,9.790910,54.895069,9.793790
1386888984,1,0,545.9,0,0,0,0,713,750,-0.0292,3425.4470,6.8213,0.4212,54.896553,9.791276,108.3,5.845,1.85,335.95,54.898979,9.790910,54.895069,9.793790
1386888984,1,0,545.9,0,0,4,0,713,700,-0.0292,3425.4470,6.8213,0.4212,54.896534,9.791273,108.3,5.845,1.85,335.95,54.898979,9.790910,54.895069,9.793790
1386888985,1,0,545.9,0,0,0,0,713,750,-0.0292,3425.4470,6.8213,0.4212,54.896515,9.791270,108.3,5.845,1.85,335.95,54.898979,9.790910,54.895069,9.793790
1386888985,1,0,545.9,0,0,4,0,713,700,-0.0292,3425.4470,6.8213,0.4212,54.896500,9.791267,108.3,5.845,1.85,335.95,54.898979,9.790910,54.895069,9.793790
1386888985,1,0,545.9,0,0,0,0,713,750,-0.0292,3425.4470,6.8213,0.4212,54.896481,9.791265,108.3,5.845,1.85,335.95,54.898979,9.790910,54.895069,9.793790
1386888985,1,0,545.9,0,0,4,0,713,700,-0.0292,3425.4470,6.8213,0.4212,54.896461,9.791262,108.3,5.845,1.85,335.95,54.898979,9.790910,54.895069,9.793790
1386888986,1,0,545.9,0,0,0,0,713,750,-0.0292,3425.4470,6.8213,0.4212,54.896442,9.791258,108.3,5.845,1.85,335.95,54.898979,9.790910,54.895069,9.793790
1386888986,1,0,545.9,0,0,4,0,713,700,-0.0292,3425.4470,6.8213,0.4212,54.896427,9.791255,108.3,5.845,1.85,335.95,54.898979,9.790910,54.895069,9.793790
1386888986,1,0,545.9,0,0,0,0,713,750,-0.0292,3425.4470,6.8213,0.4212,54.896408,9.791252,108.3,5.845,1.85,335.95,54.898979,9.790910,54.895069,9.793790
1386888986,1,0,545.9,0,0,4,0,713,700,-0.0292,3425.4470,6.8213,0.4212,54.896389,9.791249,108.3,5.845,1.85,335.95,54.898979,9.790910,54.895069,9.793790
1386888987,1,0,545.9,0,0,0,0,713,750,-0.0292,3425.4470,6.8213,0.4212,54.896370,9.791246,108.3,5.845,1.85,335.95,54.898979,9.790910,54.895069,9.793790
1386888987,1,0,545.9,0,0,4,0,713,700,-0.0292,3425.4470,6.8213,0.4212,54.896355,9.791244,108.3,5.845,1.85,335.95,54.898979,9.790910,54.895069,9.793790
1386888987,1,0,545.9,0,0,0,0,713,750,-0.0292,3425.4470,6.8213,0.4212,54.896336,9.791241,108.3,5.845,1.85,335.95,54.898979,9.790910,54.895069,9.793790
1386888987,1,0,545.9,0,0,4,0,713,700,-0.0292,3425.4470,6.8213,0.4212,54.896317,9.791238,108.3,5.845,1.85,335.95,54.898979,9.790910,54.895069,9.793790
1386888988,1,0,545.9,0,0,0,0,713,750,-0.0292,3425.4470,6.8213,0.4212,54.896301,9.791235,108.3,5.845,1.85,335.95,54.898979,9.790910,54.895069,9.793790
1386888988,1,0,545.9,0,0,4,0,713,700,-0.0292,3425.4470,6.8213,0.4212,54.896282,9.791232,108.3,5.845,1.85,335.95,54.898979,9.790910,54.895069,9.793790
1386888988,1,0,545.9,0,0,0,0,713,750,-0.0292,3425.4470,6.8213,0.4212,54.896263,9.791229,108.3,5.845,1.85,335.95,54.898979,9.790910,54.895069,9.793790
1386888988,1,0,545.9,0,0,4,0,713,700,-0.0292,3425.4470,6.8213,0.4212,54.896244,9.791226,108.3,5.845,1.85,335.95,54.898979,9.790910,54.895069,9.793790
1386888989,1,0,545.9,0,0,0,0,713,750,-0.0292,3425.4470,6.8213,0.4212,54.896229,9.791224,108.3,5.845,1.85,335.95,54.898979,9.790910,54.895069,9.793790
1386888989,1,0,545.9,0,0,4,0,713,700,-0.0292,3425.4470,6.8213,0.4212,54.896210,9.791221,108.3,5.845,1.85,335.95,54.898979,9.790910,54.895069,9.793790
1386888989,1,0,545.9,0,0,0,0,713,750,-0.0292,3425.4470,6.8213,0.4212,54.896191,9.791217,108.3,5.845,1.85,335.95,54.898979,9.790910,54.895069,9.793790
1386888989,1,0,545.9,0,0,4,0,713,700,-0.0292,3425.4470,6.8213,0.4212,54.896172,9.791213,108.3,5.845,1.85,335.95,54.898979,9.790910,54.895069,9.793790
1386888990,1,0,545.9,0,0,0,0,713,750,-0.0292,3425.4470,6.8213,0.4212,54.896156,9.791210,108.3,5.845,1.85,335.95,54.898979,9.790910,54.895069,9.793790
1386888990,1,0,545.9,0,0,4,0,713,700,-0.0292,3425.4470,6.8213,0.4212,54.896137,9.791207,108.3,5.845,1.85,335.95,54.898979,9.790910,54.895069,9.793790
1386888990,1,0,545.9,0,0,0,0,713,750,-0.0292,3425.4470,6.8213,0.4212,54.896118,9.791204,108.3,5.845,1.85,335.95,54.898979,9.790910,54.895069,9.793790
1386888990,1,0,545.9,0,0,4,0,0,700,-0.0292,3425.4470,6.8213,0.4212,54.896099,9.791202,108.3,5.845,1.85,335.95,54.898979,9.790910,54.895069,9.793790
1386888991,1,0,545.9,0,0,0,0,0,650,-0.0292,3425.4470,6.8213,0.4212,54.896084,9.791199,108.3,5.845,1.85,335.95,54.898979,9.790910,54.895069,9.793790
1386888991,1,0,545.9,0,0,4,0,0,600,-0.0292,3425.4470,6.8213,0.4212,54.896065,9.791196,108.3,5.845,1.85,335.95,54.898979,9.790910,54.895069,9.793790
1386888991,1,0,545.9,0,0,0,0,0,550,-0.0292,3425.4470,6.8213,0.4212,54.896046,9.791193,108.3,5.845,1.85,335.95,54.898979,9.790910,54.895069,9.793790
1386888991,1,0,545.9,0,0,4,0,0,500,-0.0292,3425.4470,6.8213,0.4212,54.896030,9.791190,108.3,5.845,1.85,335.95,54.898979,9.790910,54.895069,9.793790
1386888992,1,0,545.9,0,0,0,0,0,450,-0.0292,3425.4470,6.8213,0.4212,54.896011,9.791187,108.3,5.845,1.85,335.95,54.898979,9.790910,54.895069,9.793790
1386888992,1,0,545.9,0,0,4,0,0,400,-0.0292,3425.4470,6.8213,0.4212,54.895992,9.791184,108.3,5.845,1.85,335.95,54.898979,9.790910,54.895069,9.793790
1386888992,1,0,545.9,0,0,0,0,0,350,-0.0292,3425.4470,6.8213,0.4212,54.895973,9.791182,108.3,5.845,1.85,335.95,54.898979,9.790910,54.895069,9.793790
1386888992,1,0,545.9,0,0,4,0,0,300,-0.0292,3425.4470,6.8213,0.4212,54.895958,9.791179,108.3,5.845,1.85,335.95,54.898979,9.790910,54.895069,9.793790
1386888993,1,0,545.9,0,0,0,0,0,250,-0.0292,3425.4470,6.8213,0.4212,54.895939,9.791176,108.3,5.845,1.85,335.95,54.898979,9.790910,54.895069,9.793790
1386888993,1,0,545.9,0,0,4,0,0,200,-0.0292,3425.4470,6.8213,0.4212,54.895920,9.791172,108.3,5.845,1.85,335.95,54.898979,9.790910,54.895069,9.793790
1386888993,1,0,545.9,0,0,0,0,0,150,-0.0292,3425.4470,6.8213,0.4212,54.895901,9.791169,108.3,5.845,1.85,335.95,54.898979,9.790910,54.895069,9.793790
1386888993,1,0,545.9,0,0,4,0,0,100,-0.0292,3425.4470,6.8213,0.4212,54.895885,9.791166,108.3,5.845,1.85,335.95,54.898979,9.790910,54.895069,9.793790
1386888994,1,0,545.9,0,0,0,0,0,50,-0.0292,3425.4470,6.8213,0.4212,54.895866,9.791163,108.3,5.845,1.85,335.95,54.898979,9.790910,54.895069,9.793790
1386888994,1,0,545.9,0,0,4,0,0,0,-0.0292,3425.4470,6.8213,0.4212,54.895847,9.791161,108.3,5.845,1.85,335.95,54.898979,9.790910,54.895069,9.793790
1386888994,1,0,545.9,0,0,0,0,0,50,-0.0292,3425.4470,6.8213,0.4212,54.895828,9.791158,108.3,5.845,1.85,335.95,54.898979,9.790910,54.895069,9.793790
1386888994,1,0,485.9,0,35,4,0,0,0,-0.0292,3416.1138,6.8213,0.4212,54.895813,9.791160,108.3,5.845,1.85,335.95,54.898979,9.790910,54.895069,9.793790
1386888995,1,0,485.9,0,35,8,0,0,50,-0.0292,3406.7805,6.8213,0.4212,54.895794,9.791167,108.3,5.845,1.85,335.95,54.898979,9.790910,54.895069,9.793790
1386888995,1,0,485.9,0,35,12,0,0,0,-0.0292,3397.4473,6.8213,0.4212,54.895779,9.791180,108.3,5.845,1.85,335.95,54.898979,9.790910,54.895069,9.793790
1386888995,1,0,485.9,0,32,16,0,0,50,-0.0292,3388.9138,6.8213,0.4212,54.895763,9.791196,108.3,5.845,1.85,335.95,54.898979,9.790910,54.895069,9.793790
1386888995,1,0,485.9,0,23,20,0,0,0,-0.0292,3382.7805,6.8213,0.4212,54.895748,9.791215,108.3,5.845,1.85,335.95,54.898979,9.790910,54.895069,9.793790
1386888996,1,0,485.9,0,17,16,0,0,50,-0.0292,3378.2471,6.8213,0.4212,54.895737,9.791236,108.3,5.845,1.85,335.95,54.898979,9.790910,54.895069,9.793790
1386888996,1,0,485.9,0,12,12,0,0,0,-0.0292,3375.0471,6.8213,0.4212,54.895721,9.791258,108.3,5.845,1.85,335.95,54.898979,9.790910,54.895069,9.793790
1386888996,1,0,485.9,0,9,8,0,0,50,-0.0292,3372.6472,6.8213,0.4212,54.895710,9.791282,108.3,5.845,1.85,335.95,54.898979,9.790910,54.895069,9.793790
1386888996,1,0,485.9,0,7,4,0,713,100,-0.0292,3370.7805,6.8213,0.4212,54.895695,9.791306,108.3,5.845,1.85,335.95,54.898979,9.790910,54.895069,9.793790
1386888997,1,0,485.9,0,5,8,0,713,150,-0.0292,3369.4473,6.8213,0.4212,54.895683,9.791329,108.3,5.845,1.85,335.95,54.898979,9.790910,54.895069,9.793790
1386888997,1,0,485.9,0,4,4,0,713,200,-0.0292,3368.3806,6.8213,0.4212,54.895676,9.791354,108.3,5.845,1.85,335.95,54.898979,9.790910,54.895069,9.793790
1386888997,1,0,485.9,0,2,0,0,713,250,-0.0292,3367.8472,6.8213,0.4212,54.895664,9.791379,108.3,5.845,1.85,335.95,54.898979,9.790910,54.895069,9.793790
1386888997,1,0,485.9,0,2,4,0,713,300,-0.0292,3367.3137,6.8213,0.4212,54.895653,9.791404,108.3,5.845,1.85,335.95,54.898979,9.790910,54.895069,9.793790
1386888998,1,0,485.9,0,1,0,0,713,350,-0.0292,3367.0471,6.8213,0.4212,54.895641,9.791429,108.3,5.845,1.85,335.95,54.898979,9.790910,54.895069,9.793790
1386888998,1,0,485.6,0,1,4,0,713,400,-0.0292,3366.7805,6.8213,0.4212,54.895630,9.791454,108.3,5.845,1.85,335.95,54.898979,9.790910,54.895069,9.793790
1386888998,1,0,472.5,0,14,8,0,713,450,-0.0292,3363.0471,6.8213,0.4212,54.895622,9.791480,108.3,5.845,1.85,335.95,54.898979,9.790910,54.895069,9.793790
1386888998,1,0,472.5,0,11,12,0,713,500,-0.0292,3360.1138,6.8213,0.4212,54.895615,9.791507,108.3,5.845,1.85,335.95,54.898979,9.790910,54.895069,9.793790
1386888999,1,0,472.4,0,8,8,0,713,550,-0.0292,3357.9805,6.8213,0.4212,54.895603,9.791534,108.3,5.845,1.85,335.95,54.898979,9.790910,54.895069,9.793790
1386888999,1,0,472.3,0,6,4,0,713,600,-0.0292,3356.3804,6.8213,0.4212,54.895596,9.791562,108.3,5.845,1.85,335.95,54.898979,9.790910,54.895069,9.793790
1386888999,1,0,472.2,0,4,8,0,713,650,-0.0292,3355.3137,6.8213,0.4212,54.895588,9.791590,108.3,5.845,1.85,335.95,54.898979,9.790910,54.895069,9.793790
1386888999,1,0,472.2,0,3,4,0,713,700,-0.0292,3354.5137,6.8213,0.4212,54.895580,9.791618,108.3,5.845,1.85,335.95,54.898979,9.790910,54.895069,9.793790
1386889000,1,0,472.1,0,2,0,0,713,750,-0.0292,3353.9802,6.8213,0.4212,54.895573,9.791647,108.3,5.845,1.85,335.95,54.898979,9.790910,54.895069,9.793790
1386889000,1,0,472.1,0,2,4,0,713,700,-0.0292,3353.4468,6.8213,0.4212,54.895565,9.791676,108.3,5.845,1.85,335.95,54.898979,9.790910,54.895069,9.793790
1386889000,1,0,472.1,0,1,0,0,713,750,-0.0292,3353.1802,6.8213,0.4212,54.895557,9.791704,108.3,5.845,1.85,335.95,54.898979,9.790910,54.895069,9.793790
1386889000,1,0,472.0,0,1,4,0,713,700,-0.0292,3352.9136,6.8213,0.4212,54.895554,9.791733,108.3,5.845,1.85,335.95,54.898979,9.790910,54.895069,9.793790
1386889001,1,0,472.1,0,1,0,0,713,750,-0.0292,3352.6470,6.8213,0.4212,54.895546,9.791761,108.3,5.845,1.85,335.95,54.898979,9.790910,54.895069,9.793790
1386889001,1,0,472.1,0,1,4,0,713,700,-0.0292,3352.3804,6.8213,0.4212,54.895538,9.791790,108.3,5.845,1.85,335.95,54.898979,9.790910,54.895069,9.793790
1386889001,1,0,472.1,0,0,0,0,713,750,-0.0292,3352.3804,6.8213,0.4212,54.895531,9.791819,108.3,5.845,1.85,335.95,54.898979,9.790910,54.895069,9.793790
1386889001,1,0,472.0,0,0,4,0,713,700,-0.0292,3352.3804,6.8213,0.4212,54.895527,9.791847,108.3,5.845,1.85,335.95,54.898979,9.790910,54.895069,9.793790
1386889002,1,0,472.2,0,0,0,0,713,750,-0.0292,3352.3804,6.8213,0.4212,54.895519,9.791876,108.3,5.845,1.85,335.95,54.898979,9.790910,54.895069,9.793790
1386889002,1,0,472.1,0,0,4,0,713,700,-0.0292,3352.3804,6.8213,0.4212,54.895512,9.791904,108.3,5.845,1.85,335.95,54.898979,9.790910,54.895069,9.793790
1386889002,1,0,472.1,0,0,0,0,713,750,-0.0292,3352.3804,6.8213,0.4212,54.895504,9.791933,108.3,5.845,1.85,335.95,54.898979,9.790910,54.895069,9.793790
1386889002,1,0,472.0,0,0,4,0,713,700,-0.0292,3352.3804,6.8213,0.4212,54.895496,9.791962,108.3,5.845,1.85,335.95,54.898979,9.790910,54.895069,9.793790
1386889003,1,0,472.0,0,0,0,0,713,750,-0.0292,3352.3804,6.8213,0.4212,54.895489,9.791990,108.3,5.845,1.85,335.95,54.898979,9.790910,54.895069,9.793790
1386889003,1,0,471.9,0,0,4,0,713,700,-0.0292,3352.3804,6.8213,0.4212,54.895481,9.792019,108.3,5.845,1.85,335.95,54.898979,9.790910,54.895069,9.793790
1386889003,1,0,471.9,0,0,0,0,713,750,-0.0292,3352.3804,6.8213,0.4212,54.895477,9.792048,108.3,5.845,1.85,335.95,54.898979,9.790910,54.895069,9.793790
1386889003,1,0,472.0,0,0,4,0,713,700,-0.0292,3352.3804,6.8213,0.4212,54.895470,9.792076,108.3,5.845,1.85,335.95,54.898979,9.790910,54.895069,9.793790
1386889004,1,0,472.0,0,0,0,0,713,750,-0.0292,3352.3804,6.8213,0.4212,54.895462,9.792105,108.3,5.845,1.85,335.95,54.898979,9.790910,54.895069,9.793790
1386889004,1,0,471.9,0,0,4,0,713,700,-0.0292,3352.3804,6.8213,0.4212,54.895458,9.792133,108.3,5.845,1.85,335.95,54.898979,9.790910,54.895069,9.793790
1386889004,1,0,472.1,0,0,0,0,713,750,-0.0292,3352.3804,6.8213,0.4212,54.895454,9.792162,108.3,5.845,1.85,335.95,54.898979,9.790910,54.895069,9.793790
1386889004,1,0,472.2,0,0,4,0,713,700,-0.0292,3352.3804,6.8213,0.4212,54.895447,9.792191,108.3,5.845,1.85,335.95,54.898979,9.790910,54.895069,9.793790
1386889005,1,0,472.2,0,0,0,0,713,750,-0.0292,3352.3804,6.8213,0.4212,54.895439,9.792219,108.3,5.845,1.85,335.95,54.898979,9.790910,54.895069,9.793790
1386889005,1,0,472.2,0,0,4,0,713,700,-0.0292,3352.3804,6.8213,0.4212,54.895432,9.792248,108.3,5.845,1.85,335.95,54.898979,9.790910,54.895069,9.793790
1386889005,1,0,472.1,0,0,0,0,713,750,-0.0292,3352.3804,6.8213,0.4212,54.895424,9.792276,108.3,5.845,1.85,335.95,54.898979,9.790910,54.895069,9.793790
1386889005,1,0,472.1,0,0,4,0,713,700,-0.0292,3352.3804,6.8213,0.4212,54.895416,9.792305,108.3,5.845,1.85,335.95,54.898979,9.790910,54.895069,9.793790
1386889006,1,0,472.0,0,0,0,0,713,750,-0.0292,3352.3804,6.8213,0.4212,54.895409,9.792334,108.3,5.845,1.85,335.95,54.898979,9.790910,54.895069,9.793790
1386889006,1,0,471.9,0,0,4,0,713,700,-0.0292,3352.3804,6.8213,0.4212,54.895405,9.792362,108.3,5.845,1.85,335.95,54.898979,9.790910,54.895069,9.793790
1386889006,1,0,472.1,0,0,0,0,713,750,-0.0292,3352.3804,6.8213,0.4212,54.895397,9.792391,108.3,5.845,1.85,335.95,54.898979,9.790910,54.895069,9.793790
1386889006,1,0,472.1,0,0,4,0,713,700,-0.0292,3352.3804,6.8213,0.4212,54.895390,9.792419,108.3,5.845,1.85,335.95,54.898979,9.790910,54.895069,9.793790
1386889007,1,0,472.0,0,0,0,0,713,750,-0.0292,3352.3804,6.8213,0.4212,54.895382,9.792448,108.3,5.845,1.85,335.95,54.898979,9.790910,54.895069,9.793790
1386889007,1,0,471.9,0,0,4,0,713,700,-0.0292,3352.3804,6.8213,0.4212,54.895374,9.792477,108.3,5.845,1.85,335.95,54.898979,9.790910,54.895069,9.793790
1386889007,1,0,471.9,0,0,0,0,713,750,-0.0292,3352.3804,6.8213,0.4212,54.895367,9.792505,108.3,5.845,1.85,335.95,54.898979,9.790910,54.895069,9.793790
1386889007,1,0,471.8,0,1,4,0,713,700,-0.0292,3352.1138,6.8213,0.4212,54.895359,9.792534,108.3,5.845,1.85,335.95,54.898979,9.790910,54.895069,9.793790
1386889008,1,0,471.7,0,0,0,0,713,750,-0.0292,3352.1138,6.8213,0.4212,54.895355,9.792563,108.3,5.845,1.85,335.95,54.898979,9.790910,54.895069,9.793790
1386889008,1,0,472.0,0,0,4,0,713,700,-0.0292,3352.1138,6.8213,0.4212,54.895348,9.792592,108.3,5.845,1.85,335.95,54.898979,9.790910,54.895069,9.793790
1386889008,1,0,471.9,0,0,0,0,713,750,-0.0292,3352.1138,6.8213,0.4212,54.895340,9.792621,108.3,5.845,1.85,335.95,54.898979,9.790910,54.895069,9.793790
1386889008,1,0,471.8,0,0,4,0,713,700,-0.0292,3352.1138,6.8213,0.4212,54.895332,9.792650,108.3,5.845,1.85,335.95,54.898979,9.790910,54.895069,9.793790
1386889009,1,0,471.8,0,0,0,0,713,750,-0.0292,3352.1138,6.8213,0.4212,54.895325,9.792679,108.3,5.845,1.85,335.95,54.898979,9.790910,54.895069,9.793790
1386889009,1,0,471.7,0,0,4,0,713,700,-0.0292,3352.1138,6.8213,0.4212,54.895317,9.792707,108.3,5.845,1.85,335.95,54.898979,9.790910,54.895069,9.793790
1386889009,1,0,471.6,0,1,0,0,713,750,-0.0292,3351.8472,6.8213,0.4212,54.895309,9.792737,108.3,5.845,1.85,335.95,54.898979,9.790910,54.895069,9.793790
1386889009,1,0,471.5,0,0,4,0,713,700,-0.0292,3351.8472,6.8213,0.4212,54.895306,9.792766,108.3,5.845,1.85,335.95,54.898979,9.790910,54.895069,9.793790
1386889010,1,0,471.8,0,0,0,0,713,750,-0.0292,3351.8472,6.8213,0.4212,54.895298,9.792794,108.3,5.845,1.85,335.95,54.898979,9.790910,54.895069,9.793790
1386889010,1,0,471.7,0,0,4,0,713,700,-0.0292,3351.8472,6.8213,0.4212,54.895290,9.792824,108.3,5.845,1.85,335.95,54.898979,9.790910,54.895069,9.793790
1386889010,1,0,471.6,0,0,0,0,713,750,-0.0292,3351.8472,6.8213,0.4212,54.895283,9.792852,108.3,5.845,1.85,335.95,54.898979,9.790910,54.895069,9.793790
1386889010,1,0,471.5,0,0,4,0,713,700,-0.0292,3351.8472,6.8213,0.4212,54.895275,9.792881,108.3,5.845,1.85,335.95,54.898979,9.790910,54.895069,9.793790
1386889011,1,0,471.4,0,0,0,0,713,750,-0.0292,3351.8472,6.8213,0.4212,54.895267,9.792911,108.3,5.845,1.85,335.95,54.898979,9.790910,54.895069,9.793790
1386889011,1,0,471.3,0,1,4,0,713,700,-0.0292,3351.5806,6.8213,0.4212,54.895260,9.792939,108.3,5.845,1.85,335.95,54.898979,9.790910,54.895069,9.793790
1386889011,1,0,471.2,0,0,0,0,713,750,-0.0292,3351.5806,6.8213,0.4212,54.895256,9.792968,108.3,5.845,1.85,335.95,54.898979,9.790910,54.895069,9.793790
1386889011,1,0,471.5,0,0,4,0,713,700,-0.0292,3351.5806,6.8213,0.4212,54.895248,9.792997,108.3,5.845,1.85,335.95,54.898979,9.790910,54.895069,9.793790
1386889012,1,0,471.4,0,0,0,0,713,750,-0.0292,3351.5806,6.8213,0.4212,54.895241,9.793026,108.3,5.845,1.85,335.95,54.898979,9.790910,54.895069,9.793790
1386889012,1,0,471.2,0,0,4,0,713,700,-0.0292,3351.5806,6.8213,0.4212,54.895237,9.793055,108.3,5.845,1.85,335.95,54.898979,9.790910,54.895069,9.793790
1386889012,1,0,471.5,0,0,0,0,713,750,-0.0292,3351.5806,6.8213,0.4212,54.895233,9.793084,108.3,5.845,1.85,335.95,54.898979,9.790910,54.895069,9.793790
1386889012,1,0,471.9,0,0,4,0,713,700,-0.0292,3351.5806,6.8213,0.4212,54.895226,9.793114,108.3,5.845,1.85,335.95,54.898979,9.790910,54.895069,9.793790
1386889013,1,0,471.8,0,0,0,0,713,750,-0.0292,3351.5806,6.8213,0.4212,54.895218,9.793142,108.3,5.845,1.85,335.95,54.898979,9.790910,54.895069,9.793790
1386889013,1,0,471.7,0,0,4,0,713,700,-0.0292,3351.5806,6.8213,0.4212,54.895210,9.793172,108.3,5.845,1.85,335.95,54.898979,9.790910,54.895069,9.793790
1386889013,1,0,471.5,0,0,0,0,713,750,-0.0292,3351.5806,6.8213,0.4212,54.895206,9.793201,108.3,5.845,1.85,335.95,54.898979,9.790910,54.895069,9.793790
1386889013,1,0,472.0,0,0,4,0,713,700,-0.0292,3351.5806,6.8213,0.4212,54.895199,9.793230,108.3,5.845,1.85,335.95,54.898979,9.790910,54.895069,9.793790
1386889014,1,0,471.8,0,0,0,0,713,750,-0.0292,3351.5806,6.8213,0.4212,54.895191,9.793260,108.3,5.845,1.85,335.95,54.898979,9.790910,54.895069,9.793790
1386889014,1,0,471.7,0,0,4,0,713,700,-0.0292,3351.5806,6.8213,0.4212,54.895187,9.793289,108.3,5.845,1.85,335.95,54.898979,9.790910,54.895069,9.793790
1386889014,1,0,472.2,0,-1,0,0,713,750,-0.0292,3351.8472,6.8213,0.4212,54.895184,9.793318,108.3,5.845,1.85,335.95,54.898979,9.790910,54.895069,9.793790
1386889014,1,0,472.7,0,-1,-4,0,713,700,-0.0292,3352.1138,6.8213,0.4212,54.895176,9.793346,108.3,5.845,1.85,335.95,54.898979,9.790910,54.895069,9.793790
1386889015,1,0,472.6,0,0,0,0,713,750,-0.0292,3352.1138,6.8213,0.4212,54.895168,9.793376,108.3,5.845,1.85,335.95,54.898979,9.790910,54.895069,9.793790
1386889015,1,0,472.5,0,0,4,0,713,700,-0.0292,3352.1138,6.8213,0.4212,54.895161,9.793405,108.3,5.845,1.85,335.95,54.898979,9.790910,54.895069,9.793790
1386889015,1,0,472.3,0,0,0,0,713,750,-0.0292,3352.1138,6.8213,0.4212,54.895153,9.793433,108.3,5.845,1.85,335.95,54.898979,9.790910,54.895069,9.793790
1386889015,1,0,472.1,0,0,4,0,713,700,-0.0292,3352.1138,6.8213,0.4212,54.895145,9.793463,108.3,5.845,1.85,335.95,54.898979,9.790910,54.895069,9.793790
1386889016,1,0,472.0,0,0,0,0,713,750,-0.0292,3352.1138,6.8213,0.4212,54.895138,9.793491,108.3,5.845,1.85,335.95,54.898979,9.790910,54.895069,9.793790
1386889016,1,0,471.7,0,0,4,0,713,700,-0.0292,3352.1138,6.8213,0.4212,54.895134,9.793520,108.3,5.845,1.85,335.95,54.898979,9.790910,54.895069,9.793790
1386889016,1,0,472.6,0,0,0,0,713,750,-0.0292,3352.1138,6.8213,0.4212,54.895126,9.793550,108.3,5.845,1.85,335.95,54.898979,9.790910,54.895069,9.793790
1386889017,1,0,472.4,0,0,4,0,713,700,-0.0292,3352.1138,6.8213,0.4212,54.895119,9.793578,108.3,5.845,1.85,335.95,54.898979,9.790910,54.895069,9.793790
1386889017,1,0,472.0,0,0,0,0,713,750,-0.0292,3352.1138,6.8213,0.4212,54.895111,9.793607,108.3,5.845,1.85,335.95,54.898979,9.790910,54.895069,9.793790
1386889017,1,0,471.6,0,1,4,0,713,700,-0.0292,3351.8472,6.8213,0.4212,54.895103,9.793636,108.3,5.845,1.85,335.95,54.898979,9.790910,54.895069,9.793790
1386889017,1,0,471.1,0,1,0,0,713,750,-0.0292,3351.5806,6.8213,0.4212,54.895096,9.793665,108.3,5.845,1.85,335.95,54.898979,9.790910,54.895069,9.793790
1386889018,1,0,470.3,0,1,4,0,713,700,-0.0292,3351.3140,6.8213,0.4212,54.895088,9.793694,108.3,5.845,1.85,335.95,54.898979,9.790910,54.895069,9.793790
1386889018,1,0,468.9,0,2,0,0,713,750,-0.0292,3350.7805,6.8213,0.4212,54.895084,9.793723,108.3,5.845,1.85,335.95,54.898979,9.790910,54.895069,9.793790
1386889018,1,0,471.6,0,-1,-4,0,870,800,-0.0292,3351.0471,6.8213,0.4212,54.895077,9.793753,108.3,5.845,1.85,335.95,54.895069,9.793790,54.895348,9.797490
1386889018,1,0,442.9,0,28,0,0,713,750,-0.0292,3343.5806,6.8213,0.4212,54.895073,9.793782,108.3,5.845,1.85,335.95,54.895069,9.793790,54.895348,9.797490
1386889019,1,0,442.7,0,21,4,0,870,800,-0.0292,3337.9805,6.8213,0.4212,54.895069,9.793814,108.3,5.845,1.85,335.95,54.895069,9.793790,54.895348,9.797490
1386889019,1,0,442.5,0,15,8,0,870,850,-0.0292,3333.9805,6.8213,0.4212,54.895065,9.793845,108.3,5.845,1.85,335.95,54.895069,9.793790,54.895348,9.797490
1386889019,1,0,442.4,0,12,12,0,831,800,-0.0292,3330.7805,6.8213,0.4212,54.895065,9.793877,108.3,5.845,1.85,335.95,54.895069,9.793790,54.895348,9.797490
1386889019,1,0,442.3,0,8,8,0,785,750,-0.0292,3328.6472,6.8213,0.4212,54.895069,9.793907,108.3,5.845,1.85,335.95,54.895069,9.793790,54.895348,9.797490
1386889020,1,0,442.3,0,6,4,0,753,800,-0.0292,3327.0471,6.8213,0.4212,54.895069,9.793939,108.3,5.845,1.85,335.95,54.895069,9.793790,54.895348,9.797490
1386889020,1,0,442.3,0,5,8,0,729,750,-0.0292,3325.7139,6.8213,0.4212,54.895069,9.793970,108.3,5.845,1.85,335.95,54.895069,9.793790,54.895348,9.797490
1386889020,1,0,442.2,0,3,4,0,709,700,-0.0292,3324.9138,6.8213,0.4212,54.895069,9.794001,108.3,5.845,1.85,335.95,54.895069,9.793790,54.895348,9.797490
1386889020,1,0,442.1,0,3,0,0,697,650,-0.0292,3324.1138,6.8213,0.4212,54.895069,9.794032,108.3,5.845,1.85,335.95,54.895069,9.793790,54.895348,9.797490
1386889021,1,0,442.1,0,2,4,0,685,700,-0.0292,3323.5803,6.8213,0.4212,54.895069,9.794064,108.3,5.845,1.85,335.95,54.895069,9.793790,54.895348,9.797490
1386889021,1,0,442.0,0,2,0,0,677,650,-0.0292,3323.0469,6.8213,0.4212,54.895069,9.794094,108.3,5.845,1.85,335.95,54.895069,9.793790,54.895348,9.797490
1386889021,1,0,441.9,0,1,4,0,669,700,-0.0292,3322.7803,6.8213,0.4212,54.895069,9.794125,108.3,5.845,1.85,335.95,54.895069,9.793790,54.895348,9.797490
1386889021,1,0,441.9,0,1,0,0,665,650,-0.0292,3322.5137,6.8213,0.4212,54.895069,9.794156,108.3,5.845,1.85,335.95,54.895069,9.793790,54.895348,9.797490
1386889022,1,0,441.8,0,1,4,0,661,700,-0.0292,3322.2471,6.8213,0.4212,54.895069,9.794188,108.3,5.845,1.85,335.95,54.895069,9.793790,54.895348,9.797490
1386889022,1,0,441.7,0,1,0,0,656,650,-0.0292,3321.9805,6.8213,0.4212,54.895069,9.794218,108.3,5.845,1.85,335.95,54.895069,9.793790,54.895348,9.797490
1386889022,1,0,441.6,0,0,4,0,652,700,-0.0292,3321.9805,6.8213,0.4212,54.895069,9.794249,108.3,5.845,1.85,335.95,54.895069,9.793790,54.895348,9.797490
1386889022,1,0,441.6,0,0,0,0,652,650,-0.0292,3321.9805,6.8213,0.4212,54.895069,9.794280,108.3,5.845,1.85,335.95,54.895069,9.793790,54.895348,9.797490
1386889023,1,0,441.5,0,1,4,0,652,700,-0.0292,3321.7139,6.8213,0.4212,54.895069,9.794311,108.3,5.845,1.85,335.95,54.895069,9.793790,54.895348,9.797490
1386889023,1,0,441.4,0,0,0,0,648,650,-0.0292,3321.7139,6.8213,0.4212,54.895069,9.794341,108.3,5.845,1.85,335.95,54.895069,9.793790,54.895348,9.797490
1386889023,1,0,441.3,0,0,4,0,648,600,-0.0292,3321.7139,6.8213,0.4212,54.895069,9.794373,108.3,5.845,1.85,335.95,54.895069,9.793790,54.895348,9.797490
1386889023,1,0,441.2,0,0,0,0,648,650,-0.0292,3321.7139,6.8213,0.4212,54.895069,9.794404,108.3,5.845,1.85,335.95,54.895069,9.793790,54.895348,9.797490
1386889024,1,0,441.1,0,1,4,0,648,600,-0.0292,3321.4473,6.8213,0.4212,54.895069,9.794435,108.3,5.845,1.85,335.95,54.895069,9.793790,54.895348,9.797490
1386889024,1,0,441.0,0,0,0,0,644,650,-0.0292,3321.4473,6.8213,0.4212,54.895069,9.794465,108.3,5.845,1.85,335.95,54.895069,9.793790,54.895348,9.797490
1386889024,1,0,441.0,0,0,4,0,644,600,-0.0292,3321.4473,6.8213,0.4212,54.895069,9.794497,108.3,5.845,1.85,335.95,54.895069,9.793790,54.895348,9.797490
1386889024,1,0,440.9,0,1,0,0,644,650,-0.0292,3321.1807,6.8213,0.4212,54.895069,9.794527,108.3,5.845,1.85,335.95,54.895069,9.793790,54.895348,9.797490
1386889025,1,0,440.8,0,0,4,0,640,600,-0.0292,3321.1807,6.8213,0.4212,54.895069,9.794558,108.3,5.845,1.85,335.95,54.895069,9.793790,54.895348,9.797490
1386889025,1,0,440.7,0,1,0,0,640,650,-0.0292,3320.9141,6.8213,0.4212,54.895069,9.794589,108.3,5.845,1.85,335.95,54.895069,9.793790,54.895348,9.797490
1386889025,1,0,440.6,0,0,4,0,636,600,-0.0292,3320.9141,6.8213,0.4212,54.895069,9.794620,108.3,5.845,1.85,335.95,54.895069,9.793790,54.895348,9.797490
1386889025,1,0,440.5,0,0,0,0,636,650,-0.0292,3320.9141,6.8213,0.4212,54.895069,9.794650,108.3,5.845,1.85,335.95,54.895069,9.793790,54.895348,9.797490
1386889026,1,0,440.4,0,1,4,0,636,600,-0.0292,3320.6475,6.8213,0.4212,54.895069,9.794681,108.3,5.845,1.85,335.95,54.895069,9.793790,54.895348,9.797490
1386889026,1,0,440.3,0,0,0,0,632,650,-0.0292,3320.6475,6.8213,0.4212,54.895069,9.794712,108.3,5.845,1.85,335.95,54.895069,9.793790,54.895348,9.797490
1386889026,1,0,440.2,0,0,4,0,632,600,-0.0292,3320.6475,6.8213,0.4212,54.895069,9.794743,108.3,5.845,1.85,335.95,54.895069,9.793790,54.895348,9.797490
1386889026,1,0,440.1,0,1,0,0,632,650,-0.0292,3320.3809,6.8213,0.4212,54.895069,9.794773,108.3,5.845,1.85,335.95,54.895069,9.793790,54.895348,9.797490
1386889027,1,0,440.0,0,0,4,0,628,600,-0.0292,3320.3809,6.8213,0.4212,54.895069,9.794805,108.3,5.845,1.85,335.95,54.895069,9.793790,54.895348,9.797490
1386889027,1,0,439.8,0,1,0,0,628,650,-0.0292,3320.1143,6.8213,0.4212,54.895069,9.794835,108.3,5.845,1.85,335.95,54.895069,9.793790,54.895348,9.797490
1386889027,1,0,439.7,0,0,4,0,623,600,-0.0292,3320.1143,6.8213,0.4212,54.895069,9.794866,108.3,5.845,1.85,335.95,54.895069,9.793790,54.895348,9.797490
1386889027,1,0,439.6,0,1,0,0,623,650,-0.0292,3319.8477,6.8213,0.4212,54.895069,9.794896,108.3,5.845,1.85,335.95,54.895069,9.793790,54.895348,9.797490
1386889028,1,0,439.5,0,0,4,0,619,600,-0.0292,3319.8477,6.8213,0.4212,54.895069,9.794928,108.3,5.845,1.85,335.95,54.895069,9.793790,54.895348,9.797490
1386889028,1,0,439.4,0,0,0,0,619,650,-0.0292,3319.8477,6.8213,0.4212,54.895069,9.794958,108.3,5.845,1.85,335.95,54.895069,9.793790,54.895348,9.797490
1386889028,1,0,439.2,0,1,4,0,619,600,-0.0292,3319.5811,6.8213,0.4212,54.895069,9.794989,108.3,5.845,1.85,335.95,54.895069,9.793790,54.895348,9.797490
1386889028,1,0,439.1,0,0,0,0,615,650,-0.0292,3319.5811,6.8213,0.4212,54.895069,9.795020,108.3,5.845,1.85,335.95,54.895069,9.793790,54.895348,9.797490
1386889029,1,0,439.0,0,1,4,0,615,600,-0.0292,3319.3145,6.8213,0.4212,54.895069,9.795051,108.3,5.845,1.85,335.95,54.895069,9.793790,54.895348,9.797490
1386889029,1,0,438.8,0,0,0,0,611,650,-0.0292,3319.3145,6.8213,0.4212,54.895069,9.795081,108.3,5.845,1.85,335.95,54.895069,9.793790,54.895348,9.797490
1386889029,1,0,438.7,0,1,4,0,611,600,-0.0292,3319.0479,6.8213,0.4212,54.895069,9.795112,108.3,5.845,1.85,335.95,54.895069,9.793790,54.895348,9.797490
1386889029,1,0,438.6,0,0,0,0,607,650,-0.0292,3319.0479,6.8213,0.4212,54.895069,9.795143,108.3,5.845,1.85,335.95,54.895069,9.793790,54.895348,9.797490
1386889030,1,0,438.4,0,1,4,0,607,600,-0.0292,3318.7812,6.8213,0.4212,54.895069,9.795174,108.3,5.845,1.85,335.95,54.895069,9.793790,54.895348,9.797490
1386889030,1,0,438.3,0,1,0,0,603,650,-0.0292,3318.5146,6.8213,0.4212,54.895069,9.795204,108.3,5.845,1.85,335.95,54.895069,9.793790,54.895348,9.797490
1386889030,1,0,438.1,0,0,4,0,598,600,-0.0292,3318.5146,6.8213,0.4212,54.895069,9.795235,108.3,5.845,1.85,335.95,54.895069,9.793790,54.895348,9.797490
1386889030,1,0,438.0,0,1,0,0,598,550,-0.0292,3318.2480,6.8213,0.4212,54.895069,9.795265,108.3,5.845,1.85,335.95,54.895069,9.793790,54.895348,9.797490
1386889031,1,0,437.8,0,0,4,0,594,600,-0.0292,3318.2480,6.8213,0.4212,54.895069,9.795296,108.3,5.845,1.85,335.95,54.895069,9.793790,54.895348,9.797490
1386889031,1,0,437.6,0,1,0,0,594,550,-0.0292,3317.9814,6.8213,0.4212,54.895069,9.795326,108.3,5.845,1.85,335.95,54.895069,9.793790,54.895348,9.797490
1386889031,1,0,437.5,0,1,4,0,590,600,-0.0292,3317.7148,6.8213,0.4212,54.895069,9.795357,108.3,5.845,1.85,335.95,54.895069,9.793790,54.895348,9.797490
1386889031,1,0,437.3,0,0,0,0,586,550,-0.0292,3317.7148,6.8213,0.4212,54.895069,9.795387,108.3,5.845,1.85,335.95,54.895069,9.793790,54.895348,9.797490
1386889032,1,0,437.1,0,1,4,0,586,600,-0.0292,3317.4482,6.8213,0.4212,54.895069,9.795418,108.3,5.845,1.85,335.95,54.895069,9.793790,54.895348,9.797490
1386889032,1,0,436.9,0,1,0,0,582,550,-0.0292,3317.1816,6.8213,0.4212,54.895069,9.795447,108.3,5.845,1.85,335.95,54.895069,9.793790,54.895348,9.797490
1386889032,1,0,436.7,0,0,4,0,577,600,-0.0292,3317.1816,6.8213,0.4212,54.895069,9.795478,108.3,5.845,1.85,335.95,54.895069,9.793790,54.895348,9.797490
1386889032,1,0,436.5,0,1,0,0,577,550,-0.0292,3316.9150,6.8213,0.4212,54.895069,9.795508,108.3,5.845,1.85,335.95,54.895069,9.793790,54.895348,9.797490
1386889033,1,0,436.3,0,1,4,0,573,600,-0.0292,3316.6484,6.8213,0.4212,54.895073,9.795538,108.3,5.845,1.85,335.95,54.895069,9.793790,54.895348,9.797490
1386889033,1,0,436.3,0,0,0,0,569,550,-0.0292,3316.6484,6.8213,0.4212,54.895077,9.795568,108.3,5.845,1.85,335.95,54.895069,9.793790,54.895348,9.797490
1386889033,1,0,436.3,0,0,4,0,569,600,-0.0292,3316.6484,6.8213,0.4212,54.895081,9.795599,108.3,5.845,1.85,335.95,54.895069,9.793790,54.895348,9.797490
1386889033,1,0,436.3,0,0,0,0,569,550,-0.0292,3316.6484,6.8213,0.4212,54.895084,9.795630,108.3,5.845,1.85,335.95,54.895069,9.793790,54.895348,9.797490
1386889034,1,0,436.3,0,0,4,0,569,600,-0.0292,3316.6484,6.8213,0.4212,54.895088,9.795660,108.3,5.845,1.85,335.95,54.895069,9.793790,54.895348,9.797490
1386889034,1,0,436.2,0,0,0,0,569,550,-0.0292,3316.6484,6.8213,0.4212,54.895092,9.795691,108.3,5.845,1.85,335.95,54.895069,9.793790,54.895348,9.797490
1386889034,1,0,436.2,0,0,4,0,569,600,-0.0292,3316.6484,6.8213,0.4212,54.895100,9.795721,108.3,5.845,1.85,335.95,54.895069,9.793790,54.895348,9.797490
1386889034,1,0,436.4,0,0,0,0,569,550,-0.0292,3316.6484,6.8213,0.4212,54.895103,9.795751,108.3,5.845,1.85,335.95,54.895069,9.793790,54.895348,9.797490
1386889035,1,0,436.4,0,0,4,0,569,600,-0.0292,3316.6484,6.8213,0.4212,54.895107,9.795781,108.3,5.845,1.85,335.95,54.895069,9.793790,54.895348,9.797490
1386889035,1,0,436.3,0,0,0,0,569,550,-0.0292,3316.6484,6.8213,0.4212,54.895111,9.795812,108.3,5.845,1.85,335.95,54.895069,9.793790,54.895348,9.797490
1386889035,1,0,436.3,0,0,4,0,569,600,-0.0292,3316.6484,6.8213,0.4212,54.895115,9.795842,108.3,5.845,1.85,335.95,54.895069,9.793790,54.895348,9.797490
1386889035,1,0,436.3,0,0,0,0,569,550,-0.0292,3316.6484,6.8213,0.4212,54.895123,9.795873,108.3,5.845,1.85,335.95,54.895069,9.793790,54.895348,9.797490
1386889036,1,0,436.5,0,0,4,0,569,600,-0.0292,3316.6484,6.8213,0.4212,54.895126,9.795903,108.3,5.845,1.85,335.95,54.895069,9.793790,54.895348,9.797490
1386889036,1,0,436.5,0,0,0,0,569,550,-0.0292,3316.6484,6.8213,0.4212,54.895130,9.795934,108.3,5.845,1.85,335.95,54.895069,9.793790,54.895348,9.797490
1386889036,1,0,436.4,0,0,4,0,569,600,-0.0292,3316.6484,6.8213,0.4212,54.895134,9.795963,108.3,5.845,1.85,335.95,54.895069,9.793790,54.895348,9.797490
1386889036,1,0,436.4,0,0,0,0,569,550,-0.0292,3316.6484,6.8213,0.4212,54.895138,9.795994,108.3,5.845,1.85,335.95,54.895069,9.793790,54.895348,9.797490
1386889037,1,0,436.4,0,0,4,0,569,600,-0.0292,3316.6484,6.8213,0.4212,54.895142,9.796024,108.3,5.845,1.85,335.95,54.895069,9.793790,54.895348,9.797490
1386889037,1,0,436.3,0,0,0,0,569,550,-0.0292,3316.6484,6.8213,0.4212,54.895149,9.796054,108.3,5.845,1.85,335.95,54.895069,9.793790,54.895348,9.797490
1386889037,1,0,436.6,0,0,4,0,569,600,-0.0292,3316.6484,6.8213,0.4212,54.895153,9.796084,108.3,5.845,1.85,335.95,54.895069,9.793790,54.895348,9.797490
