MCU_timestamp,Navigation_System,Manual_Control,Guidance_Heading,Manual_Ctrl_Rudder,Rudder_Desired_Angle,Rudder_Feedback,Manual_Ctrl_Sail,Sail_Desired_Pos,Sail_Feedback,Rate,Heading,Pitch,Roll,Latitude,Longitude,COG,SOG,Wind_Speed,Wind_Angle,Point_Start_Lat,Point_Start_Lon,Point_End_Lat,Point_End_Lon
1386965308,0,0,0.0,0,0,8,0,0,0,-0.0292,8076.0874,6.8213,0.4212,54.894665,9.793415,108.3,5.845,1.85,1.00,0.000000,0.000000,0.000000,0.000000
1386965309,0,0,0.0,0,0,8,0,0,0,-0.0292,8076.0874,6.8213,0.4212,54.894665,9.793415,108.3,5.845,1.85,1.00,0.000000,0.000000,0.000000,0.000000
1386965309,0,0,0.0,0,0,8,0,0,0,-0.0292,8076.0874,6.8213,0.4212,54.894665,9.793415,108.3,5.845,1.85,1.00,0.000000,0.000000,0.000000,0.000000
1386965309,0,0,0.0,0,0,8,0,0,0,-0.0292,8076.0874,6.8213,0.4212,54.894665,9.793415,108.3,5.845,1.85,1.00,0.000000,0.000000,0.000000,0.000000
1386965309,0,0,0.0,0,0,8,0,0,0,-0.0292,8076.0874,6.8213,0.4212,54.894665,9.793415,108.3,5.845,1.85,1.00,0.000000,0.000000,0.000000,0.000000
1386965310,0,0,0.0,0,0,8,0,0,0,-0.0292,8076.0874,6.8213,0.4212,54.894665,9.793415,108.3,5.845,1.85,1.00,0.000000,0.000000,0.000000,0.000000
1386965310,0,0,0.0,0,0,8,0,0,0,-0.0292,8076.0874,6.8213,0.4212,54.894665,9.793415,108.3,5.845,1.85,1.00,0.000000,0.000000,0.000000,0.000000
1386965310,0,0,0.0,0,0,8,0,0,0,-0.0292,8076.0874,6.8213,0.4212,54.894665,9.793415,108.3,5.845,1.85,1.00,0.000000,0.000000,0.000000,0.000000
1386965310,0,0,0.0,0,0,8,0,0,0,-0.0292,8076.0874,6.8213,0.4212,54.894665,9.793415,108.3,5.845,1.85,1.00,0.000000,0.000000,0.000000,0.000000
1386965311,0,0,0.0,0,0,8,0,0,0,-0.0292,8076.0874,6.8213,0.4212,54.894665,9.793415,108.3,5.845,1.85,1.00,0.000000,0.000000,0.000000,0.000000
1386965311,0,0,0.0,0,0,8,0,0,0,-0.0292,8076.0874,6.8213,0.4212,54.894665,9.793415,108.3,5.845,1.85,1.00,0.000000,0.000000,0.000000,0.000000
1386965311,0,0,0.0,0,0,8,0,0,0,-0.0292,8076.0874,6.8213,0.4212,54.894665,9.793415,108.3,5.845,1.85,1.00,0.000000,0.000000,0.000000,0.000000
1386965311,0,0,0.0,0,0,8,0,0,0,-0.0292,8076.0874,6.8213,0.4212,54.894665,9.793415,108.3,5.845,1.85,1.00,0.000000,0.000000,0.000000,0.000000
1386965312,0,0,0.0,0,0,8,0,0,0,-0.0292,8076.0874,6.8213,0.4212,54.894665,9.793415,108.3,5.845,1.85,1.00,0.000000,0.000000,0.000000,0.000000
1386965312,0,0,0.0,0,0,8,0,0,0,-0.0292,8076.0874,6.8213,0.4212,54.894665,9.793415,108.3,5.845,1.85,1.00,0.000000,0.000000,0.000000,0.000000
1386965312,0,0,0.0,0,0,8,0,0,0,-0.0292,8076.0874,6.8213,0.4212,54.894665,9.793415,108.3,5.845,1.85,1.00,0.000000,0.000000,0.000000,0.000000
1386965312,0,0,0.0,0,0,8,0,0,0,-0.0292,8076.0874,6.8213,0.4212,54.894665,9.793415,108.3,5.845,1.85,1.00,0.000000,0.000000,0.000000,0.000000
1386965313,0,0,0.0,0,0,8,0,0,0,-0.0292,8076.0874,6.8213,0.4212,54.894665,9.793415,108.3,5.845,1.85,1.00,0.000000,0.000000,0.000000,0.000000
1386965313,0,0,0.0,0,0,8,0,0,0,-0.0292,8076.0874,6.8213,0.4212,54.894665,9.793415,108.3,5.845,1.85,1.00,0.000000,0.000000,0.000000,0.000000
1386965313,0,0,0.0,0,0,8,0,0,0,-0.0292,8076.0874,6.8213,0.4212,54.894665,9.793415,108.3,5.845,1.85,1.00,0.000000,0.000000,0.000000,0.000000
1386965313,0,0,0.0,0,0,8,0,0,0,-0.0292,8076.0874,6.8213,0.4212,54.894665,9.793415,108.3,5.845,1.85,1.00,0.000000,0.000000,0.000000,0.000000
1386965314,0,0,0.0,0,0,8,0,0,0,-0.0292,8076.0874,6.8213,0.4212,54.894665,9.793415,108.3,5.845,1.85,1.00,0.000000,0.000000,0.000000,0.000000
1386965314,0,0,0.0,0,0,8,0,0,0,-0.0292,8076.0874,6.8213,0.4212,54.894665,9.793415,108.3,5.845,1.85,1.00,0.000000,0.000000,0.000000,0.000000
1386965314,0,0,0.0,0,0,8,0,0,0,-0.0292,8076.0874,6.8213,0.4212,54.894665,9.793415,108.3,5.845,1.85,1.00,0.000000,0.000000,0.000000,0.000000
1386965314,0,0,0.0,0,0,8,0,0,0,-0.0292,8076.0874,6.8213,0.4212,54.894665,9.793415,108.3,5.845,1.85,1.00,0.000000,0.000000,0.000000,0.000000
1386965315,0,0,0.0,0,0,8,0,0,0,-0.0292,8076.0874,6.8213,0.4212,54.894665,9.793415,108.3,5.845,1.85,1.00,0.000000,0.000000,0.000000,0.000000
1386965315,0,0,0.0,0,0,8,0,0,0,-0.0292,8076.0874,6.8213,0.4212,54.894665,9.793415,108.3,5.845,1.85,1.00,0.000000,0.000000,0.000000,0.000000
1386965315,0,0,0.0,0,0,8,0,0,0,-0.0292,8076.0874,6.8213,0.4212,54.894665,9.793415,108.3,5.845,1.85,1.00,0.000000,0.000000,0.000000,0.000000
1386965315,0,0,0.0,0,0,8,0,0,0,-0.0292,8076.0874,6.8213,0.4212,54.894665,9.793415,108.3,5.845,1.85,1.00,0.000000,0.000000,0.000000,0.000000
1386965316,0,0,0.0,0,0,8,0,0,0,-0.0292,8076.0874,6.8213,0.4212,54.894665,9.793415,108.3,5.845,1.85,1.00,0.000000,0.000000,0.000000,0.000000
1386965316,0,0,0.0,0,0,8,0,0,0,-0.0292,8076.0874,6.8213,0.4212,54.894665,9.793415,108.3,5.845,1.85,1.00,0.000000,0.000000,0.000000,0.000000
1386965316,0,0,0.0,0,0,8,0,0,0,-0.0292,8076.0874,6.8213,0.4212,54.894665,9.793415,108.3,5.845,1.85,1.00,0.000000,0.000000,0.000000,0.000000
1386965316,0,0,0.0,0,0,8,0,0,0,-0.0292,8076.0874,6.8213,0.4212,54.894665,9.793415,108.3,5.845,1.85,1.00,0.000000,0.000000,0.000000,0.000000
1386965317,0,0,0.0,0,0,8,0,0,0,-0.0292,8076.0874,6.8213,0.4212,54.894665,9.793415,108.3,5.845,1.85,1.00,0.000000,0.000000,0.000000,0.000000
1386965317,0,0,0.0,0,0,8,0,0,0,-0.0292,8076.0874,6.8213,0.4212,54.894665,9.793415,108.3,5.845,1.85,1.00,0.000000,0.000000,0.000000,0.000000
1386965317,0,0,0.0,0,0,8,0,0,0,-0.0292,8076.0874,6.8213,0.4212,54.894665,9.793415,108.3,5.845,1.85,1.00,0.000000,0.000000,0.000000,0.000000
1386965317,0,0,0.0,0,0,8,0,0,0,-0.0292,8076.0874,6.8213,0.4212,54.894665,9.793415,108.3,5.845,1.85,1.00,0.000000,0.000000,0.000000,0.000000
1386965318,0,0,0.0,0,0,8,0,0,0,-0.0292,8076.0874,6.8213,0.4212,54.894665,9.793415,108.3,5.845,1.85,1.00,0.000000,0.000000,0.000000,0.000000
1386965318,4,0,0.0,0,0,8,0,0,0,-0.0292,8076.0874,6.8213,0.4212,54.894665,9.793415,108.3,5.845,1.85,1.00,0.000000,0.000000,0.000000,0.000000
1386965318,1,0,56.0,0,35,12,0,713,50,-0.0292,8064.4209,6.8213,0.4212,54.894650,9.793433,108.3,5.845,1.85,1.00,54.894665,9.793415,54.895069,9.793790
1386965318,1,0,56.0,0,35,16,0,713,100,-0.0292,8052.7544,6.8213,0.4212,54.894638,9.793456,108.3,5.845,1.85,1.00,54.894665,9.793415,54.895069,9.793790
1386965319,1,0,56.0,0,35,20,0,870,150,-0.0292,8041.0879,6.8213,0.4212,54.894630,9.793483,108.3,5.845,1.85,1.00,54.894665,9.793415,54.895069,9.793790
1386965319,1,0,56.0,0,35,24,0,860,200,-0.0292,8029.4214,6.8213,0.4212,54.894623,9.793512,108.3,5.845,1.85,1.00,54.894665,9.793415,54.895069,9.793790
1386965319,1,0,56.0,0,35,28,0,689,250,-0.0292,8017.7549,6.8213,0.4212,54.894623,9.793543,108.3,5.845,1.85,1.00,54.894665,9.793415,54.895069,9.793790
1386965319,1,0,56.0,0,35,32,0,507,300,-0.0292,8006.0884,6.8213,0.4212,54.894627,9.793573,108.3,5.845,1.85,1.00,54.894665,9.793415,54.895069,9.793790
1386965320,1,0,56.0,0,30,28,0,321,350,-0.0292,7996.0884,6.8213,0.4212,54.894630,9.793604,108.3,5.845,1.85,1.00,54.894665,9.793415,54.895069,9.793790
1386965320,1,0,56.0,0,20,24,0,171,300,-0.0292,7989.4219,6.8213,0.4212,54.894634,9.793633,108.3,5.845,1.85,1.00,54.894665,9.793415,54.895069,9.793790
1386965320,1,0,56.0,0,13,20,0,85,250,-0.0292,7985.0884,6.8213,0.4212,54.894642,9.793662,108.3,5.845,1.85,1.00,54.894665,9.793415,54.895069,9.793790
1386965320,1,0,56.0,0,9,16,0,41,200,-0.0292,7982.0884,6.8213,0.4212,54.894650,9.793689,108.3,5.845,1.85,1.00,54.894665,9.793415,54.895069,9.793790
1386965321,1,0,56.0,0,6,12,0,19,150,-0.0292,7980.0884,6.8213,0.4212,54.894661,9.793716,108.3,5.845,1.85,1.00,54.894665,9.793415,54.895069,9.793790
1386965321,1,0,56.0,0,4,8,0,9,100,-0.0292,7978.7549,6.8213,0.4212,54.894669,9.793743,108.3,5.845,1.85,1.00,54.894665,9.793415,54.895069,9.793790
1386965321,1,0,56.0,0,3,4,0,4,50,-0.0292,7977.7549,6.8213,0.4212,54.894680,9.793770,108.3,5.845,1.85,1.00,54.894665,9.793415,54.895069,9.793790
1386965321,1,0,56.0,0,2,0,0,2,0,-0.0292,7977.0884,6.8213,0.4212,54.894688,9.793797,108.3,5.845,1.85,1.00,54.894665,9.793415,54.895069,9.793790
1386965322,1,0,56.0,0,1,4,0,1,50,-0.0292,7976.7549,6.8213,0.4212,54.894699,9.793822,108.3,5.845,1.85,1.00,54.894665,9.793415,54.895069,9.793790
1386965322,1,0,56.0,0,1,0,0,0,0,-0.0292,7976.4214,6.8213,0.4212,54.894711,9.793849,108.3,5.845,1.85,1.00,54.894665,9.793415,54.895069,9.793790
1386965322,1,0,56.0,0,0,4,0,0,0,-0.0292,7976.4214,6.8213,0.4212,54.894722,9.793875,108.3,5.845,1.85,1.00,54.894665,9.793415,54.895069,9.793790
1386965322,1,0,56.0,0,0,0,0,0,0,-0.0292,7976.4214,6.8213,0.4212,54.894733,9.793900,108.3,5.845,1.85,1.00,54.894665,9.793415,54.895069,9.793790
1386965323,1,0,56.0,0,0,4,0,0,0,-0.0292,7976.4214,6.8213,0.4212,54.894741,9.793926,108.3,5.845,1.85,1.00,54.894665,9.793415,54.895069,9.793790
1386965323,1,0,56.0,0,0,0,0,0,0,-0.0292,7976.4214,6.8213,0.4212,54.894753,9.793952,108.3,5.845,1.85,1.00,54.894665,9.793415,54.895069,9.793790
1386965323,1,0,56.0,0,0,4,0,0,0,-0.0292,7976.4214,6.8213,0.4212,54.894760,9.793979,108.3,5.845,1.85,1.00,54.894665,9.793415,54.895069,9.793790
1386965323,1,0,56.0,0,0,0,0,0,0,-0.0292,7976.4214,6.8213,0.4212,54.894772,9.794004,108.3,5.845,1.85,1.00,54.894665,9.793415,54.895069,9.793790
1386965324,1,0,56.0,0,0,4,0,0,0,-0.0292,7976.4214,6.8213,0.4212,54.894783,9.794030,108.3,5.845,1.85,1.00,54.894665,9.793415,54.895069,9.793790
1386965324,1,0,56.0,0,0,0,0,0,0,-0.0292,7976.4214,6.8213,0.4212,54.894791,9.794056,108.3,5.845,1.85,1.00,54.894665,9.793415,54.895069,9.793790
1386965324,1,0,56.0,0,0,4,0,0,0,-0.0292,7976.4214,6.8213,0.4212,54.894802,9.794082,108.3,5.845,1.85,1.00,54.894665,9.793415,54.895069,9.793790
1386965324,1,0,56.0,0,0,0,0,0,0,-0.0292,7976.4214,6.8213,0.4212,54.894810,9.794108,108.3,5.845,1.85,1.00,54.894665,9.793415,54.895069,9.793790
1386965325,1,0,56.0,0,0,4,0,0,0,-0.0292,7976.4214,6.8213,0.4212,54.894821,9.794134,108.3,5.845,1.85,1.00,54.894665,9.793415,54.895069,9.793790
1386965325,1,0,56.0,0,0,0,0,0,0,-0.0292,7976.4214,6.8213,0.4212,54.894833,9.794160,108.3,5.845,1.85,1.00,54.894665,9.793415,54.895069,9.793790
1386965325,1,0,56.0,0,0,4,0,0,0,-0.0292,7976.4214,6.8213,0.4212,54.894840,9.794186,108.3,5.845,1.85,1.00,54.894665,9.793415,54.895069,9.793790
1386965325,1,0,56.0,0,0,0,0,0,0,-0.0292,7976.4214,6.8213,0.4212,54.894852,9.794211,108.3,5.845,1.85,1.00,54.894665,9.793415,54.895069,9.793790
1386965326,1,0,56.0,0,0,4,0,0,0,-0.0292,7976.4214,6.8213,0.4212,54.894859,9.794238,108.3,5.845,1.85,1.00,54.894665,9.793415,54.895069,9.793790
1386965326,1,0,56.0,0,0,0,0,0,0,-0.0292,7976.4214,6.8213,0.4212,54.894871,9.794264,108.3,5.845,1.85,1.00,54.894665,9.793415,54.895069,9.793790
1386965326,1,0,56.0,0,0,4,0,0,0,-0.0292,7976.4214,6.8213,0.4212,54.894882,9.794290,108.3,5.845,1.85,1.00,54.894665,9.793415,54.895069,9.793790
1386965326,1,0,56.0,0,0,0,0,0,0,-0.0292,7976.4214,6.8213,0.4212,54.894894,9.794315,108.3,5.845,1.85,1.00,54.894665,9.793415,54.895069,9.793790
1386965327,1,0,56.0,0,0,4,0,0,0,-0.0292,7976.4214,6.8213,0.4212,54.894905,9.794341,108.3,5.845,1.85,1.00,54.894665,9.793415,54.895069,9.793790
1386965327,1,0,56.0,0,0,0,0,0,0,-0.0292,7976.4214,6.8213,0.4212,54.894913,9.794368,108.3,5.845,1.85,1.00,54.894665,9.793415,54.895069,9.793790
1386965327,1,0,56.0,0,0,4,0,0,0,-0.0292,7976.4214,6.8213,0.4212,54.894924,9.794394,108.3,5.845,1.85,1.00,54.894665,9.793415,54.895069,9.793790
1386965328,1,0,56.0,0,0,0,0,0,0,-0.0292,7976.4214,6.8213,0.4212,54.894932,9.794419,108.3,5.845,1.85,1.00,54.894665,9.793415,54.895069,9.793790
1386965328,1,0,56.0,0,0,4,0,0,0,-0.0292,7976.4214,6.8213,0.4212,54.894943,9.794445,108.3,5.845,1.85,1.00,54.894665,9.793415,54.895069,9.793790
1386965328,1,0,56.0,0,0,0,0,0,0,-0.0292,7976.4214,6.8213,0.4212,54.894955,9.794471,108.3,5.845,1.85,1.00,54.894665,9.793415,54.895069,9.793790
1386965328,1,0,56.0,0,0,4,0,0,0,-0.0292,7976.4214,6.8213,0.4212,54.894962,9.794497,108.3,5.845,1.85,1.00,54.894665,9.793415,54.895069,9.793790
1386965329,1,0,-75.4,0,35,8,0,0,0,-0.0292,7964.7549,6.8213,0.4212,54.894978,9.794519,108.3,5.845,1.85,1.00,54.894665,9.793415,54.895069,9.793790
1386965329,1,0,-77.8,0,35,12,0,0,0,-0.0292,7953.0884,6.8213,0.4212,54.894993,9.794536,108.3,5.845,1.85,1.00,54.894665,9.793415,54.895069,9.793790
1386965329,1,0,-80.0,0,35,16,0,0,0,-0.0292,7941.4219,6.8213,0.4212,54.895012,9.794547,108.3,5.845,1.85,1.00,54.894665,9.793415,54.895069,9.793790
1386965329,1,0,-82.6,0,35,20,0,0,0,-0.0292,7929.7554,6.8213,0.4212,54.895031,9.794553,108.3,5.845,1.85,1.00,54.894665,9.793415,54.895069,9.793790
1386965330,1,0,-85.1,0,35,24,0,0,0,-0.0292,7918.0889,6.8213,0.4212,54.895050,9.794552,108.3,5.845,1.85,1.00,54.894665,9.793415,54.895069,9.793790
1386965330,1,0,-87.5,0,35,28,0,0,0,-0.0292,7906.4224,6.8213,0.4212,54.895065,9.794545,108.3,5.845,1.85,1.00,54.894665,9.793415,54.895069,9.793790
1386965330,1,0,270.5,0,35,32,0,0,0,-0.0292,7894.7559,6.8213,0.4212,54.895084,9.794532,108.3,5.845,1.85,1.00,54.894665,9.793415,54.895069,9.793790
1386965330,1,0,268.0,0,35,36,0,0,0,-0.0292,7883.0894,6.8213,0.4212,54.895100,9.794513,108.3,5.845,1.85,1.00,54.894665,9.793415,54.895069,9.793790
1386965331,1,0,265.8,0,35,32,0,0,0,-0.0292,7871.4229,6.8213,0.4212,54.895111,9.794490,108.3,5.845,1.85,1.00,54.894665,9.793415,54.895069,9.793790
1386965331,1,0,264.1,0,35,36,0,0,0,-0.0292,7859.7563,6.8213,0.4212,54.895123,9.794462,108.3,5.845,1.85,1.00,54.894665,9.793415,54.895069,9.793790
1386965331,1,0,262.2,0,35,32,0,20,50,-0.0292,7848.0898,6.8213,0.4212,54.895126,9.794433,108.3,5.845,1.85,1.00,54.894665,9.793415,54.895069,9.793790
1386965331,1,0,261.3,0,27,28,0,141,100,-0.0292,7839.0898,6.8213,0.4212,54.895130,9.794401,108.3,5.845,1.85,1.00,54.894665,9.793415,54.895069,9.793790
1386965332,1,0,260.2,0,19,24,0,272,150,-0.0292,7832.7563,6.8213,0.4212,54.895130,9.794370,108.3,5.845,1.85,1.00,54.894665,9.793415,54.895069,9.793790
1386965332,1,0,259.7,0,13,20,0,371,200,-0.0292,7828.4229,6.8213,0.4212,54.895130,9.794338,108.3,5.845,1.85,1.00,54.894665,9.793415,54.895069,9.793790
1386965332,1,0,259.1,0,9,16,0,440,250,-0.0292,7825.4229,6.8213,0.4212,54.895130,9.794308,108.3,5.845,1.85,1.00,54.894665,9.793415,54.895069,9.793790
1386965332,1,0,258.5,0,7,12,0,488,300,-0.0292,7823.0894,6.8213,0.4212,54.895126,9.794276,108.3,5.845,1.85,1.00,54.894665,9.793415,54.895069,9.793790
1386965333,1,0,258.5,0,5,8,0,525,350,-0.0292,7821.4229,6.8213,0.4212,54.895123,9.794246,108.3,5.845,1.85,1.00,54.894665,9.793415,54.895069,9.793790
1386965333,1,0,258.6,0,3,4,0,552,400,-0.0292,7820.4229,6.8213,0.4212,54.895119,9.794215,108.3,5.845,1.85,1.00,54.894665,9.793415,54.895069,9.793790
1386965333,1,0,258.6,0,2,0,0,568,450,-0.0292,7819.7563,6.8213,0.4212,54.895115,9.794185,108.3,5.845,1.85,1.00,54.894665,9.793415,54.895069,9.793790
1386965333,1,0,258.7,0,1,4,0,578,500,-0.0292,7819.4229,6.8213,0.4212,54.895115,9.794154,108.3,5.845,1.85,1.00,54.894665,9.793415,54.895069,9.793790
1386965334,1,0,257.7,0,2,0,0,583,550,-0.0292,7818.7563,6.8213,0.4212,54.895115,9.794124,108.3,5.845,1.85,1.00,54.894665,9.793415,54.895069,9.793790
1386965334,1,0,256.7,0,2,4,0,594,600,-0.0292,7818.0898,6.8213,0.4212,54.895111,9.794093,108.3,5.845,1.85,1.00,54.894665,9.793415,54.895069,9.793790
1386965334,1,0,256.6,0,2,0,0,604,650,-0.0292,7817.4233,6.8213,0.4212,54.895107,9.794063,108.3,5.845,1.85,1.00,54.894665,9.793415,54.895069,9.793790
1386965334,1,0,256.4,0,1,4,0,615,600,-0.0292,7817.0898,6.8213,0.4212,54.895103,9.794032,108.3,5.845,1.85,1.00,54.894665,9.793415,54.895069,9.793790
1386965335,1,0,256.2,0,1,0,0,620,650,-0.0292,7816.7563,6.8213,0.4212,54.895100,9.794002,108.3,5.845,1.85,1.00,54.894665,9.793415,54.895069,9.793790
1386965335,1,0,256.0,0,1,4,0,625,600,-0.0292,7816.4229,6.8213,0.4212,54.895096,9.793972,108.3,5.845,1.85,1.00,54.894665,9.793415,54.895069,9.793790
1386965335,1,0,255.8,0,1,0,0,630,650,-0.0292,7816.0894,6.8213,0.4212,54.895088,9.793941,108.3,5.845,1.85,1.00,54.894665,9.793415,54.895069,9.793790
1386965335,1,0,257.7,0,-2,-4,0,635,600,-0.0292,7816.7559,6.8213,0.4212,54.895084,9.793911,108.3,5.845,1.85,1.00,54.894665,9.793415,54.895069,9.793790
1386965336,1,0,257.7,0,-1,0,0,625,650,-0.0292,7817.0894,6.8213,0.4212,54.895081,9.793880,108.3,5.845,1.85,1.00,54.894665,9.793415,54.895069,9.793790
1386965336,1,0,257.7,0,-1,-4,0,620,600,-0.0292,7817.4229,6.8213,0.4212,54.895077,9.793850,108.3,5.845,1.85,1.00,54.894665,9.793415,54.895069,9.793790
1386965336,1,0,257.6,0,0,0,0,615,650,-0.0292,7817.4229,6.8213,0.4212,54.895073,9.793819,108.3,5.845,1.85,1.00,54.895069,9.793790,54.895348,9.797490
1386965336,1,0,211.0,0,35,4,0,615,600,-0.0292,7805.7563,6.8213,0.4212,54.895065,9.793791,108.3,5.845,1.85,1.00,54.895069,9.793790,54.895348,9.797490
1386965337,1,0,211.0,0,35,8,0,791,650,-0.0292,7794.0898,6.8213,0.4212,54.895058,9.793765,108.3,5.845,1.85,1.00,54.895069,9.793790,54.895348,9.797490
1386965337,1,0,211.0,0,23,12,0,870,700,-0.0292,7786.4233,6.8213,0.4212,54.895046,9.793742,108.3,5.845,1.85,1.00,54.895069,9.793790,54.895348,9.797490
1386965337,1,0,211.0,0,15,16,0,870,750,-0.0292,7781.4233,6.8213,0.4212,54.895031,9.793722,108.3,5.845,1.85,1.00,54.895069,9.793790,54.895348,9.797490
1386965337,1,0,211.0,0,10,12,0,713,700,-0.0292,7778.0898,6.8213,0.4212,54.895016,9.793703,108.3,5.845,1.85,1.00,54.895069,9.793790,54.895348,9.797490
1386965338,1,0,211.0,0,7,8,0,713,750,-0.0292,7775.7563,6.8213,0.4212,54.895004,9.793684,108.3,5.845,1.85,1.00,54.895069,9.793790,54.895348,9.797490
1386965338,1,0,211.0,0,5,4,0,713,700,-0.0292,7774.0898,6.8213,0.4212,54.894989,9.793667,108.3,5.845,1.85,1.00,54.895069,9.793790,54.895348,9.797490
1386965338,1,0,211.0,0,3,0,0,0,650,-0.0292,7773.0898,6.8213,0.4212,54.894974,9.793650,108.3,5.845,1.85,1.00,54.895069,9.793790,54.895348,9.797490
1386965338,1,0,211.0,0,2,4,0,0,600,-0.0292,7772.4233,6.8213,0.4212,54.894958,9.793633,108.3,5.845,1.85,1.00,54.895069,9.793790,54.895348,9.797490
1386965339,1,0,211.0,0,1,0,0,0,550,-0.0292,7772.0898,6.8213,0.4212,54.894943,9.793616,108.3,5.845,1.85,1.00,54.895069,9.793790,54.895348,9.797490
1386965339,1,0,211.0,0,1,4,0,0,500,-0.0292,7771.7563,6.8213,0.4212,54.894928,9.793600,108.3,5.845,1.85,1.00,54.895069,9.793790,54.895348,9.797490
1386965339,1,0,211.0,0,1,0,0,0,450,-0.0292,7771.4229,6.8213,0.4212,54.894913,9.793584,108.3,5.845,1.85,1.00,54.895069,9.793790,54.895348,9.797490
1386965339,1,0,211.0,0,0,4,0,0,400,-0.0292,7771.4229,6.8213,0.4212,54.894897,9.793568,108.3,5.845,1.85,1.00,54.895069,9.793790,54.895348,9.797490
1386965340,1,0,211.0,0,0,0,0,0,350,-0.0292,7771.4229,6.8213,0.4212,54.894878,9.793551,108.3,5.845,1.85,1.00,54.895069,9.793790,54.895348,9.797490
1386965340,1,0,211.0,0,0,4,0,0,300,-0.0292,7771.4229,6.8213,0.4212,54.894863,9.793535,108.3,5.845,1.85,1.00,54.895069,9.793790,54.895348,9.797490
1386965340,1,0,211.0,0,0,0,0,0,250,-0.0292,7771.4229,6.8213,0.4212,54.894848,9.793519,108.3,5.845,1.85,1.00,54.895069,9.793790,54.895348,9.797490
1386965340,1,0,211.0,0,0,4,0,0,200,-0.0292,7771.4229,6.8213,0.4212,54.894829,9.793503,108.3,5.845,1.85,1.00,54.895069,9.793790,54.895348,9.797490
1386965341,1,0,211.0,0,0,0,0,0,150,-0.0292,7771.4229,6.8213,0.4212,54.894814,9.793487,108.3,5.845,1.85,1.00,54.895069,9.793790,54.895348,9.797490
1386965341,1,0,211.0,0,0,4,0,0,100,-0.0292,7771.4229,6.8213,0.4212,54.894798,9.793470,108.3,5.845,1.85,1.00,54.895069,9.793790,54.895348,9.797490
1386965341,1,0,211.0,0,0,0,0,0,50,-0.0292,7771.4229,6.8213,0.4212,54.894787,9.793454,108.3,5.845,1.85,1.00,54.895069,9.793790,54.895348,9.797490
1386965341,1,0,211.0,0,0,4,0,0,0,-0.0292,7771.4229,6.8213,0.4212,54.894772,9.793438,108.3,5.845,1.85,1.00,54.895069,9.793790,54.895348,9.797490
1386965342,1,0,211.0,0,0,0,0,0,0,-0.0292,7771.4229,6.8213,0.4212,54.894756,9.793422,108.3,5.845,1.85,1.00,54.895069,9.793790,54.895348,9.797490
1386965342,1,0,151.0,0,35,4,0,0,0,-0.0292,7759.7563,6.8213,0.4212,54.894737,9.793411,108.3,5.845,1.85,1.00,54.895069,9.793790,54.895348,9.797490
1386965342,1,0,151.0,0,35,8,0,0,0,-0.0292,7748.0898,6.8213,0.4212,54.894718,9.793406,108.3,5.845,1.85,1.00,54.895069,9.793790,54.895348,9.797490
1386965342,1,0,151.0,0,35,12,0,0,0,-0.0292,7736.4233,6.8213,0.4212,54.894703,9.793408,108.3,5.845,1.85,1.00,54.895069,9.793790,54.895348,9.797490
1386965343,1,0,151.0,0,25,16,0,0,0,-0.0292,7728.0898,6.8213,0.4212,54.894684,9.793414,108.3,5.845,1.85,1.00,54.895069,9.793790,54.895348,9.797490
1386965343,1,0,151.0,0,17,20,0,0,0,-0.0292,7722.4233,6.8213,0.4212,54.894665,9.793424,108.3,5.845,1.85,1.00,54.895069,9.793790,54.895348,9.797490
1386965343,1,0,151.0,0,11,16,0,0,0,-0.0292,7718.7568,6.8213,0.4212,54.894650,9.793435,108.3,5.845,1.85,1.00,54.895069,9.793790,54.895348,9.797490
1386965343,1,0,151.0,0,8,12,0,0,0,-0.0292,7716.0903,6.8213,0.4212,54.894634,9.793448,108.3,5.845,1.85,1.00,54.895069,9.793790,54.895348,9.797490
1386965344,1,0,151.0,0,5,8,0,0,0,-0.0292,7714.4238,6.8213,0.4212,54.894619,9.793462,108.3,5.845,1.85,1.00,54.895069,9.793790,54.895348,9.797490
1386965344,1,0,151.0,0,3,4,0,0,0,-0.0292,7713.4238,6.8213,0.4212,54.894604,9.793476,108.3,5.845,1.85,1.00,54.895069,9.793790,54.895348,9.797490
1386965344,1,0,151.0,0,2,0,0,713,50,-0.0292,7712.7573,6.8213,0.4212,54.894585,9.793490,108.3,5.845,1.85,1.00,54.895069,9.793790,54.895348,9.797490
1386965344,1,0,151.0,0,2,4,0,713,100,-0.0292,7712.0908,6.8213,0.4212,54.894569,9.793505,108.3,5.845,1.85,1.00,54.895069,9.793790,54.895348,9.797490
1386965345,1,0,151.0,0,1,0,0,713,150,-0.0292,7711.7573,6.8213,0.4212,54.894554,9.793519,108.3,5.845,1.85,1.00,54.895069,9.793790,54.895348,9.797490
1386965345,1,0,151.0,0,1,4,0,713,200,-0.0292,7711.4238,6.8213,0.4212,54.894535,9.793534,108.3,5.845,1.85,1.00,54.895069,9.793790,54.895348,9.797490
1386965345,1,0,151.0,0,0,0,0,713,250,-0.0292,7711.4238,6.8213,0.4212,54.894520,9.793549,108.3,5.845,1.85,1.00,54.895069,9.793790,54.895348,9.797490
1386965345,1,0,151.0,0,0,4,0,713,300,-0.0292,7711.4238,6.8213,0.4212,54.894505,9.793564,108.3,5.845,1.85,1.00,54.895069,9.793790,54.895348,9.797490
1386965346,1,0,151.0,0,0,0,0,713,350,-0.0292,7711.4238,6.8213,0.4212,54.894485,9.793579,108.3,5.845,1.85,1.00,54.895069,9.793790,54.895348,9.797490
1386965346,1,0,82.6,0,35,4,0,713,400,-0.0292,7699.7573,6.8213,0.4212,54.894470,9.793599,108.3,5.845,1.85,1.00,54.895069,9.793790,54.895348,9.797490
1386965346,1,0,56.0,0,35,8,0,713,450,-0.0292,7688.0908,6.8213,0.4212,54.894459,9.793624,108.3,5.845,1.85,1.00,54.895069,9.793790,54.895348,9.797490
1386965346,1,0,-54.0,0,-35,4,0,870,500,-0.0292,7699.7573,6.8213,0.4212,54.894444,9.793644,108.3,5.845,1.85,1.00,54.895069,9.793790,54.895348,9.797490
1386965347,1,0,-54.0,0,-35,0,0,713,550,-0.0292,7711.4238,6.8213,0.4212,54.894428,9.793659,108.3,5.845,1.85,1.00,54.895069,9.793790,54.895348,9.797490
1386965347,1,0,-54.0,0,-35,-4,0,713,600,-0.0292,7723.0903,6.8213,0.4212,54.894413,9.793669,108.3,5.845,1.85,1.00,54.895069,9.793790,54.895348,9.797490
1386965347,1,0,-54.0,0,-35,-8,0,713,650,-0.0292,7734.7568,6.8213,0.4212,54.894394,9.793672,108.3,5.845,1.85,1.00,54.895069,9.793790,54.895348,9.797490
1386965347,1,0,-54.0,0,-35,-12,0,0,600,-0.0292,7746.4233,6.8213,0.4212,54.894375,9.793668,108.3,5.845,1.85,1.00,54.895069,9.793790,54.895348,9.797490
1386965348,1,0,-54.0,0,-35,-16,0,0,550,-0.0292,7758.0898,6.8213,0.4212,54.894360,9.793658,108.3,5.845,1.85,1.00,54.895069,9.793790,54.895348,9.797490
1386965348,1,0,-54.0,0,-35,-20,0,713,600,-0.0292,7769.7563,6.8213,0.4212,54.894341,9.793643,108.3,5.845,1.85,1.00,54.895069,9.793790,54.895348,9.797490
1386965348,1,0,-54.0,0,-35,-24,0,713,650,-0.0292,7781.4229,6.8213,0.4212,54.894325,9.793622,108.3,5.845,1.85,1.00,54.895069,9.793790,54.895348,9.797490
1386965348,1,0,-54.0,0,-35,-28,0,713,700,-0.0292,7793.0894,6.8213,0.4212,54.894314,9.793596,108.3,5.845,1.85,1.00,54.895069,9.793790,54.895348,9.797490
1386965349,1,0,-54.0,0,-35,-32,0,870,750,-0.0292,7804.7559,6.8213,0.4212,54.894306,9.793568,108.3,5.845,1.85,1.00,54.895069,9.793790,54.895348,9.797490
1386965349,1,0,-54.0,0,-35,-36,0,806,800,-0.0292,7816.4224,6.8213,0.4212,54.894302,9.793538,108.3,5.845,1.85,1.00,54.895069,9.793790,54.895348,9.797490
1386965349,1,0,-54.0,0,-35,-32,0,630,750,-0.0292,7828.0889,6.8213,0.4212,54.894302,9.793507,108.3,5.845,1.85,1.00,54.895069,9.793790,54.895348,9.797490
1386965349,1,0,-54.0,0,-35,-36,0,446,700,-0.0292,7839.7554,6.8213,0.4212,54.894306,9.793476,108.3,5.845,1.85,1.00,54.895069,9.793790,54.895348,9.797490
1386965350,1,0,-54.0,0,-26,-32,0,262,650,-0.0292,7848.4219,6.8213,0.4212,54.894314,9.793447,108.3,5.845,1.85,1.00,54.895069,9.793790,54.895348,9.797490
1386965350,1,0,-54.0,0,-18,-28,0,137,600,-0.0292,7854.4219,6.8213,0.4212,54.894321,9.793418,108.3,5.845,1.85,1.00,54.895069,9.793790,54.895348,9.797490
1386965350,1,0,-54.0,0,-12,-24,0,65,550,-0.0292,7858.4219,6.8213,0.4212,54.894329,9.793390,108.3,5.845,1.85,1.00,54.895069,9.793790,54.895348,9.797490
1386965350,1,0,-54.0,0,-8,-20,0,29,500,-0.0292,7861.0884,6.8213,0.4212,54.894341,9.793364,108.3,5.845,1.85,1.00,54.895069,9.793790,54.895348,9.797490
1386965351,1,0,-54.0,0,-5,-16,0,13,450,-0.0292,7862.7549,6.8213,0.4212,54.894348,9.793337,108.3,5.845,1.85,1.00,54.895069,9.793790,54.895348,9.797490
1386965351,1,0,-54.0,0,-3,-12,0,6,400,-0.0292,7863.7549,6.8213,0.4212,54.894360,9.793311,108.3,5.845,1.85,1.00,54.895069,9.793790,54.895348,9.797490
1386965351,1,0,-54.0,0,-2,-8,0,3,350,-0.0292,7864.4214,6.8213,0.4212,54.894367,9.793285,108.3,5.845,1.85,1.00,54.895069,9.793790,54.895348,9.797490
1386965351,1,0,-54.0,0,-2,-4,0,1,300,-0.0292,7865.0879,6.8213,0.4212,54.894379,9.793260,108.3,5.845,1.85,1.00,54.895069,9.793790,54.895348,9.797490
1386965352,1,0,-54.0,0,-1,0,0,0,250,-0.0292,7865.4214,6.8213,0.4212,54.894390,9.793234,108.3,5.845,1.85,1.00,54.895069,9.793790,54.895348,9.797490
1386965352,1,0,-54.0,0,-1,-4,0,0,200,-0.0292,7865.7549,6.8213,0.4212,54.894402,9.793208,108.3,5.845,1.85,1.00,54.895069,9.793790,54.895348,9.797490
1386965352,1,0,-54.0,0,0,0,0,0,150,-0.0292,7865.7549,6.8213,0.4212,54.894413,9.793182,108.3,5.845,1.85,1.00,54.895069,9.793790,54.895348,9.797490
1386965352,1,0,-54.0,0,0,4,0,0,100,-0.0292,7865.7549,6.8213,0.4212,54.894424,9.793158,108.3,5.845,1.85,1.00,54.895069,9.793790,54.895348,9.797490
1386965353,1,0,-54.0,0,0,0,0,0,50,-0.0292,7865.7549,6.8213,0.4212,54.894436,9.793132,108.3,5.845,1.85,1.00,54.895069,9.793790,54.895348,9.797490
1386965353,1,0,-54.0,0,0,4,0,0,0,-0.0292,7865.7549,6.8213,0.4212,54.894444,9.793107,108.3,5.845,1.85,1.00,54.895069,9.793790,54.895348,9.797490
1386965353,1,0,-54.0,0,0,0,0,0,0,-0.0292,7865.7549,6.8213,0.4212,54.894455,9.793081,108.3,5.845,1.85,1.00,54.895069,9.793790,54.895348,9.797490
1386965353,1,0,-54.0,0,0,4,0,0,0,-0.0292,7865.7549,6.8213,0.4212,54.894463,9.793056,108.3,5.845,1.85,1.00,54.895069,9.793790,54.895348,9.797490
1386965354,1,0,-54.0,0,0,0,0,0,0,-0.0292,7865.7549,6.8213,0.4212,54.894474,9.793031,108.3,5.845,1.85,1.00,54.895069,9.793790,54.895348,9.797490
1386965354,1,0,-54.0,0,0,4,0,0,0,-0.0292,7865.7549,6.8213,0.4212,54.894485,9.793005,108.3,5.845,1.85,1.00,54.895069,9.793790,54.895348,9.797490
1386965354,1,0,-54.0,0,0,0,0,0,0,-0.0292,7865.7549,6.8213,0.4212,54.894497,9.792980,108.3,5.845,1.85,1.00,54.895069,9.793790,54.895348,9.797490
1386965354,1,0,-54.0,0,0,4,0,0,0,-0.0292,7865.7549,6.8213,0.4212,54.894508,9.792954,108.3,5.845,1.85,1.00,54.895069,9.793790,54.895348,9.797490
1386965355,1,0,-54.0,0,0,0,0,0,0,-0.0292,7865.7549,6.8213,0.4212,54.894516,9.792929,108.3,5.845,1.85,1.00,54.895069,9.793790,54.895348,9.797490
1386965355,1,0,-54.0,0,0,4,0,0,0,-0.0292,7865.7549,6.8213,0.4212,54.894527,9.792904,108.3,5.845,1.85,1.00,54.895069,9.793790,54.895348,9.797490
1386965355,1,0,-54.0,0,0,0,0,0,0,-0.0292,7865.7549,6.8213,0.4212,54.894539,9.792878,108.3,5.845,1.85,1.00,54.895069,9.793790,54.895348,9.797490
1386965355,1,0,-54.0,0,0,4,0,0,0,-0.0292,7865.7549,6.8213,0.4212,54.894550,9.792853,108.3,5.845,1.85,1.00,54.895069,9.793790,54.895348,9.797490
1386965356,1,0,-54.0,0,0,0,0,0,0,-0.0292,7865.7549,6.8213,0.4212,54.894562,9.792828,108.3,5.845,1.85,1.00,54.895069,9.793790,54.895348,9.797490
1386965356,1,0,-54.0,0,0,4,0,0,0,-0.0292,7865.7549,6.8213,0.4212,54.894573,9.792803,108.3,5.845,1.85,1.00,54.895069,9.793790,54.895348,9.797490
1386965356,1,0,-54.0,0,0,0,0,0,0,-0.0292,7865.7549,6.8213,0.4212,54.894585,9.792777,108.3,5.845,1.85,1.00,54.895069,9.793790,54.895348,9.797490
1386965356,1,0,-54.0,0,0,4,0,0,0,-0.0292,7865.7549,6.8213,0.4212,54.894596,9.792751,108.3,5.845,1.85,1.00,54.895069,9.793790,54.895348,9.797490
1386965357,1,0,-54.0,0,0,0,0,0,0,-0.0292,7865.7549,6.8213,0.4212,54.894608,9.792727,108.3,5.845,1.85,1.00,54.895069,9.793790,54.895348,9.797490
1386965357,1,0,-54.0,0,0,4,0,0,0,-0.0292,7865.7549,6.8213,0.4212,54.894615,9.792701,108.3,5.845,1.85,1.00,54.895069,9.793790,54.895348,9.797490
1386965357,1,0,-54.0,0,0,0,0,0,0,-0.0292,7865.7549,6.8213,0.4212,54.894627,9.792676,108.3,5.845,1.85,1.00,54.895069,9.793790,54.895348,9.797490
1386965357,1,0,-54.0,0,0,4,0,0,0,-0.0292,7865.7549,6.8213,0.4212,54.894634,9.792650,108.3,5.845,1.85,1.00,54.895069,9.793790,54.895348,9.797490
1386965358,1,0,-54.0,0,0,0,0,0,0,-0.0292,7865.7549,6.8213,0.4212,54.894646,9.792624,108.3,5.845,1.85,1.00,54.895069,9.793790,54.895348,9.797490
1386965358,1,0,76.0,0,-35,-4,0,0,0,-0.0292,7877.4214,6.8213,0.4212,54.894661,9.792603,108.3,5.845,1.85,1.00,54.895069,9.793790,54.895348,9.797490
1386965358,1,0,76.4,0,-35,-8,0,0,0,-0.0292,7889.0879,6.8213,0.4212,54.894676,9.792587,108.3,5.845,1.85,1.00,54.895069,9.793790,54.895348,9.797490
1386965358,1,0,76.7,0,-35,-12,0,0,0,-0.0292,7900.7544,6.8213,0.4212,54.894691,9.792578,108.3,5.845,1.85,1.00,54.895069,9.793790,54.895348,9.797490
1386965359,1,0,77.0,0,-35,-16,0,0,0,-0.0292,7912.4209,6.8213,0.4212,54.894711,9.792574,108.3,5.845,1.85,1.00,54.895069,9.793790,54.895348,9.797490
1386965359,1,0,77.4,0,-35,-20,0,0,0,-0.0292,7924.0874,6.8213,0.4212,54.894730,9.792577,108.3,5.845,1.85,1.00,54.895069,9.793790,54.895348,9.797490
1386965359,1,0,77.7,0,-35,-24,0,0,0,-0.0292,7935.7539,6.8213,0.4212,54.894745,9.792585,108.3,5.845,1.85,1.00,54.895069,9.793790,54.895348,9.797490
1386965359,1,0,78.0,0,-35,-28,0,0,0,-0.0292,7947.4204,6.8213,0.4212,54.894764,9.792601,108.3,5.845,1.85,1.00,54.895069,9.793790,54.895348,9.797490
1386965360,1,0,78.3,0,-35,-32,0,0,0,-0.0292,7959.0869,6.8213,0.4212,54.894779,9.792620,108.3,5.845,1.85,1.00,54.895069,9.793790,54.895348,9.797490
1386965360,1,0,78.6,0,-35,-36,0,0,0,-0.0292,7970.7534,6.8213,0.4212,54.894791,9.792645,108.3,5.845,1.85,1.00,54.895069,9.793790,54.895348,9.797490
1386965360,1,0,78.8,0,-28,-32,0,0,0,-0.0292,7980.0869,6.8213,0.4212,54.894802,9.792671,108.3,5.845,1.85,1.00,54.895069,9.793790,54.895348,9.797490
1386965360,1,0,78.9,0,-19,-28,0,9,50,-0.0292,7986.4204,6.8213,0.4212,54.894806,9.792700,108.3,5.845,1.85,1.00,54.895069,9.793790,54.895348,9.797490
1386965361,1,0,78.9,0,-13,-24,0,54,100,-0.0292,7990.7539,6.8213,0.4212,54.894810,9.792729,108.3,5.845,1.85,1.00,54.895069,9.793790,54.895348,9.797490
1386965361,1,0,79.0,0,-8,-20,0,101,150,-0.0292,7993.4204,6.8213,0.4212,54.894814,9.792759,108.3,5.845,1.85,1.00,54.895069,9.793790,54.895348,9.797490
1386965361,1,0,79.0,0,-6,-16,0,134,100,-0.0292,7995.4204,6.8213,0.4212,54.894817,9.792789,108.3,5.845,1.85,1.00,54.895069,9.793790,54.895348,9.797490
1386965361,1,0,79.0,0,-4,-12,0,162,150,-0.0292,7996.7539,6.8213,0.4212,54.894821,9.792820,108.3,5.845,1.85,1.00,54.895069,9.793790,54.895348,9.797490
1386965362,1,0,79.0,0,-2,-8,0,180,200,-0.0292,7997.4204,6.8213,0.4212,54.894829,9.792850,108.3,5.845,1.85,1.00,54.895069,9.793790,54.895348,9.797490
1386965362,1,0,79.1,0,-2,-4,0,190,150,-0.0292,7998.0869,6.8213,0.4212,54.894833,9.792881,108.3,5.845,1.85,1.00,54.895069,9.793790,54.895348,9.797490
1386965362,1,0,79.1,0,-1,0,0,199,200,-0.0292,7998.4204,6.8213,0.4212,54.894836,9.792912,108.3,5.845,1.85,1.00,54.895069,9.793790,54.895348,9.797490
1386965362,1,0,79.1,0,-1,-4,0,204,250,-0.0292,7998.7539,6.8213,0.4212,54.894840,9.792942,108.3,5.845,1.85,1.00,54.895069,9.793790,54.895348,9.797490
1386965363,1,0,79.1,0,0,0,0,209,200,-0.0292,7998.7539,6.8213,0.4212,54.894844,9.792973,108.3,5.845,1.85,1.00,54.895069,9.793790,54.895348,9.797490
1386965363,1,0,79.1,0,0,4,0,209,250,-0.0292,7998.7539,6.8213,0.4212,54.894848,9.793004,108.3,5.845,1.85,1.00,54.895069,9.793790,54.895348,9.797490
1386965363,1,0,79.1,0,0,0,0,209,200,-0.0292,7998.7539,6.8213,0.4212,54.894848,9.793035,108.3,5.845,1.85,1.00,54.895069,9.793790,54.895348,9.797490
1386965363,1,0,79.0,0,0,4,0,209,250,-0.0292,7998.7539,6.8213,0.4212,54.894848,9.793065,108.3,5.845,1.85,1.00,54.895069,9.793790,54.895348,9.797490
1386965364,1,0,79.0,0,0,0,0,209,200,-0.0292,7998.7539,6.8213,0.4212,54.894848,9.793096,108.3,5.845,1.85,1.00,54.895069,9.793790,54.895348,9.797490
1386965364,1,0,78.9,0,0,4,0,209,250,-0.0292,7998.7539,6.8213,0.4212,54.894848,9.793126,108.3,5.845,1.85,1.00,54.895069,9.793790,54.895348,9.797490
1386965364,1,0,78.8,0,0,0,0,209,200,-0.0292,7998.7539,6.8213,0.4212,54.894848,9.793157,108.3,5.845,1.85,1.00,54.895069,9.793790,54.895348,9.797490
1386965364,1,0,78.7,0,0,4,0,209,250,-0.0292,7998.7539,6.8213,0.4212,54.894848,9.793187,108.3,5.845,1.85,1.00,54.895069,9.793790,54.895348,9.797490
1386965365,1,0,78.7,0,0,0,0,209,200,-0.0292,7998.7539,6.8213,0.4212,54.894848,9.793219,108.3,5.845,1.85,1.00,54.895069,9.793790,54.895348,9.797490
1386965365,1,0,78.6,0,0,4,0,209,250,-0.0292,7998.7539,6.8213,0.4212,54.894848,9.793249,108.3,5.845,1.85,1.00,54.895069,9.793790,54.895348,9.797490
1386965365,1,0,78.5,0,0,0,0,209,200,-0.0292,7998.7539,6.8213,0.4212,54.894848,9.793280,108.3,5.845,1.85,1.00,54.895069,9.793790,54.895348,9.797490
1386965365,1,0,78.4,0,0,4,0,209,250,-0.0292,7998.7539,6.8213,0.4212,54.894848,9.793310,108.3,5.845,1.85,1.00,54.895069,9.793790,54.895348,9.797490
1386965366,1,0,78.3,0,0,0,0,209,200,-0.0292,7998.7539,6.8213,0.4212,54.894848,9.793341,108.3,5.845,1.85,1.00,54.895069,9.793790,54.895348,9.797490
1386965366,1,0,78.2,0,1,4,0,209,250,-0.0292,7998.4204,6.8213,0.4212,54.894848,9.793371,108.3,5.845,1.85,1.00,54.895069,9.793790,54.895348,9.797490
1386965366,1,0,78.2,0,0,0,0,204,200,-0.0292,7998.4204,6.8213,0.4212,54.894848,9.793402,108.3,5.845,1.85,1.00,54.895069,9.793790,54.895348,9.797490
1386965366,1,0,78.1,0,0,4,0,204,250,-0.0292,7998.4204,6.8213,0.4212,54.894848,9.793433,108.3,5.845,1.85,1.00,54.895069,9.793790,54.895348,9.797490
1386965367,1,0,78.0,0,0,0,0,204,200,-0.0292,7998.4204,6.8213,0.4212,54.894848,9.793464,108.3,5.845,1.85,1.00,54.895069,9.793790,54.895348,9.797490
1386965367,1,0,77.9,0,1,4,0,204,250,-0.0292,7998.0869,6.8213,0.4212,54.894848,9.793494,108.3,5.845,1.85,1.00,54.895069,9.793790,54.895348,9.797490
1386965367,1,0,77.8,0,0,0,0,199,200,-0.0292,7998.0869,6.8213,0.4212,54.894848,9.793525,108.3,5.845,1.85,1.00,54.895069,9.793790,54.895348,9.797490
1386965367,1,0,77.7,0,0,4,0,199,150,-0.0292,7998.0869,6.8213,0.4212,54.894848,9.793555,108.3,5.845,1.85,1.00,54.895069,9.793790,54.895348,9.797490
1386965368,1,0,77.6,0,0,0,0,199,200,-0.0292,7998.0869,6.8213,0.4212,54.894848,9.793586,108.3,5.845,1.85,1.00,54.895069,9.793790,54.895348,9.797490
1386965368,1,0,77.5,0,1,4,0,199,150,-0.0292,7997.7534,6.8213,0.4212,54.894848,9.793616,108.3,5.845,1.85,1.00,54.895069,9.793790,54.895348,9.797490
1386965368,1,0,77.4,0,0,0,0,195,200,-0.0292,7997.7534,6.8213,0.4212,54.894848,9.793647,108.3,5.845,1.85,1.00,54.895069,9.793790,54.895348,9.797490
1386965368,1,0,77.3,0,0,4,0,195,150,-0.0292,7997.7534,6.8213,0.4212,54.894848,9.793677,108.3,5.845,1.85,1.00,54.895069,9.793790,54.895348,9.797490
1386965369,1,0,77.2,0,1,0,0,195,200,-0.0292,7997.4199,6.8213,0.4212,54.894848,9.793708,108.3,5.845,1.85,1.00,54.895069,9.793790,54.895348,9.797490
1386965369,1,0,77.1,0,0,4,0,190,150,-0.0292,7997.4199,6.8213,0.4212,54.894848,9.793738,108.3,5.845,1.85,1.00,54.895069,9.793790,54.895348,9.797490
1386965369,1,0,77.0,0,0,0,0,190,200,-0.0292,7997.4199,6.8213,0.4212,54.894848,9.793769,108.3,5.845,1.85,1.00,54.895069,9.793790,54.895348,9.797490
1386965369,1,0,76.9,0,0,4,0,190,150,-0.0292,7997.4199,6.8213,0.4212,54.894848,9.793799,108.3,5.845,1.85,1.00,54.895069,9.793790,54.895348,9.797490
1386965370,1,0,76.8,0,1,0,0,190,200,-0.0292,7997.0864,6.8213,0.4212,54.894848,9.793830,108.3,5.845,1.85,1.00,54.895069,9.793790,54.895348,9.797490
1386965370,1,0,76.7,0,0,4,0,185,150,-0.0292,7997.0864,6.8213,0.4212,54.894848,9.793860,108.3,5.845,1.85,1.00,54.895069,9.793790,54.895348,9.797490
1386965370,1,0,76.6,0,0,0,0,185,200,-0.0292,7997.0864,6.8213,0.4212,54.894848,9.793891,108.3,5.845,1.85,1.00,54.895069,9.793790,54.895348,9.797490
1386965371,1,0,76.5,0,1,4,0,185,150,-0.0292,7996.7529,6.8213,0.4212,54.894852,9.793921,108.3,5.845,1.85,1.00,54.895069,9.793790,54.895348,9.797490
1386965371,1,0,76.5,0,0,0,0,180,200,-0.0292,7996.7529,6.8213,0.4212,54.894855,9.793951,108.3,5.845,1.85,1.00,54.895069,9.793790,54.895348,9.797490
1386965371,1,0,76.5,0,0,4,0,180,150,-0.0292,7996.7529,6.8213,0.4212,54.894859,9.793982,108.3,5.845,1.85,1.00,54.895069,9.793790,54.895348,9.797490
1386965371,1,0,76.5,0,0,0,0,180,200,-0.0292,7996.7529,6.8213,0.4212,54.894863,9.794012,108.3,5.845,1.85,1.00,54.895069,9.793790,54.895348,9.797490
1386965372,1,0,76.5,0,0,4,0,180,150,-0.0292,7996.7529,6.8213,0.4212,54.894867,9.794043,108.3,5.845,1.85,1.00,54.895069,9.793790,54.895348,9.797490
1386965372,1,0,76.5,0,0,0,0,180,200,-0.0292,7996.7529,6.8213,0.4212,54.894871,9.794073,108.3,5.845,1.85,1.00,54.895069,9.793790,54.895348,9.797490
1386965372,1,0,76.4,0,0,4,0,180,150,-0.0292,7996.7529,6.8213,0.4212,54.894878,9.794104,108.3,5.845,1.85,1.00,54.895069,9.793790,54.895348,9.797490
1386965372,1,0,76.5,0,0,0,0,180,200,-0.0292,7996.7529,6.8213,0.4212,54.894882,9.794134,108.3,5.845,1.85,1.00,54.895069,9.793790,54.895348,9.797490
1386965373,1,0,76.5,0,0,4,0,180,150,-0.0292,7996.7529,6.8213,0.4212,54.894886,9.794164,108.3,5.845,1.85,1.00,54.895069,9.793790,54.895348,9.797490
1386965373,1,0,76.5,0,0,0,0,180,200,-0.0292,7996.7529,6.8213,0.4212,54.894890,9.794194,108.3,5.845,1.85,1.00,54.895069,9.793790,54.895348,9.797490
1386965373,1,0,76.5,0,0,4,0,180,150,-0.0292,7996.7529,6.8213,0.4212,54.894894,9.794225,108.3,5.845,1.85,1.00,54.895069,9.793790,54.895348,9.797490
1386965373,1,0,76.5,0,0,0,0,180,200,-0.0292,7996.7529,6.8213,0.4212,54.894901,9.794255,108.3,5.845,1.85,1.00,54.895069,9.793790,54.895348,9.797490
1386965374,1,0,76.6,0,0,4,0,180,150,-0.0292,7996.7529,6.8213,0.4212,54.894905,9.794286,108.3,5.845,1.85,1.00,54.895069,9.793790,54.895348,9.797490
1386965374,1,0,76.6,0,0,0,0,180,200,-0.0292,7996.7529,6.8213,0.4212,54.894909,9.794316,108.3,5.845,1.85,1.00,54.895069,9.793790,54.895348,9.797490
1386965374,1,0,76.6,0,0,4,0,180,150,-0.0292,7996.7529,6.8213,0.4212,54.894913,9.794347,108.3,5.845,1.85,1.00,54.895069,9.793790,54.895348,9.797490
1386965374,1,0,76.6,0,0,0,0,180,200,-0.0292,7996.7529,6.8213,0.4212,54.894917,9.794376,108.3,5.845,1.85,1.00,54.895069,9.793790,54.895348,9.797490
1386965375,1,0,76.5,0,0,4,0,180,150,-0.0292,7996.7529,6.8213,0.4212,54.894920,9.794407,108.3,5.845,1.85,1.00,54.895069,9.793790,54.895348,9.797490
1386965375,1,0,76.5,0,0,0,0,180,200,-0.0292,7996.7529,6.8213,0.4212,54.894928,9.794437,108.3,5.845,1.85,1.00,54.895069,9.793790,54.895348,9.797490
1386965375,1,0,76.6,0,0,4,0,180,150,-0.0292,7996.7529,6.8213,0.4212,54.894932,9.794467,108.3,5.845,1.85,1.00,54.895069,9.793790,54.895348,9.797490
1386965375,1,0,76.6,0,0,0,0,180,200,-0.0292,7996.7529,6.8213,0.4212,54.894936,9.794497,108.3,5.845,1.85,1.00,54.895069,9.793790,54.895348,9.797490
1386965376,1,0,76.6,0,0,4,0,180,150,-0.0292,7996.7529,6.8213,0.4212,54.894939,9.794528,108.3,5.845,1.85,1.00,54.895069,9.793790,54.895348,9.797490
1386965376,1,0,76.6,0,0,0,0,180,200,-0.0292,7996.7529,6.8213,0.4212,54.894943,9.794559,108.3,5.845,1.85,1.00,54.895069,9.793790,54.895348,9.797490
1386965376,1,0,76.6,0,0,4,0,180,150,-0.0292,7996.7529,6.8213,0.4212,54.894951,9.794589,108.3,5.845,1.85,1.00,54.895069,9.793790,54.895348,9.797490
1386965376,1,0,76.7,0,0,0,0,180,200,-0.0292,7996.7529,6.8213,0.4212,54.894955,9.794620,108.3,5.845,1.85,1.00,54.895069,9.793790,54.895348,9.797490
1386965377,1,0,76.7,0,0,4,0,180,150,-0.0292,7996.7529,6.8213,0.4212,54.894958,9.794650,108.3,5.845,1.85,1.00,54.895069,9.793790,54.895348,9.797490
1386965377,1,0,76.7,0,0,0,0,180,200,-0.0292,7996.7529,6.8213,0.4212,54.894962,9.794680,108.3,5.845,1.85,1.00,54.895069,9.793790,54.895348,9.797490
1386965377,1,0,76.7,0,0,4,0,180,150,-0.0292,7996.7529,6.8213,0.4212,54.894966,9.794710,108.3,5.845,1.85,1.00,54.895069,9.793790,54.895348,9.797490
1386965377,1,0,76.7,0,0,0,0,180,200,-0.0292,7996.7529,6.8213,0.4212,54.894970,9.794741,108.3,5.845,1.85,1.00,54.895069,9.793790,54.895348,9.797490
1386965378,1,0,76.6,0,0,4,0,180,150,-0.0292,7996.7529,6.8213,0.4212,54.894978,9.794771,108.3,5.845,1.85,1.00,54.895069,9.793790,54.895348,9.797490
1386965378,1,0,76.8,0,0,0,0,180,200,-0.0292,7996.7529,6.8213,0.4212,54.894981,9.794802,108.3,5.845,1.85,1.00,54.895069,9.793790,54.895348,9.797490
1386965378,1,0,76.8,0,0,4,0,180,150,-0.0292,7996.7529,6.8213,0.4212,54.894985,9.794832,108.3,5.845,1.85,1.00,54.895069,9.793790,54.895348,9.797490
1386965378,1,0,76.7,0,0,0,0,180,200,-0.0292,7996.7529,6.8213,0.4212,54.894989,9.794863,108.3,5.845,1.85,1.00,54.895069,9.793790,54.895348,9.797490
1386965379,1,0,76.7,0,0,4,0,180,150,-0.0292,7996.7529,6.8213,0.4212,54.894993,9.794892,108.3,5.845,1.85,1.00,54.895069,9.793790,54.895348,9.797490
1386965379,1,0,76.7,0,0,0,0,180,200,-0.0292,7996.7529,6.8213,0.4212,54.895000,9.794923,108.3,5.845,1.85,1.00,54.895069,9.793790,54.895348,9.797490
1386965379,1,0,76.8,0,0,4,0,180,150,-0.0292,7996.7529,6.8213,0.4212,54.895004,9.794953,108.3,5.845,1.85,1.00,54.895069,9.793790,54.895348,9.797490
1386965379,1,0,76.8,0,0,0,0,180,200,-0.0292,7996.7529,6.8213,0.4212,54.895008,9.794984,108.3,5.845,1.85,1.00,54.895069,9.793790,54.895348,9.797490
1386965380,1,0,76.8,0,0,4,0,180,150,-0.0292,7996.7529,6.8213,0.4212,54.895012,9.795014,108.3,5.845,1.85,1.00,54.895069,9.793790,54.895348,9.797490
1386965380,1,0,76.8,0,0,0,0,180,200,-0.0292,7996.7529,6.8213,0.4212,54.895016,9.795045,108.3,5.845,1.85,1.00,54.895069,9.793790,54.895348,9.797490
1386965380,1,0,76.8,0,0,4,0,180,150,-0.0292,7996.7529,6.8213,0.4212,54.895020,9.795075,108.3,5.845,1.85,1.00,54.895069,9.793790,54.895348,9.797490
1386965380,1,0,76.8,0,0,0,0,180,200,-0.0292,7996.7529,6.8213,0.4212,54.895027,9.795105,108.3,5.845,1.85,1.00,54.895069,9.793790,54.895348,9.797490
1386965381,1,0,76.9,0,0,4,0,180,150,-0.0292,7996.7529,6.8213,0.4212,54.895031,9.795135,108.3,5.845,1.85,1.00,54.895069,9.793790,54.895348,9.797490
1386965381,1,0,76.9,0,0,0,0,180,200,-0.0292,7996.7529,6.8213,0.4212,54.895035,9.795166,108.3,5.845,1.85,1.00,54.895069,9.793790,54.895348,9.797490
1386965381,1,0,76.9,0,0,4,0,180,150,-0.0292,7996.7529,6.8213,0.4212,54.895039,9.795196,108.3,5.845,1.85,1.00,54.895069,9.793790,54.895348,9.797490
1386965381,1,0,76.9,0,0,0,0,180,200,-0.0292,7996.7529,6.8213,0.4212,54.895042,9.795226,108.3,5.845,1.85,1.00,54.895069,9.793790,54.895348,9.797490
1386965382,1,0,76.9,0,0,4,0,180,150,-0.0292,7996.7529,6.8213,0.4212,54.895050,9.795257,108.3,5.845,1.85,1.00,54.895069,9.793790,54.895348,9.797490
1386965382,1,0,77.0,0,0,0,0,180,200,-0.0292,7996.7529,6.8213,0.4212,54.895054,9.795287,108.3,5.845,1.85,1.00,54.895069,9.793790,54.895348,9.797490
1386965382,1,0,77.0,0,0,4,0,180,150,-0.0292,7996.7529,6.8213,0.4212,54.895058,9.795318,108.3,5.845,1.85,1.00,54.895069,9.793790,54.895348,9.797490
1386965382,1,0,77.0,0,0,0,0,180,200,-0.0292,7996.7529,6.8213,0.4212,54.895061,9.795348,108.3,5.845,1.85,1.00,54.895069,9.793790,54.895348,9.797490
1386965383,1,0,77.0,0,0,4,0,180,150,-0.0292,7996.7529,6.8213,0.4212,54.895065,9.795379,108.3,5.845,1.85,1.00,54.895069,9.793790,54.895348,9.797490
1386965383,1,0,77.0,0,0,0,0,180,200,-0.0292,7996.7529,6.8213,0.4212,54.895073,9.795408,108.3,5.845,1.85,1.00,54.895069,9.793790,54.895348,9.797490
1386965383,1,0,77.2,0,0,4,0,180,150,-0.0292,7996.7529,6.8213,0.4212,54.895077,9.795439,108.3,5.845,1.85,1.00,54.895069,9.793790,54.895348,9.797490
1386965383,1,0,77.1,0,0,0,0,180,200,-0.0292,7996.7529,6.8213,0.4212,54.895081,9.795469,108.3,5.845,1.85,1.00,54.895069,9.793790,54.895348,9.797490
1386965384,1,0,77.1,0,0,4,0,180,150,-0.0292,7996.7529,6.8213,0.4212,54.895084,9.795500,108.3,5.845,1.85,1.00,54.895069,9.793790,54.895348,9.797490
1386965384,1,0,77.1,0,0,0,0,180,200,-0.0292,7996.7529,6.8213,0.4212,54.895088,9.795530,108.3,5.845,1.85,1.00,54.895069,9.793790,54.895348,9.797490
1386965384,1,0,77.1,0,0,4,0,180,150,-0.0292,7996.7529,6.8213,0.4212,54.895092,9.795561,108.3,5.845,1.85,1.00,54.895069,9.793790,54.895348,9.797490
1386965384,1,0,77.1,0,0,0,0,180,200,-0.0292,7996.7529,6.8213,0.4212,54.895100,9.795591,108.3,5.845,1.85,1.00,54.895069,9.793790,54.895348,9.797490
1386965385,1,0,77.3,0,-1,-4,0,180,150,-0.0292,7997.0864,6.8213,0.4212,54.895103,9.795621,108.3,5.845,1.85,1.00,54.895069,9.793790,54.895348,9.797490
1386965385,1,0,77.3,0,0,0,0,185,200,-0.0292,7997.0864,6.8213,0.4212,54.895107,9.795651,108.3,5.845,1.85,1.00,54.895069,9.793790,54.895348,9.797490
1386965385,1,0,77.3,0,0,4,0,185,150,-0.0292,7997.0864,6.8213,0.4212,54.895111,9.795682,108.3,5.845,1.85,1.00,54.895069,9.793790,54.895348,9.797490
1386965385,1,0,77.3,0,0,0,0,185,200,-0.0292,7997.0864,6.8213,0.4212,54.895115,9.795712,108.3,5.845,1.85,1.00,54.895069,9.793790,54.895348,9.797490
1386965386,1,0,77.3,0,0,4,0,185,150,-0.0292,7997.0864,6.8213,0.4212,54.895119,9.795743,108.3,5.845,1.85,1.00,54.895069,9.793790,54.895348,9.797490
1386965386,1,0,77.2,0,0,0,0,185,200,-0.0292,7997.0864,6.8213,0.4212,54.895119,9.795774,108.3,5.845,1.85,1.00,54.895069,9.793790,54.895348,9.797490
1386965386,1,0,77.0,0,0,4,0,185,150,-0.0292,7997.0864,6.8213,0.4212,54.895119,9.795804,108.3,5.845,1.85,1.00,54.895069,9.793790,54.895348,9.797490
1386965386,1,0,76.8,0,0,0,0,185,200,-0.0292,7997.0864,6.8213,0.4212,54.895119,9.795834,108.3,5.845,1.85,1.00,54.895069,9.793790,54.895348,9.797490
1386965387,1,0,76.6,0,1,4,0,185,150,-0.0292,7996.7529,6.8213,0.4212,54.895123,9.795864,108.3,5.845,1.85,1.00,54.895069,9.793790,54.895348,9.797490
1386965387,1,0,76.5,0,0,0,0,180,200,-0.0292,7996.7529,6.8213,0.4212,54.895126,9.795895,108.3,5.845,1.85,1.00,54.895069,9.793790,54.895348,9.797490
1386965387,1,0,76.5,0,0,4,0,180,150,-0.0292,7996.7529,6.8213,0.4212,54.895130,9.795924,108.3,5.845,1.85,1.00,54.895069,9.793790,54.895348,9.797490
1386965387,1,0,76.5,0,0,0,0,180,200,-0.0292,7996.7529,6.8213,0.4212,54.895134,9.795955,108.3,5.845,1.85,1.00,54.895069,9.793790,54.895348,9.797490
1386965388,1,0,76.5,0,0,4,0,180,150,-0.0292,7996.7529,6.8213,0.4212,54.895138,9.795985,108.3,5.845,1.85,1.00,54.895069,9.793790,54.895348,9.797490
1386965388,1,0,76.5,0,0,0,0,180,200,-0.0292,7996.7529,6.8213,0.4212,54.895142,9.796016,108.3,5.845,1.85,1.00,54.895069,9.793790,54.895348,9.797490
1386965388,1,0,76.4,0,0,4,0,180,150,-0.0292,7996.7529,6.8213,0.4212,54.895149,9.796046,108.3,5.845,1.85,1.00,54.895069,9.793790,54.895348,9.797490
1386965388,1,0,76.6,0,0,0,0,180,200,-0.0292,7996.7529,6.8213,0.4212,54.895153,9.796077,108.3,5.845,1.85,1.00,54.895069,9.793790,54.895348,9.797490
1386965389,1,0,76.6,0,0,4,0,180,150,-0.0292,7996.7529,6.8213,0.4212,54.895157,9.796107,108.3,5.845,1.85,1.00,54.895069,9.793790,54.895348,9.797490
1386965389,1,0,76.6,0,0,0,0,180,200,-0.0292,7996.7529,6.8213,0.4212,54.895161,9.796137,108.3,5.845,1.85,1.00,54.895069,9.793790,54.895348,9.797490
1386965389,1,0,76.6,0,0,4,0,180,150,-0.0292,7996.7529,6.8213,0.4212,54.895164,9.796167,108.3,5.845,1.85,1.00,54.895069,9.793790,54.895348,9.797490
1386965389,1,0,76.5,0,0,0,0,180,200,-0.0292,7996.7529,6.8213,0.4212,54.895172,9.796198,108.3,5.845,1.85,1.00,54.895069,9.793790,54.895348,9.797490
1386965390,1,0,76.8,0,0,4,0,180,150,-0.0292,7996.7529,6.8213,0.4212,54.895176,9.796228,108.3,5.845,1.85,1.00,54.895069,9.793790,54.895348,9.797490
1386965390,1,0,76.8,0,0,0,0,180,200,-0.0292,7996.7529,6.8213,0.4212,54.895180,9.796259,108.3,5.845,1.85,1.00,54.895069,9.793790,54.895348,9.797490
1386965390,1,0,76.7,0,0,4,0,180,150,-0.0292,7996.7529,6.8213,0.4212,54.895184,9.796289,108.3,5.845,1.85,1.00,54.895069,9.793790,54.895348,9.797490
1386965390,1,0,76.7,0,0,0,0,180,200,-0.0292,7996.7529,6.8213,0.4212,54.895187,9.796320,108.3,5.845,1.85,1.00,54.895069,9.793790,54.895348,9.797490
1386965391,1,0,76.7,0,0,4,0,180,150,-0.0292,7996.7529,6.8213,0.4212,54.895191,9.796350,108.3,5.845,1.85,1.00,54.895069,9.793790,54.895348,9.797490
1386965391,1,0,76.7,0,0,0,0,180,200,-0.0292,7996.7529,6.8213,0.4212,54.895199,9.796380,108.3,5.845,1.85,1.00,54.895069,9.793790,54.895348,9.797490
1386965391,1,0,77.0,0,0,4,0,180,150,-0.0292,7996.7529,6.8213,0.4212,54.895203,9.796411,108.3,5.845,1.85,1.00,54.895069,9.793790,54.895348,9.797490
1386965391,1,0,76.9,0,0,0,0,180,200,-0.0292,7996.7529,6.8213,0.4212,54.895206,9.796441,108.3,5.845,1.85,1.00,54.895069,9.793790,54.895348,9.797490
1386965392,1,0,76.9,0,0,4,0,180,150,-0.0292,7996.7529,6.8213,0.4212,54.895210,9.796472,108.3,5.845,1.85,1.00,54.895069,9.793790,54.895348,9.797490
1386965392,1,0,76.9,0,0,0,0,180,200,-0.0292,7996.7529,6.8213,0.4212,54.895214,9.796502,108.3,5.845,1.85,1.00,54.895069,9.793790,54.895348,9.797490
1386965392,1,0,76.9,0,0,4,0,180,150,-0.0292,7996.7529,6.8213,0.4212,54.895222,9.796533,108.3,5.845,1.85,1.00,54.895069,9.793790,54.895348,9.797490
1386965392,1,0,77.2,0,0,0,0,180,200,-0.0292,7996.7529,6.8213,0.4212,54.895226,9.796562,108.3,5.845,1.85,1.00,54.895069,9.793790,54.895348,9.797490
1386965393,1,0,77.2,0,0,4,0,180,150,-0.0292,7996.7529,6.8213,0.4212,54.895229,9.796593,108.3,5.845,1.85,1.00,54.895069,9.793790,54.895348,9.797490
1386965393,1,0,77.2,0,0,0,0,180,200,-0.0292,7996.7529,6.8213,0.4212,54.895233,9.796623,108.3,5.845,1.85,1.00,54.895069,9.793790,54.895348,9.797490
1386965393,1,0,77.1,0,0,4,0,180,150,-0.0292,7996.7529,6.8213,0.4212,54.895237,9.796653,108.3,5.845,1.85,1.00,54.895069,9.793790,54.895348,9.797490
1386965393,1,0,77.1,0,0,0,0,180,200,-0.0292,7996.7529,6.8213,0.4212,54.895241,9.796683,108.3,5.845,1.85,1.00,54.895069,9.793790,54.895348,9.797490
1386965394,1,0,77.1,0,0,4,0,180,150,-0.0292,7996.7529,6.8213,0.4212,54.895248,9.796714,108.3,5.845,1.85,1.00,54.895069,9.793790,54.895348,9.797490
1386965394,1,0,77.5,0,-1,0,0,180,200,-0.0292,7997.0864,6.8213,0.4212,54.895252,9.796744,108.3,5.845,1.85,1.00,54.895069,9.793790,54.895348,9.797490
1386965394,1,0,77.5,0,0,4,0,185,150,-0.0292,7997.0864,6.8213,0.4212,54.895256,9.796775,108.3,5.845,1.85,1.00,54.895069,9.793790,54.895348,9.797490
1386965394,1,0,77.5,0,0,0,0,185,200,-0.0292,7997.0864,6.8213,0.4212,54.895260,9.796805,108.3,5.845,1.85,1.00,54.895069,9.793790,54.895348,9.797490
1386965395,1,0,77.5,0,0,4,0,185,150,-0.0292,7997.0864,6.8213,0.4212,54.895264,9.796836,108.3,5.845,1.85,1.00,54.895069,9.793790,54.895348,9.797490
1386965395,1,0,77.5,0,0,0,0,185,200,-0.0292,7997.0864,6.8213,0.4212,54.895271,9.796865,108.3,5.845,1.85,1.00,54.895069,9.793790,54.895348,9.797490
1386965395,1,0,78.1,0,-1,-4,0,185,150,-0.0292,7997.4199,6.8213,0.4212,54.895275,9.796896,108.3,5.845,1.85,1.00,54.895069,9.793790,54.895348,9.797490
1386965395,1,0,78.1,0,-1,0,0,190,200,-0.0292,7997.7534,6.8213,0.4212,54.895279,9.796926,108.3,5.845,1.85,1.00,54.895069,9.793790,54.895348,9.797490
1386965396,1,0,78.1,0,0,4,0,195,150,-0.0292,7997.7534,6.8213,0.4212,54.895283,9.796957,108.3,5.845,1.85,1.00,54.895069,9.793790,54.895348,9.797490
1386965396,1,0,78.1,0,0,0,0,195,200,-0.0292,7997.7534,6.8213,0.4212,54.895287,9.796988,108.3,5.845,1.85,1.00,54.895069,9.793790,54.895348,9.797490
1386965396,1,0,78.1,0,0,4,0,195,150,-0.0292,7997.7534,6.8213,0.4212,54.895290,9.797018,108.3,5.845,1.85,1.00,54.895069,9.793790,54.895348,9.797490
1386965396,1,0,78.2,0,0,0,0,195,200,-0.0292,7997.7534,6.8213,0.4212,54.895290,9.797049,108.3,5.845,1.85,1.00,54.895069,9.793790,54.895348,9.797490
1386965397,1,0,77.4,0,0,4,0,195,150,-0.0292,7997.7534,6.8213,0.4212,54.895290,9.797079,108.3,5.845,1.85,1.00,54.895069,9.793790,54.895348,9.797490
1386965397,1,0,76.5,0,1,0,0,195,200,-0.0292,7997.4199,6.8213,0.4212,54.895290,9.797110,108.3,5.845,1.85,1.00,54.895069,9.793790,54.895348,9.797490
1386965397,1,0,56.0,0,21,4,0,190,150,-0.0292,7990.4199,6.8213,0.4212,54.895294,9.797139,108.3,5.845,1.85,1.00,54.895069,9.793790,54.895348,9.797490
1386965397,1,0,56.0,0,14,8,0,97,100,-0.0292,7985.7534,6.8213,0.4212,54.895302,9.797167,108.3,5.845,1.85,1.00,54.895069,9.793790,54.895348,9.797490
1386965398,1,0,76.2,0,-10,4,0,47,50,-0.0292,7989.0869,6.8213,0.4212,54.895309,9.797196,108.3,5.845,1.85,1.00,54.895069,9.793790,54.895348,9.797490
1386965398,1,0,77.3,0,-8,0,0,81,100,-0.0292,7991.7534,6.8213,0.4212,54.895317,9.797226,108.3,5.845,1.85,1.00,54.895069,9.793790,54.895348,9.797490
1386965398,1,0,78.7,0,-7,-4,0,113,150,-0.0292,7994.0869,6.8213,0.4212,54.895321,9.797256,108.3,5.845,1.85,1.00,54.895069,9.793790,54.895348,9.797490
1386965398,1,0,78.9,0,-5,-8,0,143,100,-0.0292,7995.7534,6.8213,0.4212,54.895325,9.797286,108.3,5.845,1.85,1.00,54.895069,9.793790,54.895348,9.797490
1386965399,1,0,79.0,0,-3,-4,0,166,150,-0.0292,7996.7534,6.8213,0.4212,54.895329,9.797317,108.3,5.845,1.85,1.00,54.895069,9.793790,54.895348,9.797490
1386965399,1,0,79.2,0,-2,0,0,180,200,-0.0292,7997.4199,6.8213,0.4212,54.895332,9.797347,108.3,5.845,1.85,1.00,54.895069,9.793790,54.895348,9.797490
1386965399,1,0,79.6,0,-2,-4,0,190,150,-0.0292,7998.0864,6.8213,0.4212,54.895336,9.797378,108.3,5.845,1.85,1.00,54.895069,9.793790,54.895348,9.797490
1386965399,1,0,80.0,0,-2,0,0,199,200,-0.0292,7998.7529,6.8213,0.4212,54.895340,9.797408,108.3,5.845,1.85,1.00,54.895069,9.793790,54.895348,9.797490
1386965400,1,0,80.9,0,-2,-4,0,209,250,-0.0292,7999.4194,6.8213,0.4212,54.895340,9.797439,108.3,5.845,1.85,1.00,54.895069,9.793790,54.895348,9.797490
1386965400,1,0,56.0,0,23,0,0,219,200,-0.0292,7991.7529,6.8213,0.4212,54.895344,9.797468,108.3,5.845,1.85,1.00,54.895348,9.797490,54.894039,9.801540
1386965400,1,0,119.0,0,-35,-4,0,113,150,-0.0292,8003.4194,6.8213,0.4212,54.895344,9.797500,108.3,5.845,1.85,1.00,54.895348,9.797490,54.894039,9.801540
1386965401,1,0,119.2,0,-35,-8,0,280,200,-0.0292,8015.0859,6.8213,0.4212,54.895340,9.797531,108.3,5.845,1.85,1.00,54.895348,9.797490,54.894039,9.801540
1386965401,1,0,119.3,0,-24,-12,0,464,250,-0.0292,8023.0859,6.8213,0.4212,54.895332,9.797562,108.3,5.845,1.85,1.00,54.895348,9.797490,54.894039,9.801540
1386965401,1,0,119.3,0,-16,-16,0,591,300,-0.0292,8028.4194,6.8213,0.4212,54.895329,9.797591,108.3,5.845,1.85,1.00,54.895348,9.797490,54.894039,9.801540
1386965401,1,0,119.4,0,-11,-12,0,674,350,-0.0292,8032.0859,6.8213,0.4212,54.895321,9.797621,108.3,5.845,1.85,1.00,54.895348,9.797490,54.894039,9.801540
1386965402,1,0,119.5,0,-7,-8,0,730,400,-0.0292,8034.4194,6.8213,0.4212,54.895313,9.797649,108.3,5.845,1.85,1.00,54.895348,9.797490,54.894039,9.801540
1386965402,1,0,119.5,0,-5,-4,0,764,450,-0.0292,8036.0859,6.8213,0.4212,54.895306,9.797677,108.3,5.845,1.85,1.00,54.895348,9.797490,54.894039,9.801540
1386965402,1,0,119.5,0,-3,0,0,789,500,-0.0292,8037.0859,6.8213,0.4212,54.895298,9.797705,108.3,5.845,1.85,1.00,54.895348,9.797490,54.894039,9.801540
1386965402,1,0,119.6,0,-2,-4,0,803,550,-0.0292,8037.7524,6.8213,0.4212,54.895290,9.797732,108.3,5.845,1.85,1.00,54.895348,9.797490,54.894039,9.801540
1386965403,1,0,119.6,0,-2,0,0,813,600,-0.0292,8038.4189,6.8213,0.4212,54.895279,9.797759,108.3,5.845,1.85,1.00,54.895348,9.797490,54.894039,9.801540
1386965403,1,0,119.5,0,-1,-4,0,823,650,-0.0292,8038.7524,6.8213,0.4212,54.895271,9.797787,108.3,5.845,1.85,1.00,54.895348,9.797490,54.894039,9.801540
1386965403,1,0,119.6,0,-1,0,0,827,700,-0.0292,8039.0859,6.8213,0.4212,54.895260,9.797813,108.3,5.845,1.85,1.00,54.895348,9.797490,54.894039,9.801540
1386965403,1,0,119.5,0,0,4,0,832,750,-0.0292,8039.0859,6.8213,0.4212,54.895252,9.797841,108.3,5.845,1.85,1.00,54.895348,9.797490,54.894039,9.801540
1386965404,1,0,119.5,0,0,0,0,832,800,-0.0292,8039.0859,6.8213,0.4212,54.895245,9.797869,108.3,5.845,1.85,1.00,54.895348,9.797490,54.894039,9.801540
1386965404,1,0,119.6,0,0,4,0,832,850,-0.0292,8039.0859,6.8213,0.4212,54.895233,9.797895,108.3,5.845,1.85,1.00,54.895348,9.797490,54.894039,9.801540
1386965404,1,0,119.5,0,0,0,0,832,800,-0.0292,8039.0859,6.8213,0.4212,54.895226,9.797923,108.3,5.845,1.85,1.00,54.895348,9.797490,54.894039,9.801540
1386965404,1,0,119.5,0,0,4,0,832,850,-0.0292,8039.0859,6.8213,0.4212,54.895218,9.797951,108.3,5.845,1.85,1.00,54.895348,9.797490,54.894039,9.801540
1386965405,1,0,119.6,0,0,0,0,832,800,-0.0292,8039.0859,6.8213,0.4212,54.895206,9.797977,108.3,5.845,1.85,1.00,54.895348,9.797490,54.894039,9.801540
1386965405,1,0,119.5,0,0,4,0,832,850,-0.0292,8039.0859,6.8213,0.4212,54.895199,9.798005,108.3,5.845,1.85,1.00,54.895348,9.797490,54.894039,9.801540
1386965405,1,0,119.5,0,0,0,0,832,800,-0.0292,8039.0859,6.8213,0.4212,54.895187,9.798032,108.3,5.845,1.85,1.00,54.895348,9.797490,54.894039,9.801540
1386965405,1,0,119.5,0,0,4,0,832,850,-0.0292,8039.0859,6.8213,0.4212,54.895180,9.798059,108.3,5.845,1.85,1.00,54.895348,9.797490,54.894039,9.801540
1386965406,1,0,119.5,0,0,0,0,832,800,-0.0292,8039.0859,6.8213,0.4212,54.895172,9.798087,108.3,5.845,1.85,1.00,54.895348,9.797490,54.894039,9.801540
1386965406,1,0,119.6,0,0,4,0,832,850,-0.0292,8039.0859,6.8213,0.4212,54.895161,9.798114,108.3,5.845,1.85,1.00,54.895348,9.797490,54.894039,9.801540
1386965406,1,0,119.5,0,0,0,0,832,800,-0.0292,8039.0859,6.8213,0.4212,54.895153,9.798141,108.3,5.845,1.85,1.00,54.895348,9.797490,54.894039,9.801540
1386965406,1,0,119.5,0,0,4,0,832,850,-0.0292,8039.0859,6.8213,0.4212,54.895145,9.798169,108.3,5.845,1.85,1.00,54.895348,9.797490,54.894039,9.801540
1386965407,1,0,119.6,0,0,0,0,832,800,-0.0292,8039.0859,6.8213,0.4212,54.895134,9.798196,108.3,5.845,1.85,1.00,54.895348,9.797490,54.894039,9.801540
1386965407,1,0,119.5,0,0,4,0,832,850,-0.0292,8039.0859,6.8213,0.4212,54.895126,9.798223,108.3,5.845,1.85,1.00,54.895348,9.797490,54.894039,9.801540
1386965407,1,0,119.5,0,0,0,0,832,800,-0.0292,8039.0859,6.8213,0.4212,54.895119,9.798251,108.3,5.845,1.85,1.00,54.895348,9.797490,54.894039,9.801540
1386965407,1,0,119.6,0,0,4,0,832,850,-0.0292,8039.0859,6.8213,0.4212,54.895107,9.798278,108.3,5.845,1.85,1.00,54.895348,9.797490,54.894039,9.801540
1386965408,1,0,119.5,0,0,0,0,832,800,-0.0292,8039.0859,6.8213,0.4212,54.895100,9.798306,108.3,5.845,1.85,1.00,54.895348,9.797490,54.894039,9.801540
1386965408,1,0,119.5,0,0,4,0,832,850,-0.0292,8039.0859,6.8213,0.4212,54.895088,9.798332,108.3,5.845,1.85,1.00,54.895348,9.797490,54.894039,9.801540
1386965408,1,0,119.5,0,0,0,0,832,800,-0.0292,8039.0859,6.8213,0.4212,54.895081,9.798360,108.3,5.845,1.85,1.00,54.895348,9.797490,54.894039,9.801540
1386965408,1,0,119.5,0,0,4,0,832,850,-0.0292,8039.0859,6.8213,0.4212,54.895073,9.798388,108.3,5.845,1.85,1.00,54.895348,9.797490,54.894039,9.801540
1386965409,1,0,119.5,0,0,0,0,832,800,-0.0292,8039.0859,6.8213,0.4212,54.895061,9.798414,108.3,5.845,1.85,1.00,54.895348,9.797490,54.894039,9.801540
1386965409,1,0,119.5,0,0,4,0,832,850,-0.0292,8039.0859,6.8213,0.4212,54.895054,9.798442,108.3,5.845,1.85,1.00,54.895348,9.797490,54.894039,9.801540
1386965409,1,0,119.5,0,0,0,0,832,800,-0.0292,8039.0859,6.8213,0.4212,54.895046,9.798470,108.3,5.845,1.85,1.00,54.895348,9.797490,54.894039,9.801540
1386965409,1,0,119.5,0,0,4,0,832,850,-0.0292,8039.0859,6.8213,0.4212,54.895035,9.798496,108.3,5.845,1.85,1.00,54.895348,9.797490,54.894039,9.801540
1386965410,1,0,119.5,0,0,0,0,832,800,-0.0292,8039.0859,6.8213,0.4212,54.895027,9.798524,108.3,5.845,1.85,1.00,54.895348,9.797490,54.894039,9.801540
1386965410,1,0,119.5,0,0,4,0,832,850,-0.0292,8039.0859,6.8213,0.4212,54.895016,9.798552,108.3,5.845,1.85,1.00,54.895348,9.797490,54.894039,9.801540
1386965410,1,0,119.5,0,0,0,0,832,800,-0.0292,8039.0859,6.8213,0.4212,54.895008,9.798578,108.3,5.845,1.85,1.00,54.895348,9.797490,54.894039,9.801540
1386965410,1,0,119.5,0,0,4,0,832,850,-0.0292,8039.0859,6.8213,0.4212,54.895000,9.798606,108.3,5.845,1.85,1.00,54.895348,9.797490,54.894039,9.801540
1386965411,1,0,119.5,0,0,0,0,832,800,-0.0292,8039.0859,6.8213,0.4212,54.894989,9.798633,108.3,5.845,1.85,1.00,54.895348,9.797490,54.894039,9.801540
