MCU_timestamp,Navigation_System,Manual_Control,Guidance_Heading,Manual_Ctrl_Rudder,Rudder_Desired_Angle,Rudder_Feedback,Manual_Ctrl_Sail,Sail_Desired_Pos,Sail_Feedback,Rate,Heading,Pitch,Roll,Latitude,Longitude,COG,SOG,Wind_Speed,Wind_Angle,Point_Start_Lat,Point_Start_Lon,Point_End_Lat,Point_End_Lon
1390060140,3,0,0.0,0,35,4,0,0,0,-0.0292,-71.3744,6.8213,0.4212,54.873428,9.793910,108.3,5.845,1.85,335.95,0.000000,0.000000,54.873436,9.793882
1390060140,3,0,0.0,0,35,8,0,0,0,-0.0292,-83.0411,6.8213,0.4212,54.873425,9.793945,108.3,5.845,1.85,335.95,0.000000,0.000000,54.873436,9.793882
1390060140,3,0,0.0,0,35,12,0,8,50,-0.0292,-94.7078,6.8213,0.4212,54.873428,9.793986,108.3,5.845,1.85,335.95,0.000000,0.000000,54.873436,9.793882
1390060140,3,0,0.0,0,35,16,0,112,100,-0.0292,-106.3744,6.8213,0.4212,54.873436,9.794032,108.3,5.845,1.85,335.95,0.000000,0.000000,54.873436,9.793882
1390060141,3,0,0.0,0,35,20,0,278,150,-0.0292,-118.0411,6.8213,0.4212,54.873451,9.794080,108.3,5.845,1.85,335.95,0.000000,0.000000,54.873436,9.793882
1390060141,3,0,0.0,0,35,24,0,463,200,-0.0292,-129.7078,6.8213,0.4212,54.873470,9.794127,108.3,5.845,1.85,335.95,0.000000,0.000000,54.873436,9.793882
1390060141,3,0,0.0,0,35,28,0,647,250,-0.0292,-141.3744,6.8213,0.4212,54.873501,9.794169,108.3,5.845,1.85,335.95,0.000000,0.000000,54.873436,9.793882
1390060141,3,0,0.0,0,35,32,0,821,300,-0.0292,-153.0411,6.8213,0.4212,54.873539,9.794204,108.3,5.845,1.85,335.95,0.000000,0.000000,54.873436,9.793882
1390060142,3,0,0.0,0,35,36,0,870,350,-0.0292,-164.7078,6.8213,0.4212,54.873585,9.794226,108.3,5.845,1.85,335.95,0.000000,0.000000,54.873436,9.793882
1390060142,3,0,0.0,0,25,32,0,713,400,-0.0292,-173.0411,6.8213,0.4212,54.873634,9.794236,108.3,5.845,1.85,335.95,0.000000,0.000000,54.873436,9.793882
1390060142,3,0,0.0,0,17,28,0,713,450,-0.0292,-178.7078,6.8213,0.4212,54.873688,9.794238,108.3,5.845,1.85,335.95,0.000000,0.000000,54.873436,9.793882
1390060142,3,0,0.0,0,11,24,0,713,500,-0.0292,-182.3745,6.8213,0.4212,54.873741,9.794234,108.3,5.845,1.85,335.95,0.000000,0.000000,54.873436,9.793882
1390060143,3,0,0.0,0,8,20,0,713,550,-0.0292,-185.0411,6.8213,0.4212,54.873798,9.794226,108.3,5.845,1.85,335.95,0.000000,0.000000,54.873436,9.793882
1390060143,3,0,0.0,0,5,16,0,713,600,-0.0292,-186.7078,6.8213,0.4212,54.873852,9.794214,108.3,5.845,1.85,335.95,0.000000,0.000000,54.873436,9.793882
1390060143,3,0,0.0,0,3,12,0,713,650,-0.0292,-187.7078,6.8213,0.4212,54.873905,9.794202,108.3,5.845,1.85,335.95,0.000000,0.000000,54.873436,9.793882
1390060143,3,0,0.0,0,2,8,0,713,700,-0.0292,-188.3745,6.8213,0.4212,54.873962,9.794188,108.3,5.845,1.85,335.95,0.000000,0.000000,54.873436,9.793882
1390060144,3,0,0.0,0,2,4,0,713,750,-0.0292,-189.0411,6.8213,0.4212,54.874020,9.794172,108.3,5.845,1.85,335.95,0.000000,0.000000,54.873436,9.793882
1390060144,3,0,0.0,0,1,0,0,713,700,-0.0292,-189.3745,6.8213,0.4212,54.874073,9.794157,108.3,5.845,1.85,335.95,0.000000,0.000000,54.873436,9.793882
1390060144,3,0,0.0,0,1,4,0,713,750,-0.0292,-189.7078,6.8213,0.4212,54.874130,9.794141,108.3,5.845,1.85,335.95,0.000000,0.000000,54.873436,9.793882
1390060144,3,0,0.0,0,0,0,0,713,700,-0.0292,-189.7078,6.8213,0.4212,54.874187,9.794124,108.3,5.845,1.85,335.95,0.000000,0.000000,54.873436,9.793882
1390060145,3,0,0.0,0,0,4,0,713,750,-0.0292,-189.7078,6.8213,0.4212,54.874245,9.794107,108.3,5.845,1.85,335.95,0.000000,0.000000,54.873436,9.793882
1390060145,0,0,0.0,0,0,4,0,713,750,-0.0292,-189.7078,6.8213,0.4212,54.874245,9.794107,108.3,5.845,1.85,335.95,0.000000,0.000000,54.873436,9.793882
1390060145,0,0,0.0,0,0,4,0,713,750,-0.0292,-189.7078,6.8213,0.4212,54.874245,9.794107,108.3,5.845,1.85,335.95,0.000000,0.000000,54.873436,9.793882
1390060145,0,0,0.0,0,0,4,0,713,750,-0.0292,-189.7078,6.8213,0.4212,54.874245,9.794107,108.3,5.845,1.85,335.95,0.000000,0.000000,54.873436,9.793882
1390060146,0,0,0.0,0,0,4,0,713,750,-0.0292,-189.7078,6.8213,0.4212,54.874245,9.794107,108.3,5.845,1.85,335.95,0.000000,0.000000,54.873436,9.793882
1390060146,0,0,0.0,0,0,4,0,713,750,-0.0292,-189.7078,6.8213,0.4212,54.874245,9.794107,108.3,5.845,1.85,335.95,0.000000,0.000000,54.873436,9.793882
1390060146,0,0,0.0,0,0,4,0,713,750,-0.0292,-189.7078,6.8213,0.4212,54.874245,9.794107,108.3,5.845,1.85,335.95,0.000000,0.000000,54.873436,9.793882
1390060146,0,0,0.0,0,0,4,0,713,750,-0.0292,-189.7078,6.8213,0.4212,54.874245,9.794107,108.3,5.845,1.85,335.95,0.000000,0.000000,54.873436,9.793882
1390060147,0,0,0.0,0,0,4,0,713,750,-0.0292,-189.7078,6.8213,0.4212,54.874245,9.794107,108.3,5.845,1.85,335.95,0.000000,0.000000,54.873436,9.793882
1390060147,0,0,0.0,0,0,4,0,713,750,-0.0292,-189.7078,6.8213,0.4212,54.874245,9.794107,108.3,5.845,1.85,335.95,0.000000,0.000000,54.873436,9.793882
1390060147,0,0,0.0,0,0,4,0,713,750,-0.0292,-189.7078,6.8213,0.4212,54.874245,9.794107,108.3,5.845,1.85,335.95,0.000000,0.000000,54.873436,9.793882
1390060147,0,0,0.0,0,0,4,0,713,750,-0.0292,-189.7078,6.8213,0.4212,54.874245,9.794107,108.3,5.845,1.85,335.95,0.000000,0.000000,54.873436,9.793882
1390060148,4,0,0.0,0,0,4,0,713,750,-0.0292,-189.7078,6.8213,0.4212,54.874245,9.794107,108.3,5.845,1.85,335.95,0.000000,0.000000,54.873436,9.793882
1390060148,1,0,0.0,0,10,8,0,713,700,-0.0292,-193.0411,6.8213,0.4212,54.874302,9.794085,108.3,5.845,1.85,335.95,54.895069,9.793790,54.895348,9.797490
1390060148,1,0,0.0,0,7,4,0,713,750,-0.0292,-195.3745,6.8213,0.4212,54.874359,9.794058,108.3,5.845,1.85,335.95,54.895348,9.797490,54.894039,9.801540
1390060148,1,0,0.0,0,5,8,0,0,700,-0.0292,-197.0411,6.8213,0.4212,54.874420,9.794027,108.3,5.845,1.85,335.95,54.894039,9.801540,54.893795,9.802299
1390060149,1,0,0.0,0,3,4,0,0,650,-0.0292,-198.0411,6.8213,0.4212,54.874477,9.793995,108.3,5.845,1.85,335.95,54.893795,9.802299,54.893364,9.803688
1390060149,1,0,0.0,0,2,0,0,0,600,-0.0292,-198.7078,6.8213,0.4212,54.874535,9.793962,108.3,5.845,1.85,335.95,54.893364,9.803688,54.892704,9.801139
1390060149,1,0,0.0,0,1,4,0,0,550,-0.0292,-199.0411,6.8213,0.4212,54.874592,9.793926,108.3,5.845,1.85,335.95,54.892704,9.801139,54.891663,9.800174
1390060149,1,0,0.0,0,1,0,0,0,500,-0.0292,-199.3745,6.8213,0.4212,54.874649,9.793891,108.3,5.845,1.85,335.95,54.891663,9.800174,54.892929,9.805077
1390060150,1,0,0.0,0,1,4,0,0,450,-0.0292,-199.7078,6.8213,0.4212,54.874706,9.793855,108.3,5.845,1.85,335.95,54.892929,9.805077,54.892498,9.806466
1390060150,1,0,0.0,0,0,0,0,0,400,-0.0292,-199.7078,6.8213,0.4212,54.874763,9.793818,108.3,5.845,1.85,335.95,54.892498,9.806466,54.891232,9.801563
1390060150,1,0,0.0,0,0,4,0,0,350,-0.0292,-199.7078,6.8213,0.4212,54.874821,9.793783,108.3,5.845,1.85,335.95,54.891232,9.801563,54.890800,9.802953
1390060150,1,0,0.0,0,0,0,0,0,300,-0.0292,-199.7078,6.8213,0.4212,54.874878,9.793748,108.3,5.845,1.85,335.95,54.890800,9.802953,54.891651,9.806246
1390060151,1,0,0.0,0,0,4,0,0,250,-0.0292,-199.7078,6.8213,0.4212,54.874935,9.793712,108.3,5.845,1.85,335.95,54.891651,9.806246,54.890560,9.805087
1390060151,1,0,0.0,0,0,0,0,0,200,-0.0292,-199.7078,6.8213,0.4212,54.874992,9.793675,108.3,5.845,1.85,335.95,54.890560,9.805087,54.890366,9.804342
1390060151,1,0,0.0,0,0,4,0,0,150,-0.0292,-199.7078,6.8213,0.4212,54.875050,9.793639,108.3,5.845,1.85,335.95,54.890366,9.804342,54.890846,9.801930
1390060151,1,0,0.0,0,0,0,0,0,100,-0.0292,-199.7078,6.8213,0.4212,54.875107,9.793603,108.3,5.845,1.85,335.95,54.890846,9.801930,54.889477,9.798280
1390060152,1,0,0.0,0,0,4,0,0,50,-0.0292,-199.7078,6.8213,0.4212,54.875164,9.793568,108.3,5.845,1.85,335.95,54.889477,9.798280,54.891819,9.794550
1390060152,1,0,0.0,0,0,0,0,0,0,-0.0292,-199.7078,6.8213,0.4212,54.875221,9.793532,108.3,5.845,1.85,335.95,54.891819,9.794550,54.895348,9.797490
1390060152,1,0,0.0,0,0,4,0,0,0,-0.0292,-199.7078,6.8213,0.4212,54.875282,9.793496,108.3,5.845,1.85,335.95,54.895348,9.797490,54.895069,9.793790
1390060152,1,0,0.0,0,0,0,0,0,0,-0.0292,-199.7078,6.8213,0.4212,54.875340,9.793460,108.3,5.845,1.85,335.95,54.895348,9.797490,54.895069,9.793790
1390060153,3,0,0.0,0,0,4,0,0,0,-0.0292,-199.7078,6.8213,0.4212,54.875401,9.793424,108.3,5.845,1.85,335.95,54.895348,9.797490,54.875340,9.793460
1390060153,3,0,0.0,0,10,8,0,0,0,-0.0292,-203.0411,6.8213,0.4212,54.875458,9.793381,108.3,5.845,1.85,335.95,54.895348,9.797490,54.875340,9.793460
1390060153,3,0,0.0,0,7,4,0,0,0,-0.0292,-205.3744,6.8213,0.4212,54.875515,9.793333,108.3,5.845,1.85,335.95,54.895348,9.797490,54.875340,9.793460
1390060153,3,0,0.0,0,5,8,0,0,0,-0.0292,-207.0411,6.8213,0.4212,54.875576,9.793283,108.3,5.845,1.85,335.95,54.895348,9.797490,54.875340,9.793460
1390060154,3,0,0.0,0,3,4,0,0,0,-0.0292,-208.0411,6.8213,0.4212,54.875633,9.793229,108.3,5.845,1.85,335.95,54.895348,9.797490,54.875340,9.793460
1390060154,3,0,0.0,0,2,0,0,0,0,-0.0292,-208.7078,6.8213,0.4212,54.875690,9.793176,108.3,5.845,1.85,335.95,54.895348,9.797490,54.875340,9.793460
1390060154,3,0,0.0,0,1,4,0,0,0,-0.0292,-209.0411,6.8213,0.4212,54.875748,9.793121,108.3,5.845,1.85,335.95,54.895348,9.797490,54.875340,9.793460
1390060154,3,0,0.0,0,1,0,0,0,0,-0.0292,-209.3744,6.8213,0.4212,54.875805,9.793066,108.3,5.845,1.85,335.95,54.895348,9.797490,54.875340,9.793460
1390060155,3,0,0.0,0,1,4,0,0,0,-0.0292,-209.7078,6.8213,0.4212,54.875862,9.793010,108.3,5.845,1.85,335.95,54.895348,9.797490,54.875340,9.793460
1390060155,3,0,0.0,0,0,0,0,0,0,-0.0292,-209.7078,6.8213,0.4212,54.875916,9.792953,108.3,5.845,1.85,335.95,54.895348,9.797490,54.875340,9.793460
1390060155,3,0,0.0,0,0,4,0,0,0,-0.0292,-209.7078,6.8213,0.4212,54.875973,9.792897,108.3,5.845,1.85,335.95,54.895348,9.797490,54.875340,9.793460
1390060155,3,0,0.0,0,0,0,0,0,0,-0.0292,-209.7078,6.8213,0.4212,54.876030,9.792841,108.3,5.845,1.85,335.95,54.895348,9.797490,54.875340,9.793460
1390060156,3,0,0.0,0,0,4,0,0,0,-0.0292,-209.7078,6.8213,0.4212,54.876087,9.792785,108.3,5.845,1.85,335.95,54.895348,9.797490,54.875340,9.793460
1390060156,3,0,0.0,0,0,0,0,0,0,-0.0292,-209.7078,6.8213,0.4212,54.876144,9.792728,108.3,5.845,1.85,335.95,54.895348,9.797490,54.875340,9.793460
1390060156,3,0,0.0,0,0,4,0,0,0,-0.0292,-209.7078,6.8213,0.4212,54.876202,9.792672,108.3,5.845,1.85,335.95,54.895348,9.797490,54.875340,9.793460
1390060156,3,0,0.0,0,0,0,0,0,0,-0.0292,-209.7078,6.8213,0.4212,54.876259,9.792616,108.3,5.845,1.85,335.95,54.895348,9.797490,54.875340,9.793460
1390060157,3,0,0.0,0,0,4,0,0,0,-0.0292,-209.7078,6.8213,0.4212,54.876316,9.792560,108.3,5.845,1.85,335.95,54.895348,9.797490,54.875340,9.793460
1390060157,0,0,0.0,0,0,4,0,0,0,-0.0292,-209.7078,6.8213,0.4212,54.876316,9.792560,108.3,5.845,1.85,335.95,54.895348,9.797490,54.875340,9.793460
1390060157,0,0,0.0,0,0,4,0,0,0,-0.0292,-209.7078,6.8213,0.4212,54.876316,9.792560,108.3,5.845,1.85,335.95,54.895348,9.797490,54.875340,9.793460
1390060157,0,0,0.0,0,0,4,0,0,0,-0.0292,-209.7078,6.8213,0.4212,54.876316,9.792560,108.3,5.845,1.85,335.95,54.895348,9.797490,54.875340,9.793460
1390060158,0,0,0.0,0,0,4,0,0,0,-0.0292,-209.7078,6.8213,0.4212,54.876316,9.792560,108.3,5.845,1.85,335.95,54.895348,9.797490,54.875340,9.793460
1390060158,0,0,0.0,0,0,4,0,0,0,-0.0292,-209.7078,6.8213,0.4212,54.876316,9.792560,108.3,5.845,1.85,335.95,54.895348,9.797490,54.875340,9.793460
1390060158,0,0,0.0,0,0,4,0,0,0,-0.0292,-209.7078,6.8213,0.4212,54.876316,9.792560,108.3,5.845,1.85,335.95,54.895348,9.797490,54.875340,9.793460
1390060158,0,0,0.0,0,0,4,0,0,0,-0.0292,-209.7078,6.8213,0.4212,54.876316,9.792560,108.3,5.845,1.85,335.95,54.895348,9.797490,54.875340,9.793460
1390060159,0,0,0.0,0,0,4,0,0,0,-0.0292,-209.7078,6.8213,0.4212,54.876316,9.792560,108.3,5.845,1.85,335.95,54.895348,9.797490,54.875340,9.793460
1390060159,0,0,0.0,0,0,4,0,0,0,-0.0292,-209.7078,6.8213,0.4212,54.876316,9.792560,108.3,5.845,1.85,335.95,54.895348,9.797490,54.875340,9.793460
1390060159,0,0,0.0,0,0,4,0,0,0,-0.0292,-209.7078,6.8213,0.4212,54.876316,9.792560,108.3,5.845,1.85,335.95,54.895348,9.797490,54.875340,9.793460
1390060159,0,0,0.0,0,0,4,0,0,0,-0.0292,-209.7078,6.8213,0.4212,54.876316,9.792560,108.3,5.845,1.85,335.95,54.895348,9.797490,54.875340,9.793460
1390060160,0,0,0.0,0,0,4,0,0,0,-0.0292,-209.7078,6.8213,0.4212,54.876316,9.792560,108.3,5.845,1.85,335.95,54.895348,9.797490,54.875340,9.793460
1390060160,0,0,0.0,0,0,4,0,0,0,-0.0292,-209.7078,6.8213,0.4212,54.876316,9.792560,108.3,5.845,1.85,335.95,54.895348,9.797490,54.875340,9.793460
1390060160,0,0,0.0,0,0,4,0,0,0,-0.0292,-209.7078,6.8213,0.4212,54.876316,9.792560,108.3,5.845,1.85,335.95,54.895348,9.797490,54.875340,9.793460
