MCU_timestamp,Navigation_System,Manual_Control,Guidance_Heading,Manual_Ctrl_Rudder,Rudder_Desired_Angle,Rudder_Feedback,Manual_Ctrl_Sail,Sail_Desired_Pos,Sail_Feedback,Rate,Heading,Pitch,Roll,Latitude,Longitude,COG,SOG,Wind_Speed,Wind_Angle,Point_Start_Lat,Point_Start_Lon,Point_End_Lat,Point_End_Lon
1386890702,0,0,0.0,0,0,-32,0,0,0,-0.0292,3343.4307,6.8213,0.4212,54.895531,9.793900,108.3,5.845,1.85,335.95,0.000000,0.000000,0.000000,0.000000
1386890702,0,0,0.0,0,0,-32,0,0,0,-0.0292,3343.4307,6.8213,0.4212,54.895531,9.793900,108.3,5.845,1.85,335.95,0.000000,0.000000,0.000000,0.000000
1386890703,0,0,0.0,0,0,-32,0,0,0,-0.0292,3343.4307,6.8213,0.4212,54.895531,9.793900,108.3,5.845,1.85,335.95,0.000000,0.000000,0.000000,0.000000
1386890703,0,0,0.0,0,0,-32,0,0,0,-0.0292,3343.4307,6.8213,0.4212,54.895531,9.793900,108.3,5.845,1.85,335.95,0.000000,0.000000,0.000000,0.000000
1386890703,0,0,0.0,0,0,-32,0,0,0,-0.0292,3343.4307,6.8213,0.4212,54.895531,9.793900,108.3,5.845,1.85,335.95,0.000000,0.000000,0.000000,0.000000
1386890703,0,0,0.0,0,0,-32,0,0,0,-0.0292,3343.4307,6.8213,0.4212,54.895531,9.793900,108.3,5.845,1.85,335.95,0.000000,0.000000,0.000000,0.000000
1386890704,0,0,0.0,0,0,-32,0,0,0,-0.0292,3343.4307,6.8213,0.4212,54.895531,9.793900,108.3,5.845,1.85,335.95,0.000000,0.000000,0.000000,0.000000
1386890704,0,0,0.0,0,0,-32,0,0,0,-0.0292,3343.4307,6.8213,0.4212,54.895531,9.793900,108.3,5.845,1.85,335.95,0.000000,0.000000,0.000000,0.000000
1386890704,0,0,0.0,0,0,-32,0,0,0,-0.0292,3343.4307,6.8213,0.4212,54.895531,9.793900,108.3,5.845,1.85,335.95,0.000000,0.000000,0.000000,0.000000
1386890704,0,0,0.0,0,0,-32,0,0,0,-0.0292,3343.4307,6.8213,0.4212,54.895531,9.793900,108.3,5.845,1.85,335.95,0.000000,0.000000,0.000000,0.000000
1386890705,0,0,0.0,0,0,-32,0,0,0,-0.0292,3343.4307,6.8213,0.4212,54.895531,9.793900,108.3,5.845,1.85,335.95,0.000000,0.000000,0.000000,0.000000
1386890705,0,0,0.0,0,0,-32,0,0,0,-0.0292,3343.4307,6.8213,0.4212,54.895531,9.793900,108.3,5.845,1.85,335.95,0.000000,0.000000,0.000000,0.000000
1386890705,0,0,0.0,0,0,-32,0,0,0,-0.0292,3343.4307,6.8213,0.4212,54.895531,9.793900,108.3,5.845,1.85,335.95,0.000000,0.000000,0.000000,0.000000
1386890705,0,0,0.0,0,0,-32,0,0,0,-0.0292,3343.4307,6.8213,0.4212,54.895531,9.793900,108.3,5.845,1.85,335.95,0.000000,0.000000,0.000000,0.000000
1386890706,0,0,0.0,0,0,-32,0,0,0,-0.0292,3343.4307,6.8213,0.4212,54.895531,9.793900,108.3,5.845,1.85,335.95,0.000000,0.000000,0.000000,0.000000
1386890706,0,0,0.0,0,0,-32,0,0,0,-0.0292,3343.4307,6.8213,0.4212,54.895531,9.793900,108.3,5.845,1.85,335.95,0.000000,0.000000,0.000000,0.000000
1386890706,0,0,0.0,0,0,-32,0,0,0,-0.0292,3343.4307,6.8213,0.4212,54.895531,9.793900,108.3,5.845,1.85,335.95,0.000000,0.000000,0.000000,0.000000
1386890707,0,0,0.0,0,0,-32,0,0,0,-0.0292,3343.4307,6.8213,0.4212,54.895531,9.793900,108.3,5.845,1.85,335.95,0.000000,0.000000,0.000000,0.000000
1386890707,0,0,0.0,0,0,-32,0,0,0,-0.0292,3343.4307,6.8213,0.4212,54.895531,9.793900,108.3,5.845,1.85,335.95,0.000000,0.000000,0.000000,0.000000
1386890707,0,0,0.0,0,0,-32,0,0,0,-0.0292,3343.4307,6.8213,0.4212,54.895531,9.793900,108.3,5.845,1.85,335.95,0.000000,0.000000,0.000000,0.000000
1386890707,0,0,0.0,0,0,-32,0,0,0,-0.0292,3343.4307,6.8213,0.4212,54.895531,9.793900,108.3,5.845,1.85,335.95,0.000000,0.000000,0.000000,0.000000
1386890708,0,0,0.0,0,0,-32,0,0,0,-0.0292,3343.4307,6.8213,0.4212,54.895531,9.793900,108.3,5.845,1.85,335.95,0.000000,0.000000,0.000000,0.000000
1386890708,0,0,0.0,0,0,-32,0,0,0,-0.0292,3343.4307,6.8213,0.4212,54.895531,9.793900,108.3,5.845,1.85,335.95,0.000000,0.000000,0.000000,0.000000
1386890708,0,0,0.0,0,0,-32,0,0,0,-0.0292,3343.4307,6.8213,0.4212,54.895531,9.793900,108.3,5.845,1.85,335.95,0.000000,0.000000,0.000000,0.000000
1386890708,0,0,0.0,0,0,-32,0,0,0,-0.0292,3343.4307,6.8213,0.4212,54.895531,9.793900,108.3,5.845,1.85,335.95,0.000000,0.000000,0.000000,0.000000
1386890709,0,0,0.0,0,0,-32,0,0,0,-0.0292,3343.4307,6.8213,0.4212,54.895531,9.793900,108.3,5.845,1.85,335.95,0.000000,0.000000,0.000000,0.000000
1386890709,0,0,0.0,0,0,-32,0,0,0,-0.0292,3343.4307,6.8213,0.4212,54.895531,9.793900,108.3,5.845,1.85,335.95,0.000000,0.000000,0.000000,0.000000
1386890709,0,0,0.0,0,0,-32,0,0,0,-0.0292,3343.4307,6.8213,0.4212,54.895531,9.793900,108.3,5.845,1.85,335.95,0.000000,0.000000,0.000000,0.000000
1386890709,0,0,0.0,0,0,-32,0,0,0,-0.0292,3343.4307,6.8213,0.4212,54.895531,9.793900,108.3,5.845,1.85,335.95,0.000000,0.000000,0.000000,0.000000
1386890710,0,0,0.0,0,0,-32,0,0,0,-0.0292,3343.4307,6.8213,0.4212,54.895531,9.793900,108.3,5.845,1.85,335.95,0.000000,0.000000,0.000000,0.000000
1386890710,0,0,0.0,0,0,-32,0,0,0,-0.0292,3343.4307,6.8213,0.4212,54.895531,9.793900,108.3,5.845,1.85,335.95,0.000000,0.000000,0.000000,0.000000
1386890710,0,0,0.0,0,0,-32,0,0,0,-0.0292,3343.4307,6.8213,0.4212,54.895531,9.793900,108.3,5.845,1.85,335.95,0.000000,0.000000,0.000000,0.000000
1386890710,0,0,0.0,0,0,-32,0,0,0,-0.0292,3343.4307,6.8213,0.4212,54.895531,9.793900,108.3,5.845,1.85,335.95,0.000000,0.000000,0.000000,0.000000
1386890711,0,0,0.0,0,0,-32,0,0,0,-0.0292,3343.4307,6.8213,0.4212,54.895531,9.793900,108.3,5.845,1.85,335.95,0.000000,0.000000,0.000000,0.000000
1386890711,0,0,0.0,0,0,-32,0,0,0,-0.0292,3343.4307,6.8213,0.4212,54.895531,9.793900,108.3,5.845,1.85,335.95,0.000000,0.000000,0.000000,0.000000
1386890711,0,0,0.0,0,0,-32,0,0,0,-0.0292,3343.4307,6.8213,0.4212,54.895531,9.793900,108.3,5.845,1.85,335.95,0.000000,0.000000,0.000000,0.000000
1386890711,0,0,0.0,0,0,-32,0,0,0,-0.0292,3343.4307,6.8213,0.4212,54.895531,9.793900,108.3,5.845,1.85,335.95,0.000000,0.000000,0.000000,0.000000
1386890712,0,0,0.0,0,0,-32,0,0,0,-0.0292,3343.4307,6.8213,0.4212,54.895531,9.793900,108.3,5.845,1.85,335.95,0.000000,0.000000,0.000000,0.000000
1386890712,0,0,0.0,0,0,-32,0,0,0,-0.0292,3343.4307,6.8213,0.4212,54.895531,9.793900,108.3,5.845,1.85,335.95,0.000000,0.000000,0.000000,0.000000
1386890712,0,0,0.0,0,0,-32,0,0,0,-0.0292,3343.4307,6.8213,0.4212,54.895531,9.793900,108.3,5.845,1.85,335.95,0.000000,0.000000,0.000000,0.000000
1386890712,0,0,0.0,0,0,-32,0,0,0,-0.0292,3343.4307,6.8213,0.4212,54.895531,9.793900,108.3,5.845,1.85,335.95,0.000000,0.000000,0.000000,0.000000
1386890713,0,0,0.0,0,0,-32,0,0,0,-0.0292,3343.4307,6.8213,0.4212,54.895531,9.793900,108.3,5.845,1.85,335.95,0.000000,0.000000,0.000000,0.000000
1386890713,0,0,0.0,0,0,-32,0,0,0,-0.0292,3343.4307,6.8213,0.4212,54.895531,9.793900,108.3,5.845,1.85,335.95,0.000000,0.000000,0.000000,0.000000
1386890713,0,0,0.0,0,0,-32,0,0,0,-0.0292,3343.4307,6.8213,0.4212,54.895531,9.793900,108.3,5.845,1.85,335.95,0.000000,0.000000,0.000000,0.000000
1386890713,0,0,0.0,0,0,-32,0,0,0,-0.0292,3343.4307,6.8213,0.4212,54.895531,9.793900,108.3,5.845,1.85,335.95,0.000000,0.000000,0.000000,0.000000
1386890714,0,0,0.0,0,0,-32,0,0,0,-0.0292,3343.4307,6.8213,0.4212,54.895531,9.793900,108.3,5.845,1.85,335.95,0.000000,0.000000,0.000000,0.000000
1386890714,0,0,0.0,0,0,-32,0,0,0,-0.0292,3343.4307,6.8213,0.4212,54.895531,9.793900,108.3,5.845,1.85,335.95,0.000000,0.000000,0.000000,0.000000
1386890714,0,0,0.0,0,0,-32,0,0,0,-0.0292,3343.4307,6.8213,0.4212,54.895531,9.793900,108.3,5.845,1.85,335.95,0.000000,0.000000,0.000000,0.000000
1386890714,0,0,0.0,0,0,-32,0,0,0,-0.0292,3343.4307,6.8213,0.4212,54.895363,9.790894,108.3,5.845,1.85,335.95,0.000000,0.000000,0.000000,0.000000
1386890715,0,0,0.0,0,0,-32,0,0,0,-0.0292,3343.4307,6.8213,0.4212,54.895363,9.790894,108.3,5.845,1.85,335.95,0.000000,0.000000,0.000000,0.000000
1386890715,0,0,0.0,0,0,-32,0,0,0,-0.0292,3343.4307,6.8213,0.4212,54.895363,9.790894,108.3,5.845,1.85,335.95,0.000000,0.000000,0.000000,0.000000
1386890715,0,0,0.0,0,0,-32,0,0,0,-0.0292,3343.4307,6.8213,0.4212,54.895363,9.790894,108.3,5.845,1.85,335.95,0.000000,0.000000,0.000000,0.000000
1386890715,0,0,0.0,0,0,-32,0,0,0,-0.0292,3343.4307,6.8213,0.4212,54.895363,9.790894,108.3,5.845,1.85,335.95,0.000000,0.000000,0.000000,0.000000
1386890716,0,0,0.0,0,0,-32,0,0,0,-0.0292,3343.4307,6.8213,0.4212,54.895363,9.790894,108.3,5.845,1.85,335.95,0.000000,0.000000,0.000000,0.000000
1386890716,0,0,0.0,0,0,-32,0,0,0,-0.0292,3343.4307,6.8213,0.4212,54.895363,9.790894,108.3,5.845,1.85,335.95,0.000000,0.000000,0.000000,0.000000
1386890716,0,0,0.0,0,0,-32,0,0,0,-0.0292,3343.4307,6.8213,0.4212,54.895363,9.790894,108.3,5.845,1.85,335.95,0.000000,0.000000,0.000000,0.000000
1386890716,0,0,0.0,0,0,-32,0,0,0,-0.0292,3343.4307,6.8213,0.4212,54.895363,9.790894,108.3,5.845,1.85,335.95,0.000000,0.000000,0.000000,0.000000
1386890717,0,0,0.0,0,0,-32,0,0,0,-0.0292,3343.4307,6.8213,0.4212,54.895363,9.790894,108.3,5.845,1.85,335.95,0.000000,0.000000,0.000000,0.000000
1386890717,4,0,0.0,0,0,-32,0,0,0,-0.0292,3343.4307,6.8213,0.4212,54.895363,9.790894,108.3,5.845,1.85,335.95,0.000000,0.000000,0.000000,0.000000
1386890717,1,0,459.9,0,3,-28,0,870,900,-0.0292,3342.6306,6.8213,0.4212,54.895363,9.790924,108.3,5.845,1.85,335.95,54.895363,9.790894,54.895069,9.793790
1386890717,1,0,460.0,0,3,-24,0,870,850,-0.0292,3341.8306,6.8213,0.4212,54.895363,9.790955,108.3,5.845,1.85,335.95,54.895363,9.790894,54.895069,9.793790
1386890718,1,0,460.2,0,2,-20,0,870,900,-0.0292,3341.2971,6.8213,0.4212,54.895363,9.790985,108.3,5.845,1.85,335.95,54.895363,9.790894,54.895069,9.793790
1386890718,1,0,460.3,0,1,-16,0,870,850,-0.0292,3341.0305,6.8213,0.4212,54.895363,9.791016,108.3,5.845,1.85,335.95,54.895363,9.790894,54.895069,9.793790
1386890718,1,0,460.4,0,1,-12,0,870,900,-0.0292,3340.7639,6.8213,0.4212,54.895363,9.791046,108.3,5.845,1.85,335.95,54.895363,9.790894,54.895069,9.793790
1386890718,1,0,460.5,0,0,-8,0,870,850,-0.0292,3340.7639,6.8213,0.4212,54.895363,9.791077,108.3,5.845,1.85,335.95,54.895363,9.790894,54.895069,9.793790
1386890719,1,0,460.6,0,0,-4,0,870,900,-0.0292,3340.7639,6.8213,0.4212,54.895363,9.791107,108.3,5.845,1.85,335.95,54.895363,9.790894,54.895069,9.793790
1386890719,1,0,460.7,0,0,0,0,870,850,-0.0292,3340.7639,6.8213,0.4212,54.895363,9.791138,108.3,5.845,1.85,335.95,54.895363,9.790894,54.895069,9.793790
1386890719,1,0,460.8,0,0,4,0,870,900,-0.0292,3340.7639,6.8213,0.4212,54.895363,9.791168,108.3,5.845,1.85,335.95,54.895363,9.790894,54.895069,9.793790
1386890719,1,0,461.0,0,0,0,0,870,850,-0.0292,3340.7639,6.8213,0.4212,54.895363,9.791200,108.3,5.845,1.85,335.95,54.895363,9.790894,54.895069,9.793790
1386890720,1,0,461.1,0,0,4,0,870,900,-0.0292,3340.7639,6.8213,0.4212,54.895363,9.791230,108.3,5.845,1.85,335.95,54.895363,9.790894,54.895069,9.793790
1386890720,1,0,461.2,0,0,0,0,870,850,-0.0292,3340.7639,6.8213,0.4212,54.895363,9.791261,108.3,5.845,1.85,335.95,54.895363,9.790894,54.895069,9.793790
1386890720,1,0,461.3,0,-1,-4,0,870,900,-0.0292,3341.0305,6.8213,0.4212,54.895363,9.791291,108.3,5.845,1.85,335.95,54.895363,9.790894,54.895069,9.793790
1386890720,1,0,461.5,0,0,0,0,870,850,-0.0292,3341.0305,6.8213,0.4212,54.895363,9.791322,108.3,5.845,1.85,335.95,54.895363,9.790894,54.895069,9.793790
1386890721,1,0,461.6,0,-1,-4,0,870,900,-0.0292,3341.2971,6.8213,0.4212,54.895363,9.791352,108.3,5.845,1.85,335.95,54.895363,9.790894,54.895069,9.793790
1386890721,1,0,461.8,0,0,0,0,870,850,-0.0292,3341.2971,6.8213,0.4212,54.895363,9.791383,108.3,5.845,1.85,335.95,54.895363,9.790894,54.895069,9.793790
1386890721,1,0,461.9,0,-1,-4,0,870,900,-0.0292,3341.5637,6.8213,0.4212,54.895363,9.791413,108.3,5.845,1.85,335.95,54.895363,9.790894,54.895069,9.793790
1386890721,1,0,462.1,0,0,0,0,870,850,-0.0292,3341.5637,6.8213,0.4212,54.895363,9.791444,108.3,5.845,1.85,335.95,54.895363,9.790894,54.895069,9.793790
1386890722,1,0,462.2,0,-1,-4,0,870,900,-0.0292,3341.8303,6.8213,0.4212,54.895363,9.791474,108.3,5.845,1.85,335.95,54.895363,9.790894,54.895069,9.793790
1386890722,1,0,462.4,0,-1,0,0,870,850,-0.0292,3342.0969,6.8213,0.4212,54.895363,9.791505,108.3,5.845,1.85,335.95,54.895363,9.790894,54.895069,9.793790
1386890722,1,0,462.5,0,0,4,0,870,900,-0.0292,3342.0969,6.8213,0.4212,54.895363,9.791535,108.3,5.845,1.85,335.95,54.895363,9.790894,54.895069,9.793790
1386890722,1,0,462.7,0,-1,0,0,870,850,-0.0292,3342.3635,6.8213,0.4212,54.895363,9.791566,108.3,5.845,1.85,335.95,54.895363,9.790894,54.895069,9.793790
1386890723,1,0,462.9,0,0,4,0,870,900,-0.0292,3342.3635,6.8213,0.4212,54.895363,9.791596,108.3,5.845,1.85,335.95,54.895363,9.790894,54.895069,9.793790
1386890723,1,0,463.0,0,-1,0,0,870,850,-0.0292,3342.6301,6.8213,0.4212,54.895363,9.791627,108.3,5.845,1.85,335.95,54.895363,9.790894,54.895069,9.793790
1386890723,1,0,463.2,0,-1,-4,0,870,900,-0.0292,3342.8967,6.8213,0.4212,54.895359,9.791657,108.3,5.845,1.85,335.95,54.895363,9.790894,54.895069,9.793790
1386890723,1,0,463.2,0,0,0,0,870,850,-0.0292,3342.8967,6.8213,0.4212,54.895355,9.791688,108.3,5.845,1.85,335.95,54.895363,9.790894,54.895069,9.793790
1386890724,1,0,463.2,0,0,4,0,870,900,-0.0292,3342.8967,6.8213,0.4212,54.895351,9.791718,108.3,5.845,1.85,335.95,54.895363,9.790894,54.895069,9.793790
1386890724,1,0,463.3,0,0,0,0,870,850,-0.0292,3342.8967,6.8213,0.4212,54.895348,9.791749,108.3,5.845,1.85,335.95,54.895363,9.790894,54.895069,9.793790
1386890724,1,0,463.3,0,0,4,0,870,900,-0.0292,3342.8967,6.8213,0.4212,54.895344,9.791780,108.3,5.845,1.85,335.95,54.895363,9.790894,54.895069,9.793790
1386890724,1,0,463.3,0,0,0,0,870,850,-0.0292,3342.8967,6.8213,0.4212,54.895340,9.791810,108.3,5.845,1.85,335.95,54.895363,9.790894,54.895069,9.793790
1386890725,1,0,463.3,0,0,4,0,870,900,-0.0292,3342.8967,6.8213,0.4212,54.895332,9.791841,108.3,5.845,1.85,335.95,54.895363,9.790894,54.895069,9.793790
1386890725,1,0,463.1,0,0,0,0,870,850,-0.0292,3342.8967,6.8213,0.4212,54.895329,9.791871,108.3,5.845,1.85,335.95,54.895363,9.790894,54.895069,9.793790
1386890725,1,0,463.2,0,0,4,0,870,900,-0.0292,3342.8967,6.8213,0.4212,54.895325,9.791902,108.3,5.845,1.85,335.95,54.895363,9.790894,54.895069,9.793790
1386890725,1,0,463.2,0,0,0,0,870,850,-0.0292,3342.8967,6.8213,0.4212,54.895321,9.791932,108.3,5.845,1.85,335.95,54.895363,9.790894,54.895069,9.793790
1386890726,1,0,463.2,0,0,4,0,870,900,-0.0292,3342.8967,6.8213,0.4212,54.895317,9.791963,108.3,5.845,1.85,335.95,54.895363,9.790894,54.895069,9.793790
1386890726,1,0,463.2,0,0,0,0,870,850,-0.0292,3342.8967,6.8213,0.4212,54.895309,9.791993,108.3,5.845,1.85,335.95,54.895363,9.790894,54.895069,9.793790
1386890726,1,0,463.0,0,0,4,0,870,900,-0.0292,3342.8967,6.8213,0.4212,54.895306,9.792024,108.3,5.845,1.85,335.95,54.895363,9.790894,54.895069,9.793790
1386890726,1,0,463.0,0,0,0,0,870,850,-0.0292,3342.8967,6.8213,0.4212,54.895302,9.792054,108.3,5.845,1.85,335.95,54.895363,9.790894,54.895069,9.793790
1386890727,1,0,463.0,0,0,4,0,870,900,-0.0292,3342.8967,6.8213,0.4212,54.895298,9.792085,108.3,5.845,1.85,335.95,54.895363,9.790894,54.895069,9.793790
1386890727,1,0,463.1,0,0,0,0,870,850,-0.0292,3342.8967,6.8213,0.4212,54.895294,9.792115,108.3,5.845,1.85,335.95,54.895363,9.790894,54.895069,9.793790
1386890727,1,0,463.1,0,0,4,0,870,900,-0.0292,3342.8967,6.8213,0.4212,54.895290,9.792146,108.3,5.845,1.85,335.95,54.895363,9.790894,54.895069,9.793790
1386890727,1,0,463.1,0,0,0,0,870,850,-0.0292,3342.8967,6.8213,0.4212,54.895283,9.792176,108.3,5.845,1.85,335.95,54.895363,9.790894,54.895069,9.793790
1386890728,1,0,462.9,0,0,4,0,870,900,-0.0292,3342.8967,6.8213,0.4212,54.895279,9.792207,108.3,5.845,1.85,335.95,54.895363,9.790894,54.895069,9.793790
1386890728,1,0,462.9,0,0,0,0,870,850,-0.0292,3342.8967,6.8213,0.4212,54.895275,9.792236,108.3,5.845,1.85,335.95,54.895363,9.790894,54.895069,9.793790
1386890728,1,0,462.9,0,0,4,0,870,900,-0.0292,3342.8967,6.8213,0.4212,54.895271,9.792267,108.3,5.845,1.85,335.95,54.895363,9.790894,54.895069,9.793790
1386890728,1,0,462.9,0,0,0,0,870,850,-0.0292,3342.8967,6.8213,0.4212,54.895267,9.792297,108.3,5.845,1.85,335.95,54.895363,9.790894,54.895069,9.793790
1386890729,1,0,462.9,0,0,4,0,870,900,-0.0292,3342.8967,6.8213,0.4212,54.895260,9.792328,108.3,5.845,1.85,335.95,54.895363,9.790894,54.895069,9.793790
1386890729,1,0,462.7,0,0,0,0,870,850,-0.0292,3342.8967,6.8213,0.4212,54.895256,9.792358,108.3,5.845,1.85,335.95,54.895363,9.790894,54.895069,9.793790
1386890729,1,0,462.7,0,0,4,0,870,900,-0.0292,3342.8967,6.8213,0.4212,54.895252,9.792389,108.3,5.845,1.85,335.95,54.895363,9.790894,54.895069,9.793790
1386890729,1,0,462.7,0,0,0,0,870,850,-0.0292,3342.8967,6.8213,0.4212,54.895248,9.792419,108.3,5.845,1.85,335.95,54.895363,9.790894,54.895069,9.793790
1386890730,1,0,462.7,0,0,4,0,870,900,-0.0292,3342.8967,6.8213,0.4212,54.895245,9.792449,108.3,5.845,1.85,335.95,54.895363,9.790894,54.895069,9.793790
1386890730,1,0,462.7,0,0,0,0,870,850,-0.0292,3342.8967,6.8213,0.4212,54.895241,9.792480,108.3,5.845,1.85,335.95,54.895363,9.790894,54.895069,9.793790
1386890730,1,0,462.8,0,0,4,0,870,900,-0.0292,3342.8967,6.8213,0.4212,54.895241,9.792510,108.3,5.845,1.85,335.95,54.895363,9.790894,54.895069,9.793790
1386890730,1,0,463.1,0,0,0,0,870,850,-0.0292,3342.8967,6.8213,0.4212,54.895241,9.792541,108.3,5.845,1.85,335.95,54.895363,9.790894,54.895069,9.793790
1386890731,1,0,463.4,0,0,4,0,870,900,-0.0292,3342.8967,6.8213,0.4212,54.895241,9.792571,108.3,5.845,1.85,335.95,54.895363,9.790894,54.895069,9.793790
1386890731,1,0,463.7,0,-1,0,0,870,850,-0.0292,3343.1633,6.8213,0.4212,54.895241,9.792602,108.3,5.845,1.85,335.95,54.895363,9.790894,54.895069,9.793790
1386890731,1,0,464.0,0,-1,-4,0,870,900,-0.0292,3343.4299,6.8213,0.4212,54.895237,9.792632,108.3,5.845,1.85,335.95,54.895363,9.790894,54.895069,9.793790
1386890731,1,0,464.1,0,-1,0,0,870,850,-0.0292,3343.6965,6.8213,0.4212,54.895233,9.792662,108.3,5.845,1.85,335.95,54.895363,9.790894,54.895069,9.793790
1386890732,1,0,464.1,0,0,4,0,870,900,-0.0292,3343.6965,6.8213,0.4212,54.895229,9.792692,108.3,5.845,1.85,335.95,54.895363,9.790894,54.895069,9.793790
1386890732,1,0,464.2,0,0,0,0,870,850,-0.0292,3343.6965,6.8213,0.4212,54.895226,9.792723,108.3,5.845,1.85,335.95,54.895363,9.790894,54.895069,9.793790
1386890732,1,0,464.2,0,-1,-4,0,870,900,-0.0292,3343.9631,6.8213,0.4212,54.895222,9.792752,108.3,5.845,1.85,335.95,54.895363,9.790894,54.895069,9.793790
1386890732,1,0,464.3,0,0,0,0,870,850,-0.0292,3343.9631,6.8213,0.4212,54.895218,9.792783,108.3,5.845,1.85,335.95,54.895363,9.790894,54.895069,9.793790
1386890733,1,0,464.3,0,0,4,0,870,900,-0.0292,3343.9631,6.8213,0.4212,54.895210,9.792813,108.3,5.845,1.85,335.95,54.895363,9.790894,54.895069,9.793790
1386890733,1,0,464.0,0,0,0,0,870,850,-0.0292,3343.9631,6.8213,0.4212,54.895206,9.792844,108.3,5.845,1.85,335.95,54.895363,9.790894,54.895069,9.793790
1386890733,1,0,464.1,0,0,4,0,870,900,-0.0292,3343.9631,6.8213,0.4212,54.895203,9.792874,108.3,5.845,1.85,335.95,54.895363,9.790894,54.895069,9.793790
1386890733,1,0,464.1,0,0,0,0,870,850,-0.0292,3343.9631,6.8213,0.4212,54.895199,9.792905,108.3,5.845,1.85,335.95,54.895363,9.790894,54.895069,9.793790
1386890734,1,0,464.2,0,0,4,0,870,900,-0.0292,3343.9631,6.8213,0.4212,54.895195,9.792935,108.3,5.845,1.85,335.95,54.895363,9.790894,54.895069,9.793790
1386890734,1,0,464.3,0,0,0,0,870,850,-0.0292,3343.9631,6.8213,0.4212,54.895187,9.792965,108.3,5.845,1.85,335.95,54.895363,9.790894,54.895069,9.793790
1386890734,1,0,463.9,0,0,4,0,870,900,-0.0292,3343.9631,6.8213,0.4212,54.895184,9.792995,108.3,5.845,1.85,335.95,54.895363,9.790894,54.895069,9.793790
1386890734,1,0,464.0,0,0,0,0,870,850,-0.0292,3343.9631,6.8213,0.4212,54.895180,9.793026,108.3,5.845,1.85,335.95,54.895363,9.790894,54.895069,9.793790
1386890735,1,0,464.1,0,0,4,0,870,900,-0.0292,3343.9631,6.8213,0.4212,54.895176,9.793056,108.3,5.845,1.85,335.95,54.895363,9.790894,54.895069,9.793790
1386890735,1,0,464.1,0,0,0,0,870,850,-0.0292,3343.9631,6.8213,0.4212,54.895172,9.793086,108.3,5.845,1.85,335.95,54.895363,9.790894,54.895069,9.793790
1386890735,1,0,464.2,0,0,4,0,870,900,-0.0292,3343.9631,6.8213,0.4212,54.895168,9.793117,108.3,5.845,1.85,335.95,54.895363,9.790894,54.895069,9.793790
1386890735,1,0,464.3,0,0,0,0,870,850,-0.0292,3343.9631,6.8213,0.4212,54.895161,9.793147,108.3,5.845,1.85,335.95,54.895363,9.790894,54.895069,9.793790
1386890736,1,0,463.8,0,0,4,0,870,900,-0.0292,3343.9631,6.8213,0.4212,54.895157,9.793177,108.3,5.845,1.85,335.95,54.895363,9.790894,54.895069,9.793790
1386890736,1,0,463.9,0,0,0,0,870,850,-0.0292,3343.9631,6.8213,0.4212,54.895153,9.793207,108.3,5.845,1.85,335.95,54.895363,9.790894,54.895069,9.793790
1386890736,1,0,464.0,0,0,4,0,870,900,-0.0292,3343.9631,6.8213,0.4212,54.895149,9.793238,108.3,5.845,1.85,335.95,54.895363,9.790894,54.895069,9.793790
1386890736,1,0,464.1,0,0,0,0,870,850,-0.0292,3343.9631,6.8213,0.4212,54.895145,9.793267,108.3,5.845,1.85,335.95,54.895363,9.790894,54.895069,9.793790
1386890737,1,0,464.2,0,0,4,0,870,900,-0.0292,3343.9631,6.8213,0.4212,54.895138,9.793298,108.3,5.845,1.85,335.95,54.895363,9.790894,54.895069,9.793790
1386890737,1,0,463.6,0,0,0,0,870,850,-0.0292,3343.9631,6.8213,0.4212,54.895134,9.793328,108.3,5.845,1.85,335.95,54.895363,9.790894,54.895069,9.793790
1386890737,1,0,463.6,0,0,4,0,870,900,-0.0292,3343.9631,6.8213,0.4212,54.895130,9.793359,108.3,5.845,1.85,335.95,54.895363,9.790894,54.895069,9.793790
1386890737,1,0,463.8,0,0,0,0,870,850,-0.0292,3343.9631,6.8213,0.4212,54.895126,9.793389,108.3,5.845,1.85,335.95,54.895363,9.790894,54.895069,9.793790
1386890738,1,0,463.9,0,0,4,0,870,900,-0.0292,3343.9631,6.8213,0.4212,54.895123,9.793420,108.3,5.845,1.85,335.95,54.895363,9.790894,54.895069,9.793790
1386890738,1,0,464.0,0,0,0,0,870,850,-0.0292,3343.9631,6.8213,0.4212,54.895115,9.793450,108.3,5.845,1.85,335.95,54.895363,9.790894,54.895069,9.793790
1386890738,1,0,463.1,0,1,4,0,870,900,-0.0292,3343.6965,6.8213,0.4212,54.895111,9.793480,108.3,5.845,1.85,335.95,54.895363,9.790894,54.895069,9.793790
1386890738,1,0,463.2,0,1,0,0,870,850,-0.0292,3343.4299,6.8213,0.4212,54.895107,9.793510,108.3,5.845,1.85,335.95,54.895363,9.790894,54.895069,9.793790
1386890739,1,0,463.3,0,0,4,0,870,900,-0.0292,3343.4299,6.8213,0.4212,54.895103,9.793541,108.3,5.845,1.85,335.95,54.895363,9.790894,54.895069,9.793790
1386890739,1,0,463.4,0,0,0,0,870,850,-0.0292,3343.4299,6.8213,0.4212,54.895100,9.793571,108.3,5.845,1.85,335.95,54.895363,9.790894,54.895069,9.793790
1386890739,1,0,463.6,0,0,4,0,870,900,-0.0292,3343.4299,6.8213,0.4212,54.895096,9.793602,108.3,5.845,1.85,335.95,54.895363,9.790894,54.895069,9.793790
1386890739,1,0,463.8,0,0,0,0,870,850,-0.0292,3343.4299,6.8213,0.4212,54.895088,9.793633,108.3,5.845,1.85,335.95,54.895363,9.790894,54.895069,9.793790
1386890740,1,0,461.8,0,2,4,0,870,900,-0.0292,3342.8965,6.8213,0.4212,54.895084,9.793663,108.3,5.845,1.85,335.95,54.895363,9.790894,54.895069,9.793790
1386890740,1,0,461.7,0,1,0,0,870,850,-0.0292,3342.6299,6.8213,0.4212,54.895081,9.793693,108.3,5.845,1.85,335.95,54.895363,9.790894,54.895069,9.793790
1386890740,1,0,461.5,0,1,4,0,870,900,-0.0292,3342.3633,6.8213,0.4212,54.895077,9.793723,108.3,5.845,1.85,335.95,54.895363,9.790894,54.895069,9.793790
1386890740,1,0,461.2,0,1,0,0,870,850,-0.0292,3342.0967,6.8213,0.4212,54.895073,9.793754,108.3,5.845,1.85,335.95,54.895069,9.793790,54.895348,9.797490
1386890741,1,0,442.8,0,19,4,0,870,900,-0.0292,3337.0300,6.8213,0.4212,54.895069,9.793784,108.3,5.845,1.85,335.95,54.895069,9.793790,54.895348,9.797490
1386890741,1,0,442.6,0,14,8,0,870,850,-0.0292,3333.2966,6.8213,0.4212,54.895065,9.793816,108.3,5.845,1.85,335.95,54.895069,9.793790,54.895348,9.797490
1386890741,1,0,442.4,0,11,12,0,821,800,-0.0292,3330.3633,6.8213,0.4212,54.895065,9.793847,108.3,5.845,1.85,335.95,54.895069,9.793790,54.895348,9.797490
1386890741,1,0,442.4,0,8,8,0,779,750,-0.0292,3328.2300,6.8213,0.4212,54.895069,9.793879,108.3,5.845,1.85,335.95,54.895069,9.793790,54.895348,9.797490
1386890742,1,0,442.4,0,6,4,0,747,700,-0.0292,3326.6299,6.8213,0.4212,54.895069,9.793909,108.3,5.845,1.85,335.95,54.895069,9.793790,54.895348,9.797490
1386890742,1,0,442.3,0,4,8,0,723,750,-0.0292,3325.5632,6.8213,0.4212,54.895069,9.793941,108.3,5.845,1.85,335.95,54.895069,9.793790,54.895348,9.797490
1386890742,1,0,442.3,0,3,4,0,707,700,-0.0292,3324.7632,6.8213,0.4212,54.895069,9.793972,108.3,5.845,1.85,335.95,54.895069,9.793790,54.895348,9.797490
1386890743,1,0,442.2,0,3,0,0,695,650,-0.0292,3323.9631,6.8213,0.4212,54.895069,9.794003,108.3,5.845,1.85,335.95,54.895069,9.793790,54.895348,9.797490
1386890743,1,0,442.1,0,2,4,0,683,700,-0.0292,3323.4297,6.8213,0.4212,54.895069,9.794034,108.3,5.845,1.85,335.95,54.895069,9.793790,54.895348,9.797490
1386890743,1,0,442.1,0,1,0,0,675,650,-0.0292,3323.1631,6.8213,0.4212,54.895069,9.794065,108.3,5.845,1.85,335.95,54.895069,9.793790,54.895348,9.797490
1386890743,1,0,442.0,0,1,4,0,670,700,-0.0292,3322.8965,6.8213,0.4212,54.895069,9.794096,108.3,5.845,1.85,335.95,54.895069,9.793790,54.895348,9.797490
1386890744,1,0,441.9,0,1,0,0,666,650,-0.0292,3322.6299,6.8213,0.4212,54.895069,9.794127,108.3,5.845,1.85,335.95,54.895069,9.793790,54.895348,9.797490
1386890744,1,0,441.9,0,1,4,0,662,700,-0.0292,3322.3633,6.8213,0.4212,54.895069,9.794158,108.3,5.845,1.85,335.95,54.895069,9.793790,54.895348,9.797490
1386890744,1,0,441.8,0,1,0,0,658,650,-0.0292,3322.0967,6.8213,0.4212,54.895069,9.794189,108.3,5.845,1.85,335.95,54.895069,9.793790,54.895348,9.797490
1386890744,1,0,441.7,0,0,4,0,654,700,-0.0292,3322.0967,6.8213,0.4212,54.895069,9.794220,108.3,5.845,1.85,335.95,54.895069,9.793790,54.895348,9.797490
1386890745,1,0,441.6,0,0,0,0,654,650,-0.0292,3322.0967,6.8213,0.4212,54.895069,9.794250,108.3,5.845,1.85,335.95,54.895069,9.793790,54.895348,9.797490
1386890745,1,0,441.6,0,1,4,0,654,700,-0.0292,3321.8301,6.8213,0.4212,54.895069,9.794282,108.3,5.845,1.85,335.95,54.895069,9.793790,54.895348,9.797490
1386890745,1,0,441.5,0,0,0,0,650,650,-0.0292,3321.8301,6.8213,0.4212,54.895069,9.794312,108.3,5.845,1.85,335.95,54.895069,9.793790,54.895348,9.797490
1386890745,1,0,441.4,0,0,4,0,650,700,-0.0292,3321.8301,6.8213,0.4212,54.895069,9.794343,108.3,5.845,1.85,335.95,54.895069,9.793790,54.895348,9.797490
1386890746,1,0,441.3,0,1,0,0,650,650,-0.0292,3321.5635,6.8213,0.4212,54.895069,9.794374,108.3,5.845,1.85,335.95,54.895069,9.793790,54.895348,9.797490
1386890746,1,0,441.2,0,0,4,0,646,600,-0.0292,3321.5635,6.8213,0.4212,54.895069,9.794406,108.3,5.845,1.85,335.95,54.895069,9.793790,54.895348,9.797490
1386890746,1,0,441.1,0,0,0,0,646,650,-0.0292,3321.5635,6.8213,0.4212,54.895069,9.794436,108.3,5.845,1.85,335.95,54.895069,9.793790,54.895348,9.797490
1386890746,1,0,441.0,0,1,4,0,646,600,-0.0292,3321.2969,6.8213,0.4212,54.895069,9.794467,108.3,5.845,1.85,335.95,54.895069,9.793790,54.895348,9.797490
1386890747,1,0,441.0,0,0,0,0,642,650,-0.0292,3321.2969,6.8213,0.4212,54.895069,9.794498,108.3,5.845,1.85,335.95,54.895069,9.793790,54.895348,9.797490
1386890747,1,0,440.9,0,0,4,0,642,600,-0.0292,3321.2969,6.8213,0.4212,54.895069,9.794529,108.3,5.845,1.85,335.95,54.895069,9.793790,54.895348,9.797490
1386890747,1,0,440.8,0,1,0,0,642,650,-0.0292,3321.0303,6.8213,0.4212,54.895069,9.794559,108.3,5.845,1.85,335.95,54.895069,9.793790,54.895348,9.797490
1386890747,1,0,440.7,0,0,4,0,638,600,-0.0292,3321.0303,6.8213,0.4212,54.895069,9.794591,108.3,5.845,1.85,335.95,54.895069,9.793790,54.895348,9.797490
1386890748,1,0,440.6,0,0,0,0,638,650,-0.0292,3321.0303,6.8213,0.4212,54.895069,9.794622,108.3,5.845,1.85,335.95,54.895069,9.793790,54.895348,9.797490
1386890748,1,0,440.5,0,1,4,0,638,600,-0.0292,3320.7637,6.8213,0.4212,54.895069,9.794653,108.3,5.845,1.85,335.95,54.895069,9.793790,54.895348,9.797490
1386890748,1,0,440.4,0,0,0,0,633,650,-0.0292,3320.7637,6.8213,0.4212,54.895069,9.794683,108.3,5.845,1.85,335.95,54.895069,9.793790,54.895348,9.797490
1386890748,1,0,440.3,0,0,4,0,633,600,-0.0292,3320.7637,6.8213,0.4212,54.895069,9.794715,108.3,5.845,1.85,335.95,54.895069,9.793790,54.895348,9.797490
1386890749,1,0,440.2,0,1,0,0,633,650,-0.0292,3320.4971,6.8213,0.4212,54.895069,9.794745,108.3,5.845,1.85,335.95,54.895069,9.793790,54.895348,9.797490
1386890749,1,0,440.1,0,0,4,0,629,600,-0.0292,3320.4971,6.8213,0.4212,54.895069,9.794776,108.3,5.845,1.85,335.95,54.895069,9.793790,54.895348,9.797490
1386890749,1,0,439.9,0,1,0,0,629,650,-0.0292,3320.2305,6.8213,0.4212,54.895069,9.794806,108.3,5.845,1.85,335.95,54.895069,9.793790,54.895348,9.797490
1386890749,1,0,439.8,0,0,4,0,625,600,-0.0292,3320.2305,6.8213,0.4212,54.895069,9.794838,108.3,5.845,1.85,335.95,54.895069,9.793790,54.895348,9.797490
1386890750,1,0,439.7,0,1,0,0,625,650,-0.0292,3319.9639,6.8213,0.4212,54.895069,9.794868,108.3,5.845,1.85,335.95,54.895069,9.793790,54.895348,9.797490
1386890750,1,0,439.6,0,0,4,0,621,600,-0.0292,3319.9639,6.8213,0.4212,54.895069,9.794899,108.3,5.845,1.85,335.95,54.895069,9.793790,54.895348,9.797490
1386890750,1,0,439.5,0,0,0,0,621,650,-0.0292,3319.9639,6.8213,0.4212,54.895069,9.794930,108.3,5.845,1.85,335.95,54.895069,9.793790,54.895348,9.797490
1386890750,1,0,439.4,0,1,4,0,621,600,-0.0292,3319.6973,6.8213,0.4212,54.895069,9.794961,108.3,5.845,1.85,335.95,54.895069,9.793790,54.895348,9.797490
1386890751,1,0,439.2,0,0,0,0,617,650,-0.0292,3319.6973,6.8213,0.4212,54.895069,9.794991,108.3,5.845,1.85,335.95,54.895069,9.793790,54.895348,9.797490
1386890751,1,0,439.1,0,1,4,0,617,600,-0.0292,3319.4307,6.8213,0.4212,54.895069,9.795022,108.3,5.845,1.85,335.95,54.895069,9.793790,54.895348,9.797490
1386890751,1,0,439.0,0,0,0,0,613,650,-0.0292,3319.4307,6.8213,0.4212,54.895069,9.795053,108.3,5.845,1.85,335.95,54.895069,9.793790,54.895348,9.797490
1386890751,1,0,438.8,0,1,4,0,613,600,-0.0292,3319.1641,6.8213,0.4212,54.895069,9.795083,108.3,5.845,1.85,335.95,54.895069,9.793790,54.895348,9.797490
1386890752,1,0,438.7,0,0,0,0,609,650,-0.0292,3319.1641,6.8213,0.4212,54.895069,9.795114,108.3,5.845,1.85,335.95,54.895069,9.793790,54.895348,9.797490
1386890752,1,0,438.6,0,1,4,0,609,600,-0.0292,3318.8975,6.8213,0.4212,54.895069,9.795145,108.3,5.845,1.85,335.95,54.895069,9.793790,54.895348,9.797490
1386890752,1,0,438.4,0,0,0,0,604,650,-0.0292,3318.8975,6.8213,0.4212,54.895069,9.795176,108.3,5.845,1.85,335.95,54.895069,9.793790,54.895348,9.797490
1386890752,1,0,438.3,0,1,4,0,604,600,-0.0292,3318.6309,6.8213,0.4212,54.895069,9.795206,108.3,5.845,1.85,335.95,54.895069,9.793790,54.895348,9.797490
1386890753,1,0,438.1,0,1,0,0,600,650,-0.0292,3318.3643,6.8213,0.4212,54.895069,9.795237,108.3,5.845,1.85,335.95,54.895069,9.793790,54.895348,9.797490
1386890753,1,0,437.9,0,0,4,0,596,600,-0.0292,3318.3643,6.8213,0.4212,54.895069,9.795267,108.3,5.845,1.85,335.95,54.895069,9.793790,54.895348,9.797490
1386890753,1,0,437.8,0,1,0,0,596,550,-0.0292,3318.0977,6.8213,0.4212,54.895069,9.795298,108.3,5.845,1.85,335.95,54.895069,9.793790,54.895348,9.797490
1386890753,1,0,437.6,0,0,4,0,592,600,-0.0292,3318.0977,6.8213,0.4212,54.895069,9.795328,108.3,5.845,1.85,335.95,54.895069,9.793790,54.895348,9.797490
1386890754,1,0,437.5,0,1,0,0,592,550,-0.0292,3317.8311,6.8213,0.4212,54.895069,9.795359,108.3,5.845,1.85,335.95,54.895069,9.793790,54.895348,9.797490
1386890754,1,0,437.3,0,1,4,0,588,600,-0.0292,3317.5645,6.8213,0.4212,54.895069,9.795389,108.3,5.845,1.85,335.95,54.895069,9.793790,54.895348,9.797490
1386890754,1,0,437.1,0,0,0,0,584,550,-0.0292,3317.5645,6.8213,0.4212,54.895069,9.795420,108.3,5.845,1.85,335.95,54.895069,9.793790,54.895348,9.797490
1386890754,1,0,436.9,0,1,4,0,584,600,-0.0292,3317.2979,6.8213,0.4212,54.895069,9.795449,108.3,5.845,1.85,335.95,54.895069,9.793790,54.895348,9.797490
1386890755,1,0,436.7,0,1,0,0,579,550,-0.0292,3317.0312,6.8213,0.4212,54.895069,9.795480,108.3,5.845,1.85,335.95,54.895069,9.793790,54.895348,9.797490
1386890755,1,0,436.5,0,0,4,0,575,600,-0.0292,3317.0312,6.8213,0.4212,54.895069,9.795510,108.3,5.845,1.85,335.95,54.895069,9.793790,54.895348,9.797490
1386890755,1,0,436.3,0,1,0,0,575,550,-0.0292,3316.7646,6.8213,0.4212,54.895073,9.795541,108.3,5.845,1.85,335.95,54.895069,9.793790,54.895348,9.797490
1386890755,1,0,436.3,0,0,4,0,571,600,-0.0292,3316.7646,6.8213,0.4212,54.895077,9.795571,108.3,5.845,1.85,335.95,54.895069,9.793790,54.895348,9.797490
1386890756,1,0,436.3,0,0,0,0,571,550,-0.0292,3316.7646,6.8213,0.4212,54.895081,9.795602,108.3,5.845,1.85,335.95,54.895069,9.793790,54.895348,9.797490
1386890756,1,0,436.3,0,0,4,0,571,600,-0.0292,3316.7646,6.8213,0.4212,54.895084,9.795632,108.3,5.845,1.85,335.95,54.895069,9.793790,54.895348,9.797490
1386890756,1,0,436.2,0,1,0,0,571,550,-0.0292,3316.4980,6.8213,0.4212,54.895088,9.795662,108.3,5.845,1.85,335.95,54.895069,9.793790,54.895348,9.797490
1386890756,1,0,436.2,0,0,4,0,567,600,-0.0292,3316.4980,6.8213,0.4212,54.895092,9.795692,108.3,5.845,1.85,335.95,54.895069,9.793790,54.895348,9.797490
1386890757,1,0,436.2,0,0,0,0,567,550,-0.0292,3316.4980,6.8213,0.4212,54.895100,9.795723,108.3,5.845,1.85,335.95,54.895069,9.793790,54.895348,9.797490
1386890757,1,0,436.4,0,0,4,0,567,600,-0.0292,3316.4980,6.8213,0.4212,54.895103,9.795753,108.3,5.845,1.85,335.95,54.895069,9.793790,54.895348,9.797490
1386890757,1,0,436.4,0,0,0,0,567,550,-0.0292,3316.4980,6.8213,0.4212,54.895107,9.795783,108.3,5.845,1.85,335.95,54.895069,9.793790,54.895348,9.797490
1386890757,1,0,436.3,0,0,4,0,567,600,-0.0292,3316.4980,6.8213,0.4212,54.895111,9.795814,108.3,5.845,1.85,335.95,54.895069,9.793790,54.895348,9.797490
1386890758,1,0,436.3,0,0,0,0,567,550,-0.0292,3316.4980,6.8213,0.4212,54.895115,9.795844,108.3,5.845,1.85,335.95,54.895069,9.793790,54.895348,9.797490
1386890758,1,0,436.3,0,0,4,0,567,600,-0.0292,3316.4980,6.8213,0.4212,54.895123,9.795875,108.3,5.845,1.85,335.95,54.895069,9.793790,54.895348,9.797490
1386890758,1,0,436.5,0,0,0,0,567,550,-0.0292,3316.4980,6.8213,0.4212,54.895126,9.795905,108.3,5.845,1.85,335.95,54.895069,9.793790,54.895348,9.797490
1386890758,1,0,436.4,0,0,4,0,567,600,-0.0292,3316.4980,6.8213,0.4212,54.895130,9.795936,108.3,5.845,1.85,335.95,54.895069,9.793790,54.895348,9.797490
1386890759,1,0,436.4,0,0,0,0,567,550,-0.0292,3316.4980,6.8213,0.4212,54.895134,9.795965,108.3,5.845,1.85,335.95,54.895069,9.793790,54.895348,9.797490
1386890759,1,0,436.4,0,0,4,0,567,600,-0.0292,3316.4980,6.8213,0.4212,54.895138,9.795996,108.3,5.845,1.85,335.95,54.895069,9.793790,54.895348,9.797490
1386890759,1,0,436.4,0,0,0,0,567,550,-0.0292,3316.4980,6.8213,0.4212,54.895142,9.796026,108.3,5.845,1.85,335.95,54.895069,9.793790,54.895348,9.797490
1386890759,1,0,436.3,0,0,4,0,567,600,-0.0292,3316.4980,6.8213,0.4212,54.895149,9.796057,108.3,5.845,1.85,335.95,54.895069,9.793790,54.895348,9.797490
1386890760,1,0,436.5,0,0,0,0,567,550,-0.0292,3316.4980,6.8213,0.4212,54.895153,9.796087,108.3,5.845,1.85,335.95,54.895069,9.793790,54.895348,9.797490
1386890760,1,0,436.5,0,0,4,0,567,600,-0.0292,3316.4980,6.8213,0.4212,54.895157,9.796118,108.3,5.845,1.85,335.95,54.895069,9.793790,54.895348,9.797490
1386890760,1,0,436.5,0,0,0,0,567,550,-0.0292,3316.4980,6.8213,0.4212,54.895161,9.796148,108.3,5.845,1.85,335.95,54.895069,9.793790,54.895348,9.797490
1386890760,1,0,436.5,0,0,4,0,567,600,-0.0292,3316.4980,6.8213,0.4212,54.895164,9.796178,108.3,5.845,1.85,335.95,54.895069,9.793790,54.895348,9.797490
1386890761,1,0,436.4,0,0,0,0,567,550,-0.0292,3316.4980,6.8213,0.4212,54.895172,9.796208,108.3,5.845,1.85,335.95,54.895069,9.793790,54.895348,9.797490
1386890761,1,0,436.7,0,0,4,0,567,600,-0.0292,3316.4980,6.8213,0.4212,54.895176,9.796239,108.3,5.845,1.85,335.95,54.895069,9.793790,54.895348,9.797490
1386890761,1,0,436.7,0,0,0,0,567,550,-0.0292,3316.4980,6.8213,0.4212,54.895180,9.796268,108.3,5.845,1.85,335.95,54.895069,9.793790,54.895348,9.797490
1386890761,1,0,436.6,0,0,4,0,567,600,-0.0292,3316.4980,6.8213,0.4212,54.895184,9.796299,108.3,5.845,1.85,335.95,54.895069,9.793790,54.895348,9.797490
1386890762,1,0,436.6,0,0,0,0,567,550,-0.0292,3316.4980,6.8213,0.4212,54.895187,9.796329,108.3,5.845,1.85,335.95,54.895069,9.793790,54.895348,9.797490
1386890762,1,0,436.6,0,0,4,0,567,600,-0.0292,3316.4980,6.8213,0.4212,54.895191,9.796360,108.3,5.845,1.85,335.95,54.895069,9.793790,54.895348,9.797490
1386890762,1,0,436.5,0,0,0,0,567,550,-0.0292,3316.4980,6.8213,0.4212,54.895199,9.796391,108.3,5.845,1.85,335.95,54.895069,9.793790,54.895348,9.797490
1386890762,1,0,436.8,0,0,4,0,567,600,-0.0292,3316.4980,6.8213,0.4212,54.895203,9.796421,108.3,5.845,1.85,335.95,54.895069,9.793790,54.895348,9.797490
1386890763,1,0,436.8,0,0,0,0,567,550,-0.0292,3316.4980,6.8213,0.4212,54.895206,9.796452,108.3,5.845,1.85,335.95,54.895069,9.793790,54.895348,9.797490
1386890763,1,0,436.8,0,0,4,0,567,600,-0.0292,3316.4980,6.8213,0.4212,54.895210,9.796481,108.3,5.845,1.85,335.95,54.895069,9.793790,54.895348,9.797490
1386890763,1,0,436.8,0,0,0,0,567,550,-0.0292,3316.4980,6.8213,0.4212,54.895214,9.796512,108.3,5.845,1.85,335.95,54.895069,9.793790,54.895348,9.797490
1386890763,1,0,436.7,0,0,4,0,567,600,-0.0292,3316.4980,6.8213,0.4212,54.895222,9.796542,108.3,5.845,1.85,335.95,54.895069,9.793790,54.895348,9.797490
1386890764,1,0,437.1,0,-1,0,0,567,550,-0.0292,3316.7646,6.8213,0.4212,54.895226,9.796573,108.3,5.845,1.85,335.95,54.895069,9.793790,54.895348,9.797490
1386890764,1,0,437.0,0,0,4,0,571,600,-0.0292,3316.7646,6.8213,0.4212,54.895229,9.796603,108.3,5.845,1.85,335.95,54.895069,9.793790,54.895348,9.797490
1386890764,1,0,437.0,0,0,0,0,571,550,-0.0292,3316.7646,6.8213,0.4212,54.895233,9.796634,108.3,5.845,1.85,335.95,54.895069,9.793790,54.895348,9.797490
1386890764,1,0,437.0,0,0,4,0,571,600,-0.0292,3316.7646,6.8213,0.4212,54.895237,9.796664,108.3,5.845,1.85,335.95,54.895069,9.793790,54.895348,9.797490
1386890765,1,0,437.0,0,0,0,0,571,550,-0.0292,3316.7646,6.8213,0.4212,54.895241,9.796694,108.3,5.845,1.85,335.95,54.895069,9.793790,54.895348,9.797490
1386890765,1,0,436.9,0,0,4,0,571,600,-0.0292,3316.7646,6.8213,0.4212,54.895248,9.796724,108.3,5.845,1.85,335.95,54.895069,9.793790,54.895348,9.797490
1386890765,1,0,437.4,0,-1,0,0,571,550,-0.0292,3317.0312,6.8213,0.4212,54.895252,9.796755,108.3,5.845,1.85,335.95,54.895069,9.793790,54.895348,9.797490
1386890765,1,0,437.4,0,0,4,0,575,600,-0.0292,3317.0312,6.8213,0.4212,54.895256,9.796785,108.3,5.845,1.85,335.95,54.895069,9.793790,54.895348,9.797490
1386890766,1,0,437.3,0,0,0,0,575,550,-0.0292,3317.0312,6.8213,0.4212,54.895260,9.796816,108.3,5.845,1.85,335.95,54.895069,9.793790,54.895348,9.797490
1386890766,1,0,437.3,0,0,4,0,575,600,-0.0292,3317.0312,6.8213,0.4212,54.895264,9.796846,108.3,5.845,1.85,335.95,54.895069,9.793790,54.895348,9.797490
1386890766,1,0,437.3,0,0,0,0,575,550,-0.0292,3317.0312,6.8213,0.4212,54.895271,9.796877,108.3,5.845,1.85,335.95,54.895069,9.793790,54.895348,9.797490
1386890766,1,0,437.9,0,-1,-4,0,575,600,-0.0292,3317.2979,6.8213,0.4212,54.895275,9.796906,108.3,5.845,1.85,335.95,54.895069,9.793790,54.895348,9.797490
1386890767,1,0,437.9,0,-1,0,0,579,550,-0.0292,3317.5645,6.8213,0.4212,54.895279,9.796937,108.3,5.845,1.85,335.95,54.895069,9.793790,54.895348,9.797490
1386890767,1,0,437.9,0,0,4,0,584,600,-0.0292,3317.5645,6.8213,0.4212,54.895283,9.796968,108.3,5.845,1.85,335.95,54.895069,9.793790,54.895348,9.797490
1386890767,1,0,437.9,0,0,0,0,584,550,-0.0292,3317.5645,6.8213,0.4212,54.895287,9.796998,108.3,5.845,1.85,335.95,54.895069,9.793790,54.895348,9.797490
1386890767,1,0,437.9,0,0,4,0,584,600,-0.0292,3317.5645,6.8213,0.4212,54.895290,9.797029,108.3,5.845,1.85,335.95,54.895069,9.793790,54.895348,9.797490
1386890768,1,0,437.9,0,0,0,0,584,550,-0.0292,3317.5645,6.8213,0.4212,54.895290,9.797059,108.3,5.845,1.85,335.95,54.895069,9.793790,54.895348,9.797490
1386890768,1,0,437.1,0,0,4,0,584,600,-0.0292,3317.5645,6.8213,0.4212,54.895290,9.797090,108.3,5.845,1.85,335.95,54.895069,9.793790,54.895348,9.797490
1386890768,1,0,436.1,0,1,0,0,584,550,-0.0292,3317.2979,6.8213,0.4212,54.895290,9.797119,108.3,5.845,1.85,335.95,54.895069,9.793790,54.895348,9.797490
1386890768,1,0,435.1,0,2,4,0,579,600,-0.0292,3316.7644,6.8213,0.4212,54.895294,9.797150,108.3,5.845,1.85,335.95,54.895069,9.793790,54.895348,9.797490
1386890769,1,0,434.8,0,2,0,0,571,550,-0.0292,3316.2310,6.8213,0.4212,54.895298,9.797180,108.3,5.845,1.85,335.95,54.895069,9.793790,54.895348,9.797490
1386890769,1,0,434.5,0,2,4,0,562,600,-0.0292,3315.6975,6.8213,0.4212,54.895302,9.797210,108.3,5.845,1.85,335.95,54.895069,9.793790,54.895348,9.797490
1386890769,1,0,434.2,0,1,0,0,554,550,-0.0292,3315.4309,6.8213,0.4212,54.895306,9.797240,108.3,5.845,1.85,335.95,54.895069,9.793790,54.895348,9.797490
1386890769,1,0,433.8,0,2,4,0,550,600,-0.0292,3314.8975,6.8213,0.4212,54.895309,9.797271,108.3,5.845,1.85,335.95,54.895069,9.793790,54.895348,9.797490
1386890770,1,0,433.3,0,2,0,0,541,550,-0.0292,3314.3640,6.8213,0.4212,54.895317,9.797300,108.3,5.845,1.85,335.95,54.895069,9.793790,54.895348,9.797490
1386890770,1,0,434.5,0,0,4,0,533,500,-0.0292,3314.3640,6.8213,0.4212,54.895321,9.797331,108.3,5.845,1.85,335.95,54.895069,9.793790,54.895348,9.797490
1386890770,1,0,433.8,0,1,0,0,533,550,-0.0292,3314.0974,6.8213,0.4212,54.895325,9.797361,108.3,5.845,1.85,335.95,54.895069,9.793790,54.895348,9.797490
1386890770,1,0,432.9,0,1,4,0,529,500,-0.0292,3313.8308,6.8213,0.4212,54.895329,9.797391,108.3,5.845,1.85,335.95,54.895069,9.793790,54.895348,9.797490
1386890771,1,0,431.6,0,2,0,0,524,550,-0.0292,3313.2974,6.8213,0.4212,54.895332,9.797421,108.3,5.845,1.85,335.95,54.895069,9.793790,54.895348,9.797490
1386890771,1,0,429.3,0,4,4,0,516,500,-0.0292,3312.2307,6.8213,0.4212,54.895340,9.797450,108.3,5.845,1.85,335.95,54.895348,9.797490,54.894039,9.801540
1386890771,1,0,478.8,0,-35,0,0,499,450,-0.0292,3321.5640,6.8213,0.4212,54.895340,9.797481,108.3,5.845,1.85,335.95,54.895348,9.797490,54.894039,9.801540
1386890771,1,0,479.0,0,-35,-4,0,646,500,-0.0292,3330.8972,6.8213,0.4212,54.895336,9.797511,108.3,5.845,1.85,335.95,54.895348,9.797490,54.894039,9.801540
1386890772,1,0,479.1,0,-28,-8,0,786,550,-0.0292,3338.3638,6.8213,0.4212,54.895336,9.797543,108.3,5.845,1.85,335.95,54.895348,9.797490,54.894039,9.801540
1386890772,1,0,479.3,0,-21,-12,0,870,600,-0.0292,3343.9639,6.8213,0.4212,54.895332,9.797573,108.3,5.845,1.85,335.95,54.895348,9.797490,54.894039,9.801540
1386890772,1,0,479.4,0,-15,-16,0,870,650,-0.0292,3347.9639,6.8213,0.4212,54.895329,9.797603,108.3,5.845,1.85,335.95,54.895348,9.797490,54.894039,9.801540
1386890772,1,0,479.5,0,-12,-12,0,870,700,-0.0292,3351.1638,6.8213,0.4212,54.895321,9.797632,108.3,5.845,1.85,335.95,54.895348,9.797490,54.894039,9.801540
1386890773,1,0,479.5,0,-8,-8,0,713,750,-0.0292,3353.2971,6.8213,0.4212,54.895313,9.797661,108.3,5.845,1.85,335.95,54.895348,9.797490,54.894039,9.801540
1386890773,1,0,479.6,0,-6,-4,0,713,700,-0.0292,3354.8972,6.8213,0.4212,54.895309,9.797689,108.3,5.845,1.85,335.95,54.895348,9.797490,54.894039,9.801540
1386890773,1,0,479.7,0,-5,-8,0,713,750,-0.0292,3356.2305,6.8213,0.4212,54.895302,9.797718,108.3,5.845,1.85,335.95,54.895348,9.797490,54.894039,9.801540
1386890773,1,0,479.7,0,-3,-4,0,713,700,-0.0292,3357.0305,6.8213,0.4212,54.895294,9.797746,108.3,5.845,1.85,335.95,54.895348,9.797490,54.894039,9.801540
1386890774,1,0,479.8,0,-3,0,0,713,750,-0.0292,3357.8306,6.8213,0.4212,54.895283,9.797773,108.3,5.845,1.85,335.95,54.895348,9.797490,54.894039,9.801540
1386890774,1,0,479.7,0,-2,-4,0,713,700,-0.0292,3358.3640,6.8213,0.4212,54.895275,9.797801,108.3,5.845,1.85,335.95,54.895348,9.797490,54.894039,9.801540
1386890774,1,0,479.7,0,-1,0,0,713,750,-0.0292,3358.6306,6.8213,0.4212,54.895267,9.797829,108.3,5.845,1.85,335.95,54.895348,9.797490,54.894039,9.801540
1386890774,1,0,479.8,0,-1,-4,0,713,700,-0.0292,3358.8972,6.8213,0.4212,54.895256,9.797855,108.3,5.845,1.85,335.95,54.895348,9.797490,54.894039,9.801540
1386890775,1,0,479.7,0,-1,0,0,713,750,-0.0292,3359.1638,6.8213,0.4212,54.895248,9.797883,108.3,5.845,1.85,335.95,54.895348,9.797490,54.894039,9.801540
1386890775,1,0,479.7,0,-1,-4,0,713,700,-0.0292,3359.4304,6.8213,0.4212,54.895237,9.797911,108.3,5.845,1.85,335.95,54.895348,9.797490,54.894039,9.801540
1386890775,1,0,479.7,0,0,0,0,713,750,-0.0292,3359.4304,6.8213,0.4212,54.895229,9.797937,108.3,5.845,1.85,335.95,54.895348,9.797490,54.894039,9.801540
1386890775,1,0,479.7,0,0,4,0,713,700,-0.0292,3359.4304,6.8213,0.4212,54.895222,9.797965,108.3,5.845,1.85,335.95,54.895348,9.797490,54.894039,9.801540
1386890776,1,0,479.8,0,0,0,0,713,750,-0.0292,3359.4304,6.8213,0.4212,54.895210,9.797992,108.3,5.845,1.85,335.95,54.895348,9.797490,54.894039,9.801540
1386890776,1,0,479.7,0,0,4,0,713,700,-0.0292,3359.4304,6.8213,0.4212,54.895203,9.798018,108.3,5.845,1.85,335.95,54.895348,9.797490,54.894039,9.801540
1386890776,1,0,479.7,0,0,0,0,713,750,-0.0292,3359.4304,6.8213,0.4212,54.895195,9.798046,108.3,5.845,1.85,335.95,54.895348,9.797490,54.894039,9.801540
1386890777,1,0,479.8,0,0,4,0,713,700,-0.0292,3359.4304,6.8213,0.4212,54.895184,9.798073,108.3,5.845,1.85,335.95,54.895348,9.797490,54.894039,9.801540
1386890777,1,0,479.7,0,0,0,0,713,750,-0.0292,3359.4304,6.8213,0.4212,54.895176,9.798100,108.3,5.845,1.85,335.95,54.895348,9.797490,54.894039,9.801540
1386890777,1,0,479.7,0,0,4,0,713,700,-0.0292,3359.4304,6.8213,0.4212,54.895168,9.798128,108.3,5.845,1.85,335.95,54.895348,9.797490,54.894039,9.801540
1386890777,1,0,479.8,0,0,0,0,713,750,-0.0292,3359.4304,6.8213,0.4212,54.895157,9.798155,108.3,5.845,1.85,335.95,54.895348,9.797490,54.894039,9.801540
1386890778,1,0,479.7,0,0,4,0,713,700,-0.0292,3359.4304,6.8213,0.4212,54.895149,9.798182,108.3,5.845,1.85,335.95,54.895348,9.797490,54.894039,9.801540
1386890778,1,0,479.7,0,0,0,0,713,750,-0.0292,3359.4304,6.8213,0.4212,54.895138,9.798210,108.3,5.845,1.85,335.95,54.895348,9.797490,54.894039,9.801540
1386890778,1,0,479.7,0,0,4,0,713,700,-0.0292,3359.4304,6.8213,0.4212,54.895130,9.798237,108.3,5.845,1.85,335.95,54.895348,9.797490,54.894039,9.801540
1386890778,1,0,479.7,0,0,0,0,713,750,-0.0292,3359.4304,6.8213,0.4212,54.895123,9.798265,108.3,5.845,1.85,335.95,54.895348,9.797490,54.894039,9.801540
1386890779,1,0,479.8,0,0,4,0,713,700,-0.0292,3359.4304,6.8213,0.4212,54.895111,9.798291,108.3,5.845,1.85,335.95,54.895348,9.797490,54.894039,9.801540
1386890779,1,0,479.7,0,0,0,0,713,750,-0.0292,3359.4304,6.8213,0.4212,54.895103,9.798318,108.3,5.845,1.85,335.95,54.895348,9.797490,54.894039,9.801540
1386890779,1,0,479.7,0,0,4,0,713,700,-0.0292,3359.4304,6.8213,0.4212,54.895096,9.798346,108.3,5.845,1.85,335.95,54.895348,9.797490,54.894039,9.801540
1386890779,1,0,479.8,0,0,0,0,713,750,-0.0292,3359.4304,6.8213,0.4212,54.895084,9.798372,108.3,5.845,1.85,335.95,54.895348,9.797490,54.894039,9.801540
1386890780,1,0,479.7,0,0,4,0,713,700,-0.0292,3359.4304,6.8213,0.4212,54.895077,9.798400,108.3,5.845,1.85,335.95,54.895348,9.797490,54.894039,9.801540
1386890780,1,0,479.7,0,0,0,0,713,750,-0.0292,3359.4304,6.8213,0.4212,54.895065,9.798428,108.3,5.845,1.85,335.95,54.895348,9.797490,54.894039,9.801540
1386890780,1,0,479.7,0,0,4,0,713,700,-0.0292,3359.4304,6.8213,0.4212,54.895058,9.798454,108.3,5.845,1.85,335.95,54.895348,9.797490,54.894039,9.801540
1386890780,1,0,479.7,0,0,0,0,713,750,-0.0292,3359.4304,6.8213,0.4212,54.895050,9.798482,108.3,5.845,1.85,335.95,54.895348,9.797490,54.894039,9.801540
1386890781,1,0,479.7,0,0,4,0,713,700,-0.0292,3359.4304,6.8213,0.4212,54.895039,9.798509,108.3,5.845,1.85,335.95,54.895348,9.797490,54.894039,9.801540
1386890781,1,0,479.7,0,0,0,0,713,750,-0.0292,3359.4304,6.8213,0.4212,54.895031,9.798535,108.3,5.845,1.85,335.95,54.895348,9.797490,54.894039,9.801540
1386890781,1,0,479.7,0,0,4,0,713,700,-0.0292,3359.4304,6.8213,0.4212,54.895023,9.798563,108.3,5.845,1.85,335.95,54.895348,9.797490,54.894039,9.801540
1386890781,1,0,479.7,0,0,0,0,713,750,-0.0292,3359.4304,6.8213,0.4212,54.895012,9.798590,108.3,5.845,1.85,335.95,54.895348,9.797490,54.894039,9.801540
1386890782,1,0,479.7,0,0,4,0,713,700,-0.0292,3359.4304,6.8213,0.4212,54.895004,9.798616,108.3,5.845,1.85,335.95,54.895348,9.797490,54.894039,9.801540
1386890782,1,0,479.7,0,0,0,0,713,750,-0.0292,3359.4304,6.8213,0.4212,54.894997,9.798644,108.3,5.845,1.85,335.95,54.895348,9.797490,54.894039,9.801540
1386890782,1,0,479.7,0,0,4,0,713,700,-0.0292,3359.4304,6.8213,0.4212,54.894985,9.798671,108.3,5.845,1.85,335.95,54.895348,9.797490,54.894039,9.801540
1386890782,1,0,479.7,0,0,0,0,713,750,-0.0292,3359.4304,6.8213,0.4212,54.894978,9.798698,108.3,5.845,1.85,335.95,54.895348,9.797490,54.894039,9.801540
1386890783,1,0,479.7,0,0,4,0,713,700,-0.0292,3359.4304,6.8213,0.4212,54.894966,9.798726,108.3,5.845,1.85,335.95,54.895348,9.797490,54.894039,9.801540
1386890783,1,0,479.7,0,0,0,0,713,750,-0.0292,3359.4304,6.8213,0.4212,54.894958,9.798753,108.3,5.845,1.85,335.95,54.895348,9.797490,54.894039,9.801540
1386890783,1,0,479.7,0,0,4,0,713,700,-0.0292,3359.4304,6.8213,0.4212,54.894951,9.798780,108.3,5.845,1.85,335.95,54.895348,9.797490,54.894039,9.801540
1386890783,1,0,479.7,0,0,0,0,713,750,-0.0292,3359.4304,6.8213,0.4212,54.894939,9.798807,108.3,5.845,1.85,335.95,54.895348,9.797490,54.894039,9.801540
1386890784,1,0,479.7,0,0,4,0,713,700,-0.0292,3359.4304,6.8213,0.4212,54.894932,9.798834,108.3,5.845,1.85,335.95,54.895348,9.797490,54.894039,9.801540
1386890784,1,0,479.7,0,0,0,0,713,750,-0.0292,3359.4304,6.8213,0.4212,54.894924,9.798862,108.3,5.845,1.85,335.95,54.895348,9.797490,54.894039,9.801540
1386890784,1,0,479.7,0,0,4,0,713,700,-0.0292,3359.4304,6.8213,0.4212,54.894913,9.798888,108.3,5.845,1.85,335.95,54.895348,9.797490,54.894039,9.801540
1386890784,1,0,479.7,0,0,0,0,713,750,-0.0292,3359.4304,6.8213,0.4212,54.894905,9.798916,108.3,5.845,1.85,335.95,54.895348,9.797490,54.894039,9.801540
1386890785,1,0,479.7,0,0,4,0,713,700,-0.0292,3359.4304,6.8213,0.4212,54.894894,9.798944,108.3,5.845,1.85,335.95,54.895348,9.797490,54.894039,9.801540
1386890785,1,0,479.6,0,0,0,0,713,750,-0.0292,3359.4304,6.8213,0.4212,54.894886,9.798970,108.3,5.845,1.85,335.95,54.895348,9.797490,54.894039,9.801540
1386890785,1,0,479.7,0,0,4,0,713,700,-0.0292,3359.4304,6.8213,0.4212,54.894878,9.798998,108.3,5.845,1.85,335.95,54.895348,9.797490,54.894039,9.801540
1386890785,1,0,479.7,0,0,0,0,713,750,-0.0292,3359.4304,6.8213,0.4212,54.894867,9.799026,108.3,5.845,1.85,335.95,54.895348,9.797490,54.894039,9.801540
1386890786,1,0,479.6,0,0,4,0,713,700,-0.0292,3359.4304,6.8213,0.4212,54.894859,9.799052,108.3,5.845,1.85,335.95,54.895348,9.797490,54.894039,9.801540
1386890786,1,0,479.7,0,0,0,0,713,750,-0.0292,3359.4304,6.8213,0.4212,54.894852,9.799080,108.3,5.845,1.85,335.95,54.895348,9.797490,54.894039,9.801540
1386890786,1,0,479.7,0,0,4,0,713,700,-0.0292,3359.4304,6.8213,0.4212,54.894840,9.799107,108.3,5.845,1.85,335.95,54.895348,9.797490,54.894039,9.801540
1386890786,1,0,479.6,0,0,0,0,713,750,-0.0292,3359.4304,6.8213,0.4212,54.894833,9.799133,108.3,5.845,1.85,335.95,54.895348,9.797490,54.894039,9.801540
1386890787,1,0,479.7,0,0,4,0,713,700,-0.0292,3359.4304,6.8213,0.4212,54.894825,9.799161,108.3,5.845,1.85,335.95,54.895348,9.797490,54.894039,9.801540
1386890787,1,0,479.7,0,0,0,0,713,750,-0.0292,3359.4304,6.8213,0.4212,54.894814,9.799188,108.3,5.845,1.85,335.95,54.895348,9.797490,54.894039,9.801540
1386890787,1,0,479.6,0,0,4,0,713,700,-0.0292,3359.4304,6.8213,0.4212,54.894806,9.799215,108.3,5.845,1.85,335.95,54.895348,9.797490,54.894039,9.801540
1386890787,1,0,479.7,0,0,0,0,713,750,-0.0292,3359.4304,6.8213,0.4212,54.894794,9.799243,108.3,5.845,1.85,335.95,54.895348,9.797490,54.894039,9.801540
1386890788,1,0,479.6,0,0,4,0,713,700,-0.0292,3359.4304,6.8213,0.4212,54.894787,9.799270,108.3,5.845,1.85,335.95,54.895348,9.797490,54.894039,9.801540
1386890788,1,0,479.6,0,0,0,0,713,750,-0.0292,3359.4304,6.8213,0.4212,54.894779,9.799297,108.3,5.845,1.85,335.95,54.895348,9.797490,54.894039,9.801540
1386890788,1,0,479.7,0,0,4,0,713,700,-0.0292,3359.4304,6.8213,0.4212,54.894768,9.799325,108.3,5.845,1.85,335.95,54.895348,9.797490,54.894039,9.801540
1386890788,1,0,479.6,0,0,0,0,713,750,-0.0292,3359.4304,6.8213,0.4212,54.894760,9.799352,108.3,5.845,1.85,335.95,54.895348,9.797490,54.894039,9.801540
1386890789,1,0,479.7,0,0,4,0,713,700,-0.0292,3359.4304,6.8213,0.4212,54.894753,9.799379,108.3,5.845,1.85,335.95,54.895348,9.797490,54.894039,9.801540
1386890789,1,0,479.7,0,0,0,0,713,750,-0.0292,3359.4304,6.8213,0.4212,54.894741,9.799406,108.3,5.845,1.85,335.95,54.895348,9.797490,54.894039,9.801540
1386890789,1,0,479.6,0,0,4,0,713,700,-0.0292,3359.4304,6.8213,0.4212,54.894733,9.799433,108.3,5.845,1.85,335.95,54.895348,9.797490,54.894039,9.801540
1386890789,1,0,479.7,0,0,0,0,713,750,-0.0292,3359.4304,6.8213,0.4212,54.894726,9.799460,108.3,5.845,1.85,335.95,54.895348,9.797490,54.894039,9.801540
1386890790,1,0,479.7,0,0,4,0,713,700,-0.0292,3359.4304,6.8213,0.4212,54.894714,9.799487,108.3,5.845,1.85,335.95,54.895348,9.797490,54.894039,9.801540
1386890790,1,0,479.6,0,0,0,0,713,750,-0.0292,3359.4304,6.8213,0.4212,54.894707,9.799515,108.3,5.845,1.85,335.95,54.895348,9.797490,54.894039,9.801540
1386890790,1,0,479.7,0,0,4,0,713,700,-0.0292,3359.4304,6.8213,0.4212,54.894695,9.799542,108.3,5.845,1.85,335.95,54.895348,9.797490,54.894039,9.801540
1386890790,1,0,479.6,0,0,0,0,713,750,-0.0292,3359.4304,6.8213,0.4212,54.894688,9.799569,108.3,5.845,1.85,335.95,54.895348,9.797490,54.894039,9.801540
1386890791,1,0,479.6,0,0,4,0,713,700,-0.0292,3359.4304,6.8213,0.4212,54.894680,9.799597,108.3,5.845,1.85,335.95,54.895348,9.797490,54.894039,9.801540
1386890791,1,0,479.7,0,0,0,0,713,750,-0.0292,3359.4304,6.8213,0.4212,54.894669,9.799623,108.3,5.845,1.85,335.95,54.895348,9.797490,54.894039,9.801540
1386890791,1,0,479.6,0,0,4,0,713,700,-0.0292,3359.4304,6.8213,0.4212,54.894661,9.799650,108.3,5.845,1.85,335.95,54.895348,9.797490,54.894039,9.801540
1386890791,1,0,479.6,0,0,0,0,713,750,-0.0292,3359.4304,6.8213,0.4212,54.894653,9.799678,108.3,5.845,1.85,335.95,54.895348,9.797490,54.894039,9.801540
1386890792,1,0,479.7,0,0,4,0,713,700,-0.0292,3359.4304,6.8213,0.4212,54.894642,9.799705,108.3,5.845,1.85,335.95,54.895348,9.797490,54.894039,9.801540
1386890792,1,0,479.6,0,0,0,0,713,750,-0.0292,3359.4304,6.8213,0.4212,54.894634,9.799731,108.3,5.845,1.85,335.95,54.895348,9.797490,54.894039,9.801540
1386890792,1,0,479.6,0,0,4,0,713,700,-0.0292,3359.4304,6.8213,0.4212,54.894623,9.799759,108.3,5.845,1.85,335.95,54.895348,9.797490,54.894039,9.801540
1386890792,1,0,479.5,0,0,0,0,713,750,-0.0292,3359.4304,6.8213,0.4212,54.894615,9.799786,108.3,5.845,1.85,335.95,54.895348,9.797490,54.894039,9.801540
1386890793,1,0,479.6,0,0,4,0,713,700,-0.0292,3359.4304,6.8213,0.4212,54.894608,9.799813,108.3,5.845,1.85,335.95,54.895348,9.797490,54.894039,9.801540
1386890793,1,0,479.6,0,0,0,0,713,750,-0.0292,3359.4304,6.8213,0.4212,54.894596,9.799841,108.3,5.845,1.85,335.95,54.895348,9.797490,54.894039,9.801540
1386890793,1,0,479.5,0,0,4,0,713,700,-0.0292,3359.4304,6.8213,0.4212,54.894588,9.799868,108.3,5.845,1.85,335.95,54.895348,9.797490,54.894039,9.801540
1386890793,1,0,479.6,0,0,0,0,713,750,-0.0292,3359.4304,6.8213,0.4212,54.894581,9.799895,108.3,5.845,1.85,335.95,54.895348,9.797490,54.894039,9.801540
1386890794,1,0,479.6,0,0,4,0,713,700,-0.0292,3359.4304,6.8213,0.4212,54.894569,9.799922,108.3,5.845,1.85,335.95,54.895348,9.797490,54.894039,9.801540
1386890794,1,0,479.5,0,0,0,0,713,750,-0.0292,3359.4304,6.8213,0.4212,54.894562,9.799949,108.3,5.845,1.85,335.95,54.895348,9.797490,54.894039,9.801540
1386890794,1,0,479.6,0,0,4,0,713,700,-0.0292,3359.4304,6.8213,0.4212,54.894554,9.799976,108.3,5.845,1.85,335.95,54.895348,9.797490,54.894039,9.801540
1386890794,1,0,479.6,0,0,0,0,713,750,-0.0292,3359.4304,6.8213,0.4212,54.894543,9.800003,108.3,5.845,1.85,335.95,54.895348,9.797490,54.894039,9.801540
1386890795,1,0,479.5,0,0,4,0,713,700,-0.0292,3359.4304,6.8213,0.4212,54.894535,9.800031,108.3,5.845,1.85,335.95,54.895348,9.797490,54.894039,9.801540
1386890795,1,0,479.6,0,0,0,0,713,750,-0.0292,3359.4304,6.8213,0.4212,54.894524,9.800058,108.3,5.845,1.85,335.95,54.895348,9.797490,54.894039,9.801540
1386890795,1,0,479.5,0,0,4,0,713,700,-0.0292,3359.4304,6.8213,0.4212,54.894516,9.800085,108.3,5.845,1.85,335.95,54.895348,9.797490,54.894039,9.801540
1386890795,1,0,479.5,0,0,0,0,713,750,-0.0292,3359.4304,6.8213,0.4212,54.894508,9.800113,108.3,5.845,1.85,335.95,54.895348,9.797490,54.894039,9.801540
1386890796,1,0,479.6,0,0,4,0,713,700,-0.0292,3359.4304,6.8213,0.4212,54.894497,9.800140,108.3,5.845,1.85,335.95,54.895348,9.797490,54.894039,9.801540
1386890796,1,0,479.5,0,0,0,0,713,750,-0.0292,3359.4304,6.8213,0.4212,54.894489,9.800167,108.3,5.845,1.85,335.95,54.895348,9.797490,54.894039,9.801540
1386890796,1,0,479.5,0,0,4,0,713,700,-0.0292,3359.4304,6.8213,0.4212,54.894482,9.800195,108.3,5.845,1.85,335.95,54.895348,9.797490,54.894039,9.801540
1386890796,1,0,479.6,0,0,0,0,713,750,-0.0292,3359.4304,6.8213,0.4212,54.894470,9.800221,108.3,5.845,1.85,335.95,54.895348,9.797490,54.894039,9.801540
1386890797,1,0,479.5,0,0,4,0,713,700,-0.0292,3359.4304,6.8213,0.4212,54.894463,9.800248,108.3,5.845,1.85,335.95,54.895348,9.797490,54.894039,9.801540
1386890797,1,0,479.5,0,0,0,0,713,750,-0.0292,3359.4304,6.8213,0.4212,54.894451,9.800276,108.3,5.845,1.85,335.95,54.895348,9.797490,54.894039,9.801540
1386890797,1,0,479.4,0,0,4,0,713,700,-0.0292,3359.4304,6.8213,0.4212,54.894444,9.800303,108.3,5.845,1.85,335.95,54.895348,9.797490,54.894039,9.801540
1386890797,1,0,479.4,0,0,0,0,713,750,-0.0292,3359.4304,6.8213,0.4212,54.894436,9.800330,108.3,5.845,1.85,335.95,54.895348,9.797490,54.894039,9.801540
1386890798,1,0,479.5,0,0,4,0,713,700,-0.0292,3359.4304,6.8213,0.4212,54.894424,9.800358,108.3,5.845,1.85,335.95,54.895348,9.797490,54.894039,9.801540
1386890798,1,0,479.4,0,0,0,0,713,750,-0.0292,3359.4304,6.8213,0.4212,54.894417,9.800385,108.3,5.845,1.85,335.95,54.895348,9.797490,54.894039,9.801540
1386890798,1,0,479.5,0,0,4,0,713,700,-0.0292,3359.4304,6.8213,0.4212,54.894409,9.800412,108.3,5.845,1.85,335.95,54.895348,9.797490,54.894039,9.801540
1386890798,1,0,479.5,0,0,0,0,713,750,-0.0292,3359.4304,6.8213,0.4212,54.894398,9.800440,108.3,5.845,1.85,335.95,54.895348,9.797490,54.894039,9.801540
1386890799,1,0,479.4,0,0,4,0,713,700,-0.0292,3359.4304,6.8213,0.4212,54.894390,9.800467,108.3,5.845,1.85,335.95,54.895348,9.797490,54.894039,9.801540
1386890799,1,0,479.5,0,0,0,0,713,750,-0.0292,3359.4304,6.8213,0.4212,54.894382,9.800494,108.3,5.845,1.85,335.95,54.895348,9.797490,54.894039,9.801540
1386890799,1,0,479.6,0,0,4,0,713,700,-0.0292,3359.4304,6.8213,0.4212,54.894371,9.800521,108.3,5.845,1.85,335.95,54.895348,9.797490,54.894039,9.801540
1386890799,1,0,479.4,0,0,0,0,713,750,-0.0292,3359.4304,6.8213,0.4212,54.894363,9.800548,108.3,5.845,1.85,335.95,54.895348,9.797490,54.894039,9.801540
1386890800,1,0,479.4,0,0,4,0,713,700,-0.0292,3359.4304,6.8213,0.4212,54.894352,9.800575,108.3,5.845,1.85,335.95,54.895348,9.797490,54.894039,9.801540
1386890800,1,0,479.3,0,0,0,0,713,750,-0.0292,3359.4304,6.8213,0.4212,54.894344,9.800602,108.3,5.845,1.85,335.95,54.895348,9.797490,54.894039,9.801540
1386890800,1,0,479.3,0,0,4,0,713,700,-0.0292,3359.4304,6.8213,0.4212,54.894337,9.800630,108.3,5.845,1.85,335.95,54.895348,9.797490,54.894039,9.801540
1386890800,1,0,479.4,0,0,0,0,713,750,-0.0292,3359.4304,6.8213,0.4212,54.894325,9.800657,108.3,5.845,1.85,335.95,54.895348,9.797490,54.894039,9.801540
1386890801,1,0,479.2,0,0,4,0,713,700,-0.0292,3359.4304,6.8213,0.4212,54.894318,9.800684,108.3,5.845,1.85,335.95,54.895348,9.797490,54.894039,9.801540
1386890801,1,0,479.3,0,0,0,0,713,750,-0.0292,3359.4304,6.8213,0.4212,54.894310,9.800712,108.3,5.845,1.85,335.95,54.895348,9.797490,54.894039,9.801540
1386890801,1,0,479.5,0,0,4,0,713,700,-0.0292,3359.4304,6.8213,0.4212,54.894299,9.800739,108.3,5.845,1.85,335.95,54.895348,9.797490,54.894039,9.801540
1386890801,1,0,479.2,0,0,0,0,713,750,-0.0292,3359.4304,6.8213,0.4212,54.894291,9.800766,108.3,5.845,1.85,335.95,54.895348,9.797490,54.894039,9.801540
1386890802,1,0,479.3,0,0,4,0,713,700,-0.0292,3359.4304,6.8213,0.4212,54.894283,9.800794,108.3,5.845,1.85,335.95,54.895348,9.797490,54.894039,9.801540
1386890802,1,0,479.5,0,0,0,0,713,750,-0.0292,3359.4304,6.8213,0.4212,54.894272,9.800820,108.3,5.845,1.85,335.95,54.895348,9.797490,54.894039,9.801540
1386890802,1,0,479.2,0,0,4,0,713,700,-0.0292,3359.4304,6.8213,0.4212,54.894264,9.800847,108.3,5.845,1.85,335.95,54.895348,9.797490,54.894039,9.801540
1386890802,1,0,479.3,0,0,0,0,713,750,-0.0292,3359.4304,6.8213,0.4212,54.894253,9.800875,108.3,5.845,1.85,335.95,54.895348,9.797490,54.894039,9.801540
