MCU_timestamp,Navigation_System,Manual_Control,Guidance_Heading,Manual_Ctrl_Rudder,Rudder_Desired_Angle,Rudder_Feedback,Manual_Ctrl_Sail,Sail_Desired_Pos,Sail_Feedback,Rate,Heading,Pitch,Roll,Latitude,Longitude,COG,SOG,Wind_Speed,Wind_Angle,Point_Start_Lat,Point_Start_Lon,Point_End_Lat,Point_End_Lon
1386966086,0,0,0.0,0,0,12,0,0,0,-0.0292,8137.7549,6.8213,0.4212,54.895004,9.793620,108.3,5.845,1.85,1.00,0.000000,0.000000,0.000000,0.000000
1386966086,0,0,0.0,0,0,12,0,0,0,-0.0292,8137.7549,6.8213,0.4212,54.895004,9.793620,108.3,5.845,1.85,1.00,0.000000,0.000000,0.000000,0.000000
1386966087,0,0,0.0,0,0,12,0,0,0,-0.0292,8137.7549,6.8213,0.4212,54.895004,9.793620,108.3,5.845,1.85,1.00,0.000000,0.000000,0.000000,0.000000
1386966087,0,0,0.0,0,0,12,0,0,0,-0.0292,8137.7549,6.8213,0.4212,54.895004,9.793620,108.3,5.845,1.85,1.00,0.000000,0.000000,0.000000,0.000000
1386966087,0,0,0.0,0,0,12,0,0,0,-0.0292,8137.7549,6.8213,0.4212,54.895004,9.793620,108.3,5.845,1.85,1.00,0.000000,0.000000,0.000000,0.000000
1386966087,0,0,0.0,0,0,12,0,0,0,-0.0292,8137.7549,6.8213,0.4212,54.895004,9.793620,108.3,5.845,1.85,1.00,0.000000,0.000000,0.000000,0.000000
1386966088,0,0,0.0,0,0,12,0,0,0,-0.0292,8137.7549,6.8213,0.4212,54.895004,9.793620,108.3,5.845,1.85,1.00,0.000000,0.000000,0.000000,0.000000
1386966088,0,0,0.0,0,0,12,0,0,0,-0.0292,8137.7549,6.8213,0.4212,54.895004,9.793620,108.3,5.845,1.85,1.00,0.000000,0.000000,0.000000,0.000000
1386966088,0,0,0.0,0,0,12,0,0,0,-0.0292,8137.7549,6.8213,0.4212,54.895004,9.793620,108.3,5.845,1.85,1.00,0.000000,0.000000,0.000000,0.000000
1386966088,0,0,0.0,0,0,12,0,0,0,-0.0292,8137.7549,6.8213,0.4212,54.895004,9.793620,108.3,5.845,1.85,1.00,0.000000,0.000000,0.000000,0.000000
1386966089,0,0,0.0,0,0,12,0,0,0,-0.0292,8137.7549,6.8213,0.4212,54.895004,9.793620,108.3,5.845,1.85,1.00,0.000000,0.000000,0.000000,0.000000
1386966089,0,0,0.0,0,0,12,0,0,0,-0.0292,8137.7549,6.8213,0.4212,54.895004,9.793620,108.3,5.845,1.85,1.00,0.000000,0.000000,0.000000,0.000000
1386966089,0,0,0.0,0,0,12,0,0,0,-0.0292,8137.7549,6.8213,0.4212,54.895004,9.793620,108.3,5.845,1.85,1.00,0.000000,0.000000,0.000000,0.000000
1386966089,0,0,0.0,0,0,12,0,0,0,-0.0292,8137.7549,6.8213,0.4212,54.895004,9.793620,108.3,5.845,1.85,1.00,0.000000,0.000000,0.000000,0.000000
1386966090,0,0,0.0,0,0,12,0,0,0,-0.0292,8137.7549,6.8213,0.4212,54.895004,9.793620,108.3,5.845,1.85,1.00,0.000000,0.000000,0.000000,0.000000
1386966090,0,0,0.0,0,0,12,0,0,0,-0.0292,8137.7549,6.8213,0.4212,54.895004,9.793620,108.3,5.845,1.85,1.00,0.000000,0.000000,0.000000,0.000000
1386966090,0,0,0.0,0,0,12,0,0,0,-0.0292,8137.7549,6.8213,0.4212,54.895004,9.793620,108.3,5.845,1.85,1.00,0.000000,0.000000,0.000000,0.000000
1386966091,0,0,0.0,0,0,12,0,0,0,-0.0292,8137.7549,6.8213,0.4212,54.895004,9.793620,108.3,5.845,1.85,1.00,0.000000,0.000000,0.000000,0.000000
1386966091,0,0,0.0,0,0,12,0,0,0,-0.0292,8137.7549,6.8213,0.4212,54.895004,9.793620,108.3,5.845,1.85,1.00,0.000000,0.000000,0.000000,0.000000
1386966091,0,0,0.0,0,0,12,0,0,0,-0.0292,8137.7549,6.8213,0.4212,54.895004,9.793620,108.3,5.845,1.85,1.00,0.000000,0.000000,0.000000,0.000000
1386966091,0,0,0.0,0,0,12,0,0,0,-0.0292,8137.7549,6.8213,0.4212,54.895004,9.793620,108.3,5.845,1.85,1.00,0.000000,0.000000,0.000000,0.000000
1386966092,0,0,0.0,0,0,12,0,0,0,-0.0292,8137.7549,6.8213,0.4212,54.895004,9.793620,108.3,5.845,1.85,1.00,0.000000,0.000000,0.000000,0.000000
1386966092,0,0,0.0,0,0,12,0,0,0,-0.0292,8137.7549,6.8213,0.4212,54.895004,9.793620,108.3,5.845,1.85,1.00,0.000000,0.000000,0.000000,0.000000
1386966092,0,0,0.0,0,0,12,0,0,0,-0.0292,8137.7549,6.8213,0.4212,54.895004,9.793620,108.3,5.845,1.85,1.00,0.000000,0.000000,0.000000,0.000000
1386966092,0,0,0.0,0,0,12,0,0,0,-0.0292,8137.7549,6.8213,0.4212,54.895004,9.793620,108.3,5.845,1.85,1.00,0.000000,0.000000,0.000000,0.000000
1386966093,0,0,0.0,0,0,12,0,0,0,-0.0292,8137.7549,6.8213,0.4212,54.895004,9.793620,108.3,5.845,1.85,1.00,0.000000,0.000000,0.000000,0.000000
1386966093,0,0,0.0,0,0,12,0,0,0,-0.0292,8137.7549,6.8213,0.4212,54.895004,9.793620,108.3,5.845,1.85,1.00,0.000000,0.000000,0.000000,0.000000
1386966093,0,0,0.0,0,0,12,0,0,0,-0.0292,8137.7549,6.8213,0.4212,54.895004,9.793620,108.3,5.845,1.85,1.00,0.000000,0.000000,0.000000,0.000000
1386966093,0,0,0.0,0,0,12,0,0,0,-0.0292,8137.7549,6.8213,0.4212,54.895004,9.793620,108.3,5.845,1.85,1.00,0.000000,0.000000,0.000000,0.000000
1386966094,0,0,0.0,0,0,12,0,0,0,-0.0292,8137.7549,6.8213,0.4212,54.895004,9.793620,108.3,5.845,1.85,1.00,0.000000,0.000000,0.000000,0.000000
1386966094,0,0,0.0,0,0,12,0,0,0,-0.0292,8137.7549,6.8213,0.4212,54.895004,9.793620,108.3,5.845,1.85,1.00,0.000000,0.000000,0.000000,0.000000
1386966094,0,0,0.0,0,0,12,0,0,0,-0.0292,8137.7549,6.8213,0.4212,54.895004,9.793620,108.3,5.845,1.85,1.00,0.000000,0.000000,0.000000,0.000000
1386966094,0,0,0.0,0,0,12,0,0,0,-0.0292,8137.7549,6.8213,0.4212,54.895004,9.793620,108.3,5.845,1.85,1.00,0.000000,0.000000,0.000000,0.000000
1386966095,0,0,0.0,0,0,12,0,0,0,-0.0292,8137.7549,6.8213,0.4212,54.895004,9.793620,108.3,5.845,1.85,1.00,0.000000,0.000000,0.000000,0.000000
1386966095,0,0,0.0,0,0,12,0,0,0,-0.0292,8137.7549,6.8213,0.4212,54.895004,9.793620,108.3,5.845,1.85,1.00,0.000000,0.000000,0.000000,0.000000
1386966095,0,0,0.0,0,0,12,0,0,0,-0.0292,8137.7549,6.8213,0.4212,54.895004,9.793620,108.3,5.845,1.85,1.00,0.000000,0.000000,0.000000,0.000000
1386966095,0,0,0.0,0,0,12,0,0,0,-0.0292,8137.7549,6.8213,0.4212,54.895004,9.793620,108.3,5.845,1.85,1.00,0.000000,0.000000,0.000000,0.000000
1386966096,0,0,0.0,0,0,12,0,0,0,-0.0292,8137.7549,6.8213,0.4212,54.895004,9.793620,108.3,5.845,1.85,1.00,0.000000,0.000000,0.000000,0.000000
1386966096,0,0,0.0,0,0,12,0,0,0,-0.0292,8137.7549,6.8213,0.4212,54.895004,9.793620,108.3,5.845,1.85,1.00,0.000000,0.000000,0.000000,0.000000
1386966096,0,0,0.0,0,0,12,0,0,0,-0.0292,8137.7549,6.8213,0.4212,54.895004,9.793620,108.3,5.845,1.85,1.00,0.000000,0.000000,0.000000,0.000000
1386966096,0,0,0.0,0,0,12,0,0,0,-0.0292,8137.7549,6.8213,0.4212,54.895004,9.793620,108.3,5.845,1.85,1.00,0.000000,0.000000,0.000000,0.000000
1386966097,0,0,0.0,0,0,12,0,0,0,-0.0292,8137.7549,6.8213,0.4212,54.895004,9.793620,108.3,5.845,1.85,1.00,0.000000,0.000000,0.000000,0.000000
1386966097,0,0,0.0,0,0,12,0,0,0,-0.0292,8137.7549,6.8213,0.4212,54.895004,9.793620,108.3,5.845,1.85,1.00,0.000000,0.000000,0.000000,0.000000
1386966097,4,0,0.0,0,0,12,0,0,0,-0.0292,8137.7549,6.8213,0.4212,54.895004,9.793620,108.3,5.845,1.85,1.00,0.000000,0.000000,0.000000,0.000000
1386966097,1,0,56.0,0,35,16,0,713,500,-0.0292,8126.0884,6.8213,0.4212,54.894989,9.793606,108.3,5.845,1.85,1.00,54.895004,9.793620,54.895069,9.793790
1386966098,1,0,56.0,0,35,20,0,713,550,-0.0292,8114.4219,6.8213,0.4212,54.894974,9.793598,108.3,5.845,1.85,1.00,54.895004,9.793620,54.895069,9.793790
1386966098,1,0,56.0,0,35,24,0,713,600,-0.0292,8102.7554,6.8213,0.4212,54.894955,9.793596,108.3,5.845,1.85,1.00,54.895004,9.793620,54.895069,9.793790
1386966098,1,0,56.0,0,35,28,0,0,550,-0.0292,8091.0889,6.8213,0.4212,54.894936,9.793601,108.3,5.845,1.85,1.00,54.895004,9.793620,54.895069,9.793790
1386966098,1,0,56.0,0,35,32,0,0,500,-0.0292,8079.4224,6.8213,0.4212,54.894920,9.793612,108.3,5.845,1.85,1.00,54.895004,9.793620,54.895069,9.793790
1386966099,1,0,56.0,0,35,36,0,713,550,-0.0292,8067.7559,6.8213,0.4212,54.894909,9.793630,108.3,5.845,1.85,1.00,54.895004,9.793620,54.895069,9.793790
1386966099,1,0,56.0,0,35,32,0,713,600,-0.0292,8056.0894,6.8213,0.4212,54.894897,9.793651,108.3,5.845,1.85,1.00,54.895004,9.793620,54.895069,9.793790
1386966099,1,0,56.0,0,35,36,0,713,650,-0.0292,8044.4229,6.8213,0.4212,54.894886,9.793676,108.3,5.845,1.85,1.00,54.895004,9.793620,54.895069,9.793790
1386966099,1,0,56.0,0,35,32,0,870,700,-0.0292,8032.7563,6.8213,0.4212,54.894878,9.793705,108.3,5.845,1.85,1.00,54.895004,9.793620,54.895069,9.793790
1386966100,1,0,56.0,0,35,36,0,740,750,-0.0292,8021.0898,6.8213,0.4212,54.894875,9.793736,108.3,5.845,1.85,1.00,54.895004,9.793620,54.895069,9.793790
1386966100,1,0,56.0,0,35,32,0,560,700,-0.0292,8009.4233,6.8213,0.4212,54.894875,9.793767,108.3,5.845,1.85,1.00,54.895004,9.793620,54.895069,9.793790
1386966100,1,0,56.0,0,33,36,0,374,650,-0.0292,7998.4233,6.8213,0.4212,54.894875,9.793797,108.3,5.845,1.85,1.00,54.895004,9.793620,54.895069,9.793790
1386966100,1,0,56.0,0,22,32,0,204,600,-0.0292,7991.0898,6.8213,0.4212,54.894878,9.793827,108.3,5.845,1.85,1.00,54.895004,9.793620,54.895069,9.793790
1386966101,1,0,56.0,0,15,28,0,105,550,-0.0292,7986.0898,6.8213,0.4212,54.894886,9.793856,108.3,5.845,1.85,1.00,54.895004,9.793620,54.895069,9.793790
1386966101,1,0,56.0,0,10,24,0,50,500,-0.0292,7982.7563,6.8213,0.4212,54.894894,9.793883,108.3,5.845,1.85,1.00,54.895004,9.793620,54.895069,9.793790
1386966101,1,0,56.0,0,7,20,0,23,450,-0.0292,7980.4229,6.8213,0.4212,54.894905,9.793910,108.3,5.845,1.85,1.00,54.895004,9.793620,54.895069,9.793790
1386966101,1,0,56.0,0,4,16,0,10,400,-0.0292,7979.0894,6.8213,0.4212,54.894913,9.793937,108.3,5.845,1.85,1.00,54.895004,9.793620,54.895069,9.793790
1386966102,1,0,56.0,0,3,12,0,5,350,-0.0292,7978.0894,6.8213,0.4212,54.894924,9.793963,108.3,5.845,1.85,1.00,54.895004,9.793620,54.895069,9.793790
1386966102,1,0,56.0,0,2,8,0,2,300,-0.0292,7977.4229,6.8213,0.4212,54.894932,9.793989,108.3,5.845,1.85,1.00,54.895004,9.793620,54.895069,9.793790
1386966102,1,0,56.0,0,1,4,0,1,250,-0.0292,7977.0894,6.8213,0.4212,54.894939,9.794016,108.3,5.845,1.85,1.00,54.895004,9.793620,54.895069,9.793790
1386966102,1,0,56.0,0,1,0,0,1,200,-0.0292,7976.7559,6.8213,0.4212,54.894951,9.794042,108.3,5.845,1.85,1.00,54.895004,9.793620,54.895069,9.793790
1386966103,1,0,56.0,0,1,4,0,0,150,-0.0292,7976.4224,6.8213,0.4212,54.894958,9.794068,108.3,5.845,1.85,1.00,54.895004,9.793620,54.895069,9.793790
1386966103,1,0,56.0,0,0,0,0,0,100,-0.0292,7976.4224,6.8213,0.4212,54.894970,9.794094,108.3,5.845,1.85,1.00,54.895004,9.793620,54.895069,9.793790
1386966103,1,0,56.0,0,0,4,0,0,50,-0.0292,7976.4224,6.8213,0.4212,54.894981,9.794120,108.3,5.845,1.85,1.00,54.895004,9.793620,54.895069,9.793790
1386966103,1,0,56.0,0,0,0,0,0,0,-0.0292,7976.4224,6.8213,0.4212,54.894993,9.794146,108.3,5.845,1.85,1.00,54.895004,9.793620,54.895069,9.793790
1386966104,1,0,56.0,0,0,4,0,0,0,-0.0292,7976.4224,6.8213,0.4212,54.895004,9.794171,108.3,5.845,1.85,1.00,54.895004,9.793620,54.895069,9.793790
1386966104,1,0,56.0,0,0,0,0,0,0,-0.0292,7976.4224,6.8213,0.4212,54.895012,9.794198,108.3,5.845,1.85,1.00,54.895004,9.793620,54.895069,9.793790
1386966104,1,0,-76.4,0,35,4,0,0,0,-0.0292,7964.7559,6.8213,0.4212,54.895027,9.794220,108.3,5.845,1.85,1.00,54.895004,9.793620,54.895069,9.793790
1386966104,1,0,-80.4,0,35,8,0,0,0,-0.0292,7953.0894,6.8213,0.4212,54.895042,9.794236,108.3,5.845,1.85,1.00,54.895004,9.793620,54.895069,9.793790
1386966105,1,0,-84.1,0,35,12,0,0,0,-0.0292,7941.4229,6.8213,0.4212,54.895061,9.794248,108.3,5.845,1.85,1.00,54.895004,9.793620,54.895069,9.793790
1386966105,1,0,-88.4,0,35,16,0,0,0,-0.0292,7929.7563,6.8213,0.4212,54.895081,9.794253,108.3,5.845,1.85,1.00,54.895004,9.793620,54.895069,9.793790
1386966105,1,0,267.6,0,35,20,0,0,0,-0.0292,7918.0898,6.8213,0.4212,54.895100,9.794252,108.3,5.845,1.85,1.00,54.895004,9.793620,54.895069,9.793790
1386966105,1,0,263.5,0,35,24,0,0,0,-0.0292,7906.4233,6.8213,0.4212,54.895115,9.794246,108.3,5.845,1.85,1.00,54.895004,9.793620,54.895069,9.793790
1386966106,1,0,260.2,0,35,28,0,0,0,-0.0292,7894.7568,6.8213,0.4212,54.895134,9.794232,108.3,5.845,1.85,1.00,54.895004,9.793620,54.895069,9.793790
1386966106,1,0,255.8,0,35,32,0,0,0,-0.0292,7883.0903,6.8213,0.4212,54.895149,9.794213,108.3,5.845,1.85,1.00,54.895004,9.793620,54.895069,9.793790
1386966106,1,0,251.9,0,35,36,0,0,0,-0.0292,7871.4238,6.8213,0.4212,54.895161,9.794190,108.3,5.845,1.85,1.00,54.895004,9.793620,54.895069,9.793790
1386966106,1,0,248.4,0,35,32,0,0,0,-0.0292,7859.7573,6.8213,0.4212,54.895172,9.794163,108.3,5.845,1.85,1.00,54.895004,9.793620,54.895069,9.793790
1386966107,1,0,244.5,0,35,36,0,20,50,-0.0292,7848.0908,6.8213,0.4212,54.895176,9.794133,108.3,5.845,1.85,1.00,54.895004,9.793620,54.895069,9.793790
1386966107,1,0,241.7,0,35,32,0,141,100,-0.0292,7836.4243,6.8213,0.4212,54.895176,9.794102,108.3,5.845,1.85,1.00,54.895004,9.793620,54.895069,9.793790
1386966107,1,0,239.4,0,35,36,0,313,150,-0.0292,7824.7578,6.8213,0.4212,54.895172,9.794070,108.3,5.845,1.85,1.00,54.895004,9.793620,54.895069,9.793790
1386966107,1,0,237.6,0,27,32,0,499,200,-0.0292,7815.7578,6.8213,0.4212,54.895164,9.794040,108.3,5.845,1.85,1.00,54.895004,9.793620,54.895069,9.793790
1386966108,1,0,236.6,0,19,28,0,641,250,-0.0292,7809.4243,6.8213,0.4212,54.895161,9.794011,108.3,5.845,1.85,1.00,54.895004,9.793620,54.895069,9.793790
1386966108,1,0,234.4,0,15,24,0,737,300,-0.0292,7804.4243,6.8213,0.4212,54.895153,9.793983,108.3,5.845,1.85,1.00,54.895004,9.793620,54.895069,9.793790
1386966108,1,0,233.0,0,11,20,0,810,350,-0.0292,7800.7578,6.8213,0.4212,54.895145,9.793955,108.3,5.845,1.85,1.00,54.895004,9.793620,54.895069,9.793790
1386966108,1,0,231.4,0,9,16,0,862,400,-0.0292,7797.7578,6.8213,0.4212,54.895134,9.793929,108.3,5.845,1.85,1.00,54.895004,9.793620,54.895069,9.793790
1386966109,1,0,231.2,0,7,12,0,870,450,-0.0292,7795.4243,6.8213,0.4212,54.895123,9.793903,108.3,5.845,1.85,1.00,54.895004,9.793620,54.895069,9.793790
1386966109,1,0,230.9,0,5,8,0,870,500,-0.0292,7793.7578,6.8213,0.4212,54.895111,9.793879,108.3,5.845,1.85,1.00,54.895004,9.793620,54.895069,9.793790
1386966109,1,0,230.7,0,3,4,0,870,550,-0.0292,7792.7578,6.8213,0.4212,54.895100,9.793854,108.3,5.845,1.85,1.00,54.895004,9.793620,54.895069,9.793790
1386966109,1,0,230.5,0,2,0,0,870,600,-0.0292,7792.0913,6.8213,0.4212,54.895088,9.793829,108.3,5.845,1.85,1.00,54.895004,9.793620,54.895069,9.793790
1386966110,1,0,229.9,0,2,4,0,870,650,-0.0292,7791.4248,6.8213,0.4212,54.895077,9.793805,108.3,5.845,1.85,1.00,54.895069,9.793790,54.895348,9.797490
1386966110,1,0,211.0,0,20,8,0,870,700,-0.0292,7784.7583,6.8213,0.4212,54.895061,9.793783,108.3,5.845,1.85,1.00,54.895069,9.793790,54.895348,9.797490
1386966110,1,0,211.0,0,14,12,0,713,750,-0.0292,7780.0918,6.8213,0.4212,54.895050,9.793763,108.3,5.845,1.85,1.00,54.895069,9.793790,54.895348,9.797490
1386966110,1,0,211.0,0,9,8,0,713,700,-0.0292,7777.0918,6.8213,0.4212,54.895035,9.793744,108.3,5.845,1.85,1.00,54.895069,9.793790,54.895348,9.797490
1386966111,1,0,211.0,0,6,4,0,713,750,-0.0292,7775.0918,6.8213,0.4212,54.895020,9.793727,108.3,5.845,1.85,1.00,54.895069,9.793790,54.895348,9.797490
1386966111,1,0,211.0,0,4,8,0,713,700,-0.0292,7773.7583,6.8213,0.4212,54.895008,9.793710,108.3,5.845,1.85,1.00,54.895069,9.793790,54.895348,9.797490
1386966111,1,0,211.0,0,3,4,0,0,650,-0.0292,7772.7583,6.8213,0.4212,54.894993,9.793693,108.3,5.845,1.85,1.00,54.895069,9.793790,54.895348,9.797490
1386966111,1,0,211.0,0,2,0,0,0,600,-0.0292,7772.0918,6.8213,0.4212,54.894978,9.793676,108.3,5.845,1.85,1.00,54.895069,9.793790,54.895348,9.797490
1386966112,1,0,211.0,0,1,4,0,0,550,-0.0292,7771.7583,6.8213,0.4212,54.894962,9.793660,108.3,5.845,1.85,1.00,54.895069,9.793790,54.895348,9.797490
1386966112,1,0,211.0,0,1,0,0,0,500,-0.0292,7771.4248,6.8213,0.4212,54.894947,9.793643,108.3,5.845,1.85,1.00,54.895069,9.793790,54.895348,9.797490
1386966112,1,0,211.0,0,0,4,0,0,450,-0.0292,7771.4248,6.8213,0.4212,54.894928,9.793627,108.3,5.845,1.85,1.00,54.895069,9.793790,54.895348,9.797490
1386966112,1,0,211.0,0,0,0,0,0,400,-0.0292,7771.4248,6.8213,0.4212,54.894913,9.793611,108.3,5.845,1.85,1.00,54.895069,9.793790,54.895348,9.797490
1386966113,1,0,211.0,0,0,4,0,0,350,-0.0292,7771.4248,6.8213,0.4212,54.894897,9.793594,108.3,5.845,1.85,1.00,54.895069,9.793790,54.895348,9.797490
1386966113,1,0,211.0,0,0,0,0,0,300,-0.0292,7771.4248,6.8213,0.4212,54.894878,9.793578,108.3,5.845,1.85,1.00,54.895069,9.793790,54.895348,9.797490
1386966113,1,0,211.0,0,0,4,0,0,250,-0.0292,7771.4248,6.8213,0.4212,54.894863,9.793562,108.3,5.845,1.85,1.00,54.895069,9.793790,54.895348,9.797490
1386966113,1,0,211.0,0,0,0,0,0,200,-0.0292,7771.4248,6.8213,0.4212,54.894848,9.793546,108.3,5.845,1.85,1.00,54.895069,9.793790,54.895348,9.797490
1386966114,1,0,211.0,0,0,4,0,0,150,-0.0292,7771.4248,6.8213,0.4212,54.894829,9.793530,108.3,5.845,1.85,1.00,54.895069,9.793790,54.895348,9.797490
1386966114,1,0,211.0,0,0,0,0,0,100,-0.0292,7771.4248,6.8213,0.4212,54.894814,9.793513,108.3,5.845,1.85,1.00,54.895069,9.793790,54.895348,9.797490
1386966114,1,0,211.0,0,0,4,0,0,50,-0.0292,7771.4248,6.8213,0.4212,54.894798,9.793497,108.3,5.845,1.85,1.00,54.895069,9.793790,54.895348,9.797490
1386966114,1,0,211.0,0,0,0,0,0,0,-0.0292,7771.4248,6.8213,0.4212,54.894787,9.793481,108.3,5.845,1.85,1.00,54.895069,9.793790,54.895348,9.797490
1386966115,1,0,211.0,0,0,4,0,0,0,-0.0292,7771.4248,6.8213,0.4212,54.894772,9.793465,108.3,5.845,1.85,1.00,54.895069,9.793790,54.895348,9.797490
1386966115,1,0,151.0,0,35,8,0,0,0,-0.0292,7759.7583,6.8213,0.4212,54.894756,9.793454,108.3,5.845,1.85,1.00,54.895069,9.793790,54.895348,9.797490
1386966115,1,0,151.0,0,35,12,0,0,0,-0.0292,7748.0918,6.8213,0.4212,54.894737,9.793449,108.3,5.845,1.85,1.00,54.895069,9.793790,54.895348,9.797490
1386966115,1,0,151.0,0,35,16,0,0,0,-0.0292,7736.4253,6.8213,0.4212,54.894718,9.793451,108.3,5.845,1.85,1.00,54.895069,9.793790,54.895348,9.797490
1386966116,1,0,151.0,0,25,20,0,0,0,-0.0292,7728.0918,6.8213,0.4212,54.894703,9.793457,108.3,5.845,1.85,1.00,54.895069,9.793790,54.895348,9.797490
1386966116,1,0,151.0,0,17,16,0,0,0,-0.0292,7722.4253,6.8213,0.4212,54.894684,9.793467,108.3,5.845,1.85,1.00,54.895069,9.793790,54.895348,9.797490
1386966116,1,0,151.0,0,11,12,0,0,0,-0.0292,7718.7588,6.8213,0.4212,54.894665,9.793478,108.3,5.845,1.85,1.00,54.895069,9.793790,54.895348,9.797490
1386966116,1,0,151.0,0,8,8,0,0,0,-0.0292,7716.0923,6.8213,0.4212,54.894650,9.793491,108.3,5.845,1.85,1.00,54.895069,9.793790,54.895348,9.797490
1386966117,1,0,151.0,0,5,4,0,0,0,-0.0292,7714.4258,6.8213,0.4212,54.894634,9.793505,108.3,5.845,1.85,1.00,54.895069,9.793790,54.895348,9.797490
1386966117,1,0,151.0,0,3,0,0,0,0,-0.0292,7713.4258,6.8213,0.4212,54.894619,9.793519,108.3,5.845,1.85,1.00,54.895069,9.793790,54.895348,9.797490
1386966117,1,0,151.0,0,2,4,0,713,50,-0.0292,7712.7593,6.8213,0.4212,54.894604,9.793533,108.3,5.845,1.85,1.00,54.895069,9.793790,54.895348,9.797490
1386966117,1,0,151.0,0,2,0,0,713,100,-0.0292,7712.0928,6.8213,0.4212,54.894585,9.793548,108.3,5.845,1.85,1.00,54.895069,9.793790,54.895348,9.797490
1386966118,1,0,151.0,0,1,4,0,713,150,-0.0292,7711.7593,6.8213,0.4212,54.894569,9.793562,108.3,5.845,1.85,1.00,54.895069,9.793790,54.895348,9.797490
1386966118,1,0,151.0,0,1,0,0,713,200,-0.0292,7711.4258,6.8213,0.4212,54.894554,9.793577,108.3,5.845,1.85,1.00,54.895069,9.793790,54.895348,9.797490
1386966118,1,0,151.0,0,0,4,0,713,250,-0.0292,7711.4258,6.8213,0.4212,54.894535,9.793591,108.3,5.845,1.85,1.00,54.895069,9.793790,54.895348,9.797490
1386966118,1,0,151.0,0,0,0,0,713,300,-0.0292,7711.4258,6.8213,0.4212,54.894520,9.793607,108.3,5.845,1.85,1.00,54.895069,9.793790,54.895348,9.797490
1386966119,1,0,151.0,0,0,4,0,713,350,-0.0292,7711.4258,6.8213,0.4212,54.894505,9.793622,108.3,5.845,1.85,1.00,54.895069,9.793790,54.895348,9.797490
1386966119,1,0,82.8,0,35,8,0,713,400,-0.0292,7699.7593,6.8213,0.4212,54.894489,9.793642,108.3,5.845,1.85,1.00,54.895069,9.793790,54.895348,9.797490
1386966119,1,0,56.0,0,35,12,0,713,450,-0.0292,7688.0928,6.8213,0.4212,54.894478,9.793667,108.3,5.845,1.85,1.00,54.895069,9.793790,54.895348,9.797490
1386966119,1,0,-54.0,0,-35,8,0,870,500,-0.0292,7699.7593,6.8213,0.4212,54.894466,9.793687,108.3,5.845,1.85,1.00,54.895069,9.793790,54.895348,9.797490
1386966120,1,0,-54.0,0,-35,4,0,713,550,-0.0292,7711.4258,6.8213,0.4212,54.894451,9.793702,108.3,5.845,1.85,1.00,54.895069,9.793790,54.895348,9.797490
1386966120,1,0,-54.0,0,-35,0,0,713,600,-0.0292,7723.0923,6.8213,0.4212,54.894436,9.793712,108.3,5.845,1.85,1.00,54.895069,9.793790,54.895348,9.797490
1386966120,1,0,-54.0,0,-35,-4,0,713,650,-0.0292,7734.7588,6.8213,0.4212,54.894417,9.793715,108.3,5.845,1.85,1.00,54.895069,9.793790,54.895348,9.797490
1386966120,1,0,-54.0,0,-35,-8,0,0,600,-0.0292,7746.4253,6.8213,0.4212,54.894398,9.793711,108.3,5.845,1.85,1.00,54.895069,9.793790,54.895348,9.797490
1386966121,1,0,-54.0,0,-35,-12,0,0,550,-0.0292,7758.0918,6.8213,0.4212,54.894382,9.793701,108.3,5.845,1.85,1.00,54.895069,9.793790,54.895348,9.797490
1386966121,1,0,-54.0,0,-35,-16,0,713,600,-0.0292,7769.7583,6.8213,0.4212,54.894363,9.793686,108.3,5.845,1.85,1.00,54.895069,9.793790,54.895348,9.797490
1386966121,1,0,-54.0,0,-35,-20,0,713,650,-0.0292,7781.4248,6.8213,0.4212,54.894348,9.793665,108.3,5.845,1.85,1.00,54.895069,9.793790,54.895348,9.797490
1386966121,1,0,-54.0,0,-35,-24,0,713,700,-0.0292,7793.0913,6.8213,0.4212,54.894337,9.793639,108.3,5.845,1.85,1.00,54.895069,9.793790,54.895348,9.797490
1386966122,1,0,-54.0,0,-35,-28,0,870,750,-0.0292,7804.7578,6.8213,0.4212,54.894329,9.793611,108.3,5.845,1.85,1.00,54.895069,9.793790,54.895348,9.797490
1386966122,1,0,-54.0,0,-35,-32,0,806,800,-0.0292,7816.4243,6.8213,0.4212,54.894325,9.793581,108.3,5.845,1.85,1.00,54.895069,9.793790,54.895348,9.797490
1386966122,1,0,-54.0,0,-35,-36,0,630,750,-0.0292,7828.0908,6.8213,0.4212,54.894325,9.793550,108.3,5.845,1.85,1.00,54.895069,9.793790,54.895348,9.797490
1386966122,1,0,-54.0,0,-35,-32,0,446,700,-0.0292,7839.7573,6.8213,0.4212,54.894329,9.793519,108.3,5.845,1.85,1.00,54.895069,9.793790,54.895348,9.797490
1386966123,1,0,-54.0,0,-26,-28,0,262,650,-0.0292,7848.4238,6.8213,0.4212,54.894337,9.793489,108.3,5.845,1.85,1.00,54.895069,9.793790,54.895348,9.797490
1386966123,1,0,-54.0,0,-18,-24,0,137,600,-0.0292,7854.4238,6.8213,0.4212,54.894344,9.793461,108.3,5.845,1.85,1.00,54.895069,9.793790,54.895348,9.797490
1386966123,1,0,-54.0,0,-12,-20,0,65,550,-0.0292,7858.4238,6.8213,0.4212,54.894352,9.793433,108.3,5.845,1.85,1.00,54.895069,9.793790,54.895348,9.797490
1386966123,1,0,-54.0,0,-8,-16,0,29,500,-0.0292,7861.0903,6.8213,0.4212,54.894363,9.793406,108.3,5.845,1.85,1.00,54.895069,9.793790,54.895348,9.797490
1386966124,1,0,-54.0,0,-5,-12,0,13,450,-0.0292,7862.7568,6.8213,0.4212,54.894371,9.793380,108.3,5.845,1.85,1.00,54.895069,9.793790,54.895348,9.797490
1386966124,1,0,-54.0,0,-3,-8,0,6,400,-0.0292,7863.7568,6.8213,0.4212,54.894382,9.793354,108.3,5.845,1.85,1.00,54.895069,9.793790,54.895348,9.797490
1386966124,1,0,-54.0,0,-2,-4,0,3,350,-0.0292,7864.4233,6.8213,0.4212,54.894390,9.793328,108.3,5.845,1.85,1.00,54.895069,9.793790,54.895348,9.797490
1386966124,1,0,-54.0,0,-2,0,0,1,300,-0.0292,7865.0898,6.8213,0.4212,54.894402,9.793303,108.3,5.845,1.85,1.00,54.895069,9.793790,54.895348,9.797490
1386966125,1,0,-54.0,0,-1,-4,0,0,250,-0.0292,7865.4233,6.8213,0.4212,54.894413,9.793277,108.3,5.845,1.85,1.00,54.895069,9.793790,54.895348,9.797490
1386966125,1,0,-54.0,0,-1,0,0,0,200,-0.0292,7865.7568,6.8213,0.4212,54.894424,9.793251,108.3,5.845,1.85,1.00,54.895069,9.793790,54.895348,9.797490
1386966125,1,0,-54.0,0,0,4,0,0,150,-0.0292,7865.7568,6.8213,0.4212,54.894436,9.793225,108.3,5.845,1.85,1.00,54.895069,9.793790,54.895348,9.797490
1386966125,1,0,-54.0,0,0,0,0,0,100,-0.0292,7865.7568,6.8213,0.4212,54.894444,9.793200,108.3,5.845,1.85,1.00,54.895069,9.793790,54.895348,9.797490
1386966126,1,0,-54.0,0,0,4,0,0,50,-0.0292,7865.7568,6.8213,0.4212,54.894455,9.793175,108.3,5.845,1.85,1.00,54.895069,9.793790,54.895348,9.797490
