MCU_timestamp,Navigation_System,Manual_Control,Guidance_Heading,Manual_Ctrl_Rudder,Rudder_Desired_Angle,Rudder_Feedback,Manual_Ctrl_Sail,Sail_Desired_Pos,Sail_Feedback,Rate,Heading,Pitch,Roll,Latitude,Longitude,COG,SOG,Wind_Speed,Wind_Angle,Point_Start_Lat,Point_Start_Lon,Point_End_Lat,Point_End_Lon
1386832812,0,0,0.0,0,0,20,0,0,0,-0.0292,95.6255,6.8213,0.4212,54.896885,9.784269,108.3,5.845,1.85,335.95,0.000000,0.000000,0.000000,0.000000
1386832812,0,0,0.0,0,0,20,0,0,0,-0.0292,95.6255,6.8213,0.4212,54.896885,9.784269,108.3,5.845,1.85,335.95,0.000000,0.000000,0.000000,0.000000
1386832812,0,0,0.0,0,0,20,0,0,0,-0.0292,95.6255,6.8213,0.4212,54.896885,9.784269,108.3,5.845,1.85,335.95,0.000000,0.000000,0.000000,0.000000
1386832813,0,0,0.0,0,0,20,0,0,0,-0.0292,95.6255,6.8213,0.4212,54.896885,9.784269,108.3,5.845,1.85,335.95,0.000000,0.000000,0.000000,0.000000
1386832813,0,0,0.0,0,0,20,0,0,0,-0.0292,95.6255,6.8213,0.4212,54.896885,9.784269,108.3,5.845,1.85,335.95,0.000000,0.000000,0.000000,0.000000
1386832813,0,0,0.0,0,0,20,0,0,0,-0.0292,95.6255,6.8213,0.4212,54.896885,9.784269,108.3,5.845,1.85,335.95,0.000000,0.000000,0.000000,0.000000
1386832813,0,0,0.0,0,0,20,0,0,0,-0.0292,95.6255,6.8213,0.4212,54.896885,9.784269,108.3,5.845,1.85,335.95,0.000000,0.000000,0.000000,0.000000
1386832814,0,0,0.0,0,0,20,0,0,0,-0.0292,95.6255,6.8213,0.4212,54.896885,9.784269,108.3,5.845,1.85,335.95,0.000000,0.000000,0.000000,0.000000
1386832814,0,0,0.0,0,0,20,0,0,0,-0.0292,95.6255,6.8213,0.4212,54.896885,9.784269,108.3,5.845,1.85,335.95,0.000000,0.000000,0.000000,0.000000
1386832814,0,0,0.0,0,0,20,0,0,0,-0.0292,95.6255,6.8213,0.4212,54.896885,9.784269,108.3,5.845,1.85,335.95,0.000000,0.000000,0.000000,0.000000
1386832814,0,0,0.0,0,0,20,0,0,0,-0.0292,95.6255,6.8213,0.4212,54.896885,9.784269,108.3,5.845,1.85,335.95,0.000000,0.000000,0.000000,0.000000
1386832815,0,0,0.0,0,0,20,0,0,0,-0.0292,95.6255,6.8213,0.4212,54.896885,9.784269,108.3,5.845,1.85,335.95,0.000000,0.000000,0.000000,0.000000
1386832815,0,0,0.0,0,0,20,0,0,0,-0.0292,95.6255,6.8213,0.4212,54.896885,9.784269,108.3,5.845,1.85,335.95,0.000000,0.000000,0.000000,0.000000
1386832815,0,0,0.0,0,0,20,0,0,0,-0.0292,95.6255,6.8213,0.4212,54.896885,9.784269,108.3,5.845,1.85,335.95,0.000000,0.000000,0.000000,0.000000
1386832815,0,0,0.0,0,0,20,0,0,0,-0.0292,95.6255,6.8213,0.4212,54.896885,9.784269,108.3,5.845,1.85,335.95,0.000000,0.000000,0.000000,0.000000
1386832816,0,0,0.0,0,0,20,0,0,0,-0.0292,95.6255,6.8213,0.4212,54.896885,9.784269,108.3,5.845,1.85,335.95,0.000000,0.000000,0.000000,0.000000
1386832816,0,0,0.0,0,0,20,0,0,0,-0.0292,95.6255,6.8213,0.4212,54.896885,9.784269,108.3,5.845,1.85,335.95,0.000000,0.000000,0.000000,0.000000
1386832816,0,0,0.0,0,0,20,0,0,0,-0.0292,95.6255,6.8213,0.4212,54.896885,9.784269,108.3,5.845,1.85,335.95,0.000000,0.000000,0.000000,0.000000
1386832816,0,0,0.0,0,0,20,0,0,0,-0.0292,95.6255,6.8213,0.4212,54.896885,9.784269,108.3,5.845,1.85,335.95,0.000000,0.000000,0.000000,0.000000
1386832817,0,0,0.0,0,0,20,0,0,0,-0.0292,95.6255,6.8213,0.4212,54.896885,9.784269,108.3,5.845,1.85,335.95,0.000000,0.000000,0.000000,0.000000
1386832817,0,0,0.0,0,0,20,0,0,0,-0.0292,95.6255,6.8213,0.4212,54.896885,9.784269,108.3,5.845,1.85,335.95,0.000000,0.000000,0.000000,0.000000
1386832817,0,0,0.0,0,0,20,0,0,0,-0.0292,95.6255,6.8213,0.4212,54.896885,9.784269,108.3,5.845,1.85,335.95,0.000000,0.000000,0.000000,0.000000
1386832817,0,0,0.0,0,0,20,0,0,0,-0.0292,95.6255,6.8213,0.4212,54.896885,9.784269,108.3,5.845,1.85,335.95,0.000000,0.000000,0.000000,0.000000
1386832818,0,0,0.0,0,0,20,0,0,0,-0.0292,95.6255,6.8213,0.4212,54.896885,9.784269,108.3,5.845,1.85,335.95,0.000000,0.000000,0.000000,0.000000
1386832818,0,0,0.0,0,0,20,0,0,0,-0.0292,95.6255,6.8213,0.4212,54.896885,9.784269,108.3,5.845,1.85,335.95,0.000000,0.000000,0.000000,0.000000
1386832818,0,0,0.0,0,0,20,0,0,0,-0.0292,95.6255,6.8213,0.4212,54.896885,9.784269,108.3,5.845,1.85,335.95,0.000000,0.000000,0.000000,0.000000
1386832818,0,0,0.0,0,0,20,0,0,0,-0.0292,95.6255,6.8213,0.4212,54.896885,9.784269,108.3,5.845,1.85,335.95,0.000000,0.000000,0.000000,0.000000
1386832819,0,0,0.0,0,0,20,0,0,0,-0.0292,95.6255,6.8213,0.4212,54.896885,9.784269,108.3,5.845,1.85,335.95,0.000000,0.000000,0.000000,0.000000
1386832819,0,0,0.0,0,0,20,0,0,0,-0.0292,95.6255,6.8213,0.4212,54.896885,9.784269,108.3,5.845,1.85,335.95,0.000000,0.000000,0.000000,0.000000
1386832819,0,0,0.0,0,0,20,0,0,0,-0.0292,95.6255,6.8213,0.4212,54.896885,9.784269,108.3,5.845,1.85,335.95,0.000000,0.000000,0.000000,0.000000
1386832819,0,0,0.0,0,0,20,0,0,0,-0.0292,95.6255,6.8213,0.4212,54.896885,9.784269,108.3,5.845,1.85,335.95,0.000000,0.000000,0.000000,0.000000
1386832820,0,0,0.0,0,0,20,0,0,0,-0.0292,95.6255,6.8213,0.4212,54.896885,9.784269,108.3,5.845,1.85,335.95,0.000000,0.000000,0.000000,0.000000
1386832820,0,0,0.0,0,0,20,0,0,0,-0.0292,95.6255,6.8213,0.4212,54.896885,9.784269,108.3,5.845,1.85,335.95,0.000000,0.000000,0.000000,0.000000
1386832820,0,0,0.0,0,0,20,0,0,0,-0.0292,95.6255,6.8213,0.4212,54.896885,9.784269,108.3,5.845,1.85,335.95,0.000000,0.000000,0.000000,0.000000
1386832820,0,0,0.0,0,0,20,0,0,0,-0.0292,95.6255,6.8213,0.4212,54.896885,9.784269,108.3,5.845,1.85,335.95,0.000000,0.000000,0.000000,0.000000
1386832821,0,0,0.0,0,0,20,0,0,0,-0.0292,95.6255,6.8213,0.4212,54.896885,9.784269,108.3,5.845,1.85,335.95,0.000000,0.000000,0.000000,0.000000
1386832821,0,0,0.0,0,0,20,0,0,0,-0.0292,95.6255,6.8213,0.4212,54.896885,9.784269,108.3,5.845,1.85,335.95,0.000000,0.000000,0.000000,0.000000
1386832821,0,0,0.0,0,0,20,0,0,0,-0.0292,95.6255,6.8213,0.4212,54.896885,9.784269,108.3,5.845,1.85,335.95,0.000000,0.000000,0.000000,0.000000
1386832822,0,0,0.0,0,0,20,0,0,0,-0.0292,95.6255,6.8213,0.4212,54.896885,9.784269,108.3,5.845,1.85,335.95,0.000000,0.000000,0.000000,0.000000
1386832822,0,0,0.0,0,0,20,0,0,0,-0.0292,95.6255,6.8213,0.4212,54.896885,9.784269,108.3,5.845,1.85,335.95,0.000000,0.000000,0.000000,0.000000
1386832822,0,0,0.0,0,0,20,0,0,0,-0.0292,95.6255,6.8213,0.4212,54.896885,9.784269,108.3,5.845,1.85,335.95,0.000000,0.000000,0.000000,0.000000
1386832822,0,0,0.0,0,0,20,0,0,0,-0.0292,95.6255,6.8213,0.4212,54.896885,9.784269,108.3,5.845,1.85,335.95,0.000000,0.000000,0.000000,0.000000
1386832823,0,0,0.0,0,0,20,0,0,0,-0.0292,95.6255,6.8213,0.4212,54.896885,9.784269,108.3,5.845,1.85,335.95,0.000000,0.000000,0.000000,0.000000
1386832823,0,0,0.0,0,0,20,0,0,0,-0.0292,95.6255,6.8213,0.4212,54.896885,9.784269,108.3,5.845,1.85,335.95,0.000000,0.000000,0.000000,0.000000
1386832823,0,0,0.0,0,0,20,0,0,0,-0.0292,95.6255,6.8213,0.4212,54.896885,9.784269,108.3,5.845,1.85,335.95,0.000000,0.000000,0.000000,0.000000
1386832823,0,0,0.0,0,0,20,0,0,0,-0.0292,95.6255,6.8213,0.4212,54.896885,9.784269,108.3,5.845,1.85,335.95,0.000000,0.000000,0.000000,0.000000
1386832824,0,0,0.0,0,0,20,0,0,0,-0.0292,95.6255,6.8213,0.4212,54.896885,9.784269,108.3,5.845,1.85,335.95,0.000000,0.000000,0.000000,0.000000
1386832824,4,0,0.0,0,0,20,0,0,0,-0.0292,95.6255,6.8213,0.4212,54.896885,9.784269,108.3,5.845,1.85,335.95,0.000000,0.000000,0.000000,0.000000
1386832824,1,0,468.2,0,-13,16,0,491,25,-0.0292,99.0922,6.8213,0.4212,54.896885,9.784301,108.3,5.845,1.85,335.95,54.896885,9.784269,54.895069,9.793790
1386832824,1,0,468.3,0,-9,12,0,500,50,-0.0292,101.4922,6.8213,0.4212,54.896881,9.784331,108.3,5.845,1.85,335.95,54.896885,9.784269,54.895069,9.793790
1386832825,1,0,468.3,0,-7,8,0,500,75,-0.0292,103.3588,6.8213,0.4212,54.896877,9.784362,108.3,5.845,1.85,335.95,54.896885,9.784269,54.895069,9.793790
1386832825,1,0,468.3,0,-5,4,0,500,100,-0.0292,104.6922,6.8213,0.4212,54.896873,9.784391,108.3,5.845,1.85,335.95,54.896885,9.784269,54.895069,9.793790
1386832825,1,0,468.4,0,-4,0,0,500,125,-0.0292,105.7588,6.8213,0.4212,54.896870,9.784422,108.3,5.845,1.85,335.95,54.896885,9.784269,54.895069,9.793790
1386832825,1,0,468.4,0,-3,-4,0,500,150,-0.0292,106.5588,6.8213,0.4212,54.896862,9.784451,108.3,5.845,1.85,335.95,54.896885,9.784269,54.895069,9.793790
1386832826,1,0,468.4,0,-2,0,0,500,175,-0.0292,107.0922,6.8213,0.4212,54.896858,9.784481,108.3,5.845,1.85,335.95,54.896885,9.784269,54.895069,9.793790
1386832826,1,0,468.4,0,-1,-4,0,500,200,-0.0292,107.3588,6.8213,0.4212,54.896854,9.784512,108.3,5.845,1.85,335.95,54.896885,9.784269,54.895069,9.793790
1386832826,1,0,468.4,0,-1,0,0,500,225,-0.0292,107.6255,6.8213,0.4212,54.896851,9.784541,108.3,5.845,1.85,335.95,54.896885,9.784269,54.895069,9.793790
1386832826,1,0,468.4,0,-1,-4,0,500,250,-0.0292,107.8922,6.8213,0.4212,54.896843,9.784571,108.3,5.845,1.85,335.95,54.896885,9.784269,54.895069,9.793790
1386832827,1,0,468.4,0,-1,0,0,500,275,-0.0292,108.1588,6.8213,0.4212,54.896835,9.784601,108.3,5.845,1.85,335.95,54.896885,9.784269,54.895069,9.793790
1386832827,1,0,468.4,0,0,4,0,500,300,-0.0292,108.1588,6.8213,0.4212,54.896832,9.784631,108.3,5.845,1.85,335.95,54.896885,9.784269,54.895069,9.793790
1386832827,1,0,468.4,0,0,0,0,500,325,-0.0292,108.1588,6.8213,0.4212,54.896828,9.784660,108.3,5.845,1.85,335.95,54.896885,9.784269,54.895069,9.793790
1386832827,1,0,468.4,0,0,4,0,500,350,-0.0292,108.1588,6.8213,0.4212,54.896824,9.784690,108.3,5.845,1.85,335.95,54.896885,9.784269,54.895069,9.793790
1386832828,1,0,468.4,0,0,0,0,500,375,-0.0292,108.1588,6.8213,0.4212,54.896816,9.784719,108.3,5.845,1.85,335.95,54.896885,9.784269,54.895069,9.793790
1386832828,1,0,468.4,0,0,4,0,500,400,-0.0292,108.1588,6.8213,0.4212,54.896809,9.784749,108.3,5.845,1.85,335.95,54.896885,9.784269,54.895069,9.793790
1386832828,1,0,468.4,0,0,0,0,500,425,-0.0292,108.1588,6.8213,0.4212,54.896805,9.784779,108.3,5.845,1.85,335.95,54.896885,9.784269,54.895069,9.793790
1386832828,1,0,468.4,0,0,4,0,500,450,-0.0292,108.1588,6.8213,0.4212,54.896801,9.784808,108.3,5.845,1.85,335.95,54.896885,9.784269,54.895069,9.793790
1386832829,1,0,468.4,0,0,0,0,500,475,-0.0292,108.1588,6.8213,0.4212,54.896793,9.784838,108.3,5.845,1.85,335.95,54.896885,9.784269,54.895069,9.793790
1386832829,1,0,468.4,0,0,4,0,500,500,-0.0292,108.1588,6.8213,0.4212,54.896786,9.784867,108.3,5.845,1.85,335.95,54.896885,9.784269,54.895069,9.793790
1386832829,1,0,468.4,0,0,0,0,500,525,-0.0292,108.1588,6.8213,0.4212,54.896782,9.784897,108.3,5.845,1.85,335.95,54.896885,9.784269,54.895069,9.793790
1386832829,1,0,468.4,0,0,4,0,500,500,-0.0292,108.1588,6.8213,0.4212,54.896778,9.784926,108.3,5.845,1.85,335.95,54.896885,9.784269,54.895069,9.793790
1386832830,1,0,468.4,0,0,0,0,500,525,-0.0292,108.1588,6.8213,0.4212,54.896774,9.784956,108.3,5.845,1.85,335.95,54.896885,9.784269,54.895069,9.793790
1386832830,1,0,468.4,0,0,4,0,500,500,-0.0292,108.1588,6.8213,0.4212,54.896767,9.784986,108.3,5.845,1.85,335.95,54.896885,9.784269,54.895069,9.793790
1386832830,1,0,468.4,0,0,0,0,500,525,-0.0292,108.1588,6.8213,0.4212,54.896759,9.785016,108.3,5.845,1.85,335.95,54.896885,9.784269,54.895069,9.793790
1386832830,1,0,468.4,0,0,4,0,500,500,-0.0292,108.1588,6.8213,0.4212,54.896755,9.785046,108.3,5.845,1.85,335.95,54.896885,9.784269,54.895069,9.793790
1386832831,1,0,468.4,0,0,0,0,500,525,-0.0292,108.1588,6.8213,0.4212,54.896751,9.785075,108.3,5.845,1.85,335.95,54.896885,9.784269,54.895069,9.793790
1386832831,1,0,468.4,0,0,4,0,500,500,-0.0292,108.1588,6.8213,0.4212,54.896744,9.785105,108.3,5.845,1.85,335.95,54.896885,9.784269,54.895069,9.793790
1386832831,1,0,468.4,0,0,0,0,500,525,-0.0292,108.1588,6.8213,0.4212,54.896736,9.785134,108.3,5.845,1.85,335.95,54.896885,9.784269,54.895069,9.793790
1386832831,1,0,468.4,0,0,4,0,500,500,-0.0292,108.1588,6.8213,0.4212,54.896732,9.785164,108.3,5.845,1.85,335.95,54.896885,9.784269,54.895069,9.793790
1386832832,1,0,468.4,0,0,0,0,500,525,-0.0292,108.1588,6.8213,0.4212,54.896729,9.785193,108.3,5.845,1.85,335.95,54.896885,9.784269,54.895069,9.793790
1386832832,1,0,468.4,0,0,4,0,500,500,-0.0292,108.1588,6.8213,0.4212,54.896725,9.785223,108.3,5.845,1.85,335.95,54.896885,9.784269,54.895069,9.793790
1386832832,1,0,468.5,0,0,0,0,500,525,-0.0292,108.1588,6.8213,0.4212,54.896717,9.785253,108.3,5.845,1.85,335.95,54.896885,9.784269,54.895069,9.793790
1386832832,1,0,468.4,0,0,4,0,500,500,-0.0292,108.1588,6.8213,0.4212,54.896709,9.785282,108.3,5.845,1.85,335.95,54.896885,9.784269,54.895069,9.793790
1386832833,1,0,468.4,0,0,0,0,500,525,-0.0292,108.1588,6.8213,0.4212,54.896706,9.785312,108.3,5.845,1.85,335.95,54.896885,9.784269,54.895069,9.793790
1386832833,1,0,468.4,0,0,4,0,500,500,-0.0292,108.1588,6.8213,0.4212,54.896702,9.785341,108.3,5.845,1.85,335.95,54.896885,9.784269,54.895069,9.793790
1386832833,1,0,468.5,0,0,0,0,500,525,-0.0292,108.1588,6.8213,0.4212,54.896694,9.785372,108.3,5.845,1.85,335.95,54.896885,9.784269,54.895069,9.793790
1386832833,1,0,468.5,0,0,4,0,500,500,-0.0292,108.1588,6.8213,0.4212,54.896687,9.785401,108.3,5.845,1.85,335.95,54.896885,9.784269,54.895069,9.793790
1386832834,1,0,468.4,0,0,0,0,500,525,-0.0292,108.1588,6.8213,0.4212,54.896683,9.785431,108.3,5.845,1.85,335.95,54.896885,9.784269,54.895069,9.793790
1386832834,1,0,468.4,0,0,4,0,500,500,-0.0292,108.1588,6.8213,0.4212,54.896679,9.785460,108.3,5.845,1.85,335.95,54.896885,9.784269,54.895069,9.793790
1386832834,1,0,468.5,0,0,0,0,500,525,-0.0292,108.1588,6.8213,0.4212,54.896671,9.785490,108.3,5.845,1.85,335.95,54.896885,9.784269,54.895069,9.793790
1386832834,1,0,468.4,0,0,4,0,500,500,-0.0292,108.1588,6.8213,0.4212,54.896664,9.785520,108.3,5.845,1.85,335.95,54.896885,9.784269,54.895069,9.793790
1386832835,1,0,468.4,0,0,0,0,500,525,-0.0292,108.1588,6.8213,0.4212,54.896660,9.785549,108.3,5.845,1.85,335.95,54.896885,9.784269,54.895069,9.793790
1386832835,1,0,468.4,0,0,4,0,500,500,-0.0292,108.1588,6.8213,0.4212,54.896656,9.785579,108.3,5.845,1.85,335.95,54.896885,9.784269,54.895069,9.793790
1386832835,1,0,468.5,0,0,0,0,500,525,-0.0292,108.1588,6.8213,0.4212,54.896652,9.785608,108.3,5.845,1.85,335.95,54.896885,9.784269,54.895069,9.793790
1386832835,1,0,468.5,0,0,4,0,500,500,-0.0292,108.1588,6.8213,0.4212,54.896645,9.785638,108.3,5.845,1.85,335.95,54.896885,9.784269,54.895069,9.793790
1386832836,1,0,468.5,0,0,0,0,500,525,-0.0292,108.1588,6.8213,0.4212,54.896637,9.785667,108.3,5.845,1.85,335.95,54.896885,9.784269,54.895069,9.793790
1386832836,1,0,468.4,0,0,4,0,500,500,-0.0292,108.1588,6.8213,0.4212,54.896633,9.785697,108.3,5.845,1.85,335.95,54.896885,9.784269,54.895069,9.793790
1386832836,1,0,468.5,0,0,0,0,500,525,-0.0292,108.1588,6.8213,0.4212,54.896629,9.785727,108.3,5.845,1.85,335.95,54.896885,9.784269,54.895069,9.793790
1386832836,1,0,468.5,0,0,4,0,500,500,-0.0292,108.1588,6.8213,0.4212,54.896622,9.785757,108.3,5.845,1.85,335.95,54.896885,9.784269,54.895069,9.793790
1386832837,1,0,468.5,0,0,0,0,500,525,-0.0292,108.1588,6.8213,0.4212,54.896614,9.785787,108.3,5.845,1.85,335.95,54.896885,9.784269,54.895069,9.793790
1386832837,1,0,468.4,0,0,4,0,500,500,-0.0292,108.1588,6.8213,0.4212,54.896610,9.785816,108.3,5.845,1.85,335.95,54.896885,9.784269,54.895069,9.793790
1386832837,1,0,468.5,0,0,0,0,500,525,-0.0292,108.1588,6.8213,0.4212,54.896606,9.785846,108.3,5.845,1.85,335.95,54.896885,9.784269,54.895069,9.793790
1386832837,1,0,468.5,0,0,4,0,500,500,-0.0292,108.1588,6.8213,0.4212,54.896603,9.785875,108.3,5.845,1.85,335.95,54.896885,9.784269,54.895069,9.793790
1386832838,1,0,468.5,0,0,0,0,500,525,-0.0292,108.1588,6.8213,0.4212,54.896595,9.785905,108.3,5.845,1.85,335.95,54.896885,9.784269,54.895069,9.793790
1386832838,1,0,468.5,0,0,4,0,500,500,-0.0292,108.1588,6.8213,0.4212,54.896587,9.785934,108.3,5.845,1.85,335.95,54.896885,9.784269,54.895069,9.793790
1386832838,1,0,468.5,0,0,0,0,500,525,-0.0292,108.1588,6.8213,0.4212,54.896584,9.785964,108.3,5.845,1.85,335.95,54.896885,9.784269,54.895069,9.793790
1386832838,1,0,468.5,0,0,4,0,500,500,-0.0292,108.1588,6.8213,0.4212,54.896580,9.785994,108.3,5.845,1.85,335.95,54.896885,9.784269,54.895069,9.793790
1386832839,1,0,468.5,0,0,0,0,500,525,-0.0292,108.1588,6.8213,0.4212,54.896572,9.786023,108.3,5.845,1.85,335.95,54.896885,9.784269,54.895069,9.793790
1386832839,1,0,468.5,0,0,4,0,500,500,-0.0292,108.1588,6.8213,0.4212,54.896564,9.786053,108.3,5.845,1.85,335.95,54.896885,9.784269,54.895069,9.793790
1386832839,1,0,468.5,0,0,0,0,500,525,-0.0292,108.1588,6.8213,0.4212,54.896561,9.786082,108.3,5.845,1.85,335.95,54.896885,9.784269,54.895069,9.793790
1386832839,1,0,468.5,0,0,4,0,500,500,-0.0292,108.1588,6.8213,0.4212,54.896557,9.786112,108.3,5.845,1.85,335.95,54.896885,9.784269,54.895069,9.793790
1386832840,1,0,468.5,0,0,0,0,500,525,-0.0292,108.1588,6.8213,0.4212,54.896553,9.786142,108.3,5.845,1.85,335.95,54.896885,9.784269,54.895069,9.793790
1386832840,1,0,468.5,0,0,4,0,500,500,-0.0292,108.1588,6.8213,0.4212,54.896545,9.786172,108.3,5.845,1.85,335.95,54.896885,9.784269,54.895069,9.793790
1386832840,1,0,468.5,0,0,0,0,500,525,-0.0292,108.1588,6.8213,0.4212,54.896538,9.786201,108.3,5.845,1.85,335.95,54.896885,9.784269,54.895069,9.793790
1386832840,1,0,468.5,0,0,4,0,500,500,-0.0292,108.1588,6.8213,0.4212,54.896534,9.786231,108.3,5.845,1.85,335.95,54.896885,9.784269,54.895069,9.793790
1386832841,1,0,468.5,0,0,0,0,500,525,-0.0292,108.1588,6.8213,0.4212,54.896530,9.786261,108.3,5.845,1.85,335.95,54.896885,9.784269,54.895069,9.793790
1386832841,1,0,468.5,0,0,4,0,500,500,-0.0292,108.1588,6.8213,0.4212,54.896523,9.786290,108.3,5.845,1.85,335.95,54.896885,9.784269,54.895069,9.793790
1386832841,1,0,468.5,0,0,0,0,500,525,-0.0292,108.1588,6.8213,0.4212,54.896515,9.786320,108.3,5.845,1.85,335.95,54.896885,9.784269,54.895069,9.793790
1386832841,1,0,468.5,0,0,4,0,500,500,-0.0292,108.1588,6.8213,0.4212,54.896511,9.786349,108.3,5.845,1.85,335.95,54.896885,9.784269,54.895069,9.793790
1386832842,1,0,468.5,0,0,0,0,500,525,-0.0292,108.1588,6.8213,0.4212,54.896507,9.786379,108.3,5.845,1.85,335.95,54.896885,9.784269,54.895069,9.793790
1386832842,1,0,468.5,0,0,4,0,500,500,-0.0292,108.1588,6.8213,0.4212,54.896503,9.786408,108.3,5.845,1.85,335.95,54.896885,9.784269,54.895069,9.793790
1386832842,1,0,468.6,0,0,0,0,500,525,-0.0292,108.1588,6.8213,0.4212,54.896496,9.786438,108.3,5.845,1.85,335.95,54.896885,9.784269,54.895069,9.793790
1386832842,1,0,468.5,0,0,4,0,500,500,-0.0292,108.1588,6.8213,0.4212,54.896488,9.786468,108.3,5.845,1.85,335.95,54.896885,9.784269,54.895069,9.793790
1386832843,1,0,468.5,0,0,0,0,500,525,-0.0292,108.1588,6.8213,0.4212,54.896484,9.786497,108.3,5.845,1.85,335.95,54.896885,9.784269,54.895069,9.793790
1386832843,1,0,468.5,0,0,4,0,500,500,-0.0292,108.1588,6.8213,0.4212,54.896481,9.786528,108.3,5.845,1.85,335.95,54.896885,9.784269,54.895069,9.793790
1386832843,1,0,468.6,0,0,0,0,500,525,-0.0292,108.1588,6.8213,0.4212,54.896473,9.786557,108.3,5.845,1.85,335.95,54.896885,9.784269,54.895069,9.793790
1386832843,1,0,468.5,0,0,4,0,500,500,-0.0292,108.1588,6.8213,0.4212,54.896465,9.786587,108.3,5.845,1.85,335.95,54.896885,9.784269,54.895069,9.793790
1386832844,1,0,468.5,0,0,0,0,500,525,-0.0292,108.1588,6.8213,0.4212,54.896461,9.786617,108.3,5.845,1.85,335.95,54.896885,9.784269,54.895069,9.793790
1386832844,1,0,485.9,0,-18,-4,0,500,500,-0.0292,112.9588,6.8213,0.4212,54.900425,9.786895,108.3,5.845,1.85,335.95,54.896885,9.784269,54.895069,9.793790
1386832844,1,0,485.9,0,-13,-8,0,409,475,-0.0292,116.4255,6.8213,0.4212,54.900417,9.786922,108.3,5.845,1.85,335.95,54.896885,9.784269,54.895069,9.793790
1386832844,1,0,485.9,0,-10,-12,0,409,450,-0.0292,119.0922,6.8213,0.4212,54.900410,9.786950,108.3,5.845,1.85,335.95,54.896885,9.784269,54.895069,9.793790
1386832845,1,0,485.9,0,-7,-8,0,409,425,-0.0292,120.9588,6.8213,0.4212,54.900398,9.786977,108.3,5.845,1.85,335.95,54.896885,9.784269,54.895069,9.793790
1386832845,1,0,485.9,0,-5,-4,0,409,400,-0.0292,122.2922,6.8213,0.4212,54.900391,9.787003,108.3,5.845,1.85,335.95,54.896885,9.784269,54.895069,9.793790
1386832845,1,0,485.9,0,-4,0,0,409,425,-0.0292,123.3588,6.8213,0.4212,54.900379,9.787029,108.3,5.845,1.85,335.95,54.896885,9.784269,54.895069,9.793790
1386832845,1,0,485.9,0,-3,-4,0,409,400,-0.0292,124.1589,6.8213,0.4212,54.900372,9.787055,108.3,5.845,1.85,335.95,54.896885,9.784269,54.895069,9.793790
1386832846,1,0,485.9,0,-2,0,0,409,425,-0.0292,124.6922,6.8213,0.4212,54.900360,9.787081,108.3,5.845,1.85,335.95,54.896885,9.784269,54.895069,9.793790
1386832846,1,0,485.9,0,-1,-4,0,409,400,-0.0292,124.9589,6.8213,0.4212,54.900349,9.787107,108.3,5.845,1.85,335.95,54.896885,9.784269,54.895069,9.793790
1386832846,1,0,485.9,0,-1,0,0,409,425,-0.0292,125.2255,6.8213,0.4212,54.900337,9.787131,108.3,5.845,1.85,335.95,54.896885,9.784269,54.895069,9.793790
1386832846,1,0,485.9,0,-1,-4,0,409,400,-0.0292,125.4922,6.8213,0.4212,54.900326,9.787157,108.3,5.845,1.85,335.95,54.896885,9.784269,54.895069,9.793790
1386832847,1,0,485.9,0,0,0,0,409,425,-0.0292,125.4922,6.8213,0.4212,54.900318,9.787182,108.3,5.845,1.85,335.95,54.896885,9.784269,54.895069,9.793790
1386832847,1,0,485.9,0,0,4,0,409,400,-0.0292,125.4922,6.8213,0.4212,54.900307,9.787208,108.3,5.845,1.85,335.95,54.896885,9.784269,54.895069,9.793790
1386832847,1,0,485.9,0,0,0,0,409,425,-0.0292,125.4922,6.8213,0.4212,54.900299,9.787233,108.3,5.845,1.85,335.95,54.896885,9.784269,54.895069,9.793790
1386832847,1,0,485.9,0,0,4,0,409,400,-0.0292,125.4922,6.8213,0.4212,54.900288,9.787258,108.3,5.845,1.85,335.95,54.896885,9.784269,54.895069,9.793790
1386832848,1,0,485.9,0,0,0,0,409,425,-0.0292,125.4922,6.8213,0.4212,54.900276,9.787284,108.3,5.845,1.85,335.95,54.896885,9.784269,54.895069,9.793790
1386832848,1,0,485.9,0,0,4,0,409,400,-0.0292,125.4922,6.8213,0.4212,54.900269,9.787309,108.3,5.845,1.85,335.95,54.896885,9.784269,54.895069,9.793790
1386832848,1,0,485.9,0,0,0,0,409,425,-0.0292,125.4922,6.8213,0.4212,54.900257,9.787334,108.3,5.845,1.85,335.95,54.896885,9.784269,54.895069,9.793790
1386832848,1,0,485.9,0,0,4,0,409,400,-0.0292,125.4922,6.8213,0.4212,54.900249,9.787360,108.3,5.845,1.85,335.95,54.896885,9.784269,54.895069,9.793790
1386832849,1,0,485.9,0,0,0,0,409,425,-0.0292,125.4922,6.8213,0.4212,54.900238,9.787385,108.3,5.845,1.85,335.95,54.896885,9.784269,54.895069,9.793790
1386832849,1,0,485.9,0,0,4,0,409,400,-0.0292,125.4922,6.8213,0.4212,54.900227,9.787411,108.3,5.845,1.85,335.95,54.896885,9.784269,54.895069,9.793790
1386832849,1,0,485.9,0,0,0,0,409,425,-0.0292,125.4922,6.8213,0.4212,54.900219,9.787436,108.3,5.845,1.85,335.95,54.896885,9.784269,54.895069,9.793790
1386832849,1,0,485.9,0,0,4,0,409,400,-0.0292,125.4922,6.8213,0.4212,54.900208,9.787461,108.3,5.845,1.85,335.95,54.896885,9.784269,54.895069,9.793790
1386832850,1,0,485.9,0,0,0,0,409,425,-0.0292,125.4922,6.8213,0.4212,54.900200,9.787487,108.3,5.845,1.85,335.95,54.896885,9.784269,54.895069,9.793790
1386832850,1,0,485.9,0,0,4,0,409,400,-0.0292,125.4922,6.8213,0.4212,54.900188,9.787513,108.3,5.845,1.85,335.95,54.896885,9.784269,54.895069,9.793790
1386832850,1,0,485.9,0,0,0,0,409,425,-0.0292,125.4922,6.8213,0.4212,54.900177,9.787539,108.3,5.845,1.85,335.95,54.896885,9.784269,54.895069,9.793790
1386832850,1,0,485.9,0,0,4,0,409,400,-0.0292,125.4922,6.8213,0.4212,54.900166,9.787563,108.3,5.845,1.85,335.95,54.896885,9.784269,54.895069,9.793790
1386832851,1,0,485.9,0,0,0,0,409,425,-0.0292,125.4922,6.8213,0.4212,54.900154,9.787589,108.3,5.845,1.85,335.95,54.896885,9.784269,54.895069,9.793790
1386832851,1,0,485.9,0,0,4,0,409,400,-0.0292,125.4922,6.8213,0.4212,54.900146,9.787615,108.3,5.845,1.85,335.95,54.896885,9.784269,54.895069,9.793790
1386832851,1,0,485.9,0,0,0,0,409,425,-0.0292,125.4922,6.8213,0.4212,54.900135,9.787641,108.3,5.845,1.85,335.95,54.896885,9.784269,54.895069,9.793790
1386832851,1,0,485.9,0,0,4,0,409,400,-0.0292,125.4922,6.8213,0.4212,54.900272,9.789037,108.3,5.845,1.85,335.95,54.896885,9.784269,54.895069,9.793790
1386832852,1,0,485.9,0,0,0,0,409,425,-0.0292,125.4922,6.8213,0.4212,54.900261,9.789062,108.3,5.845,1.85,335.95,54.896885,9.784269,54.895069,9.793790
1386832852,1,0,485.9,0,0,4,0,409,400,-0.0292,125.4922,6.8213,0.4212,54.900249,9.789087,108.3,5.845,1.85,335.95,54.896885,9.784269,54.895069,9.793790
1386832852,1,0,485.9,0,0,0,0,409,425,-0.0292,125.4922,6.8213,0.4212,54.900238,9.789112,108.3,5.845,1.85,335.95,54.896885,9.784269,54.895069,9.793790
1386832852,1,0,485.9,0,0,4,0,409,400,-0.0292,125.4922,6.8213,0.4212,54.900227,9.789138,108.3,5.845,1.85,335.95,54.896885,9.784269,54.895069,9.793790
1386832853,1,0,485.9,0,0,0,0,409,425,-0.0292,125.4922,6.8213,0.4212,54.900219,9.789164,108.3,5.845,1.85,335.95,54.896885,9.784269,54.895069,9.793790
1386832853,1,0,485.9,0,0,4,0,409,400,-0.0292,125.4922,6.8213,0.4212,54.900208,9.789188,108.3,5.845,1.85,335.95,54.896885,9.784269,54.895069,9.793790
1386832853,1,0,485.9,0,0,0,0,409,425,-0.0292,125.4922,6.8213,0.4212,54.900200,9.789214,108.3,5.845,1.85,335.95,54.896885,9.784269,54.895069,9.793790
1386832853,1,0,485.9,0,0,4,0,409,400,-0.0292,125.4922,6.8213,0.4212,54.900188,9.789239,108.3,5.845,1.85,335.95,54.896885,9.784269,54.895069,9.793790
1386832854,1,0,485.9,0,0,0,0,409,425,-0.0292,125.4922,6.8213,0.4212,54.900177,9.789265,108.3,5.845,1.85,335.95,54.896885,9.784269,54.895069,9.793790
1386832854,1,0,485.9,0,0,4,0,409,400,-0.0292,125.4922,6.8213,0.4212,54.900166,9.789290,108.3,5.845,1.85,335.95,54.896885,9.784269,54.895069,9.793790
1386832854,1,0,485.9,0,0,0,0,409,425,-0.0292,125.4922,6.8213,0.4212,54.900154,9.789315,108.3,5.845,1.85,335.95,54.896885,9.784269,54.895069,9.793790
1386832855,1,0,485.9,0,0,4,0,409,400,-0.0292,125.4922,6.8213,0.4212,54.900146,9.789341,108.3,5.845,1.85,335.95,54.896885,9.784269,54.895069,9.793790
1386832855,1,0,485.9,0,0,0,0,409,425,-0.0292,125.4922,6.8213,0.4212,54.900135,9.789366,108.3,5.845,1.85,335.95,54.896885,9.784269,54.895069,9.793790
1386832855,1,0,485.9,0,0,4,0,409,400,-0.0292,125.4922,6.8213,0.4212,54.900127,9.789392,108.3,5.845,1.85,335.95,54.896885,9.784269,54.895069,9.793790
1386832855,1,0,485.9,0,0,0,0,409,425,-0.0292,125.4922,6.8213,0.4212,54.900028,9.790110,108.3,5.845,1.85,335.95,54.896885,9.784269,54.895069,9.793790
1386832856,1,0,485.9,0,0,4,0,409,400,-0.0292,125.4922,6.8213,0.4212,54.900017,9.790134,108.3,5.845,1.85,335.95,54.896885,9.784269,54.895069,9.793790
1386832856,1,0,485.9,0,0,0,0,409,425,-0.0292,125.4922,6.8213,0.4212,54.900005,9.790160,108.3,5.845,1.85,335.95,54.896885,9.784269,54.895069,9.793790
1386832856,1,0,485.9,0,0,4,0,409,400,-0.0292,125.4922,6.8213,0.4212,54.899998,9.790186,108.3,5.845,1.85,335.95,54.896885,9.784269,54.895069,9.793790
1386832856,1,0,485.9,0,0,0,0,409,425,-0.0292,125.4922,6.8213,0.4212,54.899986,9.790212,108.3,5.845,1.85,335.95,54.896885,9.784269,54.895069,9.793790
1386832857,1,0,485.9,0,0,4,0,409,400,-0.0292,125.4922,6.8213,0.4212,54.899979,9.790237,108.3,5.845,1.85,335.95,54.896885,9.784269,54.895069,9.793790
1386832857,1,0,485.9,0,0,0,0,409,425,-0.0292,125.4922,6.8213,0.4212,54.899967,9.790262,108.3,5.845,1.85,335.95,54.896885,9.784269,54.895069,9.793790
1386832857,1,0,485.9,0,0,4,0,409,400,-0.0292,125.4922,6.8213,0.4212,54.899979,9.791398,108.3,5.845,1.85,335.95,54.896885,9.784269,54.895069,9.793790
1386832857,1,0,485.9,0,0,0,0,409,425,-0.0292,125.4922,6.8213,0.4212,54.899967,9.791423,108.3,5.845,1.85,335.95,54.896885,9.784269,54.895069,9.793790
1386832858,1,0,485.9,0,0,4,0,409,400,-0.0292,125.4922,6.8213,0.4212,54.899956,9.791449,108.3,5.845,1.85,335.95,54.896885,9.784269,54.895069,9.793790
1386832858,1,0,485.9,0,0,0,0,409,425,-0.0292,125.4922,6.8213,0.4212,54.899944,9.791474,108.3,5.845,1.85,335.95,54.896885,9.784269,54.895069,9.793790
1386832858,1,0,485.9,0,0,4,0,409,400,-0.0292,125.4922,6.8213,0.4212,54.899933,9.791499,108.3,5.845,1.85,335.95,54.896885,9.784269,54.895069,9.793790
1386832858,1,0,485.9,0,0,0,0,409,425,-0.0292,125.4922,6.8213,0.4212,54.899925,9.791525,108.3,5.845,1.85,335.95,54.896885,9.784269,54.895069,9.793790
1386832859,1,0,485.9,0,0,4,0,409,400,-0.0292,125.4922,6.8213,0.4212,54.899979,9.791913,108.3,5.845,1.85,335.95,54.896885,9.784269,54.895069,9.793790
1386832859,1,0,485.9,0,0,0,0,409,425,-0.0292,125.4922,6.8213,0.4212,54.899967,9.791938,108.3,5.845,1.85,335.95,54.896885,9.784269,54.895069,9.793790
1386832859,1,0,485.9,0,0,4,0,409,400,-0.0292,125.4922,6.8213,0.4212,54.899956,9.791964,108.3,5.845,1.85,335.95,54.896885,9.784269,54.895069,9.793790
1386832859,1,0,485.9,0,0,0,0,409,425,-0.0292,125.4922,6.8213,0.4212,54.899944,9.791989,108.3,5.845,1.85,335.95,54.896885,9.784269,54.895069,9.793790
1386832860,1,0,485.9,0,0,4,0,409,400,-0.0292,125.4922,6.8213,0.4212,54.899933,9.792014,108.3,5.845,1.85,335.95,54.896885,9.784269,54.895069,9.793790
1386832860,1,0,485.9,0,0,0,0,409,425,-0.0292,125.4922,6.8213,0.4212,54.899925,9.792040,108.3,5.845,1.85,335.95,54.896885,9.784269,54.895069,9.793790
1386832860,1,0,485.9,0,0,4,0,409,400,-0.0292,125.4922,6.8213,0.4212,54.899914,9.792065,108.3,5.845,1.85,335.95,54.896885,9.784269,54.895069,9.793790
1386832860,1,0,485.9,0,0,0,0,409,425,-0.0292,125.4922,6.8213,0.4212,54.899906,9.792090,108.3,5.845,1.85,335.95,54.896885,9.784269,54.895069,9.793790
1386832861,1,0,485.9,0,0,4,0,409,400,-0.0292,125.4922,6.8213,0.4212,54.899895,9.792116,108.3,5.845,1.85,335.95,54.896885,9.784269,54.895069,9.793790
1386832861,1,0,485.9,0,0,0,0,409,425,-0.0292,125.4922,6.8213,0.4212,54.899883,9.792142,108.3,5.845,1.85,335.95,54.896885,9.784269,54.895069,9.793790
1386832861,1,0,485.9,0,0,4,0,409,400,-0.0292,125.4922,6.8213,0.4212,54.899876,9.792168,108.3,5.845,1.85,335.95,54.896885,9.784269,54.895069,9.793790
1386832861,1,0,485.9,0,0,0,0,409,425,-0.0292,125.4922,6.8213,0.4212,54.899864,9.792192,108.3,5.845,1.85,335.95,54.896885,9.784269,54.895069,9.793790
1386832862,1,0,485.9,0,0,4,0,409,400,-0.0292,125.4922,6.8213,0.4212,54.899857,9.792218,108.3,5.845,1.85,335.95,54.896885,9.784269,54.895069,9.793790
1386832862,1,0,485.9,0,0,0,0,409,425,-0.0292,125.4922,6.8213,0.4212,54.899845,9.792244,108.3,5.845,1.85,335.95,54.896885,9.784269,54.895069,9.793790
1386832862,1,0,485.9,0,0,4,0,409,400,-0.0292,125.4922,6.8213,0.4212,54.899834,9.792270,108.3,5.845,1.85,335.95,54.896885,9.784269,54.895069,9.793790
1386832862,1,0,485.9,0,0,0,0,409,425,-0.0292,125.4922,6.8213,0.4212,54.899826,9.792295,108.3,5.845,1.85,335.95,54.896885,9.784269,54.895069,9.793790
1386832863,1,0,485.9,0,0,4,0,409,400,-0.0292,125.4922,6.8213,0.4212,54.899815,9.792320,108.3,5.845,1.85,335.95,54.896885,9.784269,54.895069,9.793790
1386832863,1,0,485.9,0,0,0,0,409,425,-0.0292,125.4922,6.8213,0.4212,54.899807,9.792346,108.3,5.845,1.85,335.95,54.896885,9.784269,54.895069,9.793790
1386832863,1,0,485.9,0,0,4,0,409,400,-0.0292,125.4922,6.8213,0.4212,54.899796,9.792371,108.3,5.845,1.85,335.95,54.896885,9.784269,54.895069,9.793790
1386832863,1,0,485.9,0,0,0,0,409,425,-0.0292,125.4922,6.8213,0.4212,54.899784,9.792397,108.3,5.845,1.85,335.95,54.896885,9.784269,54.895069,9.793790
1386832864,1,0,485.9,0,0,4,0,409,400,-0.0292,125.4922,6.8213,0.4212,54.899776,9.792422,108.3,5.845,1.85,335.95,54.896885,9.784269,54.895069,9.793790
1386832864,1,0,485.9,0,0,0,0,409,425,-0.0292,125.4922,6.8213,0.4212,54.899765,9.792447,108.3,5.845,1.85,335.95,54.896885,9.784269,54.895069,9.793790
1386832864,1,0,485.9,0,0,4,0,409,400,-0.0292,125.4922,6.8213,0.4212,54.899830,9.794787,108.3,5.845,1.85,335.95,54.896885,9.784269,54.895069,9.793790
1386832864,1,0,485.9,0,0,0,0,0,375,-0.0292,125.4922,6.8213,0.4212,54.899818,9.794812,108.3,5.845,1.85,335.95,54.896885,9.784269,54.895069,9.793790
1386832865,1,0,485.9,0,0,4,0,0,350,-0.0292,125.4922,6.8213,0.4212,54.899807,9.794838,108.3,5.845,1.85,335.95,54.896885,9.784269,54.895069,9.793790
1386832865,1,0,485.9,0,0,0,0,0,325,-0.0292,125.4922,6.8213,0.4212,54.899796,9.794864,108.3,5.845,1.85,335.95,54.896885,9.784269,54.895069,9.793790
1386832865,1,0,485.9,0,0,4,0,0,300,-0.0292,125.4922,6.8213,0.4212,54.899784,9.794888,108.3,5.845,1.85,335.95,54.896885,9.784269,54.895069,9.793790
1386832865,1,0,485.9,0,0,0,0,0,275,-0.0292,125.4922,6.8213,0.4212,54.899776,9.794914,108.3,5.845,1.85,335.95,54.896885,9.784269,54.895069,9.793790
1386832866,1,0,485.9,0,0,4,0,0,250,-0.0292,125.4922,6.8213,0.4212,54.899765,9.794939,108.3,5.845,1.85,335.95,54.896885,9.784269,54.895069,9.793790
1386832866,1,0,485.9,0,0,0,0,0,225,-0.0292,125.4922,6.8213,0.4212,54.899757,9.794965,108.3,5.845,1.85,335.95,54.896885,9.784269,54.895069,9.793790
1386832866,1,0,485.9,0,0,4,0,0,200,-0.0292,125.4922,6.8213,0.4212,54.899746,9.794991,108.3,5.845,1.85,335.95,54.896885,9.784269,54.895069,9.793790
1386832866,1,0,485.9,0,0,0,0,0,175,-0.0292,125.4922,6.8213,0.4212,54.899734,9.795015,108.3,5.845,1.85,335.95,54.896885,9.784269,54.895069,9.793790
1386832867,1,0,485.9,0,0,4,0,0,150,-0.0292,125.4922,6.8213,0.4212,54.899723,9.795041,108.3,5.845,1.85,335.95,54.896885,9.784269,54.895069,9.793790
1386832867,1,0,485.9,0,0,0,0,0,125,-0.0292,125.4922,6.8213,0.4212,54.899712,9.795066,108.3,5.845,1.85,335.95,54.896885,9.784269,54.895069,9.793790
1386832867,1,0,485.9,0,0,4,0,0,100,-0.0292,125.4922,6.8213,0.4212,54.899704,9.795092,108.3,5.845,1.85,335.95,54.896885,9.784269,54.895069,9.793790
1386832867,1,0,485.9,0,0,0,0,0,75,-0.0292,125.4922,6.8213,0.4212,54.899693,9.795117,108.3,5.845,1.85,335.95,54.896885,9.784269,54.895069,9.793790
1386832868,1,0,485.9,0,0,4,0,0,50,-0.0292,125.4922,6.8213,0.4212,54.899685,9.795143,108.3,5.845,1.85,335.95,54.896885,9.784269,54.895069,9.793790
1386832868,1,0,485.9,0,0,0,0,0,25,-0.0292,125.4922,6.8213,0.4212,54.899673,9.795169,108.3,5.845,1.85,335.95,54.896885,9.784269,54.895069,9.793790
1386832868,1,0,485.9,0,0,4,0,0,0,-0.0292,125.4922,6.8213,0.4212,54.899662,9.795194,108.3,5.845,1.85,335.95,54.896885,9.784269,54.895069,9.793790
1386832868,1,0,485.9,0,0,0,0,0,25,-0.0292,125.4922,6.8213,0.4212,54.899654,9.795219,108.3,5.845,1.85,335.95,54.896885,9.784269,54.895069,9.793790
1386832869,1,0,545.9,0,-35,-4,0,0,0,-0.0292,134.8255,6.8213,0.4212,54.899643,9.795241,108.3,5.845,1.85,335.95,54.896885,9.784269,54.895069,9.793790
1386832869,1,0,545.9,0,-35,-8,0,0,25,-0.0292,144.1589,6.8213,0.4212,54.899632,9.795260,108.3,5.845,1.85,335.95,54.896885,9.784269,54.895069,9.793790
1386832869,1,0,545.9,0,-35,-12,0,0,0,-0.0292,153.4922,6.8213,0.4212,54.899616,9.795274,108.3,5.845,1.85,335.95,54.896885,9.784269,54.895069,9.793790
1386832869,1,0,545.9,0,-32,-16,0,0,25,-0.0292,162.0255,6.8213,0.4212,54.899601,9.795283,108.3,5.845,1.85,335.95,54.896885,9.784269,54.895069,9.793790
1386832870,1,0,545.9,0,-24,-20,0,0,0,-0.0292,168.4255,6.8213,0.4212,54.899582,9.795290,108.3,5.845,1.85,335.95,54.896885,9.784269,54.895069,9.793790
1386832870,1,0,545.9,0,-18,-16,0,0,25,-0.0292,173.2255,6.8213,0.4212,54.899563,9.795293,108.3,5.845,1.85,335.95,54.896885,9.784269,54.895069,9.793790
1386832870,1,0,545.9,0,-13,-12,0,0,0,-0.0292,176.6922,6.8213,0.4212,54.899548,9.795294,108.3,5.845,1.85,335.95,54.896885,9.784269,54.895069,9.793790
1386832870,1,0,545.9,0,-9,-8,0,0,25,-0.0292,179.0922,6.8213,0.4212,54.899529,9.795294,108.3,5.845,1.85,335.95,54.896885,9.784269,54.895069,9.793790
1386832871,1,0,545.9,0,-7,-4,0,409,50,-0.0292,180.9588,6.8213,0.4212,54.899509,9.795293,108.3,5.845,1.85,335.95,54.896885,9.784269,54.895069,9.793790
1386832871,1,0,545.9,0,-5,-8,0,409,75,-0.0292,182.2922,6.8213,0.4212,54.899490,9.795291,108.3,5.845,1.85,335.95,54.896885,9.784269,54.895069,9.793790
1386832871,1,0,545.9,0,-4,-4,0,409,100,-0.0292,183.3588,6.8213,0.4212,54.899475,9.795289,108.3,5.845,1.85,335.95,54.896885,9.784269,54.895069,9.793790
1386832871,1,0,545.9,0,-3,0,0,409,125,-0.0292,184.1588,6.8213,0.4212,54.899456,9.795286,108.3,5.845,1.85,335.95,54.896885,9.784269,54.895069,9.793790
1386832872,1,0,545.9,0,-2,-4,0,409,150,-0.0292,184.6922,6.8213,0.4212,54.899437,9.795284,108.3,5.845,1.85,335.95,54.896885,9.784269,54.895069,9.793790
1386832872,1,0,545.9,0,-1,0,0,409,175,-0.0292,184.9588,6.8213,0.4212,54.899418,9.795282,108.3,5.845,1.85,335.95,54.896885,9.784269,54.895069,9.793790
1386832872,1,0,545.9,0,-1,-4,0,409,200,-0.0292,185.2255,6.8213,0.4212,54.899403,9.795280,108.3,5.845,1.85,335.95,54.896885,9.784269,54.895069,9.793790
1386832872,1,0,545.9,0,-1,0,0,409,225,-0.0292,185.4922,6.8213,0.4212,54.899384,9.795277,108.3,5.845,1.85,335.95,54.896885,9.784269,54.895069,9.793790
1386832873,1,0,545.9,0,0,4,0,409,250,-0.0292,185.4922,6.8213,0.4212,54.899364,9.795274,108.3,5.845,1.85,335.95,54.896885,9.784269,54.895069,9.793790
1386832873,1,0,545.9,0,0,0,0,409,275,-0.0292,185.4922,6.8213,0.4212,54.899345,9.795271,108.3,5.845,1.85,335.95,54.896885,9.784269,54.895069,9.793790
1386832873,1,0,545.9,0,0,4,0,409,300,-0.0292,185.4922,6.8213,0.4212,54.899330,9.795268,108.3,5.845,1.85,335.95,54.896885,9.784269,54.895069,9.793790
1386832873,1,0,545.9,0,0,0,0,409,325,-0.0292,185.4922,6.8213,0.4212,54.899311,9.795265,108.3,5.845,1.85,335.95,54.896885,9.784269,54.895069,9.793790
1386832874,1,0,545.9,0,0,4,0,409,350,-0.0292,185.4922,6.8213,0.4212,54.899292,9.795262,108.3,5.845,1.85,335.95,54.896885,9.784269,54.895069,9.793790
1386832874,1,0,545.9,0,0,0,0,409,375,-0.0292,185.4922,6.8213,0.4212,54.899277,9.795259,108.3,5.845,1.85,335.95,54.896885,9.784269,54.895069,9.793790
1386832874,1,0,545.9,0,0,4,0,409,400,-0.0292,185.4922,6.8213,0.4212,54.899258,9.795257,108.3,5.845,1.85,335.95,54.896885,9.784269,54.895069,9.793790
1386832874,1,0,545.9,0,0,0,0,409,425,-0.0292,185.4922,6.8213,0.4212,54.899239,9.795254,108.3,5.845,1.85,335.95,54.896885,9.784269,54.895069,9.793790
1386832875,1,0,545.9,0,0,4,0,409,400,-0.0292,185.4922,6.8213,0.4212,54.899220,9.795251,108.3,5.845,1.85,335.95,54.896885,9.784269,54.895069,9.793790
1386832875,1,0,545.9,0,0,0,0,409,425,-0.0292,185.4922,6.8213,0.4212,54.899204,9.795247,108.3,5.845,1.85,335.95,54.896885,9.784269,54.895069,9.793790
1386832875,1,0,545.9,0,0,4,0,409,400,-0.0292,185.4922,6.8213,0.4212,54.899185,9.795243,108.3,5.845,1.85,335.95,54.896885,9.784269,54.895069,9.793790
1386832875,1,0,545.9,0,0,0,0,409,425,-0.0292,185.4922,6.8213,0.4212,54.899166,9.795240,108.3,5.845,1.85,335.95,54.896885,9.784269,54.895069,9.793790
1386832876,1,0,545.9,0,0,4,0,409,400,-0.0292,185.4922,6.8213,0.4212,54.899147,9.795238,108.3,5.845,1.85,335.95,54.896885,9.784269,54.895069,9.793790
1386832876,1,0,545.9,0,0,0,0,409,425,-0.0292,185.4922,6.8213,0.4212,54.899132,9.795235,108.3,5.845,1.85,335.95,54.896885,9.784269,54.895069,9.793790
1386832876,1,0,545.9,0,0,4,0,409,400,-0.0292,185.4922,6.8213,0.4212,54.899113,9.795232,108.3,5.845,1.85,335.95,54.896885,9.784269,54.895069,9.793790
1386832876,1,0,545.9,0,0,0,0,409,425,-0.0292,185.4922,6.8213,0.4212,54.899094,9.795229,108.3,5.845,1.85,335.95,54.896885,9.784269,54.895069,9.793790
1386832877,1,0,545.9,0,0,4,0,409,400,-0.0292,185.4922,6.8213,0.4212,54.899075,9.795226,108.3,5.845,1.85,335.95,54.896885,9.784269,54.895069,9.793790
1386832877,1,0,545.9,0,0,0,0,409,425,-0.0292,185.4922,6.8213,0.4212,54.899059,9.795223,108.3,5.845,1.85,335.95,54.896885,9.784269,54.895069,9.793790
1386832877,1,0,545.9,0,0,4,0,409,400,-0.0292,185.4922,6.8213,0.4212,54.899040,9.795220,108.3,5.845,1.85,335.95,54.896885,9.784269,54.895069,9.793790
1386832877,1,0,545.9,0,0,0,0,409,425,-0.0292,185.4922,6.8213,0.4212,54.899021,9.795218,108.3,5.845,1.85,335.95,54.896885,9.784269,54.895069,9.793790
1386832878,1,0,545.9,0,0,4,0,409,400,-0.0292,185.4922,6.8213,0.4212,54.899006,9.795215,108.3,5.845,1.85,335.95,54.896885,9.784269,54.895069,9.793790
1386832878,1,0,545.9,0,0,0,0,409,425,-0.0292,185.4922,6.8213,0.4212,54.898987,9.795212,108.3,5.845,1.85,335.95,54.896885,9.784269,54.895069,9.793790
1386832878,1,0,545.9,0,0,4,0,409,400,-0.0292,185.4922,6.8213,0.4212,54.898968,9.795209,108.3,5.845,1.85,335.95,54.896885,9.784269,54.895069,9.793790
1386832878,1,0,545.9,0,0,0,0,409,425,-0.0292,185.4922,6.8213,0.4212,54.898949,9.795205,108.3,5.845,1.85,335.95,54.896885,9.784269,54.895069,9.793790
1386832879,1,0,545.9,0,0,4,0,409,400,-0.0292,185.4922,6.8213,0.4212,54.898933,9.795201,108.3,5.845,1.85,335.95,54.896885,9.784269,54.895069,9.793790
1386832879,1,0,545.9,0,0,0,0,409,425,-0.0292,185.4922,6.8213,0.4212,54.898914,9.795198,108.3,5.845,1.85,335.95,54.896885,9.784269,54.895069,9.793790
1386832879,1,0,545.9,0,0,4,0,409,400,-0.0292,185.4922,6.8213,0.4212,54.898895,9.795196,108.3,5.845,1.85,335.95,54.896885,9.784269,54.895069,9.793790
1386832879,1,0,545.9,0,0,0,0,409,425,-0.0292,185.4922,6.8213,0.4212,54.898876,9.795193,108.3,5.845,1.85,335.95,54.896885,9.784269,54.895069,9.793790
1386832880,1,0,545.9,0,0,4,0,409,400,-0.0292,185.4922,6.8213,0.4212,54.898861,9.795190,108.3,5.845,1.85,335.95,54.896885,9.784269,54.895069,9.793790
1386832880,1,0,545.9,0,0,0,0,409,425,-0.0292,185.4922,6.8213,0.4212,54.898842,9.795187,108.3,5.845,1.85,335.95,54.896885,9.784269,54.895069,9.793790
1386832880,1,0,545.9,0,0,4,0,409,400,-0.0292,185.4922,6.8213,0.4212,54.898823,9.795184,108.3,5.845,1.85,335.95,54.896885,9.784269,54.895069,9.793790
1386832880,1,0,545.9,0,0,0,0,409,425,-0.0292,185.4922,6.8213,0.4212,54.898804,9.795181,108.3,5.845,1.85,335.95,54.896885,9.784269,54.895069,9.793790
1386832881,1,0,545.9,0,0,4,0,409,400,-0.0292,185.4922,6.8213,0.4212,54.898788,9.795178,108.3,5.845,1.85,335.95,54.896885,9.784269,54.895069,9.793790
1386832881,1,0,545.9,0,0,0,0,409,425,-0.0292,185.4922,6.8213,0.4212,54.898769,9.795176,108.3,5.845,1.85,335.95,54.896885,9.784269,54.895069,9.793790
1386832881,1,0,545.9,0,0,4,0,409,400,-0.0292,185.4922,6.8213,0.4212,54.898750,9.795173,108.3,5.845,1.85,335.95,54.896885,9.784269,54.895069,9.793790
1386832881,1,0,545.9,0,0,0,0,409,425,-0.0292,185.4922,6.8213,0.4212,54.898735,9.795170,108.3,5.845,1.85,335.95,54.896885,9.784269,54.895069,9.793790
1386832882,1,0,545.9,0,0,4,0,409,400,-0.0292,185.4922,6.8213,0.4212,54.898716,9.795167,108.3,5.845,1.85,335.95,54.896885,9.784269,54.895069,9.793790
1386832882,1,0,545.9,0,0,0,0,409,425,-0.0292,185.4922,6.8213,0.4212,54.898697,9.795164,108.3,5.845,1.85,335.95,54.896885,9.784269,54.895069,9.793790
1386832882,1,0,545.9,0,0,4,0,409,400,-0.0292,185.4922,6.8213,0.4212,54.898678,9.795160,108.3,5.845,1.85,335.95,54.896885,9.784269,54.895069,9.793790
1386832882,1,0,545.9,0,0,0,0,409,425,-0.0292,185.4922,6.8213,0.4212,54.898663,9.795157,108.3,5.845,1.85,335.95,54.896885,9.784269,54.895069,9.793790
1386832883,1,0,545.9,0,0,4,0,409,400,-0.0292,185.4922,6.8213,0.4212,54.898643,9.795155,108.3,5.845,1.85,335.95,54.896885,9.784269,54.895069,9.793790
1386832883,1,0,545.9,0,0,0,0,409,425,-0.0292,185.4922,6.8213,0.4212,54.898624,9.795152,108.3,5.845,1.85,335.95,54.896885,9.784269,54.895069,9.793790
1386832883,1,0,545.9,0,0,4,0,409,400,-0.0292,185.4922,6.8213,0.4212,54.898605,9.795149,108.3,5.845,1.85,335.95,54.896885,9.784269,54.895069,9.793790
1386832883,1,0,545.9,0,0,0,0,409,425,-0.0292,185.4922,6.8213,0.4212,54.898590,9.795146,108.3,5.845,1.85,335.95,54.896885,9.784269,54.895069,9.793790
1386832884,1,0,545.9,0,0,4,0,409,400,-0.0292,185.4922,6.8213,0.4212,54.898571,9.795143,108.3,5.845,1.85,335.95,54.896885,9.784269,54.895069,9.793790
1386832884,1,0,545.9,0,0,0,0,409,425,-0.0292,185.4922,6.8213,0.4212,54.898552,9.795140,108.3,5.845,1.85,335.95,54.896885,9.784269,54.895069,9.793790
1386832884,1,0,545.9,0,0,4,0,409,400,-0.0292,185.4922,6.8213,0.4212,54.898533,9.795137,108.3,5.845,1.85,335.95,54.896885,9.784269,54.895069,9.793790
1386832884,1,0,545.9,0,0,0,0,409,425,-0.0292,185.4922,6.8213,0.4212,54.898518,9.795135,108.3,5.845,1.85,335.95,54.896885,9.784269,54.895069,9.793790
1386832885,1,0,545.9,0,0,4,0,409,400,-0.0292,185.4922,6.8213,0.4212,54.898499,9.795132,108.3,5.845,1.85,335.95,54.896885,9.784269,54.895069,9.793790
1386832885,1,0,545.9,0,0,0,0,409,425,-0.0292,185.4922,6.8213,0.4212,54.898479,9.795129,108.3,5.845,1.85,335.95,54.896885,9.784269,54.895069,9.793790
1386832885,1,0,545.9,0,0,4,0,409,400,-0.0292,185.4922,6.8213,0.4212,54.898460,9.795126,108.3,5.845,1.85,335.95,54.896885,9.784269,54.895069,9.793790
1386832885,1,0,545.9,0,0,0,0,409,425,-0.0292,185.4922,6.8213,0.4212,54.898445,9.795123,108.3,5.845,1.85,335.95,54.896885,9.784269,54.895069,9.793790
1386832886,1,0,545.9,0,0,4,0,409,400,-0.0292,185.4922,6.8213,0.4212,54.898426,9.795119,108.3,5.845,1.85,335.95,54.896885,9.784269,54.895069,9.793790
1386832886,1,0,545.9,0,0,0,0,409,425,-0.0292,185.4922,6.8213,0.4212,54.898407,9.795115,108.3,5.845,1.85,335.95,54.896885,9.784269,54.895069,9.793790
1386832886,1,0,545.9,0,0,4,0,409,400,-0.0292,185.4922,6.8213,0.4212,54.898392,9.795113,108.3,5.845,1.85,335.95,54.896885,9.784269,54.895069,9.793790
1386832887,1,0,545.9,0,0,0,0,409,425,-0.0292,185.4922,6.8213,0.4212,54.898373,9.795110,108.3,5.845,1.85,335.95,54.896885,9.784269,54.895069,9.793790
1386832887,1,0,545.9,0,0,4,0,409,400,-0.0292,185.4922,6.8213,0.4212,54.898354,9.795107,108.3,5.845,1.85,335.95,54.896885,9.784269,54.895069,9.793790
1386832887,1,0,545.9,0,0,0,0,409,425,-0.0292,185.4922,6.8213,0.4212,54.898335,9.795104,108.3,5.845,1.85,335.95,54.896885,9.784269,54.895069,9.793790
1386832887,1,0,545.9,0,0,4,0,409,400,-0.0292,185.4922,6.8213,0.4212,54.898319,9.795101,108.3,5.845,1.85,335.95,54.896885,9.784269,54.895069,9.793790
1386832888,1,0,545.9,0,0,0,0,409,425,-0.0292,185.4922,6.8213,0.4212,54.898300,9.795098,108.3,5.845,1.85,335.95,54.896885,9.784269,54.895069,9.793790
1386832888,1,0,545.9,0,0,4,0,409,400,-0.0292,185.4922,6.8213,0.4212,54.898281,9.795095,108.3,5.845,1.85,335.95,54.896885,9.784269,54.895069,9.793790
1386832888,1,0,545.9,0,0,0,0,409,425,-0.0292,185.4922,6.8213,0.4212,54.898262,9.795093,108.3,5.845,1.85,335.95,54.896885,9.784269,54.895069,9.793790
1386832888,1,0,545.9,0,0,4,0,409,400,-0.0292,185.4922,6.8213,0.4212,54.898247,9.795090,108.3,5.845,1.85,335.95,54.896885,9.784269,54.895069,9.793790
1386832889,1,0,545.9,0,0,0,0,409,425,-0.0292,185.4922,6.8213,0.4212,54.898228,9.795087,108.3,5.845,1.85,335.95,54.896885,9.784269,54.895069,9.793790
1386832889,1,0,545.9,0,0,4,0,409,400,-0.0292,185.4922,6.8213,0.4212,54.898209,9.795084,108.3,5.845,1.85,335.95,54.896885,9.784269,54.895069,9.793790
1386832889,1,0,545.9,0,0,0,0,409,425,-0.0292,185.4922,6.8213,0.4212,54.898190,9.795081,108.3,5.845,1.85,335.95,54.896885,9.784269,54.895069,9.793790
1386832889,1,0,545.9,0,0,4,0,409,400,-0.0292,185.4922,6.8213,0.4212,54.898174,9.795078,108.3,5.845,1.85,335.95,54.896885,9.784269,54.895069,9.793790
1386832890,1,0,545.9,0,0,0,0,409,425,-0.0292,185.4922,6.8213,0.4212,54.898155,9.795074,108.3,5.845,1.85,335.95,54.896885,9.784269,54.895069,9.793790
1386832890,1,0,545.9,0,0,4,0,409,400,-0.0292,185.4922,6.8213,0.4212,54.898136,9.795072,108.3,5.845,1.85,335.95,54.896885,9.784269,54.895069,9.793790
1386832890,1,0,545.9,0,0,0,0,409,425,-0.0292,185.4922,6.8213,0.4212,54.898121,9.795069,108.3,5.845,1.85,335.95,54.896885,9.784269,54.895069,9.793790
1386832890,1,0,545.9,0,0,4,0,409,400,-0.0292,185.4922,6.8213,0.4212,54.898102,9.795066,108.3,5.845,1.85,335.95,54.896885,9.784269,54.895069,9.793790
1386832891,1,0,545.9,0,0,0,0,409,425,-0.0292,185.4922,6.8213,0.4212,54.898083,9.795063,108.3,5.845,1.85,335.95,54.896885,9.784269,54.895069,9.793790
1386832891,1,0,545.9,0,0,4,0,409,400,-0.0292,185.4922,6.8213,0.4212,54.898064,9.795060,108.3,5.845,1.85,335.95,54.896885,9.784269,54.895069,9.793790
1386832891,1,0,545.9,0,0,0,0,409,425,-0.0292,185.4922,6.8213,0.4212,54.898048,9.795057,108.3,5.845,1.85,335.95,54.896885,9.784269,54.895069,9.793790
1386832891,1,0,545.9,0,0,4,0,409,400,-0.0292,185.4922,6.8213,0.4212,54.898029,9.795054,108.3,5.845,1.85,335.95,54.896885,9.784269,54.895069,9.793790
1386832892,1,0,545.9,0,0,0,0,409,425,-0.0292,185.4922,6.8213,0.4212,54.898010,9.795052,108.3,5.845,1.85,335.95,54.896885,9.784269,54.895069,9.793790
1386832892,1,0,545.9,0,0,4,0,409,400,-0.0292,185.4922,6.8213,0.4212,54.897991,9.795049,108.3,5.845,1.85,335.95,54.896885,9.784269,54.895069,9.793790
1386832892,1,0,545.9,0,0,0,0,409,425,-0.0292,185.4922,6.8213,0.4212,54.897976,9.795046,108.3,5.845,1.85,335.95,54.896885,9.784269,54.895069,9.793790
1386832892,1,0,545.9,0,0,4,0,409,400,-0.0292,185.4922,6.8213,0.4212,54.897957,9.795043,108.3,5.845,1.85,335.95,54.896885,9.784269,54.895069,9.793790
1386832893,1,0,545.9,0,0,0,0,409,425,-0.0292,185.4922,6.8213,0.4212,54.897938,9.795040,108.3,5.845,1.85,335.95,54.896885,9.784269,54.895069,9.793790
1386832893,1,0,545.9,0,0,4,0,409,400,-0.0292,185.4922,6.8213,0.4212,54.897919,9.795037,108.3,5.845,1.85,335.95,54.896885,9.784269,54.895069,9.793790
1386832893,1,0,545.9,0,0,0,0,409,425,-0.0292,185.4922,6.8213,0.4212,54.897903,9.795033,108.3,5.845,1.85,335.95,54.896885,9.784269,54.895069,9.793790
1386832893,1,0,545.9,0,0,4,0,409,400,-0.0292,185.4922,6.8213,0.4212,54.897884,9.795030,108.3,5.845,1.85,335.95,54.896885,9.784269,54.895069,9.793790
1386832894,1,0,545.9,0,0,0,0,409,425,-0.0292,185.4922,6.8213,0.4212,54.897865,9.795027,108.3,5.845,1.85,335.95,54.896885,9.784269,54.895069,9.793790
1386832894,1,0,545.9,0,0,4,0,409,400,-0.0292,185.4922,6.8213,0.4212,54.897850,9.795024,108.3,5.845,1.85,335.95,54.896885,9.784269,54.895069,9.793790
1386832894,1,0,545.9,0,0,0,0,409,425,-0.0292,185.4922,6.8213,0.4212,54.897831,9.795021,108.3,5.845,1.85,335.95,54.896885,9.784269,54.895069,9.793790
1386832894,1,0,545.9,0,0,4,0,409,400,-0.0292,185.4922,6.8213,0.4212,54.897812,9.795018,108.3,5.845,1.85,335.95,54.896885,9.784269,54.895069,9.793790
1386832895,1,0,545.9,0,0,0,0,409,425,-0.0292,185.4922,6.8213,0.4212,54.897793,9.795015,108.3,5.845,1.85,335.95,54.896885,9.784269,54.895069,9.793790
1386832895,1,0,545.9,0,0,4,0,409,400,-0.0292,185.4922,6.8213,0.4212,54.897778,9.795012,108.3,5.845,1.85,335.95,54.896885,9.784269,54.895069,9.793790
1386832895,1,0,545.9,0,0,0,0,409,425,-0.0292,185.4922,6.8213,0.4212,54.897758,9.795010,108.3,5.845,1.85,335.95,54.896885,9.784269,54.895069,9.793790
1386832895,0,0,545.9,0,0,0,0,409,425,-0.0292,185.4922,6.8213,0.4212,54.897758,9.795010,108.3,5.845,1.85,335.95,54.896885,9.784269,54.895069,9.793790
1386832896,0,0,545.9,0,0,0,0,409,425,-0.0292,185.4922,6.8213,0.4212,54.897758,9.795010,108.3,5.845,1.85,335.95,54.896885,9.784269,54.895069,9.793790
1386832896,0,0,545.9,0,0,0,0,409,425,-0.0292,185.4922,6.8213,0.4212,54.897758,9.795010,108.3,5.845,1.85,335.95,54.896885,9.784269,54.895069,9.793790
1386832896,0,0,545.9,0,0,0,0,409,425,-0.0292,185.4922,6.8213,0.4212,54.897758,9.795010,108.3,5.845,1.85,335.95,54.896885,9.784269,54.895069,9.793790
1386832896,0,0,545.9,0,0,0,0,409,425,-0.0292,185.4922,6.8213,0.4212,54.897758,9.795010,108.3,5.845,1.85,335.95,54.896885,9.784269,54.895069,9.793790
1386832897,0,0,545.9,0,0,0,0,409,425,-0.0292,185.4922,6.8213,0.4212,54.897758,9.795010,108.3,5.845,1.85,335.95,54.896885,9.784269,54.895069,9.793790
1386832897,0,0,545.9,0,0,0,0,409,425,-0.0292,185.4922,6.8213,0.4212,54.897758,9.795010,108.3,5.845,1.85,335.95,54.896885,9.784269,54.895069,9.793790
1386832897,0,0,545.9,0,0,0,0,409,425,-0.0292,185.4922,6.8213,0.4212,54.897758,9.795010,108.3,5.845,1.85,335.95,54.896885,9.784269,54.895069,9.793790
1386832897,0,0,545.9,0,0,0,0,409,425,-0.0292,185.4922,6.8213,0.4212,54.897758,9.795010,108.3,5.845,1.85,335.95,54.896885,9.784269,54.895069,9.793790
1386832898,0,0,545.9,0,0,0,0,409,425,-0.0292,185.4922,6.8213,0.4212,54.897758,9.795010,108.3,5.845,1.85,335.95,54.896885,9.784269,54.895069,9.793790
1386832898,0,0,545.9,0,0,0,0,409,425,-0.0292,185.4922,6.8213,0.4212,54.897758,9.795010,108.3,5.845,1.85,335.95,54.896885,9.784269,54.895069,9.793790
1386832898,0,0,545.9,0,0,0,0,409,425,-0.0292,185.4922,6.8213,0.4212,54.897758,9.795010,108.3,5.845,1.85,335.95,54.896885,9.784269,54.895069,9.793790
1386832898,0,0,545.9,0,0,0,0,409,425,-0.0292,185.4922,6.8213,0.4212,54.897758,9.795010,108.3,5.845,1.85,335.95,54.896885,9.784269,54.895069,9.793790
1386832899,0,0,545.9,0,0,0,0,409,425,-0.0292,185.4922,6.8213,0.4212,54.897758,9.795010,108.3,5.845,1.85,335.95,54.896885,9.784269,54.895069,9.793790
1386832899,0,0,545.9,0,0,0,0,409,425,-0.0292,185.4922,6.8213,0.4212,54.897758,9.795010,108.3,5.845,1.85,335.95,54.896885,9.784269,54.895069,9.793790
1386832899,0,0,545.9,0,0,0,0,409,425,-0.0292,185.4922,6.8213,0.4212,54.897758,9.795010,108.3,5.845,1.85,335.95,54.896885,9.784269,54.895069,9.793790
1386832899,0,0,545.9,0,0,0,0,409,425,-0.0292,185.4922,6.8213,0.4212,54.897758,9.795010,108.3,5.845,1.85,335.95,54.896885,9.784269,54.895069,9.793790
1386832900,0,0,545.9,0,0,0,0,409,425,-0.0292,185.4922,6.8213,0.4212,54.897758,9.795010,108.3,5.845,1.85,335.95,54.896885,9.784269,54.895069,9.793790
1386832900,0,0,545.9,0,0,0,0,409,425,-0.0292,185.4922,6.8213,0.4212,54.897758,9.795010,108.3,5.845,1.85,335.95,54.896885,9.784269,54.895069,9.793790
1386832900,0,0,545.9,0,0,0,0,409,425,-0.0292,185.4922,6.8213,0.4212,54.897758,9.795010,108.3,5.845,1.85,335.95,54.896885,9.784269,54.895069,9.793790
1386832900,0,0,545.9,0,0,0,0,409,425,-0.0292,185.4922,6.8213,0.4212,54.897758,9.795010,108.3,5.845,1.85,335.95,54.896885,9.784269,54.895069,9.793790
1386832901,0,0,545.9,0,0,0,0,409,425,-0.0292,185.4922,6.8213,0.4212,54.897758,9.795010,108.3,5.845,1.85,335.95,54.896885,9.784269,54.895069,9.793790
1386832901,0,0,545.9,0,0,0,0,409,425,-0.0292,185.4922,6.8213,0.4212,54.897758,9.795010,108.3,5.845,1.85,335.95,54.896885,9.784269,54.895069,9.793790
1386832901,0,0,545.9,0,0,0,0,409,425,-0.0292,185.4922,6.8213,0.4212,54.897758,9.795010,108.3,5.845,1.85,335.95,54.896885,9.784269,54.895069,9.793790
1386832901,0,0,545.9,0,0,0,0,409,425,-0.0292,185.4922,6.8213,0.4212,54.897758,9.795010,108.3,5.845,1.85,335.95,54.896885,9.784269,54.895069,9.793790
1386832902,0,0,545.9,0,0,0,0,409,425,-0.0292,185.4922,6.8213,0.4212,54.897758,9.795010,108.3,5.845,1.85,335.95,54.896885,9.784269,54.895069,9.793790
1386832902,0,0,545.9,0,0,0,0,409,425,-0.0292,185.4922,6.8213,0.4212,54.897758,9.795010,108.3,5.845,1.85,335.95,54.896885,9.784269,54.895069,9.793790
1386832902,0,0,545.9,0,0,0,0,409,425,-0.0292,185.4922,6.8213,0.4212,54.897758,9.795010,108.3,5.845,1.85,335.95,54.896885,9.784269,54.895069,9.793790
1386832902,0,0,545.9,0,0,0,0,409,425,-0.0292,185.4922,6.8213,0.4212,54.897758,9.795010,108.3,5.845,1.85,335.95,54.896885,9.784269,54.895069,9.793790
1386832903,0,0,545.9,0,0,0,0,409,425,-0.0292,185.4922,6.8213,0.4212,54.897758,9.795010,108.3,5.845,1.85,335.95,54.896885,9.784269,54.895069,9.793790
1386832903,0,0,545.9,0,0,0,0,409,425,-0.0292,185.4922,6.8213,0.4212,54.897758,9.795010,108.3,5.845,1.85,335.95,54.896885,9.784269,54.895069,9.793790
1386832903,0,0,545.9,0,0,0,0,409,425,-0.0292,185.4922,6.8213,0.4212,54.897758,9.795010,108.3,5.845,1.85,335.95,54.896885,9.784269,54.895069,9.793790
1386832903,0,0,545.9,0,0,0,0,409,425,-0.0292,185.4922,6.8213,0.4212,54.897758,9.795010,108.3,5.845,1.85,335.95,54.896885,9.784269,54.895069,9.793790
1386832904,0,0,545.9,0,0,0,0,409,425,-0.0292,185.4922,6.8213,0.4212,54.897758,9.795010,108.3,5.845,1.85,335.95,54.896885,9.784269,54.895069,9.793790
1386832904,0,0,545.9,0,0,0,0,409,425,-0.0292,185.4922,6.8213,0.4212,54.897758,9.795010,108.3,5.845,1.85,335.95,54.896885,9.784269,54.895069,9.793790
1386832904,0,0,545.9,0,0,0,0,409,425,-0.0292,185.4922,6.8213,0.4212,54.897758,9.795010,108.3,5.845,1.85,335.95,54.896885,9.784269,54.895069,9.793790
1386832904,0,0,545.9,0,0,0,0,409,425,-0.0292,185.4922,6.8213,0.4212,54.897758,9.795010,108.3,5.845,1.85,335.95,54.896885,9.784269,54.895069,9.793790
1386832905,0,0,545.9,0,0,0,0,409,425,-0.0292,185.4922,6.8213,0.4212,54.897758,9.795010,108.3,5.845,1.85,335.95,54.896885,9.784269,54.895069,9.793790
1386832905,0,0,545.9,0,0,0,0,409,425,-0.0292,185.4922,6.8213,0.4212,54.897758,9.795010,108.3,5.845,1.85,335.95,54.896885,9.784269,54.895069,9.793790
1386832905,0,0,545.9,0,0,0,0,409,425,-0.0292,185.4922,6.8213,0.4212,54.897758,9.795010,108.3,5.845,1.85,335.95,54.896885,9.784269,54.895069,9.793790
1386832905,0,0,545.9,0,0,0,0,409,425,-0.0292,185.4922,6.8213,0.4212,54.897758,9.795010,108.3,5.845,1.85,335.95,54.896885,9.784269,54.895069,9.793790
1386832906,0,0,545.9,0,0,0,0,409,425,-0.0292,185.4922,6.8213,0.4212,54.897758,9.795010,108.3,5.845,1.85,335.95,54.896885,9.784269,54.895069,9.793790
1386832906,0,0,545.9,0,0,0,0,409,425,-0.0292,185.4922,6.8213,0.4212,54.897758,9.795010,108.3,5.845,1.85,335.95,54.896885,9.784269,54.895069,9.793790
1386832906,0,0,545.9,0,0,0,0,409,425,-0.0292,185.4922,6.8213,0.4212,54.897758,9.795010,108.3,5.845,1.85,335.95,54.896885,9.784269,54.895069,9.793790
1386832906,0,0,545.9,0,0,0,0,409,425,-0.0292,185.4922,6.8213,0.4212,54.897758,9.795010,108.3,5.845,1.85,335.95,54.896885,9.784269,54.895069,9.793790
1386832907,0,0,545.9,0,0,0,0,409,425,-0.0292,185.4922,6.8213,0.4212,54.897758,9.795010,108.3,5.845,1.85,335.95,54.896885,9.784269,54.895069,9.793790
1386832907,0,0,545.9,0,0,0,0,409,425,-0.0292,185.4922,6.8213,0.4212,54.897758,9.795010,108.3,5.845,1.85,335.95,54.896885,9.784269,54.895069,9.793790
1386832907,0,0,545.9,0,0,0,0,409,425,-0.0292,185.4922,6.8213,0.4212,54.897758,9.795010,108.3,5.845,1.85,335.95,54.896885,9.784269,54.895069,9.793790
1386832907,0,0,545.9,0,0,0,0,409,425,-0.0292,185.4922,6.8213,0.4212,54.897758,9.795010,108.3,5.845,1.85,335.95,54.896885,9.784269,54.895069,9.793790
1386832908,0,0,545.9,0,0,0,0,409,425,-0.0292,185.4922,6.8213,0.4212,54.897758,9.795010,108.3,5.845,1.85,335.95,54.896885,9.784269,54.895069,9.793790
1386832908,0,0,545.9,0,0,0,0,409,425,-0.0292,185.4922,6.8213,0.4212,54.897758,9.795010,108.3,5.845,1.85,335.95,54.896885,9.784269,54.895069,9.793790
1386832908,0,0,545.9,0,0,0,0,409,425,-0.0292,185.4922,6.8213,0.4212,54.897758,9.795010,108.3,5.845,1.85,335.95,54.896885,9.784269,54.895069,9.793790
1386832908,0,0,545.9,0,0,0,0,409,425,-0.0292,185.4922,6.8213,0.4212,54.897758,9.795010,108.3,5.845,1.85,335.95,54.896885,9.784269,54.895069,9.793790
1386832909,0,0,545.9,0,0,0,0,409,425,-0.0292,185.4922,6.8213,0.4212,54.897758,9.795010,108.3,5.845,1.85,335.95,54.896885,9.784269,54.895069,9.793790
1386832909,0,0,545.9,0,0,0,0,409,425,-0.0292,185.4922,6.8213,0.4212,54.897758,9.795010,108.3,5.845,1.85,335.95,54.896885,9.784269,54.895069,9.793790
1386832909,0,0,545.9,0,0,0,0,409,425,-0.0292,185.4922,6.8213,0.4212,54.897758,9.795010,108.3,5.845,1.85,335.95,54.896885,9.784269,54.895069,9.793790
1386832909,0,0,545.9,0,0,0,0,409,425,-0.0292,185.4922,6.8213,0.4212,54.897758,9.795010,108.3,5.845,1.85,335.95,54.896885,9.784269,54.895069,9.793790
1386832910,0,0,545.9,0,0,0,0,409,425,-0.0292,185.4922,6.8213,0.4212,54.897758,9.795010,108.3,5.845,1.85,335.95,54.896885,9.784269,54.895069,9.793790
1386832910,0,0,545.9,0,0,0,0,409,425,-0.0292,185.4922,6.8213,0.4212,54.897758,9.795010,108.3,5.845,1.85,335.95,54.896885,9.784269,54.895069,9.793790
1386832910,0,0,545.9,0,0,0,0,409,425,-0.0292,185.4922,6.8213,0.4212,54.897758,9.795010,108.3,5.845,1.85,335.95,54.896885,9.784269,54.895069,9.793790
1386832910,0,0,545.9,0,0,0,0,409,425,-0.0292,185.4922,6.8213,0.4212,54.897758,9.795010,108.3,5.845,1.85,335.95,54.896885,9.784269,54.895069,9.793790
1386832911,0,0,545.9,0,0,0,0,409,425,-0.0292,185.4922,6.8213,0.4212,54.897758,9.795010,108.3,5.845,1.85,335.95,54.896885,9.784269,54.895069,9.793790
1386832911,0,0,545.9,0,0,0,0,409,425,-0.0292,185.4922,6.8213,0.4212,54.897758,9.795010,108.3,5.845,1.85,335.95,54.896885,9.784269,54.895069,9.793790
1386832911,0,0,545.9,0,0,0,0,409,425,-0.0292,185.4922,6.8213,0.4212,54.897758,9.795010,108.3,5.845,1.85,335.95,54.896885,9.784269,54.895069,9.793790
1386832911,0,0,545.9,0,0,0,0,409,425,-0.0292,185.4922,6.8213,0.4212,54.897758,9.795010,108.3,5.845,1.85,335.95,54.896885,9.784269,54.895069,9.793790
1386832912,0,0,545.9,0,0,0,0,409,425,-0.0292,185.4922,6.8213,0.4212,54.897758,9.795010,108.3,5.845,1.85,335.95,54.896885,9.784269,54.895069,9.793790
1386832912,0,0,545.9,0,0,0,0,409,425,-0.0292,185.4922,6.8213,0.4212,54.897758,9.795010,108.3,5.845,1.85,335.95,54.896885,9.784269,54.895069,9.793790
1386832912,0,0,545.9,0,0,0,0,409,425,-0.0292,185.4922,6.8213,0.4212,54.897758,9.795010,108.3,5.845,1.85,335.95,54.896885,9.784269,54.895069,9.793790
1386832912,0,0,545.9,0,0,0,0,409,425,-0.0292,185.4922,6.8213,0.4212,54.897758,9.795010,108.3,5.845,1.85,335.95,54.896885,9.784269,54.895069,9.793790
1386832913,0,0,545.9,0,0,0,0,409,425,-0.0292,185.4922,6.8213,0.4212,54.897758,9.795010,108.3,5.845,1.85,335.95,54.896885,9.784269,54.895069,9.793790
1386832913,0,0,545.9,0,0,0,0,409,425,-0.0292,185.4922,6.8213,0.4212,54.897758,9.795010,108.3,5.845,1.85,335.95,54.896885,9.784269,54.895069,9.793790
1386832913,0,0,545.9,0,0,0,0,409,425,-0.0292,185.4922,6.8213,0.4212,54.897758,9.795010,108.3,5.845,1.85,335.95,54.896885,9.784269,54.895069,9.793790
