MCU_timestamp,Navigation_System,Manual_Control,Guidance_Heading,Manual_Ctrl_Rudder,Rudder_Desired_Angle,Rudder_Feedback,Manual_Ctrl_Sail,Sail_Desired_Pos,Sail_Feedback,Rate,Heading,Pitch,Roll,Latitude,Longitude,COG,SOG,Wind_Speed,Wind_Angle,Point_Start_Lat,Point_Start_Lon,Point_End_Lat,Point_End_Lon
1390066186,3,0,0.0,0,-35,-4,0,870,850,-0.0292,111.9591,6.8213,0.4212,54.891499,9.801956,108.3,5.845,1.85,335.95,0.000000,0.000000,54.891502,9.801931
1390066186,3,0,0.0,0,-35,-8,0,713,800,-0.0292,123.6258,6.8213,0.4212,54.891491,9.801979,108.3,5.845,1.85,335.95,0.000000,0.000000,54.891502,9.801931
1390066187,3,0,0.0,0,-35,-12,0,713,750,-0.0292,135.2924,6.8213,0.4212,54.891479,9.801999,108.3,5.845,1.85,335.95,0.000000,0.000000,54.891502,9.801931
1390066187,3,0,0.0,0,-35,-16,0,713,700,-0.0292,146.9591,6.8213,0.4212,54.891464,9.802015,108.3,5.845,1.85,335.95,0.000000,0.000000,54.891502,9.801931
1390066187,3,0,0.0,0,-23,-20,0,0,650,-0.0292,154.6258,6.8213,0.4212,54.891449,9.802029,108.3,5.845,1.85,335.95,0.000000,0.000000,54.891502,9.801931
1390066187,3,0,0.0,0,-15,-16,0,0,600,-0.0292,159.6258,6.8213,0.4212,54.891434,9.802039,108.3,5.845,1.85,335.95,0.000000,0.000000,54.891502,9.801931
1390066188,3,0,0.0,0,-10,-12,0,0,550,-0.0292,162.9591,6.8213,0.4212,54.891415,9.802048,108.3,5.845,1.85,335.95,0.000000,0.000000,54.891502,9.801931
1390066188,3,0,0.0,0,-7,-8,0,0,500,-0.0292,165.2924,6.8213,0.4212,54.891396,9.802055,108.3,5.845,1.85,335.95,0.000000,0.000000,54.891502,9.801931
1390066188,3,0,0.0,0,-5,-4,0,0,450,-0.0292,166.9591,6.8213,0.4212,54.891380,9.802063,108.3,5.845,1.85,335.95,0.000000,0.000000,54.891502,9.801931
1390066188,3,0,0.0,0,-3,0,0,713,500,-0.0292,167.9591,6.8213,0.4212,54.891361,9.802069,108.3,5.845,1.85,335.95,0.000000,0.000000,54.891502,9.801931
1390066189,3,0,0.0,0,-2,-4,0,713,550,-0.0292,168.6258,6.8213,0.4212,54.891342,9.802074,108.3,5.845,1.85,335.95,0.000000,0.000000,54.891502,9.801931
1390066189,3,0,0.0,0,-1,0,0,713,600,-0.0292,168.9591,6.8213,0.4212,54.891323,9.802080,108.3,5.845,1.85,335.95,0.000000,0.000000,54.891502,9.801931
1390066189,3,0,0.0,0,-1,-4,0,713,650,-0.0292,169.2924,6.8213,0.4212,54.891308,9.802086,108.3,5.845,1.85,335.95,0.000000,0.000000,54.891502,9.801931
1390066189,3,0,0.0,0,-1,0,0,713,700,-0.0292,169.6258,6.8213,0.4212,54.891289,9.802092,108.3,5.845,1.85,335.95,0.000000,0.000000,54.891502,9.801931
1390066190,3,0,0.0,0,0,4,0,713,750,-0.0292,169.6258,6.8213,0.4212,54.891270,9.802097,108.3,5.845,1.85,335.95,0.000000,0.000000,54.891502,9.801931
1390066190,3,0,0.0,0,0,0,0,713,700,-0.0292,169.6258,6.8213,0.4212,54.891251,9.802103,108.3,5.845,1.85,335.95,0.000000,0.000000,54.891502,9.801931
1390066190,3,0,0.0,0,0,4,0,713,750,-0.0292,169.6258,6.8213,0.4212,54.891235,9.802109,108.3,5.845,1.85,335.95,0.000000,0.000000,54.891502,9.801931
1390066190,3,0,0.0,0,0,0,0,713,700,-0.0292,169.6258,6.8213,0.4212,54.891216,9.802114,108.3,5.845,1.85,335.95,0.000000,0.000000,54.891502,9.801931
1390066191,3,0,0.0,0,0,4,0,713,750,-0.0292,169.6258,6.8213,0.4212,54.891197,9.802119,108.3,5.845,1.85,335.95,0.000000,0.000000,54.891502,9.801931
1390066191,3,0,0.0,0,0,0,0,713,700,-0.0292,169.6258,6.8213,0.4212,54.891178,9.802125,108.3,5.845,1.85,335.95,0.000000,0.000000,54.891502,9.801931
1390066191,3,0,0.0,0,0,4,0,713,750,-0.0292,169.6258,6.8213,0.4212,54.891163,9.802131,108.3,5.845,1.85,335.95,0.000000,0.000000,54.891502,9.801931
1390066191,3,0,0.0,0,10,8,0,713,700,-0.0292,166.2924,6.8213,0.4212,54.891144,9.802138,108.3,5.845,1.85,335.95,0.000000,0.000000,54.891502,9.801931
1390066192,3,0,0.0,0,6,4,0,713,750,-0.0292,164.2924,6.8213,0.4212,54.891125,9.802147,108.3,5.845,1.85,335.95,0.000000,0.000000,54.891502,9.801931
1390066192,3,0,0.0,0,4,8,0,0,700,-0.0292,162.9591,6.8213,0.4212,54.891109,9.802156,108.3,5.845,1.85,335.95,0.000000,0.000000,54.891502,9.801931
1390066192,3,0,0.0,0,3,4,0,0,650,-0.0292,161.9591,6.8213,0.4212,54.891090,9.802166,108.3,5.845,1.85,335.95,0.000000,0.000000,54.891502,9.801931
1390066192,3,0,0.0,0,2,0,0,0,600,-0.0292,161.2924,6.8213,0.4212,54.891071,9.802176,108.3,5.845,1.85,335.95,0.000000,0.000000,54.891502,9.801931
1390066193,3,0,0.0,0,1,4,0,0,550,-0.0292,160.9591,6.8213,0.4212,54.891056,9.802186,108.3,5.845,1.85,335.95,0.000000,0.000000,54.891502,9.801931
1390066193,3,0,0.0,0,1,0,0,0,500,-0.0292,160.6258,6.8213,0.4212,54.891041,9.802197,108.3,5.845,1.85,335.95,0.000000,0.000000,54.891502,9.801931
1390066193,3,0,0.0,0,1,4,0,0,450,-0.0292,160.2925,6.8213,0.4212,54.891022,9.802207,108.3,5.845,1.85,335.95,0.000000,0.000000,54.891502,9.801931
1390066193,3,0,0.0,0,0,0,0,0,400,-0.0292,160.2925,6.8213,0.4212,54.891006,9.802217,108.3,5.845,1.85,335.95,0.000000,0.000000,54.891502,9.801931
1390066194,3,0,0.0,0,0,4,0,0,350,-0.0292,160.2925,6.8213,0.4212,54.890991,9.802228,108.3,5.845,1.85,335.95,0.000000,0.000000,54.891502,9.801931
1390066194,3,0,0.0,0,0,0,0,0,300,-0.0292,160.2925,6.8213,0.4212,54.890972,9.802238,108.3,5.845,1.85,335.95,0.000000,0.000000,54.891502,9.801931
1390066194,3,0,0.0,0,0,4,0,0,250,-0.0292,160.2925,6.8213,0.4212,54.890957,9.802248,108.3,5.845,1.85,335.95,0.000000,0.000000,54.891502,9.801931
1390066194,3,0,0.0,0,0,0,0,0,200,-0.0292,160.2925,6.8213,0.4212,54.890942,9.802258,108.3,5.845,1.85,335.95,0.000000,0.000000,54.891502,9.801931
1390066195,3,0,0.0,0,0,4,0,0,150,-0.0292,160.2925,6.8213,0.4212,54.890923,9.802269,108.3,5.845,1.85,335.95,0.000000,0.000000,54.891502,9.801931
1390066195,3,0,0.0,0,0,0,0,0,100,-0.0292,160.2925,6.8213,0.4212,54.890907,9.802279,108.3,5.845,1.85,335.95,0.000000,0.000000,54.891502,9.801931
1390066195,3,0,0.0,0,0,4,0,0,50,-0.0292,160.2925,6.8213,0.4212,54.890892,9.802289,108.3,5.845,1.85,335.95,0.000000,0.000000,54.891502,9.801931
1390066195,3,0,0.0,0,0,0,0,0,0,-0.0292,160.2925,6.8213,0.4212,54.890873,9.802299,108.3,5.845,1.85,335.95,0.000000,0.000000,54.891502,9.801931
1390066196,3,0,0.0,0,0,4,0,0,0,-0.0292,160.2925,6.8213,0.4212,54.890854,9.802310,108.3,5.845,1.85,335.95,0.000000,0.000000,54.891502,9.801931
1390066196,3,0,0.0,0,0,0,0,0,0,-0.0292,160.2925,6.8213,0.4212,54.890839,9.802320,108.3,5.845,1.85,335.95,0.000000,0.000000,54.891502,9.801931
1390066196,3,0,0.0,0,0,4,0,0,0,-0.0292,160.2925,6.8213,0.4212,54.890823,9.802330,108.3,5.845,1.85,335.95,0.000000,0.000000,54.891502,9.801931
1390066196,3,0,0.0,0,10,8,0,0,0,-0.0292,156.9591,6.8213,0.4212,54.890808,9.802341,108.3,5.845,1.85,335.95,0.000000,0.000000,54.891502,9.801931
1390066197,3,0,0.0,0,7,4,0,0,0,-0.0292,154.6258,6.8213,0.4212,54.890793,9.802355,108.3,5.845,1.85,335.95,0.000000,0.000000,54.891502,9.801931
1390066197,3,0,0.0,0,5,8,0,0,0,-0.0292,152.9591,6.8213,0.4212,54.890774,9.802369,108.3,5.845,1.85,335.95,0.000000,0.000000,54.891502,9.801931
1390066197,3,0,0.0,0,3,4,0,0,0,-0.0292,151.9591,6.8213,0.4212,54.890759,9.802383,108.3,5.845,1.85,335.95,0.000000,0.000000,54.891502,9.801931
1390066197,3,0,0.0,0,2,0,0,0,0,-0.0292,151.2925,6.8213,0.4212,54.890743,9.802398,108.3,5.845,1.85,335.95,0.000000,0.000000,54.891502,9.801931
1390066198,3,0,0.0,0,1,4,0,0,0,-0.0292,150.9591,6.8213,0.4212,54.890728,9.802413,108.3,5.845,1.85,335.95,0.000000,0.000000,54.891502,9.801931
1390066198,3,0,0.0,0,1,0,0,0,0,-0.0292,150.6258,6.8213,0.4212,54.890713,9.802427,108.3,5.845,1.85,335.95,0.000000,0.000000,54.891502,9.801931
1390066198,3,0,0.0,0,1,4,0,0,0,-0.0292,150.2925,6.8213,0.4212,54.890697,9.802443,108.3,5.845,1.85,335.95,0.000000,0.000000,54.891502,9.801931
1390066198,3,0,0.0,0,0,0,0,0,0,-0.0292,150.2925,6.8213,0.4212,54.890682,9.802458,108.3,5.845,1.85,335.95,0.000000,0.000000,54.891502,9.801931
1390066199,3,0,0.0,0,0,4,0,0,0,-0.0292,150.2925,6.8213,0.4212,54.890667,9.802472,108.3,5.845,1.85,335.95,0.000000,0.000000,54.891502,9.801931
1390066199,3,0,0.0,0,0,0,0,0,0,-0.0292,150.2925,6.8213,0.4212,54.890648,9.802487,108.3,5.845,1.85,335.95,0.000000,0.000000,54.891502,9.801931
1390066199,3,0,0.0,0,0,4,0,0,0,-0.0292,150.2925,6.8213,0.4212,54.890633,9.802503,108.3,5.845,1.85,335.95,0.000000,0.000000,54.891502,9.801931
1390066199,3,0,0.0,0,0,0,0,0,0,-0.0292,150.2925,6.8213,0.4212,54.890617,9.802518,108.3,5.845,1.85,335.95,0.000000,0.000000,54.891502,9.801931
1390066200,3,0,0.0,0,0,4,0,0,0,-0.0292,150.2925,6.8213,0.4212,54.890598,9.802533,108.3,5.845,1.85,335.95,0.000000,0.000000,54.891502,9.801931
1390066200,3,0,0.0,0,0,0,0,0,0,-0.0292,150.2925,6.8213,0.4212,54.890583,9.802548,108.3,5.845,1.85,335.95,0.000000,0.000000,54.891502,9.801931
1390066200,3,0,0.0,0,0,4,0,0,0,-0.0292,150.2925,6.8213,0.4212,54.890568,9.802564,108.3,5.845,1.85,335.95,0.000000,0.000000,54.891502,9.801931
1390066201,3,0,0.0,0,0,0,0,0,0,-0.0292,150.2925,6.8213,0.4212,54.890556,9.802579,108.3,5.845,1.85,335.95,0.000000,0.000000,54.891502,9.801931
1390066201,3,0,0.0,0,0,4,0,0,0,-0.0292,150.2925,6.8213,0.4212,54.890541,9.802593,108.3,5.845,1.85,335.95,0.000000,0.000000,54.891502,9.801931
1390066201,3,0,0.0,0,0,0,0,0,0,-0.0292,150.2925,6.8213,0.4212,54.890526,9.802608,108.3,5.845,1.85,335.95,0.000000,0.000000,54.891502,9.801931
1390066201,3,0,0.0,0,0,4,0,0,0,-0.0292,150.2925,6.8213,0.4212,54.890511,9.802624,108.3,5.845,1.85,335.95,0.000000,0.000000,54.891502,9.801931
1390066202,3,0,0.0,0,10,8,0,0,0,-0.0292,146.9592,6.8213,0.4212,54.890495,9.802640,108.3,5.845,1.85,335.95,0.000000,0.000000,54.891502,9.801931
1390066202,3,0,0.0,0,7,4,0,0,0,-0.0292,144.6258,6.8213,0.4212,54.890480,9.802657,108.3,5.845,1.85,335.95,0.000000,0.000000,54.891502,9.801931
1390066202,3,0,0.0,0,5,8,0,713,50,-0.0292,142.9592,6.8213,0.4212,54.890465,9.802675,108.3,5.845,1.85,335.95,0.000000,0.000000,54.891502,9.801931
1390066202,3,0,0.0,0,3,4,0,713,100,-0.0292,141.9592,6.8213,0.4212,54.890453,9.802693,108.3,5.845,1.85,335.95,0.000000,0.000000,54.891502,9.801931
1390066203,3,0,0.0,0,2,0,0,713,150,-0.0292,141.2925,6.8213,0.4212,54.890438,9.802712,108.3,5.845,1.85,335.95,0.000000,0.000000,54.891502,9.801931
1390066203,3,0,0.0,0,1,4,0,713,200,-0.0292,140.9592,6.8213,0.4212,54.890427,9.802731,108.3,5.845,1.85,335.95,0.000000,0.000000,54.891502,9.801931
1390066203,3,0,0.0,0,1,0,0,713,250,-0.0292,140.6258,6.8213,0.4212,54.890411,9.802750,108.3,5.845,1.85,335.95,0.000000,0.000000,54.891502,9.801931
1390066203,3,0,0.0,0,1,4,0,713,300,-0.0292,140.2925,6.8213,0.4212,54.890400,9.802768,108.3,5.845,1.85,335.95,0.000000,0.000000,54.891502,9.801931
1390066204,3,0,0.0,0,0,0,0,713,350,-0.0292,140.2925,6.8213,0.4212,54.890385,9.802787,108.3,5.845,1.85,335.95,0.000000,0.000000,54.891502,9.801931
1390066204,3,0,0.0,0,0,4,0,713,400,-0.0292,140.2925,6.8213,0.4212,54.890373,9.802806,108.3,5.845,1.85,335.95,0.000000,0.000000,54.891502,9.801931
1390066204,3,0,0.0,0,0,0,0,713,450,-0.0292,140.2925,6.8213,0.4212,54.890358,9.802825,108.3,5.845,1.85,335.95,0.000000,0.000000,54.891502,9.801931
1390066204,3,0,0.0,0,0,4,0,713,500,-0.0292,140.2925,6.8213,0.4212,54.890343,9.802844,108.3,5.845,1.85,335.95,0.000000,0.000000,54.891502,9.801931
1390066205,3,0,0.0,0,0,0,0,713,550,-0.0292,140.2925,6.8213,0.4212,54.890331,9.802863,108.3,5.845,1.85,335.95,0.000000,0.000000,54.891502,9.801931
1390066205,3,0,0.0,0,0,4,0,713,600,-0.0292,140.2925,6.8213,0.4212,54.890316,9.802882,108.3,5.845,1.85,335.95,0.000000,0.000000,54.891502,9.801931
1390066205,3,0,0.0,0,0,0,0,713,650,-0.0292,140.2925,6.8213,0.4212,54.890305,9.802900,108.3,5.845,1.85,335.95,0.000000,0.000000,54.891502,9.801931
1390066205,3,0,0.0,0,0,4,0,713,700,-0.0292,140.2925,6.8213,0.4212,54.890289,9.802919,108.3,5.845,1.85,335.95,0.000000,0.000000,54.891502,9.801931
1390066206,3,0,0.0,0,0,0,0,713,750,-0.0292,140.2925,6.8213,0.4212,54.890278,9.802938,108.3,5.845,1.85,335.95,0.000000,0.000000,54.891502,9.801931
1390066206,3,0,0.0,0,0,4,0,713,700,-0.0292,140.2925,6.8213,0.4212,54.890263,9.802957,108.3,5.845,1.85,335.95,0.000000,0.000000,54.891502,9.801931
1390066206,3,0,0.0,0,0,0,0,713,750,-0.0292,140.2925,6.8213,0.4212,54.890251,9.802976,108.3,5.845,1.85,335.95,0.000000,0.000000,54.891502,9.801931
1390066206,3,0,0.0,0,0,4,0,713,700,-0.0292,140.2925,6.8213,0.4212,54.890236,9.802995,108.3,5.845,1.85,335.95,0.000000,0.000000,54.891502,9.801931
1390066207,3,0,0.0,0,10,8,0,713,750,-0.0292,136.9592,6.8213,0.4212,54.890224,9.803015,108.3,5.845,1.85,335.95,0.000000,0.000000,54.891502,9.801931
1390066207,3,0,0.0,0,7,4,0,713,700,-0.0292,134.6258,6.8213,0.4212,54.890209,9.803035,108.3,5.845,1.85,335.95,0.000000,0.000000,54.891502,9.801931
1390066207,3,0,0.0,0,5,8,0,713,750,-0.0292,132.9592,6.8213,0.4212,54.890198,9.803056,108.3,5.845,1.85,335.95,0.000000,0.000000,54.891502,9.801931
1390066207,3,0,0.0,0,3,4,0,713,700,-0.0292,131.9592,6.8213,0.4212,54.890190,9.803077,108.3,5.845,1.85,335.95,0.000000,0.000000,54.891502,9.801931
1390066208,3,0,0.0,0,2,0,0,713,750,-0.0292,131.2925,6.8213,0.4212,54.890179,9.803099,108.3,5.845,1.85,335.95,0.000000,0.000000,54.891502,9.801931
1390066208,3,0,0.0,0,1,4,0,713,700,-0.0292,130.9592,6.8213,0.4212,54.890167,9.803120,108.3,5.845,1.85,335.95,0.000000,0.000000,54.891502,9.801931
1390066208,3,0,0.0,0,1,0,0,713,750,-0.0292,130.6258,6.8213,0.4212,54.890156,9.803142,108.3,5.845,1.85,335.95,0.000000,0.000000,54.891502,9.801931
1390066208,3,0,0.0,0,1,4,0,713,700,-0.0292,130.2925,6.8213,0.4212,54.890144,9.803164,108.3,5.845,1.85,335.95,0.000000,0.000000,54.891502,9.801931
1390066209,3,0,0.0,0,0,0,0,713,750,-0.0292,130.2925,6.8213,0.4212,54.890137,9.803185,108.3,5.845,1.85,335.95,0.000000,0.000000,54.891502,9.801931
1390066209,3,0,0.0,0,0,4,0,713,700,-0.0292,130.2925,6.8213,0.4212,54.890125,9.803207,108.3,5.845,1.85,335.95,0.000000,0.000000,54.891502,9.801931
1390066209,3,0,0.0,0,0,0,0,713,750,-0.0292,130.2925,6.8213,0.4212,54.890118,9.803229,108.3,5.845,1.85,335.95,0.000000,0.000000,54.891502,9.801931
1390066209,3,0,0.0,0,0,4,0,713,700,-0.0292,130.2925,6.8213,0.4212,54.890106,9.803251,108.3,5.845,1.85,335.95,0.000000,0.000000,54.891502,9.801931
1390066210,3,0,0.0,0,0,0,0,713,750,-0.0292,130.2925,6.8213,0.4212,54.890095,9.803273,108.3,5.845,1.85,335.95,0.000000,0.000000,54.891502,9.801931
1390066210,3,0,0.0,0,0,4,0,713,700,-0.0292,130.2925,6.8213,0.4212,54.890083,9.803295,108.3,5.845,1.85,335.95,0.000000,0.000000,54.891502,9.801931
1390066210,3,0,0.0,0,0,0,0,713,750,-0.0292,130.2925,6.8213,0.4212,54.890072,9.803317,108.3,5.845,1.85,335.95,0.000000,0.000000,54.891502,9.801931
1390066210,3,0,0.0,0,0,4,0,713,700,-0.0292,130.2925,6.8213,0.4212,54.890064,9.803339,108.3,5.845,1.85,335.95,0.000000,0.000000,54.891502,9.801931
1390066211,3,0,0.0,0,0,0,0,713,750,-0.0292,130.2925,6.8213,0.4212,54.890053,9.803361,108.3,5.845,1.85,335.95,0.000000,0.000000,54.891502,9.801931
1390066211,3,0,0.0,0,0,4,0,713,700,-0.0292,130.2925,6.8213,0.4212,54.890041,9.803383,108.3,5.845,1.85,335.95,0.000000,0.000000,54.891502,9.801931
1390066211,3,0,0.0,0,0,0,0,713,750,-0.0292,130.2925,6.8213,0.4212,54.890030,9.803405,108.3,5.845,1.85,335.95,0.000000,0.000000,54.891502,9.801931
1390066211,3,0,0.0,0,0,4,0,713,700,-0.0292,130.2925,6.8213,0.4212,54.890018,9.803427,108.3,5.845,1.85,335.95,0.000000,0.000000,54.891502,9.801931
1390066212,3,0,0.0,0,10,8,0,713,750,-0.0292,126.9592,6.8213,0.4212,54.890011,9.803450,108.3,5.845,1.85,335.95,0.000000,0.000000,54.891502,9.801931
1390066212,3,0,0.0,0,7,4,0,713,700,-0.0292,124.6258,6.8213,0.4212,54.889999,9.803473,108.3,5.845,1.85,335.95,0.000000,0.000000,54.891502,9.801931
1390066212,3,0,0.0,0,5,8,0,713,750,-0.0292,122.9592,6.8213,0.4212,54.889992,9.803496,108.3,5.845,1.85,335.95,0.000000,0.000000,54.891502,9.801931
1390066212,3,0,0.0,0,3,4,0,713,700,-0.0292,121.9592,6.8213,0.4212,54.889984,9.803520,108.3,5.845,1.85,335.95,0.000000,0.000000,54.891502,9.801931
1390066213,3,0,0.0,0,2,0,0,713,750,-0.0292,121.2925,6.8213,0.4212,54.889977,9.803543,108.3,5.845,1.85,335.95,0.000000,0.000000,54.891502,9.801931
1390066213,3,0,0.0,0,1,4,0,713,700,-0.0292,120.9592,6.8213,0.4212,54.889969,9.803567,108.3,5.845,1.85,335.95,0.000000,0.000000,54.891502,9.801931
1390066213,3,0,0.0,0,1,0,0,713,750,-0.0292,120.6258,6.8213,0.4212,54.889961,9.803591,108.3,5.845,1.85,335.95,0.000000,0.000000,54.891502,9.801931
1390066213,3,0,0.0,0,1,4,0,713,700,-0.0292,120.2925,6.8213,0.4212,54.889954,9.803615,108.3,5.845,1.85,335.95,0.000000,0.000000,54.891502,9.801931
1390066214,3,0,0.0,0,0,0,0,713,750,-0.0292,120.2925,6.8213,0.4212,54.889942,9.803638,108.3,5.845,1.85,335.95,0.000000,0.000000,54.891502,9.801931
1390066214,3,0,0.0,0,0,4,0,713,700,-0.0292,120.2925,6.8213,0.4212,54.889935,9.803662,108.3,5.845,1.85,335.95,0.000000,0.000000,54.891502,9.801931
1390066214,3,0,0.0,0,0,0,0,713,750,-0.0292,120.2925,6.8213,0.4212,54.889927,9.803686,108.3,5.845,1.85,335.95,0.000000,0.000000,54.891502,9.801931
1390066214,3,0,0.0,0,0,4,0,713,700,-0.0292,120.2925,6.8213,0.4212,54.889919,9.803710,108.3,5.845,1.85,335.95,0.000000,0.000000,54.891502,9.801931
1390066215,3,0,0.0,0,0,0,0,713,750,-0.0292,120.2925,6.8213,0.4212,54.889912,9.803734,108.3,5.845,1.85,335.95,0.000000,0.000000,54.891502,9.801931
1390066215,3,0,0.0,0,0,4,0,713,700,-0.0292,120.2925,6.8213,0.4212,54.889904,9.803757,108.3,5.845,1.85,335.95,0.000000,0.000000,54.891502,9.801931
1390066215,3,0,0.0,0,0,0,0,713,750,-0.0292,120.2925,6.8213,0.4212,54.889896,9.803781,108.3,5.845,1.85,335.95,0.000000,0.000000,54.891502,9.801931
1390066215,3,0,0.0,0,0,4,0,713,700,-0.0292,120.2925,6.8213,0.4212,54.889889,9.803804,108.3,5.845,1.85,335.95,0.000000,0.000000,54.891502,9.801931
1390066216,3,0,0.0,0,0,0,0,713,750,-0.0292,120.2925,6.8213,0.4212,54.889881,9.803828,108.3,5.845,1.85,335.95,0.000000,0.000000,54.891502,9.801931
1390066216,3,0,0.0,0,0,4,0,713,700,-0.0292,120.2925,6.8213,0.4212,54.889870,9.803852,108.3,5.845,1.85,335.95,0.000000,0.000000,54.891502,9.801931
1390066216,3,0,0.0,0,0,0,0,713,750,-0.0292,120.2925,6.8213,0.4212,54.889862,9.803876,108.3,5.845,1.85,335.95,0.000000,0.000000,54.891502,9.801931
1390066216,3,0,0.0,0,0,4,0,713,700,-0.0292,120.2925,6.8213,0.4212,54.889854,9.803900,108.3,5.845,1.85,335.95,0.000000,0.000000,54.891502,9.801931
1390066217,3,0,0.0,0,10,8,0,713,750,-0.0292,116.9592,6.8213,0.4212,54.889851,9.803925,108.3,5.845,1.85,335.95,0.000000,0.000000,54.891502,9.801931
1390066217,3,0,0.0,0,7,4,0,713,700,-0.0292,114.6258,6.8213,0.4212,54.889847,9.803949,108.3,5.845,1.85,335.95,0.000000,0.000000,54.891502,9.801931
1390066217,3,0,0.0,0,5,8,0,713,750,-0.0292,112.9592,6.8213,0.4212,54.889843,9.803973,108.3,5.845,1.85,335.95,0.000000,0.000000,54.891502,9.801931
1390066217,3,0,0.0,0,3,4,0,713,700,-0.0292,111.9592,6.8213,0.4212,54.889839,9.803998,108.3,5.845,1.85,335.95,0.000000,0.000000,54.891502,9.801931
1390066218,3,0,0.0,0,2,0,0,713,750,-0.0292,111.2925,6.8213,0.4212,54.889832,9.804023,108.3,5.845,1.85,335.95,0.000000,0.000000,54.891502,9.801931
1390066218,3,0,0.0,0,1,4,0,713,700,-0.0292,110.9592,6.8213,0.4212,54.889824,9.804048,108.3,5.845,1.85,335.95,0.000000,0.000000,54.891502,9.801931
1390066218,3,0,0.0,0,1,0,0,713,750,-0.0292,110.6258,6.8213,0.4212,54.889820,9.804072,108.3,5.845,1.85,335.95,0.000000,0.000000,54.891502,9.801931
1390066218,3,0,0.0,0,1,4,0,870,800,-0.0292,110.2925,6.8213,0.4212,54.889816,9.804097,108.3,5.845,1.85,335.95,0.000000,0.000000,54.891502,9.801931
1390066219,3,0,0.0,0,0,0,0,870,850,-0.0292,110.2925,6.8213,0.4212,54.889812,9.804122,108.3,5.845,1.85,335.95,0.000000,0.000000,54.891502,9.801931
1390066219,3,0,0.0,0,0,4,0,870,900,-0.0292,110.2925,6.8213,0.4212,54.889805,9.804146,108.3,5.845,1.85,335.95,0.000000,0.000000,54.891502,9.801931
1390066219,3,0,0.0,0,0,0,0,870,850,-0.0292,110.2925,6.8213,0.4212,54.889801,9.804171,108.3,5.845,1.85,335.95,0.000000,0.000000,54.891502,9.801931
1390066219,3,0,0.0,0,0,4,0,870,900,-0.0292,110.2925,6.8213,0.4212,54.889797,9.804195,108.3,5.845,1.85,335.95,0.000000,0.000000,54.891502,9.801931
1390066220,3,0,0.0,0,0,0,0,870,850,-0.0292,110.2925,6.8213,0.4212,54.889793,9.804220,108.3,5.845,1.85,335.95,0.000000,0.000000,54.891502,9.801931
1390066220,3,0,0.0,0,0,4,0,870,900,-0.0292,110.2925,6.8213,0.4212,54.889790,9.804245,108.3,5.845,1.85,335.95,0.000000,0.000000,54.891502,9.801931
1390066220,3,0,0.0,0,0,0,0,870,850,-0.0292,110.2925,6.8213,0.4212,54.889782,9.804270,108.3,5.845,1.85,335.95,0.000000,0.000000,54.891502,9.801931
1390066220,3,0,0.0,0,0,4,0,870,900,-0.0292,110.2925,6.8213,0.4212,54.889774,9.804295,108.3,5.845,1.85,335.95,0.000000,0.000000,54.891502,9.801931
1390066221,3,0,0.0,0,0,0,0,870,850,-0.0292,110.2925,6.8213,0.4212,54.889771,9.804318,108.3,5.845,1.85,335.95,0.000000,0.000000,54.891502,9.801931
1390066221,3,0,0.0,0,0,4,0,870,900,-0.0292,110.2925,6.8213,0.4212,54.889767,9.804343,108.3,5.845,1.85,335.95,0.000000,0.000000,54.891502,9.801931
1390066221,3,0,0.0,0,0,0,0,870,850,-0.0292,110.2925,6.8213,0.4212,54.889763,9.804368,108.3,5.845,1.85,335.95,0.000000,0.000000,54.891502,9.801931
1390066221,3,0,0.0,0,0,4,0,870,900,-0.0292,110.2925,6.8213,0.4212,54.889755,9.804393,108.3,5.845,1.85,335.95,0.000000,0.000000,54.891502,9.801931
1390066222,3,0,0.0,0,10,8,0,870,850,-0.0292,106.9592,6.8213,0.4212,54.889751,9.804418,108.3,5.845,1.85,335.95,0.000000,0.000000,54.891502,9.801931
1390066222,3,0,0.0,0,7,4,0,870,900,-0.0292,104.6258,6.8213,0.4212,54.889748,9.804442,108.3,5.845,1.85,335.95,0.000000,0.000000,54.891502,9.801931
1390066222,3,0,0.0,0,5,8,0,870,850,-0.0292,102.9592,6.8213,0.4212,54.889744,9.804467,108.3,5.845,1.85,335.95,0.000000,0.000000,54.891502,9.801931
1390066222,3,0,0.0,0,3,4,0,870,900,-0.0292,101.9592,6.8213,0.4212,54.889740,9.804491,108.3,5.845,1.85,335.95,0.000000,0.000000,54.891502,9.801931
1390066223,3,0,0.0,0,2,0,0,870,850,-0.0292,101.2925,6.8213,0.4212,54.889736,9.804516,108.3,5.845,1.85,335.95,0.000000,0.000000,54.891502,9.801931
1390066223,3,0,0.0,0,1,4,0,870,900,-0.0292,100.9592,6.8213,0.4212,54.889732,9.804540,108.3,5.845,1.85,335.95,0.000000,0.000000,54.891502,9.801931
1390066223,3,0,0.0,0,1,0,0,870,850,-0.0292,100.6258,6.8213,0.4212,54.889729,9.804564,108.3,5.845,1.85,335.95,0.000000,0.000000,54.891502,9.801931
1390066223,3,0,0.0,0,1,4,0,870,900,-0.0292,100.2925,6.8213,0.4212,54.889729,9.804589,108.3,5.845,1.85,335.95,0.000000,0.000000,54.891502,9.801931
1390066224,3,0,0.0,0,0,0,0,870,850,-0.0292,100.2925,6.8213,0.4212,54.889729,9.804614,108.3,5.845,1.85,335.95,0.000000,0.000000,54.891502,9.801931
1390066224,3,0,0.0,0,0,4,0,870,900,-0.0292,100.2925,6.8213,0.4212,54.889729,9.804639,108.3,5.845,1.85,335.95,0.000000,0.000000,54.891502,9.801931
1390066224,3,0,0.0,0,0,0,0,870,850,-0.0292,100.2925,6.8213,0.4212,54.889729,9.804663,108.3,5.845,1.85,335.95,0.000000,0.000000,54.891502,9.801931
1390066224,3,0,0.0,0,0,4,0,870,900,-0.0292,100.2925,6.8213,0.4212,54.889729,9.804688,108.3,5.845,1.85,335.95,0.000000,0.000000,54.891502,9.801931
1390066225,3,0,0.0,0,0,0,0,870,850,-0.0292,100.2925,6.8213,0.4212,54.889729,9.804711,108.3,5.845,1.85,335.95,0.000000,0.000000,54.891502,9.801931
1390066225,3,0,0.0,0,0,4,0,870,900,-0.0292,100.2925,6.8213,0.4212,54.889729,9.804736,108.3,5.845,1.85,335.95,0.000000,0.000000,54.891502,9.801931
1390066225,3,0,0.0,0,0,0,0,870,850,-0.0292,100.2925,6.8213,0.4212,54.889729,9.804761,108.3,5.845,1.85,335.95,0.000000,0.000000,54.891502,9.801931
1390066225,3,0,0.0,0,0,4,0,870,900,-0.0292,100.2925,6.8213,0.4212,54.889729,9.804786,108.3,5.845,1.85,335.95,0.000000,0.000000,54.891502,9.801931
1390066226,3,0,0.0,0,0,0,0,870,850,-0.0292,100.2925,6.8213,0.4212,54.889729,9.804811,108.3,5.845,1.85,335.95,0.000000,0.000000,54.891502,9.801931
1390066226,3,0,0.0,0,0,4,0,870,900,-0.0292,100.2925,6.8213,0.4212,54.889729,9.804834,108.3,5.845,1.85,335.95,0.000000,0.000000,54.891502,9.801931
1390066226,3,0,0.0,0,0,0,0,870,850,-0.0292,100.2925,6.8213,0.4212,54.889729,9.804859,108.3,5.845,1.85,335.95,0.000000,0.000000,54.891502,9.801931
1390066226,3,0,0.0,0,0,4,0,870,900,-0.0292,100.2925,6.8213,0.4212,54.889729,9.804883,108.3,5.845,1.85,335.95,0.000000,0.000000,54.891502,9.801931
1390066227,3,0,0.0,0,10,8,0,870,850,-0.0292,96.9592,6.8213,0.4212,54.889729,9.804908,108.3,5.845,1.85,335.95,0.000000,0.000000,54.891502,9.801931
1390066227,3,0,0.0,0,7,4,0,870,900,-0.0292,94.6258,6.8213,0.4212,54.889729,9.804932,108.3,5.845,1.85,335.95,0.000000,0.000000,54.891502,9.801931
1390066227,3,0,0.0,0,5,8,0,840,850,-0.0292,92.9592,6.8213,0.4212,54.889729,9.804955,108.3,5.845,1.85,335.95,0.000000,0.000000,54.891502,9.801931
1390066227,3,0,0.0,0,3,4,0,817,800,-0.0292,91.9592,6.8213,0.4212,54.889729,9.804979,108.3,5.845,1.85,335.95,0.000000,0.000000,54.891502,9.801931
1390066228,3,0,0.0,0,2,0,0,802,850,-0.0292,91.2925,6.8213,0.4212,54.889729,9.805002,108.3,5.845,1.85,335.95,0.000000,0.000000,54.891502,9.801931
1390066228,3,0,0.0,0,1,4,0,793,800,-0.0292,90.9592,6.8213,0.4212,54.889729,9.805026,108.3,5.845,1.85,335.95,0.000000,0.000000,54.891502,9.801931
1390066228,3,0,0.0,0,1,0,0,788,750,-0.0292,90.6258,6.8213,0.4212,54.889729,9.805049,108.3,5.845,1.85,335.95,0.000000,0.000000,54.891502,9.801931
1390066228,3,0,0.0,0,1,4,0,783,800,-0.0292,90.2925,6.8213,0.4212,54.889729,9.805073,108.3,5.845,1.85,335.95,0.000000,0.000000,54.891502,9.801931
1390066229,3,0,0.0,0,0,0,0,778,750,-0.0292,90.2925,6.8213,0.4212,54.889729,9.805096,108.3,5.845,1.85,335.95,0.000000,0.000000,54.891502,9.801931
1390066229,3,0,0.0,0,0,4,0,778,800,-0.0292,90.2925,6.8213,0.4212,54.889729,9.805120,108.3,5.845,1.85,335.95,0.000000,0.000000,54.891502,9.801931
1390066229,3,0,0.0,0,0,0,0,778,750,-0.0292,90.2925,6.8213,0.4212,54.889729,9.805142,108.3,5.845,1.85,335.95,0.000000,0.000000,54.891502,9.801931
1390066229,3,0,0.0,0,0,4,0,778,800,-0.0292,90.2925,6.8213,0.4212,54.889729,9.805166,108.3,5.845,1.85,335.95,0.000000,0.000000,54.891502,9.801931
1390066230,3,0,0.0,0,0,0,0,778,750,-0.0292,90.2925,6.8213,0.4212,54.889729,9.805189,108.3,5.845,1.85,335.95,0.000000,0.000000,54.891502,9.801931
1390066230,3,0,0.0,0,0,4,0,778,800,-0.0292,90.2925,6.8213,0.4212,54.889729,9.805213,108.3,5.845,1.85,335.95,0.000000,0.000000,54.891502,9.801931
1390066230,3,0,0.0,0,0,0,0,778,750,-0.0292,90.2925,6.8213,0.4212,54.889729,9.805236,108.3,5.845,1.85,335.95,0.000000,0.000000,54.891502,9.801931
1390066230,3,0,0.0,0,0,4,0,778,800,-0.0292,90.2925,6.8213,0.4212,54.889729,9.805259,108.3,5.845,1.85,335.95,0.000000,0.000000,54.891502,9.801931
1390066231,3,0,0.0,0,0,0,0,778,750,-0.0292,90.2925,6.8213,0.4212,54.889729,9.805282,108.3,5.845,1.85,335.95,0.000000,0.000000,54.891502,9.801931
1390066231,3,0,0.0,0,0,4,0,778,800,-0.0292,90.2925,6.8213,0.4212,54.889729,9.805305,108.3,5.845,1.85,335.95,0.000000,0.000000,54.891502,9.801931
1390066231,3,0,0.0,0,0,0,0,778,750,-0.0292,90.2925,6.8213,0.4212,54.889729,9.805328,108.3,5.845,1.85,335.95,0.000000,0.000000,54.891502,9.801931
1390066231,3,0,0.0,0,0,4,0,778,800,-0.0292,90.2925,6.8213,0.4212,54.889729,9.805351,108.3,5.845,1.85,335.95,0.000000,0.000000,54.891502,9.801931
1390066232,3,0,0.0,0,10,8,0,778,750,-0.0292,86.9591,6.8213,0.4212,54.889732,9.805374,108.3,5.845,1.85,335.95,0.000000,0.000000,54.891502,9.801931
1390066232,3,0,0.0,0,7,4,0,729,700,-0.0292,84.6258,6.8213,0.4212,54.889732,9.805396,108.3,5.845,1.85,335.95,0.000000,0.000000,54.891502,9.801931
1390066232,3,0,0.0,0,5,8,0,693,650,-0.0292,82.9591,6.8213,0.4212,54.889732,9.805418,108.3,5.845,1.85,335.95,0.000000,0.000000,54.891502,9.801931
1390066232,3,0,0.0,0,3,4,0,668,700,-0.0292,81.9591,6.8213,0.4212,54.889732,9.805439,108.3,5.845,1.85,335.95,0.000000,0.000000,54.891502,9.801931
1390066233,3,0,0.0,0,2,0,0,652,650,-0.0292,81.2925,6.8213,0.4212,54.889732,9.805461,108.3,5.845,1.85,335.95,0.000000,0.000000,54.891502,9.801931
1390066233,3,0,0.0,0,1,4,0,642,600,-0.0292,80.9591,6.8213,0.4212,54.889732,9.805482,108.3,5.845,1.85,335.95,0.000000,0.000000,54.891502,9.801931
1390066233,3,0,0.0,0,1,0,0,637,650,-0.0292,80.6258,6.8213,0.4212,54.889732,9.805504,108.3,5.845,1.85,335.95,0.000000,0.000000,54.891502,9.801931
1390066233,3,0,0.0,0,1,4,0,632,600,-0.0292,80.2925,6.8213,0.4212,54.889732,9.805525,108.3,5.845,1.85,335.95,0.000000,0.000000,54.891502,9.801931
1390066234,3,0,0.0,0,0,0,0,627,650,-0.0292,80.2925,6.8213,0.4212,54.889732,9.805546,108.3,5.845,1.85,335.95,0.000000,0.000000,54.891502,9.801931
1390066234,3,0,0.0,0,0,4,0,627,600,-0.0292,80.2925,6.8213,0.4212,54.889732,9.805567,108.3,5.845,1.85,335.95,0.000000,0.000000,54.891502,9.801931
1390066234,3,0,0.0,0,0,0,0,627,650,-0.0292,80.2925,6.8213,0.4212,54.889732,9.805588,108.3,5.845,1.85,335.95,0.000000,0.000000,54.891502,9.801931
1390066234,3,0,0.0,0,0,4,0,627,600,-0.0292,80.2925,6.8213,0.4212,54.889732,9.805609,108.3,5.845,1.85,335.95,0.000000,0.000000,54.891502,9.801931
1390066235,3,0,0.0,0,0,0,0,627,650,-0.0292,80.2925,6.8213,0.4212,54.889732,9.805630,108.3,5.845,1.85,335.95,0.000000,0.000000,54.891502,9.801931
1390066235,3,0,0.0,0,0,4,0,627,600,-0.0292,80.2925,6.8213,0.4212,54.889732,9.805651,108.3,5.845,1.85,335.95,0.000000,0.000000,54.891502,9.801931
1390066235,3,0,0.0,0,0,0,0,627,650,-0.0292,80.2925,6.8213,0.4212,54.889732,9.805672,108.3,5.845,1.85,335.95,0.000000,0.000000,54.891502,9.801931
1390066235,3,0,0.0,0,0,4,0,627,600,-0.0292,80.2925,6.8213,0.4212,54.889732,9.805693,108.3,5.845,1.85,335.95,0.000000,0.000000,54.891502,9.801931
1390066236,3,0,0.0,0,0,0,0,627,650,-0.0292,80.2925,6.8213,0.4212,54.889732,9.805714,108.3,5.845,1.85,335.95,0.000000,0.000000,54.891502,9.801931
1390066236,3,0,0.0,0,0,4,0,627,600,-0.0292,80.2925,6.8213,0.4212,54.889732,9.805735,108.3,5.845,1.85,335.95,0.000000,0.000000,54.891502,9.801931
1390066236,3,0,0.0,0,0,0,0,627,650,-0.0292,80.2925,6.8213,0.4212,54.889732,9.805756,108.3,5.845,1.85,335.95,0.000000,0.000000,54.891502,9.801931
1390066236,3,0,0.0,0,0,4,0,627,600,-0.0292,80.2925,6.8213,0.4212,54.889732,9.805777,108.3,5.845,1.85,335.95,0.000000,0.000000,54.891502,9.801931
1390066237,3,0,0.0,0,10,8,0,627,650,-0.0292,76.9591,6.8213,0.4212,54.889732,9.805797,108.3,5.845,1.85,335.95,0.000000,0.000000,54.891502,9.801931
1390066237,3,0,0.0,0,7,4,0,574,600,-0.0292,74.6258,6.8213,0.4212,54.889732,9.805816,108.3,5.845,1.85,335.95,0.000000,0.000000,54.891502,9.801931
1390066237,3,0,0.0,0,5,8,0,538,550,-0.0292,72.9591,6.8213,0.4212,54.889732,9.805835,108.3,5.845,1.85,335.95,0.000000,0.000000,54.891502,9.801931
1390066237,3,0,0.0,0,3,4,0,511,500,-0.0292,71.9591,6.8213,0.4212,54.889732,9.805853,108.3,5.845,1.85,335.95,0.000000,0.000000,54.891502,9.801931
1390066238,3,0,0.0,0,2,0,0,495,450,-0.0292,71.2925,6.8213,0.4212,54.889732,9.805871,108.3,5.845,1.85,335.95,0.000000,0.000000,54.891502,9.801931
1390066238,3,0,0.0,0,1,4,0,485,500,-0.0292,70.9591,6.8213,0.4212,54.889732,9.805890,108.3,5.845,1.85,335.95,0.000000,0.000000,54.891502,9.801931
1390066238,3,0,0.0,0,1,0,0,479,450,-0.0292,70.6258,6.8213,0.4212,54.889732,9.805908,108.3,5.845,1.85,335.95,0.000000,0.000000,54.891502,9.801931
1390066238,3,0,0.0,0,1,4,0,474,500,-0.0292,70.2925,6.8213,0.4212,54.889732,9.805926,108.3,5.845,1.85,335.95,0.000000,0.000000,54.891502,9.801931
1390066239,3,0,0.0,0,0,0,0,469,450,-0.0292,70.2925,6.8213,0.4212,54.889732,9.805944,108.3,5.845,1.85,335.95,0.000000,0.000000,54.891502,9.801931
1390066239,3,0,0.0,0,0,4,0,469,500,-0.0292,70.2925,6.8213,0.4212,54.889732,9.805963,108.3,5.845,1.85,335.95,0.000000,0.000000,54.891502,9.801931
1390066239,3,0,0.0,0,0,0,0,469,450,-0.0292,70.2925,6.8213,0.4212,54.889732,9.805982,108.3,5.845,1.85,335.95,0.000000,0.000000,54.891502,9.801931
1390066239,3,0,0.0,0,0,4,0,469,500,-0.0292,70.2925,6.8213,0.4212,54.889732,9.806000,108.3,5.845,1.85,335.95,0.000000,0.000000,54.891502,9.801931
1390066240,3,0,0.0,0,0,0,0,469,450,-0.0292,70.2925,6.8213,0.4212,54.889732,9.806019,108.3,5.845,1.85,335.95,0.000000,0.000000,54.891502,9.801931
1390066240,3,0,0.0,0,0,4,0,469,500,-0.0292,70.2925,6.8213,0.4212,54.889732,9.806037,108.3,5.845,1.85,335.95,0.000000,0.000000,54.891502,9.801931
1390066240,3,0,0.0,0,0,0,0,469,450,-0.0292,70.2925,6.8213,0.4212,54.889732,9.806055,108.3,5.845,1.85,335.95,0.000000,0.000000,54.891502,9.801931
1390066240,3,0,0.0,0,0,4,0,469,500,-0.0292,70.2925,6.8213,0.4212,54.889732,9.806073,108.3,5.845,1.85,335.95,0.000000,0.000000,54.891502,9.801931
1390066241,3,0,0.0,0,0,0,0,469,450,-0.0292,70.2925,6.8213,0.4212,54.889732,9.806091,108.3,5.845,1.85,335.95,0.000000,0.000000,54.891502,9.801931
1390066241,3,0,0.0,0,0,4,0,469,500,-0.0292,70.2925,6.8213,0.4212,54.889732,9.806110,108.3,5.845,1.85,335.95,0.000000,0.000000,54.891502,9.801931
1390066241,3,0,0.0,0,0,0,0,469,450,-0.0292,70.2925,6.8213,0.4212,54.889732,9.806129,108.3,5.845,1.85,335.95,0.000000,0.000000,54.891502,9.801931
1390066242,3,0,0.0,0,0,4,0,469,500,-0.0292,70.2925,6.8213,0.4212,54.889732,9.806148,108.3,5.845,1.85,335.95,0.000000,0.000000,54.891502,9.801931
1390066242,3,0,0.0,0,10,8,0,469,450,-0.0292,66.9591,6.8213,0.4212,54.889736,9.806165,108.3,5.845,1.85,335.95,0.000000,0.000000,54.891502,9.801931
1390066242,3,0,0.0,0,7,4,0,415,400,-0.0292,64.6258,6.8213,0.4212,54.889740,9.806181,108.3,5.845,1.85,335.95,0.000000,0.000000,54.891502,9.801931
1390066242,3,0,0.0,0,5,8,0,378,350,-0.0292,62.9591,6.8213,0.4212,54.889744,9.806196,108.3,5.845,1.85,335.95,0.000000,0.000000,54.891502,9.801931
1390066243,3,0,0.0,0,3,4,0,352,400,-0.0292,61.9591,6.8213,0.4212,54.889748,9.806211,108.3,5.845,1.85,335.95,0.000000,0.000000,54.891502,9.801931
1390066243,3,0,0.0,0,2,0,0,336,350,-0.0292,61.2925,6.8213,0.4212,54.889751,9.806227,108.3,5.845,1.85,335.95,0.000000,0.000000,54.891502,9.801931
1390066243,3,0,0.0,0,1,4,0,325,300,-0.0292,60.9591,6.8213,0.4212,54.889759,9.806242,108.3,5.845,1.85,335.95,0.000000,0.000000,54.891502,9.801931
1390066243,3,0,0.0,0,1,0,0,320,350,-0.0292,60.6258,6.8213,0.4212,54.889763,9.806257,108.3,5.845,1.85,335.95,0.000000,0.000000,54.891502,9.801931
1390066244,3,0,0.0,0,1,4,0,315,300,-0.0292,60.2925,6.8213,0.4212,54.889767,9.806273,108.3,5.845,1.85,335.95,0.000000,0.000000,54.891502,9.801931
1390066244,3,0,0.0,0,0,0,0,310,350,-0.0292,60.2925,6.8213,0.4212,54.889771,9.806287,108.3,5.845,1.85,335.95,0.000000,0.000000,54.891502,9.801931
1390066244,3,0,0.0,0,0,4,0,310,300,-0.0292,60.2925,6.8213,0.4212,54.889774,9.806302,108.3,5.845,1.85,335.95,0.000000,0.000000,54.891502,9.801931
1390066244,3,0,0.0,0,0,0,0,310,350,-0.0292,60.2925,6.8213,0.4212,54.889782,9.806317,108.3,5.845,1.85,335.95,0.000000,0.000000,54.891502,9.801931
1390066245,3,0,0.0,0,0,4,0,310,300,-0.0292,60.2925,6.8213,0.4212,54.889786,9.806332,108.3,5.845,1.85,335.95,0.000000,0.000000,54.891502,9.801931
1390066245,3,0,0.0,0,0,0,0,310,350,-0.0292,60.2925,6.8213,0.4212,54.889790,9.806347,108.3,5.845,1.85,335.95,0.000000,0.000000,54.891502,9.801931
1390066245,3,0,0.0,0,0,4,0,310,300,-0.0292,60.2925,6.8213,0.4212,54.889793,9.806362,108.3,5.845,1.85,335.95,0.000000,0.000000,54.891502,9.801931
1390066245,3,0,0.0,0,0,0,0,310,350,-0.0292,60.2925,6.8213,0.4212,54.889797,9.806377,108.3,5.845,1.85,335.95,0.000000,0.000000,54.891502,9.801931
1390066246,3,0,0.0,0,0,4,0,310,300,-0.0292,60.2925,6.8213,0.4212,54.889801,9.806393,108.3,5.845,1.85,335.95,0.000000,0.000000,54.891502,9.801931
1390066246,3,0,0.0,0,0,0,0,310,350,-0.0292,60.2925,6.8213,0.4212,54.889809,9.806407,108.3,5.845,1.85,335.95,0.000000,0.000000,54.891502,9.801931
1390066246,3,0,0.0,0,0,4,0,310,300,-0.0292,60.2925,6.8213,0.4212,54.889812,9.806422,108.3,5.845,1.85,335.95,0.000000,0.000000,54.891502,9.801931
1390066246,3,0,0.0,0,0,0,0,310,350,-0.0292,60.2925,6.8213,0.4212,54.889816,9.806437,108.3,5.845,1.85,335.95,0.000000,0.000000,54.891502,9.801931
1390066247,3,0,0.0,0,0,4,0,310,300,-0.0292,60.2925,6.8213,0.4212,54.889820,9.806452,108.3,5.845,1.85,335.95,0.000000,0.000000,54.891502,9.801931
1390066247,3,0,0.0,0,10,8,0,310,350,-0.0292,56.9591,6.8213,0.4212,54.889824,9.806465,108.3,5.845,1.85,335.95,0.000000,0.000000,54.891502,9.801931
1390066247,3,0,0.0,0,7,4,0,258,300,-0.0292,54.6258,6.8213,0.4212,54.889832,9.806479,108.3,5.845,1.85,335.95,0.000000,0.000000,54.891502,9.801931
1390066247,3,0,0.0,0,5,8,0,223,250,-0.0292,52.9591,6.8213,0.4212,54.889835,9.806490,108.3,5.845,1.85,335.95,0.000000,0.000000,54.891502,9.801931
1390066248,3,0,0.0,0,3,4,0,198,200,-0.0292,51.9591,6.8213,0.4212,54.889839,9.806501,108.3,5.845,1.85,335.95,0.000000,0.000000,54.891502,9.801931
1390066248,3,0,0.0,0,2,0,0,184,150,-0.0292,51.2925,6.8213,0.4212,54.889843,9.806513,108.3,5.845,1.85,335.95,0.000000,0.000000,54.891502,9.801931
1390066248,3,0,0.0,0,1,4,0,174,200,-0.0292,50.9591,6.8213,0.4212,54.889847,9.806525,108.3,5.845,1.85,335.95,0.000000,0.000000,54.891502,9.801931
1390066248,3,0,0.0,0,1,0,0,170,150,-0.0292,50.6258,6.8213,0.4212,54.889854,9.806537,108.3,5.845,1.85,335.95,0.000000,0.000000,54.891502,9.801931
1390066249,3,0,0.0,0,1,4,0,165,200,-0.0292,50.2925,6.8213,0.4212,54.889862,9.806548,108.3,5.845,1.85,335.95,0.000000,0.000000,54.891502,9.801931
1390066249,3,0,0.0,0,0,0,0,160,150,-0.0292,50.2925,6.8213,0.4212,54.889866,9.806560,108.3,5.845,1.85,335.95,0.000000,0.000000,54.891502,9.801931
1390066249,3,0,0.0,0,0,4,0,160,200,-0.0292,50.2925,6.8213,0.4212,54.889870,9.806571,108.3,5.845,1.85,335.95,0.000000,0.000000,54.891502,9.801931
1390066249,3,0,0.0,0,0,0,0,160,150,-0.0292,50.2925,6.8213,0.4212,54.889877,9.806582,108.3,5.845,1.85,335.95,0.000000,0.000000,54.891502,9.801931
1390066250,3,0,0.0,0,0,4,0,160,200,-0.0292,50.2925,6.8213,0.4212,54.889885,9.806594,108.3,5.845,1.85,335.95,0.000000,0.000000,54.891502,9.801931
1390066250,3,0,0.0,0,0,0,0,160,150,-0.0292,50.2925,6.8213,0.4212,54.889889,9.806605,108.3,5.845,1.85,335.95,0.000000,0.000000,54.891502,9.801931
1390066250,3,0,0.0,0,0,4,0,160,200,-0.0292,50.2925,6.8213,0.4212,54.889893,9.806617,108.3,5.845,1.85,335.95,0.000000,0.000000,54.891502,9.801931
1390066250,3,0,0.0,0,0,0,0,160,150,-0.0292,50.2925,6.8213,0.4212,54.889896,9.806628,108.3,5.845,1.85,335.95,0.000000,0.000000,54.891502,9.801931
1390066251,3,0,0.0,0,0,4,0,160,200,-0.0292,50.2925,6.8213,0.4212,54.889904,9.806640,108.3,5.845,1.85,335.95,0.000000,0.000000,54.891502,9.801931
1390066251,3,0,0.0,0,0,0,0,160,150,-0.0292,50.2925,6.8213,0.4212,54.889912,9.806651,108.3,5.845,1.85,335.95,0.000000,0.000000,54.891502,9.801931
1390066251,3,0,0.0,0,0,4,0,160,200,-0.0292,50.2925,6.8213,0.4212,54.889915,9.806663,108.3,5.845,1.85,335.95,0.000000,0.000000,54.891502,9.801931
1390066251,3,0,0.0,0,0,0,0,160,150,-0.0292,50.2925,6.8213,0.4212,54.889919,9.806674,108.3,5.845,1.85,335.95,0.000000,0.000000,54.891502,9.801931
1390066252,3,0,0.0,0,0,4,0,160,200,-0.0292,50.2925,6.8213,0.4212,54.889927,9.806685,108.3,5.845,1.85,335.95,0.000000,0.000000,54.891502,9.801931
1390066252,3,0,0.0,0,10,8,0,160,150,-0.0292,46.9591,6.8213,0.4212,54.889935,9.806696,108.3,5.845,1.85,335.95,0.000000,0.000000,54.891502,9.801931
1390066252,3,0,0.0,0,7,4,0,116,100,-0.0292,44.6258,6.8213,0.4212,54.889938,9.806705,108.3,5.845,1.85,335.95,0.000000,0.000000,54.891502,9.801931
1390066252,3,0,0.0,0,5,8,0,88,50,-0.0292,42.9591,6.8213,0.4212,54.889942,9.806713,108.3,5.845,1.85,335.95,0.000000,0.000000,54.891502,9.801931
1390066253,3,0,0.0,0,3,4,0,70,100,-0.0292,41.9591,6.8213,0.4212,54.889946,9.806722,108.3,5.845,1.85,335.95,0.000000,0.000000,54.891502,9.801931
1390066253,3,0,0.0,0,2,0,0,59,50,-0.0292,41.2925,6.8213,0.4212,54.889954,9.806730,108.3,5.845,1.85,335.95,0.000000,0.000000,54.891502,9.801931
1390066253,3,0,0.0,0,1,4,0,53,100,-0.0292,40.9591,6.8213,0.4212,54.889957,9.806739,108.3,5.845,1.85,335.95,0.000000,0.000000,54.891502,9.801931
1390066253,3,0,0.0,0,1,0,0,50,50,-0.0292,40.6258,6.8213,0.4212,54.889961,9.806746,108.3,5.845,1.85,335.95,0.000000,0.000000,54.891502,9.801931
1390066254,3,0,0.0,0,1,4,0,47,0,-0.0292,40.2925,6.8213,0.4212,54.889965,9.806754,108.3,5.845,1.85,335.95,0.000000,0.000000,54.891502,9.801931
1390066254,3,0,0.0,0,0,0,0,44,50,-0.0292,40.2925,6.8213,0.4212,54.889969,9.806762,108.3,5.845,1.85,335.95,0.000000,0.000000,54.891502,9.801931
1390066254,3,0,0.0,0,0,4,0,44,0,-0.0292,40.2925,6.8213,0.4212,54.889977,9.806769,108.3,5.845,1.85,335.95,0.000000,0.000000,54.891502,9.801931
1390066254,3,0,0.0,0,0,0,0,44,50,-0.0292,40.2925,6.8213,0.4212,54.889984,9.806778,108.3,5.845,1.85,335.95,0.000000,0.000000,54.891502,9.801931
1390066255,3,0,0.0,0,0,4,0,44,0,-0.0292,40.2925,6.8213,0.4212,54.889988,9.806786,108.3,5.845,1.85,335.95,0.000000,0.000000,54.891502,9.801931
1390066255,3,0,0.0,0,0,0,0,44,50,-0.0292,40.2925,6.8213,0.4212,54.889992,9.806793,108.3,5.845,1.85,335.95,0.000000,0.000000,54.891502,9.801931
1390066255,3,0,0.0,0,0,4,0,44,0,-0.0292,40.2925,6.8213,0.4212,54.889996,9.806801,108.3,5.845,1.85,335.95,0.000000,0.000000,54.891502,9.801931
1390066255,3,0,0.0,0,0,0,0,44,50,-0.0292,40.2925,6.8213,0.4212,54.890003,9.806808,108.3,5.845,1.85,335.95,0.000000,0.000000,54.891502,9.801931
1390066256,3,0,0.0,0,0,4,0,44,0,-0.0292,40.2925,6.8213,0.4212,54.890007,9.806817,108.3,5.845,1.85,335.95,0.000000,0.000000,54.891502,9.801931
1390066256,3,0,0.0,0,0,0,0,44,50,-0.0292,40.2925,6.8213,0.4212,54.890011,9.806826,108.3,5.845,1.85,335.95,0.000000,0.000000,54.891502,9.801931
1390066256,3,0,0.0,0,0,4,0,44,0,-0.0292,40.2925,6.8213,0.4212,54.890015,9.806833,108.3,5.845,1.85,335.95,0.000000,0.000000,54.891502,9.801931
1390066256,3,0,0.0,0,0,0,0,44,50,-0.0292,40.2925,6.8213,0.4212,54.890018,9.806841,108.3,5.845,1.85,335.95,0.000000,0.000000,54.891502,9.801931
1390066257,3,0,0.0,0,0,4,0,44,0,-0.0292,40.2925,6.8213,0.4212,54.890026,9.806849,108.3,5.845,1.85,335.95,0.000000,0.000000,54.891502,9.801931
1390066257,3,0,0.0,0,10,8,0,44,50,-0.0292,36.9591,6.8213,0.4212,54.890034,9.806855,108.3,5.845,1.85,335.95,0.000000,0.000000,54.891502,9.801931
1390066257,3,0,0.0,0,7,4,0,19,0,-0.0292,34.6258,6.8213,0.4212,54.890038,9.806862,108.3,5.845,1.85,335.95,0.000000,0.000000,54.891502,9.801931
1390066257,3,0,0.0,0,5,8,0,7,50,-0.0292,32.9591,6.8213,0.4212,54.890041,9.806868,108.3,5.845,1.85,335.95,0.000000,0.000000,54.891502,9.801931
1390066258,3,0,0.0,0,3,4,0,2,0,-0.0292,31.9591,6.8213,0.4212,54.890045,9.806872,108.3,5.845,1.85,335.95,0.000000,0.000000,54.891502,9.801931
1390066258,3,0,0.0,0,2,0,0,1,50,-0.0292,31.2925,6.8213,0.4212,54.890053,9.806877,108.3,5.845,1.85,335.95,0.000000,0.000000,54.891502,9.801931
1390066258,3,0,0.0,0,1,4,0,0,0,-0.0292,30.9591,6.8213,0.4212,54.890057,9.806882,108.3,5.845,1.85,335.95,0.000000,0.000000,54.891502,9.801931
1390066258,3,0,0.0,0,1,0,0,0,0,-0.0292,30.6258,6.8213,0.4212,54.890060,9.806887,108.3,5.845,1.85,335.95,0.000000,0.000000,54.891502,9.801931
1390066259,3,0,0.0,0,1,4,0,0,0,-0.0292,30.2925,6.8213,0.4212,54.890064,9.806891,108.3,5.845,1.85,335.95,0.000000,0.000000,54.891502,9.801931
1390066259,3,0,0.0,0,0,0,0,0,0,-0.0292,30.2925,6.8213,0.4212,54.890068,9.806896,108.3,5.845,1.85,335.95,0.000000,0.000000,54.891502,9.801931
1390066259,3,0,0.0,0,0,4,0,0,0,-0.0292,30.2925,6.8213,0.4212,54.890072,9.806901,108.3,5.845,1.85,335.95,0.000000,0.000000,54.891502,9.801931
1390066259,3,0,0.0,0,0,0,0,0,0,-0.0292,30.2925,6.8213,0.4212,54.890079,9.806906,108.3,5.845,1.85,335.95,0.000000,0.000000,54.891502,9.801931
1390066260,3,0,0.0,0,0,4,0,0,0,-0.0292,30.2925,6.8213,0.4212,54.890083,9.806911,108.3,5.845,1.85,335.95,0.000000,0.000000,54.891502,9.801931
1390066260,3,0,0.0,0,0,0,0,0,0,-0.0292,30.2925,6.8213,0.4212,54.890087,9.806916,108.3,5.845,1.85,335.95,0.000000,0.000000,54.891502,9.801931
1390066260,3,0,0.0,0,0,4,0,0,0,-0.0292,30.2925,6.8213,0.4212,54.890091,9.806921,108.3,5.845,1.85,335.95,0.000000,0.000000,54.891502,9.801931
1390066260,3,0,0.0,0,0,0,0,0,0,-0.0292,30.2925,6.8213,0.4212,54.890095,9.806926,108.3,5.845,1.85,335.95,0.000000,0.000000,54.891502,9.801931
1390066261,3,0,0.0,0,0,4,0,0,0,-0.0292,30.2925,6.8213,0.4212,54.890102,9.806931,108.3,5.845,1.85,335.95,0.000000,0.000000,54.891502,9.801931
1390066261,3,0,0.0,0,0,0,0,0,0,-0.0292,30.2925,6.8213,0.4212,54.890106,9.806935,108.3,5.845,1.85,335.95,0.000000,0.000000,54.891502,9.801931
1390066261,3,0,0.0,0,0,4,0,0,0,-0.0292,30.2925,6.8213,0.4212,54.890110,9.806940,108.3,5.845,1.85,335.95,0.000000,0.000000,54.891502,9.801931
1390066261,3,0,0.0,0,0,0,0,0,0,-0.0292,30.2925,6.8213,0.4212,54.890114,9.806945,108.3,5.845,1.85,335.95,0.000000,0.000000,54.891502,9.801931
1390066262,3,0,0.0,0,0,4,0,0,0,-0.0292,30.2925,6.8213,0.4212,54.890118,9.806950,108.3,5.845,1.85,335.95,0.000000,0.000000,54.891502,9.801931
1390066262,3,0,0.0,0,10,8,0,0,0,-0.0292,26.9591,6.8213,0.4212,54.890121,9.806953,108.3,5.845,1.85,335.95,0.000000,0.000000,54.891502,9.801931
1390066262,3,0,0.0,0,7,4,0,0,0,-0.0292,24.6258,6.8213,0.4212,54.890125,9.806956,108.3,5.845,1.85,335.95,0.000000,0.000000,54.891502,9.801931
1390066262,3,0,0.0,0,5,8,0,0,0,-0.0292,22.9591,6.8213,0.4212,54.890133,9.806959,108.3,5.845,1.85,335.95,0.000000,0.000000,54.891502,9.801931
1390066263,3,0,0.0,0,3,4,0,0,0,-0.0292,21.9591,6.8213,0.4212,54.890137,9.806961,108.3,5.845,1.85,335.95,0.000000,0.000000,54.891502,9.801931
1390066263,3,0,0.0,0,2,0,0,0,0,-0.0292,21.2925,6.8213,0.4212,54.890141,9.806963,108.3,5.845,1.85,335.95,0.000000,0.000000,54.891502,9.801931
1390066263,3,0,0.0,0,1,4,0,0,0,-0.0292,20.9591,6.8213,0.4212,54.890144,9.806965,108.3,5.845,1.85,335.95,0.000000,0.000000,54.891502,9.801931
1390066263,3,0,0.0,0,1,0,0,0,0,-0.0292,20.6258,6.8213,0.4212,54.890148,9.806967,108.3,5.845,1.85,335.95,0.000000,0.000000,54.891502,9.801931
1390066264,3,0,0.0,0,1,4,0,0,0,-0.0292,20.2925,6.8213,0.4212,54.890152,9.806969,108.3,5.845,1.85,335.95,0.000000,0.000000,54.891502,9.801931
1390066264,3,0,0.0,0,0,0,0,0,0,-0.0292,20.2925,6.8213,0.4212,54.890152,9.806971,108.3,5.845,1.85,335.95,0.000000,0.000000,54.891502,9.801931
1390066264,3,0,0.0,0,0,4,0,0,0,-0.0292,20.2925,6.8213,0.4212,54.890152,9.806973,108.3,5.845,1.85,335.95,0.000000,0.000000,54.891502,9.801931
1390066264,3,0,0.0,0,0,0,0,0,0,-0.0292,20.2925,6.8213,0.4212,54.890152,9.806974,108.3,5.845,1.85,335.95,0.000000,0.000000,54.891502,9.801931
1390066265,3,0,0.0,0,0,4,0,0,0,-0.0292,20.2925,6.8213,0.4212,54.890152,9.806976,108.3,5.845,1.85,335.95,0.000000,0.000000,54.891502,9.801931
1390066265,3,0,0.0,0,0,0,0,0,0,-0.0292,20.2925,6.8213,0.4212,54.890152,9.806979,108.3,5.845,1.85,335.95,0.000000,0.000000,54.891502,9.801931
1390066265,3,0,0.0,0,0,4,0,0,0,-0.0292,20.2925,6.8213,0.4212,54.890152,9.806982,108.3,5.845,1.85,335.95,0.000000,0.000000,54.891502,9.801931
1390066265,3,0,0.0,0,0,0,0,0,0,-0.0292,20.2925,6.8213,0.4212,54.890152,9.806985,108.3,5.845,1.85,335.95,0.000000,0.000000,54.891502,9.801931
1390066266,3,0,0.0,0,0,4,0,0,0,-0.0292,20.2925,6.8213,0.4212,54.890152,9.806988,108.3,5.845,1.85,335.95,0.000000,0.000000,54.891502,9.801931
1390066266,3,0,0.0,0,0,0,0,0,0,-0.0292,20.2925,6.8213,0.4212,54.890152,9.806991,108.3,5.845,1.85,335.95,0.000000,0.000000,54.891502,9.801931
1390066266,3,0,0.0,0,0,4,0,0,0,-0.0292,20.2925,6.8213,0.4212,54.890152,9.806993,108.3,5.845,1.85,335.95,0.000000,0.000000,54.891502,9.801931
1390066266,3,0,0.0,0,0,0,0,0,0,-0.0292,20.2925,6.8213,0.4212,54.890152,9.806995,108.3,5.845,1.85,335.95,0.000000,0.000000,54.891502,9.801931
1390066267,3,0,0.0,0,0,4,0,0,0,-0.0292,20.2925,6.8213,0.4212,54.890152,9.806997,108.3,5.845,1.85,335.95,0.000000,0.000000,54.891502,9.801931
1390066267,3,0,0.0,0,-10,0,0,0,0,-0.0292,23.6258,6.8213,0.4212,54.890156,9.807000,108.3,5.845,1.85,335.95,0.000000,0.000000,54.891502,9.801931
1390066267,3,0,0.0,0,-6,-4,0,0,0,-0.0292,25.6258,6.8213,0.4212,54.890160,9.807003,108.3,5.845,1.85,335.95,0.000000,0.000000,54.891502,9.801931
1390066267,3,0,0.0,0,-4,0,0,0,0,-0.0292,26.9591,6.8213,0.4212,54.890163,9.807007,108.3,5.845,1.85,335.95,0.000000,0.000000,54.891502,9.801931
1390066268,3,0,0.0,0,-3,-4,0,0,0,-0.0292,27.9591,6.8213,0.4212,54.890167,9.807011,108.3,5.845,1.85,335.95,0.000000,0.000000,54.891502,9.801931
1390066268,3,0,0.0,0,-2,0,0,0,0,-0.0292,28.6258,6.8213,0.4212,54.890171,9.807014,108.3,5.845,1.85,335.95,0.000000,0.000000,54.891502,9.801931
1390066268,3,0,0.0,0,-1,-4,0,0,0,-0.0292,28.9591,6.8213,0.4212,54.890179,9.807019,108.3,5.845,1.85,335.95,0.000000,0.000000,54.891502,9.801931
1390066268,3,0,0.0,0,-1,0,0,0,0,-0.0292,29.2925,6.8213,0.4212,54.890182,9.807024,108.3,5.845,1.85,335.95,0.000000,0.000000,54.891502,9.801931
1390066269,3,0,0.0,0,-1,-4,0,0,0,-0.0292,29.6258,6.8213,0.4212,54.890186,9.807029,108.3,5.845,1.85,335.95,0.000000,0.000000,54.891502,9.801931
1390066269,3,0,0.0,0,0,0,0,0,0,-0.0292,29.6258,6.8213,0.4212,54.890190,9.807034,108.3,5.845,1.85,335.95,0.000000,0.000000,54.891502,9.801931
1390066269,3,0,0.0,0,0,4,0,0,0,-0.0292,29.6258,6.8213,0.4212,54.890194,9.807038,108.3,5.845,1.85,335.95,0.000000,0.000000,54.891502,9.801931
1390066269,3,0,0.0,0,0,0,0,0,0,-0.0292,29.6258,6.8213,0.4212,54.890202,9.807042,108.3,5.845,1.85,335.95,0.000000,0.000000,54.891502,9.801931
1390066270,3,0,0.0,0,0,4,0,0,0,-0.0292,29.6258,6.8213,0.4212,54.890205,9.807046,108.3,5.845,1.85,335.95,0.000000,0.000000,54.891502,9.801931
1390066270,3,0,0.0,0,0,0,0,0,0,-0.0292,29.6258,6.8213,0.4212,54.890209,9.807051,108.3,5.845,1.85,335.95,0.000000,0.000000,54.891502,9.801931
1390066270,3,0,0.0,0,0,4,0,0,0,-0.0292,29.6258,6.8213,0.4212,54.890213,9.807055,108.3,5.845,1.85,335.95,0.000000,0.000000,54.891502,9.801931
1390066270,3,0,0.0,0,0,0,0,0,0,-0.0292,29.6258,6.8213,0.4212,54.890217,9.807060,108.3,5.845,1.85,335.95,0.000000,0.000000,54.891502,9.801931
1390066271,3,0,0.0,0,0,4,0,0,0,-0.0292,29.6258,6.8213,0.4212,54.890221,9.807065,108.3,5.845,1.85,335.95,0.000000,0.000000,54.891502,9.801931
1390066271,3,0,0.0,0,0,0,0,0,0,-0.0292,29.6258,6.8213,0.4212,54.890228,9.807070,108.3,5.845,1.85,335.95,0.000000,0.000000,54.891502,9.801931
1390066271,3,0,0.0,0,0,4,0,0,0,-0.0292,29.6258,6.8213,0.4212,54.890232,9.807075,108.3,5.845,1.85,335.95,0.000000,0.000000,54.891502,9.801931
1390066271,3,0,0.0,0,0,0,0,0,0,-0.0292,29.6258,6.8213,0.4212,54.890236,9.807079,108.3,5.845,1.85,335.95,0.000000,0.000000,54.891502,9.801931
1390066272,3,0,0.0,0,0,4,0,0,0,-0.0292,29.6258,6.8213,0.4212,54.890240,9.807083,108.3,5.845,1.85,335.95,0.000000,0.000000,54.891502,9.801931
1390066272,3,0,0.0,0,10,8,0,0,0,-0.0292,26.2925,6.8213,0.4212,54.890244,9.807086,108.3,5.845,1.85,335.95,0.000000,0.000000,54.891502,9.801931
1390066272,3,0,0.0,0,6,4,0,0,0,-0.0292,24.2925,6.8213,0.4212,54.890247,9.807089,108.3,5.845,1.85,335.95,0.000000,0.000000,54.891502,9.801931
1390066272,3,0,0.0,0,4,8,0,0,0,-0.0292,22.9591,6.8213,0.4212,54.890255,9.807092,108.3,5.845,1.85,335.95,0.000000,0.000000,54.891502,9.801931
1390066273,3,0,0.0,0,3,4,0,0,0,-0.0292,21.9591,6.8213,0.4212,54.890259,9.807095,108.3,5.845,1.85,335.95,0.000000,0.000000,54.891502,9.801931
1390066273,3,0,0.0,0,2,0,0,0,0,-0.0292,21.2925,6.8213,0.4212,54.890263,9.807097,108.3,5.845,1.85,335.95,0.000000,0.000000,54.891502,9.801931
1390066273,3,0,0.0,0,1,4,0,0,0,-0.0292,20.9591,6.8213,0.4212,54.890266,9.807099,108.3,5.845,1.85,335.95,0.000000,0.000000,54.891502,9.801931
1390066273,3,0,0.0,0,1,0,0,0,0,-0.0292,20.6258,6.8213,0.4212,54.890270,9.807101,108.3,5.845,1.85,335.95,0.000000,0.000000,54.891502,9.801931
1390066274,3,0,0.0,0,1,4,0,0,0,-0.0292,20.2925,6.8213,0.4212,54.890274,9.807103,108.3,5.845,1.85,335.95,0.000000,0.000000,54.891502,9.801931
1390066274,3,0,0.0,0,0,0,0,0,0,-0.0292,20.2925,6.8213,0.4212,54.890274,9.807105,108.3,5.845,1.85,335.95,0.000000,0.000000,54.891502,9.801931
1390066274,3,0,0.0,0,0,4,0,0,0,-0.0292,20.2925,6.8213,0.4212,54.890274,9.807108,108.3,5.845,1.85,335.95,0.000000,0.000000,54.891502,9.801931
1390066274,3,0,0.0,0,0,0,0,0,0,-0.0292,20.2925,6.8213,0.4212,54.890274,9.807111,108.3,5.845,1.85,335.95,0.000000,0.000000,54.891502,9.801931
1390066275,3,0,0.0,0,0,4,0,0,0,-0.0292,20.2925,6.8213,0.4212,54.890274,9.807114,108.3,5.845,1.85,335.95,0.000000,0.000000,54.891502,9.801931
1390066275,3,0,0.0,0,0,0,0,0,0,-0.0292,20.2925,6.8213,0.4212,54.890274,9.807117,108.3,5.845,1.85,335.95,0.000000,0.000000,54.891502,9.801931
1390066275,3,0,0.0,0,0,4,0,0,0,-0.0292,20.2925,6.8213,0.4212,54.890274,9.807119,108.3,5.845,1.85,335.95,0.000000,0.000000,54.891502,9.801931
1390066275,3,0,0.0,0,0,0,0,0,0,-0.0292,20.2925,6.8213,0.4212,54.890274,9.807122,108.3,5.845,1.85,335.95,0.000000,0.000000,54.891502,9.801931
1390066276,3,0,0.0,0,0,4,0,0,0,-0.0292,20.2925,6.8213,0.4212,54.890274,9.807124,108.3,5.845,1.85,335.95,0.000000,0.000000,54.891502,9.801931
1390066276,3,0,0.0,0,0,0,0,0,0,-0.0292,20.2925,6.8213,0.4212,54.890274,9.807126,108.3,5.845,1.85,335.95,0.000000,0.000000,54.891502,9.801931
1390066276,3,0,0.0,0,0,4,0,0,0,-0.0292,20.2925,6.8213,0.4212,54.890274,9.807128,108.3,5.845,1.85,335.95,0.000000,0.000000,54.891502,9.801931
1390066276,3,0,0.0,0,0,0,0,0,0,-0.0292,20.2925,6.8213,0.4212,54.890274,9.807130,108.3,5.845,1.85,335.95,0.000000,0.000000,54.891502,9.801931
1390066277,3,0,0.0,0,0,4,0,0,0,-0.0292,20.2925,6.8213,0.4212,54.890274,9.807132,108.3,5.845,1.85,335.95,0.000000,0.000000,54.891502,9.801931
1390066277,3,0,0.0,0,10,8,0,0,0,-0.0292,16.9591,6.8213,0.4212,54.890274,9.807133,108.3,5.845,1.85,335.95,0.000000,0.000000,54.891502,9.801931
1390066277,3,0,0.0,0,7,4,0,0,0,-0.0292,14.6258,6.8213,0.4212,54.890274,9.807134,108.3,5.845,1.85,335.95,0.000000,0.000000,54.891502,9.801931
1390066277,3,0,0.0,0,5,8,0,0,0,-0.0292,12.9591,6.8213,0.4212,54.890274,9.807135,108.3,5.845,1.85,335.95,0.000000,0.000000,54.891502,9.801931
1390066278,3,0,0.0,0,3,4,0,0,0,-0.0292,11.9591,6.8213,0.4212,54.890274,9.807136,108.3,5.845,1.85,335.95,0.000000,0.000000,54.891502,9.801931
1390066278,3,0,0.0,0,2,0,0,0,0,-0.0292,11.2925,6.8213,0.4212,54.890274,9.807137,108.3,5.845,1.85,335.95,0.000000,0.000000,54.891502,9.801931
1390066278,3,0,0.0,0,1,4,0,0,0,-0.0292,10.9591,6.8213,0.4212,54.890274,9.807137,108.3,5.845,1.85,335.95,0.000000,0.000000,54.891502,9.801931
1390066279,3,0,0.0,0,1,0,0,0,0,-0.0292,10.6258,6.8213,0.4212,54.890274,9.807138,108.3,5.845,1.85,335.95,0.000000,0.000000,54.891502,9.801931
1390066279,3,0,0.0,0,1,4,0,0,0,-0.0292,10.2925,6.8213,0.4212,54.890274,9.807139,108.3,5.845,1.85,335.95,0.000000,0.000000,54.891502,9.801931
1390066279,3,0,0.0,0,0,0,0,0,0,-0.0292,10.2925,6.8213,0.4212,54.890274,9.807140,108.3,5.845,1.85,335.95,0.000000,0.000000,54.891502,9.801931
1390066279,3,0,0.0,0,0,4,0,0,0,-0.0292,10.2925,6.8213,0.4212,54.890274,9.807141,108.3,5.845,1.85,335.95,0.000000,0.000000,54.891502,9.801931
1390066280,3,0,0.0,0,0,0,0,0,0,-0.0292,10.2925,6.8213,0.4212,54.890274,9.807142,108.3,5.845,1.85,335.95,0.000000,0.000000,54.891502,9.801931
1390066280,3,0,0.0,0,0,4,0,0,0,-0.0292,10.2925,6.8213,0.4212,54.890274,9.807143,108.3,5.845,1.85,335.95,0.000000,0.000000,54.891502,9.801931
1390066280,3,0,0.0,0,0,0,0,0,0,-0.0292,10.2925,6.8213,0.4212,54.890274,9.807144,108.3,5.845,1.85,335.95,0.000000,0.000000,54.891502,9.801931
1390066280,3,0,0.0,0,0,4,0,0,0,-0.0292,10.2925,6.8213,0.4212,54.890274,9.807145,108.3,5.845,1.85,335.95,0.000000,0.000000,54.891502,9.801931
1390066281,3,0,0.0,0,0,0,0,0,0,-0.0292,10.2925,6.8213,0.4212,54.890274,9.807146,108.3,5.845,1.85,335.95,0.000000,0.000000,54.891502,9.801931
1390066281,3,0,0.0,0,0,4,0,0,0,-0.0292,10.2925,6.8213,0.4212,54.890274,9.807147,108.3,5.845,1.85,335.95,0.000000,0.000000,54.891502,9.801931
1390066281,3,0,0.0,0,0,0,0,0,0,-0.0292,10.2925,6.8213,0.4212,54.890274,9.807148,108.3,5.845,1.85,335.95,0.000000,0.000000,54.891502,9.801931
1390066281,3,0,0.0,0,0,4,0,0,0,-0.0292,10.2925,6.8213,0.4212,54.890274,9.807149,108.3,5.845,1.85,335.95,0.000000,0.000000,54.891502,9.801931
1390066282,3,0,0.0,0,0,0,0,0,0,-0.0292,10.2925,6.8213,0.4212,54.890274,9.807150,108.3,5.845,1.85,335.95,0.000000,0.000000,54.891502,9.801931
1390066282,3,0,0.0,0,0,4,0,0,0,-0.0292,10.2925,6.8213,0.4212,54.890274,9.807151,108.3,5.845,1.85,335.95,0.000000,0.000000,54.891502,9.801931
1390066282,3,0,0.0,0,-10,0,0,0,0,-0.0292,13.6258,6.8213,0.4212,54.890274,9.807152,108.3,5.845,1.85,335.95,0.000000,0.000000,54.891502,9.801931
1390066282,3,0,0.0,0,-6,-4,0,0,0,-0.0292,15.6258,6.8213,0.4212,54.890274,9.807154,108.3,5.845,1.85,335.95,0.000000,0.000000,54.891502,9.801931
1390066283,3,0,0.0,0,-4,0,0,0,0,-0.0292,16.9591,6.8213,0.4212,54.890274,9.807156,108.3,5.845,1.85,335.95,0.000000,0.000000,54.891502,9.801931
1390066283,3,0,0.0,0,-3,-4,0,0,0,-0.0292,17.9591,6.8213,0.4212,54.890274,9.807158,108.3,5.845,1.85,335.95,0.000000,0.000000,54.891502,9.801931
1390066283,3,0,0.0,0,-2,0,0,0,0,-0.0292,18.6258,6.8213,0.4212,54.890274,9.807159,108.3,5.845,1.85,335.95,0.000000,0.000000,54.891502,9.801931
1390066283,3,0,0.0,0,-1,-4,0,0,0,-0.0292,18.9591,6.8213,0.4212,54.890274,9.807162,108.3,5.845,1.85,335.95,0.000000,0.000000,54.891502,9.801931
1390066284,3,0,0.0,0,-1,0,0,0,0,-0.0292,19.2925,6.8213,0.4212,54.890274,9.807165,108.3,5.845,1.85,335.95,0.000000,0.000000,54.891502,9.801931
1390066284,3,0,0.0,0,-1,-4,0,0,0,-0.0292,19.6258,6.8213,0.4212,54.890274,9.807167,108.3,5.845,1.85,335.95,0.000000,0.000000,54.891502,9.801931
1390066284,3,0,0.0,0,0,0,0,0,0,-0.0292,19.6258,6.8213,0.4212,54.890274,9.807169,108.3,5.845,1.85,335.95,0.000000,0.000000,54.891502,9.801931
1390066284,3,0,0.0,0,0,4,0,0,0,-0.0292,19.6258,6.8213,0.4212,54.890274,9.807171,108.3,5.845,1.85,335.95,0.000000,0.000000,54.891502,9.801931
1390066285,3,0,0.0,0,0,0,0,0,0,-0.0292,19.6258,6.8213,0.4212,54.890274,9.807173,108.3,5.845,1.85,335.95,0.000000,0.000000,54.891502,9.801931
1390066285,3,0,0.0,0,0,4,0,0,0,-0.0292,19.6258,6.8213,0.4212,54.890274,9.807175,108.3,5.845,1.85,335.95,0.000000,0.000000,54.891502,9.801931
1390066285,3,0,0.0,0,0,0,0,0,0,-0.0292,19.6258,6.8213,0.4212,54.890274,9.807177,108.3,5.845,1.85,335.95,0.000000,0.000000,54.891502,9.801931
1390066285,3,0,0.0,0,0,4,0,0,0,-0.0292,19.6258,6.8213,0.4212,54.890274,9.807178,108.3,5.845,1.85,335.95,0.000000,0.000000,54.891502,9.801931
1390066286,3,0,0.0,0,0,0,0,0,0,-0.0292,19.6258,6.8213,0.4212,54.890274,9.807180,108.3,5.845,1.85,335.95,0.000000,0.000000,54.891502,9.801931
1390066286,3,0,0.0,0,0,4,0,0,0,-0.0292,19.6258,6.8213,0.4212,54.890274,9.807182,108.3,5.845,1.85,335.95,0.000000,0.000000,54.891502,9.801931
1390066286,3,0,0.0,0,0,0,0,0,0,-0.0292,19.6258,6.8213,0.4212,54.890274,9.807184,108.3,5.845,1.85,335.95,0.000000,0.000000,54.891502,9.801931
1390066286,3,0,0.0,0,0,4,0,0,0,-0.0292,19.6258,6.8213,0.4212,54.890274,9.807186,108.3,5.845,1.85,335.95,0.000000,0.000000,54.891502,9.801931
1390066287,3,0,0.0,0,0,0,0,0,0,-0.0292,19.6258,6.8213,0.4212,54.890274,9.807188,108.3,5.845,1.85,335.95,0.000000,0.000000,54.891502,9.801931
1390066287,3,0,0.0,0,0,4,0,0,0,-0.0292,19.6258,6.8213,0.4212,54.890274,9.807190,108.3,5.845,1.85,335.95,0.000000,0.000000,54.891502,9.801931
1390066287,3,0,0.0,0,-10,0,0,0,0,-0.0292,22.9591,6.8213,0.4212,54.890274,9.807193,108.3,5.845,1.85,335.95,0.000000,0.000000,54.891502,9.801931
1390066287,3,0,0.0,0,-7,-4,0,0,0,-0.0292,25.2925,6.8213,0.4212,54.890278,9.807197,108.3,5.845,1.85,335.95,0.000000,0.000000,54.891502,9.801931
1390066288,3,0,0.0,0,-5,-8,0,0,0,-0.0292,26.9591,6.8213,0.4212,54.890282,9.807200,108.3,5.845,1.85,335.95,0.000000,0.000000,54.891502,9.801931
1390066288,3,0,0.0,0,-3,-4,0,0,0,-0.0292,27.9591,6.8213,0.4212,54.890285,9.807205,108.3,5.845,1.85,335.95,0.000000,0.000000,54.891502,9.801931
1390066288,3,0,0.0,0,-2,0,0,0,0,-0.0292,28.6258,6.8213,0.4212,54.890289,9.807210,108.3,5.845,1.85,335.95,0.000000,0.000000,54.891502,9.801931
1390066288,3,0,0.0,0,-1,-4,0,0,0,-0.0292,28.9591,6.8213,0.4212,54.890293,9.807214,108.3,5.845,1.85,335.95,0.000000,0.000000,54.891502,9.801931
1390066289,3,0,0.0,0,-1,0,0,0,0,-0.0292,29.2925,6.8213,0.4212,54.890301,9.807218,108.3,5.845,1.85,335.95,0.000000,0.000000,54.891502,9.801931
1390066289,3,0,0.0,0,-1,-4,0,0,0,-0.0292,29.6258,6.8213,0.4212,54.890305,9.807222,108.3,5.845,1.85,335.95,0.000000,0.000000,54.891502,9.801931
1390066289,3,0,0.0,0,0,0,0,0,0,-0.0292,29.6258,6.8213,0.4212,54.890308,9.807227,108.3,5.845,1.85,335.95,0.000000,0.000000,54.891502,9.801931
1390066289,3,0,0.0,0,0,4,0,0,0,-0.0292,29.6258,6.8213,0.4212,54.890312,9.807232,108.3,5.845,1.85,335.95,0.000000,0.000000,54.891502,9.801931
1390066290,3,0,0.0,0,0,0,0,0,0,-0.0292,29.6258,6.8213,0.4212,54.890316,9.807237,108.3,5.845,1.85,335.95,0.000000,0.000000,54.891502,9.801931
1390066290,3,0,0.0,0,0,4,0,0,0,-0.0292,29.6258,6.8213,0.4212,54.890324,9.807241,108.3,5.845,1.85,335.95,0.000000,0.000000,54.891502,9.801931
1390066290,3,0,0.0,0,0,0,0,0,0,-0.0292,29.6258,6.8213,0.4212,54.890327,9.807246,108.3,5.845,1.85,335.95,0.000000,0.000000,54.891502,9.801931
