MCU_timestamp,Navigation_System,Manual_Control,Guidance_Heading,Manual_Ctrl_Rudder,Rudder_Desired_Angle,Rudder_Feedback,Manual_Ctrl_Sail,Sail_Desired_Pos,Sail_Feedback,Rate,Heading,Pitch,Roll,Latitude,Longitude,COG,SOG,Wind_Speed,Wind_Angle,Point_Start_Lat,Point_Start_Lon,Point_End_Lat,Point_End_Lon
1390096173,0,0,0.0,0,0,4,0,0,0,-0.0292,0.2922,6.8213,0.4212,54.903168,9.782220,108.3,5.845,1.85,335.95,0.000000,0.000000,0.000000,0.000000
1390096173,0,0,0.0,0,0,4,0,0,0,-0.0292,0.2922,6.8213,0.4212,54.903168,9.782220,108.3,5.845,1.85,335.95,0.000000,0.000000,0.000000,0.000000
1390096173,0,0,0.0,0,0,4,0,0,0,-0.0292,0.2922,6.8213,0.4212,54.903168,9.782220,108.3,5.845,1.85,335.95,0.000000,0.000000,0.000000,0.000000
1390096174,0,0,0.0,0,0,4,0,0,0,-0.0292,0.2922,6.8213,0.4212,54.903168,9.782220,108.3,5.845,1.85,335.95,0.000000,0.000000,0.000000,0.000000
1390096174,0,0,0.0,0,0,4,0,0,0,-0.0292,0.2922,6.8213,0.4212,54.903168,9.782220,108.3,5.845,1.85,335.95,0.000000,0.000000,0.000000,0.000000
1390096174,0,0,0.0,0,0,4,0,0,0,-0.0292,0.2922,6.8213,0.4212,54.903168,9.782220,108.3,5.845,1.85,335.95,0.000000,0.000000,0.000000,0.000000
1390096174,0,0,0.0,0,0,4,0,0,0,-0.0292,0.2922,6.8213,0.4212,54.903168,9.782220,108.3,5.845,1.85,335.95,0.000000,0.000000,0.000000,0.000000
1390096175,0,0,0.0,0,0,4,0,0,0,-0.0292,0.2922,6.8213,0.4212,54.903168,9.782220,108.3,5.845,1.85,335.95,0.000000,0.000000,0.000000,0.000000
1390096175,0,0,0.0,0,0,4,0,0,0,-0.0292,0.2922,6.8213,0.4212,54.903168,9.782220,108.3,5.845,1.85,335.95,0.000000,0.000000,0.000000,0.000000
1390096175,0,0,0.0,0,0,4,0,0,0,-0.0292,0.2922,6.8213,0.4212,54.903168,9.782220,108.3,5.845,1.85,335.95,0.000000,0.000000,0.000000,0.000000
1390096175,4,0,0.0,0,0,4,0,0,0,-0.0292,0.2922,6.8213,0.4212,54.903168,9.782220,108.3,5.845,1.85,335.95,0.000000,0.000000,0.000000,0.000000
1390096176,1,0,0.0,0,0,0,0,0,238,-0.0292,0.2922,6.8213,0.4212,54.903183,9.782220,108.3,5.845,1.85,335.95,54.895069,9.793790,54.895348,9.797490
1390096176,1,0,0.0,0,0,4,0,0,226,-0.0292,0.2922,6.8213,0.4212,54.903202,9.782220,108.3,5.845,1.85,335.95,54.895348,9.797490,54.894039,9.801540
1390096176,1,0,0.0,0,0,0,0,0,214,-0.0292,0.2922,6.8213,0.4212,54.903221,9.782220,108.3,5.845,1.85,335.95,54.894039,9.801540,54.893795,9.802299
1390096176,1,0,0.0,0,0,4,0,0,202,-0.0292,0.2922,6.8213,0.4212,54.903240,9.782220,108.3,5.845,1.85,335.95,54.893795,9.802299,54.893364,9.803688
1390096177,1,0,0.0,0,0,0,0,0,190,-0.0292,0.2922,6.8213,0.4212,54.903255,9.782220,108.3,5.845,1.85,335.95,54.893364,9.803688,54.892704,9.801139
1390096177,1,0,0.0,0,0,4,0,0,178,-0.0292,0.2922,6.8213,0.4212,54.903275,9.782220,108.3,5.845,1.85,335.95,54.892704,9.801139,54.891663,9.800174
1390096177,1,0,0.0,0,0,0,0,0,166,-0.0292,0.2922,6.8213,0.4212,54.903294,9.782220,108.3,5.845,1.85,335.95,54.891663,9.800174,54.892929,9.805077
1390096177,1,0,0.0,0,0,4,0,0,154,-0.0292,0.2922,6.8213,0.4212,54.903313,9.782220,108.3,5.845,1.85,335.95,54.892929,9.805077,54.892498,9.806466
1390096178,1,0,0.0,0,0,0,0,0,142,-0.0292,0.2922,6.8213,0.4212,54.903328,9.782220,108.3,5.845,1.85,335.95,54.892498,9.806466,54.891232,9.801563
1390096178,1,0,0.0,0,0,4,0,0,130,-0.0292,0.2922,6.8213,0.4212,54.903347,9.782220,108.3,5.845,1.85,335.95,54.891232,9.801563,54.890800,9.802953
1390096178,1,0,0.0,0,0,0,0,0,118,-0.0292,0.2922,6.8213,0.4212,54.903362,9.782220,108.3,5.845,1.85,335.95,54.890800,9.802953,54.891651,9.806246
1390096178,1,0,0.0,0,0,4,0,0,106,-0.0292,0.2922,6.8213,0.4212,54.903378,9.782220,108.3,5.845,1.85,335.95,54.891651,9.806246,54.890560,9.805087
1390096179,1,0,0.0,0,0,0,0,0,94,-0.0292,0.2922,6.8213,0.4212,54.903393,9.782220,108.3,5.845,1.85,335.95,54.890560,9.805087,54.890366,9.804342
1390096179,1,0,0.0,0,0,4,0,0,82,-0.0292,0.2922,6.8213,0.4212,54.903404,9.782220,108.3,5.845,1.85,335.95,54.890366,9.804342,54.890846,9.801930
1390096179,1,0,0.0,0,0,0,0,0,70,-0.0292,0.2922,6.8213,0.4212,54.903416,9.782220,108.3,5.845,1.85,335.95,54.890846,9.801930,54.889477,9.798280
1390096179,1,0,0.0,0,0,4,0,0,58,-0.0292,0.2922,6.8213,0.4212,54.903423,9.782220,108.3,5.845,1.85,335.95,54.889477,9.798280,54.891819,9.794550
1390096180,1,0,0.0,0,0,0,0,0,46,-0.0292,0.2922,6.8213,0.4212,54.903431,9.782220,108.3,5.845,1.85,335.95,54.891819,9.794550,54.895348,9.797490
1390096180,1,0,0.0,0,0,4,0,0,34,-0.0292,0.2922,6.8213,0.4212,54.903435,9.782220,108.3,5.845,1.85,335.95,54.895348,9.797490,54.895069,9.793790
1390096180,1,0,0.0,0,0,0,0,0,22,-0.0292,0.2922,6.8213,0.4212,54.903439,9.782220,108.3,5.845,1.85,335.95,54.895348,9.797490,54.895069,9.793790
1390096180,3,0,0.0,0,0,4,0,20,10,-0.0292,0.2922,6.8213,0.4212,54.903439,9.782220,108.3,5.845,1.85,335.95,54.895348,9.797490,54.903439,9.782220
1390096181,3,0,0.0,0,0,0,0,20,22,-0.0292,0.2922,6.8213,0.4212,54.903442,9.782220,108.3,5.845,1.85,335.95,54.895348,9.797490,54.903439,9.782220
1390096181,3,0,0.0,0,0,4,0,20,10,-0.0292,0.2922,6.8213,0.4212,54.903442,9.782220,108.3,5.845,1.85,335.95,54.895348,9.797490,54.903439,9.782220
1390096181,3,0,0.0,0,0,0,0,20,22,-0.0292,0.2922,6.8213,0.4212,54.903446,9.782220,108.3,5.845,1.85,335.95,54.895348,9.797490,54.903439,9.782220
1390096181,3,0,0.0,0,0,4,0,20,10,-0.0292,0.2922,6.8213,0.4212,54.903450,9.782220,108.3,5.845,1.85,335.95,54.895348,9.797490,54.903439,9.782220
1390096182,3,0,0.0,0,0,0,0,20,22,-0.0292,0.2922,6.8213,0.4212,54.903454,9.782220,108.3,5.845,1.85,335.95,54.895348,9.797490,54.903439,9.782220
1390096182,3,0,0.0,0,0,4,0,20,10,-0.0292,0.2922,6.8213,0.4212,54.903458,9.782220,108.3,5.845,1.85,335.95,54.895348,9.797490,54.903439,9.782220
1390096182,3,0,0.0,0,0,0,0,20,22,-0.0292,0.2922,6.8213,0.4212,54.903461,9.782220,108.3,5.845,1.85,335.95,54.895348,9.797490,54.903439,9.782220
1390096182,3,0,0.0,0,0,4,0,20,10,-0.0292,0.2922,6.8213,0.4212,54.903461,9.782220,108.3,5.845,1.85,335.95,54.895348,9.797490,54.903439,9.782220
1390096183,3,0,0.0,0,0,0,0,20,22,-0.0292,0.2922,6.8213,0.4212,54.903465,9.782220,108.3,5.845,1.85,335.95,54.895348,9.797490,54.903439,9.782220
1390096183,3,0,0.0,0,0,4,0,20,10,-0.0292,0.2922,6.8213,0.4212,54.903465,9.782220,108.3,5.845,1.85,335.95,54.895348,9.797490,54.903439,9.782220
1390096183,3,0,0.0,0,0,0,0,20,22,-0.0292,0.2922,6.8213,0.4212,54.903469,9.782220,108.3,5.845,1.85,335.95,54.895348,9.797490,54.903439,9.782220
1390096183,3,0,0.0,0,0,4,0,20,10,-0.0292,0.2922,6.8213,0.4212,54.903473,9.782220,108.3,5.845,1.85,335.95,54.895348,9.797490,54.903439,9.782220
1390096184,3,0,0.0,0,0,0,0,20,22,-0.0292,0.2922,6.8213,0.4212,54.903477,9.782220,108.3,5.845,1.85,335.95,54.895348,9.797490,54.903439,9.782220
1390096184,3,0,0.0,0,0,4,0,20,10,-0.0292,0.2922,6.8213,0.4212,54.903481,9.782220,108.3,5.845,1.85,335.95,54.895348,9.797490,54.903439,9.782220
1390096184,3,0,0.0,0,0,0,0,20,22,-0.0292,0.2922,6.8213,0.4212,54.903481,9.782220,108.3,5.845,1.85,335.95,54.895348,9.797490,54.903439,9.782220
1390096184,3,0,0.0,0,0,4,0,20,10,-0.0292,0.2922,6.8213,0.4212,54.903481,9.782220,108.3,5.845,1.85,335.95,54.895348,9.797490,54.903439,9.782220
1390096185,3,0,0.0,0,0,0,0,20,22,-0.0292,0.2922,6.8213,0.4212,54.903481,9.782220,108.3,5.845,1.85,335.95,54.895348,9.797490,54.903439,9.782220
1390096185,3,0,0.0,0,0,4,0,20,10,-0.0292,0.2922,6.8213,0.4212,54.903481,9.782220,108.3,5.845,1.85,335.95,54.895348,9.797490,54.903439,9.782220
1390096185,3,0,0.0,0,0,0,0,20,22,-0.0292,0.2922,6.8213,0.4212,54.903481,9.782220,108.3,5.845,1.85,335.95,54.895348,9.797490,54.903439,9.782220
1390096185,3,0,0.0,0,0,4,0,40,34,-0.0292,0.2922,6.8213,0.4212,54.903484,9.782220,108.3,5.845,1.85,335.95,54.895348,9.797490,54.903439,9.782220
1390096186,3,0,0.0,0,0,0,0,40,46,-0.0292,0.2922,6.8213,0.4212,54.903492,9.782220,108.3,5.845,1.85,335.95,54.895348,9.797490,54.903439,9.782220
1390096186,3,0,0.0,0,0,4,0,40,34,-0.0292,0.2922,6.8213,0.4212,54.903500,9.782220,108.3,5.845,1.85,335.95,54.895348,9.797490,54.903439,9.782220
1390096186,3,0,0.0,0,0,0,0,40,46,-0.0292,0.2922,6.8213,0.4212,54.903507,9.782220,108.3,5.845,1.85,335.95,54.895348,9.797490,54.903439,9.782220
1390096186,3,0,0.0,0,0,4,0,40,34,-0.0292,0.2922,6.8213,0.4212,54.903511,9.782220,108.3,5.845,1.85,335.95,54.895348,9.797490,54.903439,9.782220
1390096187,3,0,0.0,0,0,0,0,40,46,-0.0292,0.2922,6.8213,0.4212,54.903519,9.782220,108.3,5.845,1.85,335.95,54.895348,9.797490,54.903439,9.782220
1390096187,3,0,0.0,0,0,4,0,40,34,-0.0292,0.2922,6.8213,0.4212,54.903526,9.782220,108.3,5.845,1.85,335.95,54.895348,9.797490,54.903439,9.782220
1390096187,3,0,0.0,0,0,0,0,40,46,-0.0292,0.2922,6.8213,0.4212,54.903538,9.782220,108.3,5.845,1.85,335.95,54.895348,9.797490,54.903439,9.782220
1390096187,3,0,0.0,0,0,4,0,40,34,-0.0292,0.2922,6.8213,0.4212,54.903542,9.782220,108.3,5.845,1.85,335.95,54.895348,9.797490,54.903439,9.782220
1390096188,3,0,0.0,0,0,0,0,40,46,-0.0292,0.2922,6.8213,0.4212,54.903549,9.782220,108.3,5.845,1.85,335.95,54.895348,9.797490,54.903439,9.782220
1390096188,3,0,0.0,0,0,4,0,40,34,-0.0292,0.2922,6.8213,0.4212,54.903557,9.782220,108.3,5.845,1.85,335.95,54.895348,9.797490,54.903439,9.782220
1390096188,3,0,0.0,0,0,0,0,40,46,-0.0292,0.2922,6.8213,0.4212,54.903564,9.782220,108.3,5.845,1.85,335.95,54.895348,9.797490,54.903439,9.782220
1390096189,3,0,0.0,0,0,4,0,40,34,-0.0292,0.2922,6.8213,0.4212,54.903572,9.782220,108.3,5.845,1.85,335.95,54.895348,9.797490,54.903439,9.782220
1390096189,3,0,0.0,0,0,0,0,40,46,-0.0292,0.2922,6.8213,0.4212,54.903580,9.782220,108.3,5.845,1.85,335.95,54.895348,9.797490,54.903439,9.782220
1390096189,3,0,0.0,0,0,4,0,40,34,-0.0292,0.2922,6.8213,0.4212,54.903584,9.782220,108.3,5.845,1.85,335.95,54.895348,9.797490,54.903439,9.782220
1390096189,3,0,0.0,0,0,0,0,40,46,-0.0292,0.2922,6.8213,0.4212,54.903591,9.782220,108.3,5.845,1.85,335.95,54.895348,9.797490,54.903439,9.782220
1390096190,3,0,0.0,0,0,4,0,40,34,-0.0292,0.2922,6.8213,0.4212,54.903599,9.782220,108.3,5.845,1.85,335.95,54.895348,9.797490,54.903439,9.782220
1390096190,3,0,0.0,0,0,0,0,40,46,-0.0292,0.2922,6.8213,0.4212,54.903606,9.782220,108.3,5.845,1.85,335.95,54.895348,9.797490,54.903439,9.782220
1390096190,3,0,0.0,0,0,4,0,40,34,-0.0292,0.2922,6.8213,0.4212,54.903610,9.782220,108.3,5.845,1.85,335.95,54.895348,9.797490,54.903439,9.782220
1390096190,3,0,0.0,0,0,0,0,40,46,-0.0292,0.2922,6.8213,0.4212,54.903618,9.782220,108.3,5.845,1.85,335.95,54.895348,9.797490,54.903439,9.782220
1390096191,3,0,0.0,0,0,4,0,60,58,-0.0292,0.2922,6.8213,0.4212,54.903629,9.782220,108.3,5.845,1.85,335.95,54.895348,9.797490,54.903439,9.782220
1390096191,3,0,0.0,0,0,0,0,60,70,-0.0292,0.2922,6.8213,0.4212,54.903637,9.782220,108.3,5.845,1.85,335.95,54.895348,9.797490,54.903439,9.782220
1390096191,3,0,0.0,0,0,4,0,60,58,-0.0292,0.2922,6.8213,0.4212,54.903645,9.782220,108.3,5.845,1.85,335.95,54.895348,9.797490,54.903439,9.782220
1390096191,3,0,0.0,0,0,0,0,60,70,-0.0292,0.2922,6.8213,0.4212,54.903656,9.782220,108.3,5.845,1.85,335.95,54.895348,9.797490,54.903439,9.782220
1390096192,3,0,0.0,0,0,4,0,60,58,-0.0292,0.2922,6.8213,0.4212,54.903664,9.782220,108.3,5.845,1.85,335.95,54.895348,9.797490,54.903439,9.782220
1390096192,3,0,0.0,0,0,0,0,60,70,-0.0292,0.2922,6.8213,0.4212,54.903675,9.782220,108.3,5.845,1.85,335.95,54.895348,9.797490,54.903439,9.782220
1390096192,3,0,0.0,0,0,4,0,60,58,-0.0292,0.2922,6.8213,0.4212,54.903687,9.782220,108.3,5.845,1.85,335.95,54.895348,9.797490,54.903439,9.782220
1390096192,3,0,0.0,0,0,0,0,60,70,-0.0292,0.2922,6.8213,0.4212,54.903698,9.782220,108.3,5.845,1.85,335.95,54.895348,9.797490,54.903439,9.782220
1390096193,3,0,0.0,0,0,4,0,60,58,-0.0292,0.2922,6.8213,0.4212,54.903709,9.782220,108.3,5.845,1.85,335.95,54.895348,9.797490,54.903439,9.782220
1390096193,3,0,0.0,0,0,0,0,60,70,-0.0292,0.2922,6.8213,0.4212,54.903721,9.782220,108.3,5.845,1.85,335.95,54.895348,9.797490,54.903439,9.782220
1390096193,3,0,0.0,0,0,4,0,60,58,-0.0292,0.2922,6.8213,0.4212,54.903732,9.782220,108.3,5.845,1.85,335.95,54.895348,9.797490,54.903439,9.782220
1390096193,3,0,0.0,0,0,0,0,60,70,-0.0292,0.2922,6.8213,0.4212,54.903744,9.782220,108.3,5.845,1.85,335.95,54.895348,9.797490,54.903439,9.782220
1390096194,3,0,0.0,0,0,4,0,60,58,-0.0292,0.2922,6.8213,0.4212,54.903755,9.782220,108.3,5.845,1.85,335.95,54.895348,9.797490,54.903439,9.782220
1390096194,3,0,0.0,0,0,0,0,60,70,-0.0292,0.2922,6.8213,0.4212,54.903767,9.782220,108.3,5.845,1.85,335.95,54.895348,9.797490,54.903439,9.782220
1390096194,3,0,0.0,0,0,4,0,60,58,-0.0292,0.2922,6.8213,0.4212,54.903778,9.782220,108.3,5.845,1.85,335.95,54.895348,9.797490,54.903439,9.782220
1390096194,3,0,0.0,0,0,0,0,60,70,-0.0292,0.2922,6.8213,0.4212,54.903786,9.782220,108.3,5.845,1.85,335.95,54.895348,9.797490,54.903439,9.782220
1390096195,3,0,0.0,0,0,4,0,60,58,-0.0292,0.2922,6.8213,0.4212,54.903793,9.782220,108.3,5.845,1.85,335.95,54.895348,9.797490,54.903439,9.782220
1390096195,3,0,0.0,0,0,0,0,60,70,-0.0292,0.2922,6.8213,0.4212,54.903805,9.782220,108.3,5.845,1.85,335.95,54.895348,9.797490,54.903439,9.782220
1390096195,3,0,0.0,0,0,4,0,60,58,-0.0292,0.2922,6.8213,0.4212,54.903812,9.782220,108.3,5.845,1.85,335.95,54.895348,9.797490,54.903439,9.782220
1390096195,3,0,0.0,0,0,0,0,60,70,-0.0292,0.2922,6.8213,0.4212,54.903824,9.782220,108.3,5.845,1.85,335.95,54.895348,9.797490,54.903439,9.782220
1390096196,3,0,0.0,0,0,4,0,80,82,-0.0292,0.2922,6.8213,0.4212,54.903839,9.782220,108.3,5.845,1.85,335.95,54.895348,9.797490,54.903439,9.782220
1390096196,3,0,0.0,0,0,0,0,80,70,-0.0292,0.2922,6.8213,0.4212,54.903851,9.782220,108.3,5.845,1.85,335.95,54.895348,9.797490,54.903439,9.782220
1390096196,3,0,0.0,0,0,4,0,80,82,-0.0292,0.2922,6.8213,0.4212,54.903862,9.782220,108.3,5.845,1.85,335.95,54.895348,9.797490,54.903439,9.782220
1390096196,3,0,0.0,0,0,0,0,80,70,-0.0292,0.2922,6.8213,0.4212,54.903873,9.782220,108.3,5.845,1.85,335.95,54.895348,9.797490,54.903439,9.782220
1390096197,3,0,0.0,0,0,4,0,80,82,-0.0292,0.2922,6.8213,0.4212,54.903889,9.782220,108.3,5.845,1.85,335.95,54.895348,9.797490,54.903439,9.782220
1390096197,3,0,0.0,0,0,0,0,80,70,-0.0292,0.2922,6.8213,0.4212,54.903900,9.782220,108.3,5.845,1.85,335.95,54.895348,9.797490,54.903439,9.782220
1390096197,3,0,0.0,0,0,4,0,80,82,-0.0292,0.2922,6.8213,0.4212,54.903912,9.782220,108.3,5.845,1.85,335.95,54.895348,9.797490,54.903439,9.782220
1390096197,3,0,0.0,0,0,0,0,80,70,-0.0292,0.2922,6.8213,0.4212,54.903923,9.782220,108.3,5.845,1.85,335.95,54.895348,9.797490,54.903439,9.782220
1390096198,3,0,0.0,0,0,4,0,80,82,-0.0292,0.2922,6.8213,0.4212,54.903934,9.782220,108.3,5.845,1.85,335.95,54.895348,9.797490,54.903439,9.782220
1390096198,3,0,0.0,0,0,0,0,80,70,-0.0292,0.2922,6.8213,0.4212,54.903946,9.782220,108.3,5.845,1.85,335.95,54.895348,9.797490,54.903439,9.782220
1390096198,3,0,0.0,0,0,4,0,80,82,-0.0292,0.2922,6.8213,0.4212,54.903961,9.782220,108.3,5.845,1.85,335.95,54.895348,9.797490,54.903439,9.782220
1390096198,3,0,0.0,0,0,0,0,80,70,-0.0292,0.2922,6.8213,0.4212,54.903973,9.782220,108.3,5.845,1.85,335.95,54.895348,9.797490,54.903439,9.782220
1390096199,3,0,0.0,0,0,4,0,80,82,-0.0292,0.2922,6.8213,0.4212,54.903984,9.782220,108.3,5.845,1.85,335.95,54.895348,9.797490,54.903439,9.782220
1390096199,3,0,0.0,0,0,0,0,80,70,-0.0292,0.2922,6.8213,0.4212,54.903996,9.782220,108.3,5.845,1.85,335.95,54.895348,9.797490,54.903439,9.782220
1390096199,3,0,0.0,0,0,4,0,80,82,-0.0292,0.2922,6.8213,0.4212,54.904011,9.782220,108.3,5.845,1.85,335.95,54.895348,9.797490,54.903439,9.782220
1390096199,3,0,0.0,0,0,0,0,80,70,-0.0292,0.2922,6.8213,0.4212,54.904022,9.782220,108.3,5.845,1.85,335.95,54.895348,9.797490,54.903439,9.782220
1390096200,3,0,0.0,0,0,4,0,80,82,-0.0292,0.2922,6.8213,0.4212,54.904034,9.782220,108.3,5.845,1.85,335.95,54.895348,9.797490,54.903439,9.782220
1390096200,3,0,0.0,0,0,0,0,80,70,-0.0292,0.2922,6.8213,0.4212,54.904045,9.782220,108.3,5.845,1.85,335.95,54.895348,9.797490,54.903439,9.782220
1390096200,3,0,0.0,0,0,4,0,80,82,-0.0292,0.2922,6.8213,0.4212,54.904060,9.782220,108.3,5.845,1.85,335.95,54.895348,9.797490,54.903439,9.782220
1390096200,3,0,0.0,0,0,0,0,80,70,-0.0292,0.2922,6.8213,0.4212,54.904072,9.782220,108.3,5.845,1.85,335.95,54.895348,9.797490,54.903439,9.782220
1390096201,3,0,0.0,0,0,4,0,100,82,-0.0292,0.2922,6.8213,0.4212,54.904083,9.782220,108.3,5.845,1.85,335.95,54.895348,9.797490,54.903439,9.782220
1390096201,3,0,0.0,0,0,0,0,100,94,-0.0292,0.2922,6.8213,0.4212,54.904099,9.782220,108.3,5.845,1.85,335.95,54.895348,9.797490,54.903439,9.782220
1390096201,3,0,0.0,0,0,4,0,100,106,-0.0292,0.2922,6.8213,0.4212,54.904110,9.782220,108.3,5.845,1.85,335.95,54.895348,9.797490,54.903439,9.782220
1390096201,3,0,0.0,0,0,0,0,100,94,-0.0292,0.2922,6.8213,0.4212,54.904125,9.782220,108.3,5.845,1.85,335.95,54.895348,9.797490,54.903439,9.782220
1390096202,3,0,0.0,0,0,4,0,100,106,-0.0292,0.2922,6.8213,0.4212,54.904140,9.782220,108.3,5.845,1.85,335.95,54.895348,9.797490,54.903439,9.782220
1390096202,3,0,0.0,0,0,0,0,100,94,-0.0292,0.2922,6.8213,0.4212,54.904156,9.782220,108.3,5.845,1.85,335.95,54.895348,9.797490,54.903439,9.782220
1390096202,3,0,0.0,0,0,4,0,100,106,-0.0292,0.2922,6.8213,0.4212,54.904171,9.782220,108.3,5.845,1.85,335.95,54.895348,9.797490,54.903439,9.782220
1390096202,3,0,0.0,0,0,0,0,100,94,-0.0292,0.2922,6.8213,0.4212,54.904182,9.782220,108.3,5.845,1.85,335.95,54.895348,9.797490,54.903439,9.782220
1390096203,3,0,0.0,0,0,4,0,100,106,-0.0292,0.2922,6.8213,0.4212,54.904198,9.782220,108.3,5.845,1.85,335.95,54.895348,9.797490,54.903439,9.782220
1390096203,3,0,0.0,0,0,0,0,100,94,-0.0292,0.2922,6.8213,0.4212,54.904209,9.782220,108.3,5.845,1.85,335.95,54.895348,9.797490,54.903439,9.782220
1390096203,3,0,0.0,0,0,4,0,100,106,-0.0292,0.2922,6.8213,0.4212,54.904224,9.782220,108.3,5.845,1.85,335.95,54.895348,9.797490,54.903439,9.782220
1390096203,3,0,0.0,0,0,0,0,100,94,-0.0292,0.2922,6.8213,0.4212,54.904236,9.782220,108.3,5.845,1.85,335.95,54.895348,9.797490,54.903439,9.782220
1390096204,3,0,0.0,0,0,4,0,100,106,-0.0292,0.2922,6.8213,0.4212,54.904251,9.782220,108.3,5.845,1.85,335.95,54.895348,9.797490,54.903439,9.782220
1390096204,3,0,0.0,0,0,0,0,100,94,-0.0292,0.2922,6.8213,0.4212,54.904263,9.782220,108.3,5.845,1.85,335.95,54.895348,9.797490,54.903439,9.782220
1390096204,3,0,0.0,0,0,4,0,100,106,-0.0292,0.2922,6.8213,0.4212,54.904278,9.782220,108.3,5.845,1.85,335.95,54.895348,9.797490,54.903439,9.782220
1390096204,3,0,0.0,0,0,0,0,100,94,-0.0292,0.2922,6.8213,0.4212,54.904293,9.782220,108.3,5.845,1.85,335.95,54.895348,9.797490,54.903439,9.782220
1390096205,3,0,0.0,0,0,4,0,100,106,-0.0292,0.2922,6.8213,0.4212,54.904305,9.782220,108.3,5.845,1.85,335.95,54.895348,9.797490,54.903439,9.782220
1390096205,3,0,0.0,0,0,0,0,100,94,-0.0292,0.2922,6.8213,0.4212,54.904320,9.782220,108.3,5.845,1.85,335.95,54.895348,9.797490,54.903439,9.782220
1390096205,3,0,0.0,0,0,4,0,100,106,-0.0292,0.2922,6.8213,0.4212,54.904331,9.782220,108.3,5.845,1.85,335.95,54.895348,9.797490,54.903439,9.782220
1390096205,3,0,0.0,0,0,0,0,100,94,-0.0292,0.2922,6.8213,0.4212,54.904346,9.782220,108.3,5.845,1.85,335.95,54.895348,9.797490,54.903439,9.782220
1390096206,3,0,0.0,0,0,4,0,120,106,-0.0292,0.2922,6.8213,0.4212,54.904362,9.782220,108.3,5.845,1.85,335.95,54.895348,9.797490,54.903439,9.782220
1390096206,3,0,0.0,0,0,0,0,120,118,-0.0292,0.2922,6.8213,0.4212,54.904381,9.782220,108.3,5.845,1.85,335.95,54.895348,9.797490,54.903439,9.782220
1390096206,3,0,0.0,0,0,4,0,120,130,-0.0292,0.2922,6.8213,0.4212,54.904396,9.782220,108.3,5.845,1.85,335.95,54.895348,9.797490,54.903439,9.782220
1390096206,3,0,0.0,0,0,0,0,120,118,-0.0292,0.2922,6.8213,0.4212,54.904411,9.782220,108.3,5.845,1.85,335.95,54.895348,9.797490,54.903439,9.782220
1390096207,3,0,0.0,0,0,4,0,120,130,-0.0292,0.2922,6.8213,0.4212,54.904430,9.782220,108.3,5.845,1.85,335.95,54.895348,9.797490,54.903439,9.782220
1390096207,3,0,0.0,0,0,0,0,120,118,-0.0292,0.2922,6.8213,0.4212,54.904446,9.782220,108.3,5.845,1.85,335.95,54.895348,9.797490,54.903439,9.782220
1390096207,3,0,0.0,0,0,4,0,120,130,-0.0292,0.2922,6.8213,0.4212,54.904461,9.782220,108.3,5.845,1.85,335.95,54.895348,9.797490,54.903439,9.782220
1390096207,3,0,0.0,0,0,0,0,120,118,-0.0292,0.2922,6.8213,0.4212,54.904480,9.782220,108.3,5.845,1.85,335.95,54.895348,9.797490,54.903439,9.782220
1390096208,3,0,0.0,0,0,4,0,120,130,-0.0292,0.2922,6.8213,0.4212,54.904499,9.782220,108.3,5.845,1.85,335.95,54.895348,9.797490,54.903439,9.782220
1390096208,3,0,0.0,0,0,0,0,120,118,-0.0292,0.2922,6.8213,0.4212,54.904514,9.782220,108.3,5.845,1.85,335.95,54.895348,9.797490,54.903439,9.782220
1390096208,3,0,0.0,0,0,4,0,120,130,-0.0292,0.2922,6.8213,0.4212,54.904530,9.782220,108.3,5.845,1.85,335.95,54.895348,9.797490,54.903439,9.782220
1390096208,3,0,0.0,0,0,0,0,120,118,-0.0292,0.2922,6.8213,0.4212,54.904545,9.782220,108.3,5.845,1.85,335.95,54.895348,9.797490,54.903439,9.782220
1390096209,3,0,0.0,0,0,4,0,120,130,-0.0292,0.2922,6.8213,0.4212,54.904560,9.782220,108.3,5.845,1.85,335.95,54.895348,9.797490,54.903439,9.782220
1390096209,3,0,0.0,0,0,0,0,120,118,-0.0292,0.2922,6.8213,0.4212,54.904579,9.782220,108.3,5.845,1.85,335.95,54.895348,9.797490,54.903439,9.782220
1390096209,3,0,0.0,0,0,4,0,120,130,-0.0292,0.2922,6.8213,0.4212,54.904598,9.782220,108.3,5.845,1.85,335.95,54.895348,9.797490,54.903439,9.782220
1390096209,3,0,0.0,0,0,0,0,120,118,-0.0292,0.2922,6.8213,0.4212,54.904613,9.782220,108.3,5.845,1.85,335.95,54.895348,9.797490,54.903439,9.782220
1390096210,3,0,0.0,0,0,4,0,120,130,-0.0292,0.2922,6.8213,0.4212,54.904629,9.782220,108.3,5.845,1.85,335.95,54.895348,9.797490,54.903439,9.782220
1390096210,3,0,0.0,0,0,0,0,120,118,-0.0292,0.2922,6.8213,0.4212,54.904644,9.782220,108.3,5.845,1.85,335.95,54.895348,9.797490,54.903439,9.782220
1390096210,3,0,0.0,0,0,4,0,120,130,-0.0292,0.2922,6.8213,0.4212,54.904659,9.782220,108.3,5.845,1.85,335.95,54.895348,9.797490,54.903439,9.782220
1390096210,3,0,0.0,0,0,0,0,120,118,-0.0292,0.2922,6.8213,0.4212,54.904678,9.782220,108.3,5.845,1.85,335.95,54.895348,9.797490,54.903439,9.782220
1390096211,3,0,0.0,0,0,4,0,140,130,-0.0292,0.2922,6.8213,0.4212,54.904697,9.782220,108.3,5.845,1.85,335.95,54.895348,9.797490,54.903439,9.782220
1390096211,3,0,0.0,0,0,0,0,140,142,-0.0292,0.2922,6.8213,0.4212,54.904716,9.782220,108.3,5.845,1.85,335.95,54.895348,9.797490,54.903439,9.782220
1390096211,3,0,0.0,0,0,4,0,140,130,-0.0292,0.2922,6.8213,0.4212,54.904732,9.782220,108.3,5.845,1.85,335.95,54.895348,9.797490,54.903439,9.782220
1390096211,3,0,0.0,0,0,0,0,140,142,-0.0292,0.2922,6.8213,0.4212,54.904751,9.782220,108.3,5.845,1.85,335.95,54.895348,9.797490,54.903439,9.782220
1390096212,3,0,0.0,0,0,4,0,140,130,-0.0292,0.2922,6.8213,0.4212,54.904770,9.782220,108.3,5.845,1.85,335.95,54.895348,9.797490,54.903439,9.782220
1390096212,3,0,0.0,0,0,0,0,140,142,-0.0292,0.2922,6.8213,0.4212,54.904785,9.782220,108.3,5.845,1.85,335.95,54.895348,9.797490,54.903439,9.782220
1390096212,3,0,0.0,0,0,4,0,140,130,-0.0292,0.2922,6.8213,0.4212,54.904800,9.782220,108.3,5.845,1.85,335.95,54.895348,9.797490,54.903439,9.782220
1390096212,3,0,0.0,0,0,0,0,140,142,-0.0292,0.2922,6.8213,0.4212,54.904819,9.782220,108.3,5.845,1.85,335.95,54.895348,9.797490,54.903439,9.782220
1390096213,3,0,0.0,0,0,4,0,140,130,-0.0292,0.2922,6.8213,0.4212,54.904835,9.782220,108.3,5.845,1.85,335.95,54.895348,9.797490,54.903439,9.782220
1390096213,3,0,0.0,0,0,0,0,140,142,-0.0292,0.2922,6.8213,0.4212,54.904850,9.782220,108.3,5.845,1.85,335.95,54.895348,9.797490,54.903439,9.782220
1390096213,3,0,0.0,0,0,4,0,140,130,-0.0292,0.2922,6.8213,0.4212,54.904869,9.782220,108.3,5.845,1.85,335.95,54.895348,9.797490,54.903439,9.782220
1390096213,3,0,0.0,0,0,0,0,140,142,-0.0292,0.2922,6.8213,0.4212,54.904884,9.782220,108.3,5.845,1.85,335.95,54.895348,9.797490,54.903439,9.782220
1390096214,3,0,0.0,0,0,4,0,140,130,-0.0292,0.2922,6.8213,0.4212,54.904900,9.782220,108.3,5.845,1.85,335.95,54.895348,9.797490,54.903439,9.782220
1390096214,3,0,0.0,0,0,0,0,140,142,-0.0292,0.2922,6.8213,0.4212,54.904919,9.782220,108.3,5.845,1.85,335.95,54.895348,9.797490,54.903439,9.782220
1390096214,3,0,0.0,0,0,4,0,140,130,-0.0292,0.2922,6.8213,0.4212,54.904934,9.782220,108.3,5.845,1.85,335.95,54.895348,9.797490,54.903439,9.782220
1390096214,3,0,0.0,0,0,0,0,140,142,-0.0292,0.2922,6.8213,0.4212,54.904949,9.782220,108.3,5.845,1.85,335.95,54.895348,9.797490,54.903439,9.782220
1390096215,3,0,0.0,0,0,4,0,140,130,-0.0292,0.2922,6.8213,0.4212,54.904968,9.782220,108.3,5.845,1.85,335.95,54.895348,9.797490,54.903439,9.782220
1390096215,3,0,0.0,0,0,0,0,140,142,-0.0292,0.2922,6.8213,0.4212,54.904987,9.782220,108.3,5.845,1.85,335.95,54.895348,9.797490,54.903439,9.782220
1390096215,3,0,0.0,0,0,4,0,140,130,-0.0292,0.2922,6.8213,0.4212,54.905003,9.782220,108.3,5.845,1.85,335.95,54.895348,9.797490,54.903439,9.782220
1390096215,3,0,0.0,0,0,0,0,140,142,-0.0292,0.2922,6.8213,0.4212,54.905022,9.782220,108.3,5.845,1.85,335.95,54.895348,9.797490,54.903439,9.782220
1390096216,3,0,0.0,0,0,4,0,160,154,-0.0292,0.2922,6.8213,0.4212,54.905041,9.782220,108.3,5.845,1.85,335.95,54.895348,9.797490,54.903439,9.782220
1390096216,3,0,0.0,0,0,0,0,160,166,-0.0292,0.2922,6.8213,0.4212,54.905060,9.782220,108.3,5.845,1.85,335.95,54.895348,9.797490,54.903439,9.782220
1390096216,3,0,0.0,0,0,4,0,160,154,-0.0292,0.2922,6.8213,0.4212,54.905075,9.782220,108.3,5.845,1.85,335.95,54.895348,9.797490,54.903439,9.782220
1390096216,3,0,0.0,0,0,0,0,160,166,-0.0292,0.2922,6.8213,0.4212,54.905094,9.782220,108.3,5.845,1.85,335.95,54.895348,9.797490,54.903439,9.782220
1390096217,3,0,0.0,0,0,4,0,160,154,-0.0292,0.2922,6.8213,0.4212,54.905113,9.782220,108.3,5.845,1.85,335.95,54.895348,9.797490,54.903439,9.782220
1390096217,3,0,0.0,0,0,0,0,160,166,-0.0292,0.2922,6.8213,0.4212,54.905132,9.782220,108.3,5.845,1.85,335.95,54.895348,9.797490,54.903439,9.782220
1390096217,3,0,0.0,0,0,4,0,160,154,-0.0292,0.2922,6.8213,0.4212,54.905148,9.782220,108.3,5.845,1.85,335.95,54.895348,9.797490,54.903439,9.782220
1390096217,3,0,0.0,0,0,0,0,160,166,-0.0292,0.2922,6.8213,0.4212,54.905167,9.782220,108.3,5.845,1.85,335.95,54.895348,9.797490,54.903439,9.782220
1390096218,3,0,0.0,0,0,4,0,160,154,-0.0292,0.2922,6.8213,0.4212,54.905186,9.782220,108.3,5.845,1.85,335.95,54.895348,9.797490,54.903439,9.782220
1390096218,3,0,0.0,0,0,0,0,160,166,-0.0292,0.2922,6.8213,0.4212,54.905205,9.782220,108.3,5.845,1.85,335.95,54.895348,9.797490,54.903439,9.782220
1390096218,3,0,0.0,0,0,4,0,160,154,-0.0292,0.2922,6.8213,0.4212,54.905220,9.782220,108.3,5.845,1.85,335.95,54.895348,9.797490,54.903439,9.782220
1390096218,3,0,0.0,0,0,0,0,160,166,-0.0292,0.2922,6.8213,0.4212,54.905239,9.782220,108.3,5.845,1.85,335.95,54.895348,9.797490,54.903439,9.782220
1390096219,3,0,0.0,0,0,4,0,160,154,-0.0292,0.2922,6.8213,0.4212,54.905258,9.782220,108.3,5.845,1.85,335.95,54.895348,9.797490,54.903439,9.782220
1390096219,3,0,0.0,0,0,0,0,160,166,-0.0292,0.2922,6.8213,0.4212,54.905273,9.782220,108.3,5.845,1.85,335.95,54.895348,9.797490,54.903439,9.782220
1390096219,3,0,0.0,0,0,4,0,160,154,-0.0292,0.2922,6.8213,0.4212,54.905293,9.782220,108.3,5.845,1.85,335.95,54.895348,9.797490,54.903439,9.782220
1390096219,3,0,0.0,0,0,0,0,160,166,-0.0292,0.2922,6.8213,0.4212,54.905312,9.782220,108.3,5.845,1.85,335.95,54.895348,9.797490,54.903439,9.782220
1390096220,3,0,0.0,0,0,4,0,160,154,-0.0292,0.2922,6.8213,0.4212,54.905331,9.782220,108.3,5.845,1.85,335.95,54.895348,9.797490,54.903439,9.782220
1390096220,3,0,0.0,0,0,0,0,160,166,-0.0292,0.2922,6.8213,0.4212,54.905346,9.782220,108.3,5.845,1.85,335.95,54.895348,9.797490,54.903439,9.782220
1390096220,3,0,0.0,0,0,4,0,160,154,-0.0292,0.2922,6.8213,0.4212,54.905365,9.782220,108.3,5.845,1.85,335.95,54.895348,9.797490,54.903439,9.782220
1390096220,3,0,0.0,0,0,0,0,160,166,-0.0292,0.2922,6.8213,0.4212,54.905384,9.782220,108.3,5.845,1.85,335.95,54.895348,9.797490,54.903439,9.782220
1390096221,3,0,0.0,0,0,4,0,180,178,-0.0292,0.2922,6.8213,0.4212,54.905403,9.782220,108.3,5.845,1.85,335.95,54.895348,9.797490,54.903439,9.782220
1390096221,3,0,0.0,0,0,0,0,180,190,-0.0292,0.2922,6.8213,0.4212,54.905418,9.782220,108.3,5.845,1.85,335.95,54.895348,9.797490,54.903439,9.782220
1390096221,3,0,0.0,0,0,4,0,180,178,-0.0292,0.2922,6.8213,0.4212,54.905437,9.782220,108.3,5.845,1.85,335.95,54.895348,9.797490,54.903439,9.782220
1390096221,3,0,0.0,0,0,0,0,180,190,-0.0292,0.2922,6.8213,0.4212,54.905457,9.782220,108.3,5.845,1.85,335.95,54.895348,9.797490,54.903439,9.782220
1390096222,3,0,0.0,0,0,4,0,180,178,-0.0292,0.2922,6.8213,0.4212,54.905476,9.782220,108.3,5.845,1.85,335.95,54.895348,9.797490,54.903439,9.782220
1390096222,3,0,0.0,0,0,0,0,180,190,-0.0292,0.2922,6.8213,0.4212,54.905491,9.782220,108.3,5.845,1.85,335.95,54.895348,9.797490,54.903439,9.782220
1390096222,3,0,0.0,0,0,4,0,180,178,-0.0292,0.2922,6.8213,0.4212,54.905510,9.782220,108.3,5.845,1.85,335.95,54.895348,9.797490,54.903439,9.782220
1390096223,3,0,0.0,0,0,0,0,180,190,-0.0292,0.2922,6.8213,0.4212,54.905529,9.782220,108.3,5.845,1.85,335.95,54.895348,9.797490,54.903439,9.782220
1390096223,3,0,0.0,0,0,4,0,180,178,-0.0292,0.2922,6.8213,0.4212,54.905548,9.782220,108.3,5.845,1.85,335.95,54.895348,9.797490,54.903439,9.782220
1390096223,3,0,0.0,0,0,0,0,180,190,-0.0292,0.2922,6.8213,0.4212,54.905563,9.782220,108.3,5.845,1.85,335.95,54.895348,9.797490,54.903439,9.782220
1390096223,3,0,0.0,0,0,4,0,180,178,-0.0292,0.2922,6.8213,0.4212,54.905582,9.782220,108.3,5.845,1.85,335.95,54.895348,9.797490,54.903439,9.782220
1390096224,3,0,0.0,0,0,0,0,180,190,-0.0292,0.2922,6.8213,0.4212,54.905602,9.782220,108.3,5.845,1.85,335.95,54.895348,9.797490,54.903439,9.782220
1390096224,3,0,0.0,0,0,4,0,180,178,-0.0292,0.2922,6.8213,0.4212,54.905617,9.782220,108.3,5.845,1.85,335.95,54.895348,9.797490,54.903439,9.782220
1390096224,3,0,0.0,0,0,0,0,180,190,-0.0292,0.2922,6.8213,0.4212,54.905636,9.782220,108.3,5.845,1.85,335.95,54.895348,9.797490,54.903439,9.782220
1390096224,3,0,0.0,0,0,4,0,180,178,-0.0292,0.2922,6.8213,0.4212,54.905655,9.782220,108.3,5.845,1.85,335.95,54.895348,9.797490,54.903439,9.782220
1390096225,3,0,0.0,0,0,0,0,180,190,-0.0292,0.2922,6.8213,0.4212,54.905674,9.782220,108.3,5.845,1.85,335.95,54.895348,9.797490,54.903439,9.782220
1390096225,3,0,0.0,0,0,4,0,180,178,-0.0292,0.2922,6.8213,0.4212,54.905689,9.782220,108.3,5.845,1.85,335.95,54.895348,9.797490,54.903439,9.782220
1390096225,3,0,0.0,0,0,0,0,180,190,-0.0292,0.2922,6.8213,0.4212,54.905708,9.782220,108.3,5.845,1.85,335.95,54.895348,9.797490,54.903439,9.782220
1390096225,3,0,0.0,0,0,4,0,180,178,-0.0292,0.2922,6.8213,0.4212,54.905727,9.782220,108.3,5.845,1.85,335.95,54.895348,9.797490,54.903439,9.782220
1390096226,3,0,0.0,0,0,0,0,180,190,-0.0292,0.2922,6.8213,0.4212,54.905746,9.782220,108.3,5.845,1.85,335.95,54.895348,9.797490,54.903439,9.782220
1390096226,3,0,0.0,0,0,4,0,200,202,-0.0292,0.2922,6.8213,0.4212,54.905762,9.782220,108.3,5.845,1.85,335.95,54.895348,9.797490,54.903439,9.782220
1390096226,3,0,0.0,0,0,0,0,200,190,-0.0292,0.2922,6.8213,0.4212,54.905781,9.782220,108.3,5.845,1.85,335.95,54.895348,9.797490,54.903439,9.782220
1390096226,3,0,0.0,0,0,4,0,200,202,-0.0292,0.2922,6.8213,0.4212,54.905800,9.782220,108.3,5.845,1.85,335.95,54.895348,9.797490,54.903439,9.782220
1390096227,3,0,0.0,0,0,0,0,200,190,-0.0292,0.2922,6.8213,0.4212,54.905819,9.782220,108.3,5.845,1.85,335.95,54.895348,9.797490,54.903439,9.782220
1390096227,3,0,0.0,0,0,4,0,200,202,-0.0292,0.2922,6.8213,0.4212,54.905834,9.782220,108.3,5.845,1.85,335.95,54.895348,9.797490,54.903439,9.782220
1390096227,3,0,0.0,0,0,0,0,200,190,-0.0292,0.2922,6.8213,0.4212,54.905853,9.782220,108.3,5.845,1.85,335.95,54.895348,9.797490,54.903439,9.782220
1390096227,3,0,0.0,0,0,4,0,200,202,-0.0292,0.2922,6.8213,0.4212,54.905872,9.782220,108.3,5.845,1.85,335.95,54.895348,9.797490,54.903439,9.782220
1390096228,3,0,0.0,0,0,0,0,200,190,-0.0292,0.2922,6.8213,0.4212,54.905888,9.782220,108.3,5.845,1.85,335.95,54.895348,9.797490,54.903439,9.782220
1390096228,3,0,0.0,0,0,4,0,200,202,-0.0292,0.2922,6.8213,0.4212,54.905907,9.782220,108.3,5.845,1.85,335.95,54.895348,9.797490,54.903439,9.782220
1390096228,3,0,0.0,0,0,0,0,200,190,-0.0292,0.2922,6.8213,0.4212,54.905926,9.782220,108.3,5.845,1.85,335.95,54.895348,9.797490,54.903439,9.782220
1390096228,3,0,0.0,0,0,4,0,200,202,-0.0292,0.2922,6.8213,0.4212,54.905945,9.782220,108.3,5.845,1.85,335.95,54.895348,9.797490,54.903439,9.782220
1390096229,3,0,0.0,0,0,0,0,200,190,-0.0292,0.2922,6.8213,0.4212,54.905960,9.782220,108.3,5.845,1.85,335.95,54.895348,9.797490,54.903439,9.782220
1390096229,3,0,0.0,0,0,4,0,200,202,-0.0292,0.2922,6.8213,0.4212,54.905979,9.782220,108.3,5.845,1.85,335.95,54.895348,9.797490,54.903439,9.782220
1390096229,3,0,0.0,0,0,0,0,200,190,-0.0292,0.2922,6.8213,0.4212,54.905998,9.782220,108.3,5.845,1.85,335.95,54.895348,9.797490,54.903439,9.782220
1390096229,3,0,0.0,0,0,4,0,200,202,-0.0292,0.2922,6.8213,0.4212,54.906017,9.782220,108.3,5.845,1.85,335.95,54.895348,9.797490,54.903439,9.782220
1390096230,3,0,0.0,0,0,0,0,200,190,-0.0292,0.2922,6.8213,0.4212,54.906033,9.782220,108.3,5.845,1.85,335.95,54.895348,9.797490,54.903439,9.782220
1390096230,3,0,0.0,0,0,4,0,200,202,-0.0292,0.2922,6.8213,0.4212,54.906052,9.782220,108.3,5.845,1.85,335.95,54.895348,9.797490,54.903439,9.782220
1390096230,3,0,0.0,0,0,0,0,200,190,-0.0292,0.2922,6.8213,0.4212,54.906071,9.782220,108.3,5.845,1.85,335.95,54.895348,9.797490,54.903439,9.782220
1390096230,3,0,0.0,0,0,4,0,200,202,-0.0292,0.2922,6.8213,0.4212,54.906086,9.782220,108.3,5.845,1.85,335.95,54.895348,9.797490,54.903439,9.782220
1390096231,3,0,0.0,0,0,0,0,200,190,-0.0292,0.2922,6.8213,0.4212,54.906105,9.782220,108.3,5.845,1.85,335.95,54.895348,9.797490,54.903439,9.782220
1390096231,3,0,0.0,0,0,4,0,220,202,-0.0292,0.2922,6.8213,0.4212,54.906124,9.782220,108.3,5.845,1.85,335.95,54.895348,9.797490,54.903439,9.782220
1390096231,3,0,0.0,0,0,0,0,220,214,-0.0292,0.2922,6.8213,0.4212,54.906143,9.782220,108.3,5.845,1.85,335.95,54.895348,9.797490,54.903439,9.782220
1390096231,3,0,0.0,0,0,4,0,220,226,-0.0292,0.2922,6.8213,0.4212,54.906158,9.782220,108.3,5.845,1.85,335.95,54.895348,9.797490,54.903439,9.782220
1390096232,3,0,0.0,0,0,0,0,220,214,-0.0292,0.2922,6.8213,0.4212,54.906178,9.782220,108.3,5.845,1.85,335.95,54.895348,9.797490,54.903439,9.782220
1390096232,3,0,0.0,0,0,4,0,220,226,-0.0292,0.2922,6.8213,0.4212,54.906197,9.782220,108.3,5.845,1.85,335.95,54.895348,9.797490,54.903439,9.782220
1390096232,3,0,0.0,0,0,0,0,220,214,-0.0292,0.2922,6.8213,0.4212,54.906216,9.782220,108.3,5.845,1.85,335.95,54.895348,9.797490,54.903439,9.782220
1390096232,3,0,0.0,0,0,4,0,220,226,-0.0292,0.2922,6.8213,0.4212,54.906231,9.782220,108.3,5.845,1.85,335.95,54.895348,9.797490,54.903439,9.782220
1390096233,3,0,0.0,0,0,0,0,220,214,-0.0292,0.2922,6.8213,0.4212,54.906250,9.782220,108.3,5.845,1.85,335.95,54.895348,9.797490,54.903439,9.782220
1390096233,3,0,0.0,0,0,4,0,220,226,-0.0292,0.2922,6.8213,0.4212,54.906269,9.782220,108.3,5.845,1.85,335.95,54.895348,9.797490,54.903439,9.782220
1390096233,3,0,0.0,0,0,0,0,220,214,-0.0292,0.2922,6.8213,0.4212,54.906284,9.782220,108.3,5.845,1.85,335.95,54.895348,9.797490,54.903439,9.782220
1390096233,3,0,0.0,0,0,4,0,220,226,-0.0292,0.2922,6.8213,0.4212,54.906300,9.782220,108.3,5.845,1.85,335.95,54.895348,9.797490,54.903439,9.782220
1390096234,3,0,0.0,0,0,0,0,220,214,-0.0292,0.2922,6.8213,0.4212,54.906319,9.782220,108.3,5.845,1.85,335.95,54.895348,9.797490,54.903439,9.782220
1390096234,3,0,0.0,0,0,4,0,220,226,-0.0292,0.2922,6.8213,0.4212,54.906334,9.782220,108.3,5.845,1.85,335.95,54.895348,9.797490,54.903439,9.782220
1390096234,3,0,0.0,0,0,0,0,220,214,-0.0292,0.2922,6.8213,0.4212,54.906349,9.782220,108.3,5.845,1.85,335.95,54.895348,9.797490,54.903439,9.782220
1390096234,3,0,0.0,0,0,4,0,220,226,-0.0292,0.2922,6.8213,0.4212,54.906368,9.782220,108.3,5.845,1.85,335.95,54.895348,9.797490,54.903439,9.782220
1390096235,3,0,0.0,0,0,0,0,220,214,-0.0292,0.2922,6.8213,0.4212,54.906387,9.782220,108.3,5.845,1.85,335.95,54.895348,9.797490,54.903439,9.782220
1390096235,3,0,0.0,0,0,4,0,220,226,-0.0292,0.2922,6.8213,0.4212,54.906403,9.782220,108.3,5.845,1.85,335.95,54.895348,9.797490,54.903439,9.782220
1390096235,3,0,0.0,0,0,0,0,220,214,-0.0292,0.2922,6.8213,0.4212,54.906422,9.782220,108.3,5.845,1.85,335.95,54.895348,9.797490,54.903439,9.782220
1390096235,3,0,0.0,0,0,4,0,220,226,-0.0292,0.2922,6.8213,0.4212,54.906441,9.782220,108.3,5.845,1.85,335.95,54.895348,9.797490,54.903439,9.782220
1390096236,3,0,0.0,0,0,0,0,220,214,-0.0292,0.2922,6.8213,0.4212,54.906456,9.782220,108.3,5.845,1.85,335.95,54.895348,9.797490,54.903439,9.782220
1390096236,3,0,0.0,0,0,4,0,200,202,-0.0292,0.2922,6.8213,0.4212,54.906471,9.782220,108.3,5.845,1.85,335.95,54.895348,9.797490,54.903439,9.782220
1390096236,3,0,0.0,0,0,0,0,200,190,-0.0292,0.2922,6.8213,0.4212,54.906490,9.782220,108.3,5.845,1.85,335.95,54.895348,9.797490,54.903439,9.782220
1390096236,3,0,0.0,0,0,4,0,200,202,-0.0292,0.2922,6.8213,0.4212,54.906509,9.782220,108.3,5.845,1.85,335.95,54.895348,9.797490,54.903439,9.782220
1390096237,3,0,0.0,0,0,0,0,200,190,-0.0292,0.2922,6.8213,0.4212,54.906525,9.782220,108.3,5.845,1.85,335.95,54.895348,9.797490,54.903439,9.782220
1390096237,3,0,0.0,0,0,4,0,200,202,-0.0292,0.2922,6.8213,0.4212,54.906544,9.782220,108.3,5.845,1.85,335.95,54.895348,9.797490,54.903439,9.782220
1390096237,3,0,0.0,0,0,0,0,200,190,-0.0292,0.2922,6.8213,0.4212,54.906563,9.782220,108.3,5.845,1.85,335.95,54.895348,9.797490,54.903439,9.782220
1390096237,3,0,0.0,0,0,4,0,200,202,-0.0292,0.2922,6.8213,0.4212,54.906578,9.782220,108.3,5.845,1.85,335.95,54.895348,9.797490,54.903439,9.782220
1390096238,3,0,0.0,0,0,0,0,200,190,-0.0292,0.2922,6.8213,0.4212,54.906597,9.782220,108.3,5.845,1.85,335.95,54.895348,9.797490,54.903439,9.782220
1390096238,3,0,0.0,0,0,4,0,200,202,-0.0292,0.2922,6.8213,0.4212,54.906616,9.782220,108.3,5.845,1.85,335.95,54.895348,9.797490,54.903439,9.782220
1390096238,3,0,0.0,0,0,0,0,200,190,-0.0292,0.2922,6.8213,0.4212,54.906635,9.782220,108.3,5.845,1.85,335.95,54.895348,9.797490,54.903439,9.782220
1390096238,3,0,0.0,0,0,4,0,200,202,-0.0292,0.2922,6.8213,0.4212,54.906651,9.782220,108.3,5.845,1.85,335.95,54.895348,9.797490,54.903439,9.782220
1390096239,3,0,0.0,0,0,0,0,200,190,-0.0292,0.2922,6.8213,0.4212,54.906670,9.782220,108.3,5.845,1.85,335.95,54.895348,9.797490,54.903439,9.782220
1390096239,3,0,0.0,0,0,4,0,200,202,-0.0292,0.2922,6.8213,0.4212,54.906689,9.782220,108.3,5.845,1.85,335.95,54.895348,9.797490,54.903439,9.782220
1390096239,3,0,0.0,0,0,0,0,200,190,-0.0292,0.2922,6.8213,0.4212,54.906708,9.782220,108.3,5.845,1.85,335.95,54.895348,9.797490,54.903439,9.782220
1390096239,3,0,0.0,0,0,4,0,200,202,-0.0292,0.2922,6.8213,0.4212,54.906723,9.782220,108.3,5.845,1.85,335.95,54.895348,9.797490,54.903439,9.782220
1390096240,3,0,0.0,0,0,0,0,200,190,-0.0292,0.2922,6.8213,0.4212,54.906742,9.782220,108.3,5.845,1.85,335.95,54.895348,9.797490,54.903439,9.782220
1390096240,3,0,0.0,0,0,4,0,200,202,-0.0292,0.2922,6.8213,0.4212,54.906761,9.782220,108.3,5.845,1.85,335.95,54.895348,9.797490,54.903439,9.782220
1390096240,3,0,0.0,0,0,0,0,200,190,-0.0292,0.2922,6.8213,0.4212,54.906780,9.782220,108.3,5.845,1.85,335.95,54.895348,9.797490,54.903439,9.782220
1390096240,3,0,0.0,0,0,4,0,200,202,-0.0292,0.2922,6.8213,0.4212,54.906796,9.782220,108.3,5.845,1.85,335.95,54.895348,9.797490,54.903439,9.782220
1390096241,3,0,0.0,0,0,0,0,200,190,-0.0292,0.2922,6.8213,0.4212,54.906815,9.782220,108.3,5.845,1.85,335.95,54.895348,9.797490,54.903439,9.782220
1390096241,3,0,0.0,0,0,4,0,180,178,-0.0292,0.2922,6.8213,0.4212,54.906834,9.782220,108.3,5.845,1.85,335.95,54.895348,9.797490,54.903439,9.782220
1390096241,3,0,0.0,0,0,0,0,180,190,-0.0292,0.2922,6.8213,0.4212,54.906853,9.782220,108.3,5.845,1.85,335.95,54.895348,9.797490,54.903439,9.782220
1390096241,3,0,0.0,0,0,4,0,180,178,-0.0292,0.2922,6.8213,0.4212,54.906868,9.782220,108.3,5.845,1.85,335.95,54.895348,9.797490,54.903439,9.782220
1390096242,3,0,0.0,0,0,0,0,180,190,-0.0292,0.2922,6.8213,0.4212,54.906887,9.782220,108.3,5.845,1.85,335.95,54.895348,9.797490,54.903439,9.782220
1390096242,3,0,0.0,0,0,4,0,180,178,-0.0292,0.2922,6.8213,0.4212,54.906906,9.782220,108.3,5.845,1.85,335.95,54.895348,9.797490,54.903439,9.782220
1390096242,3,0,0.0,0,0,0,0,180,190,-0.0292,0.2922,6.8213,0.4212,54.906921,9.782220,108.3,5.845,1.85,335.95,54.895348,9.797490,54.903439,9.782220
1390096242,3,0,0.0,0,0,4,0,180,178,-0.0292,0.2922,6.8213,0.4212,54.906940,9.782220,108.3,5.845,1.85,335.95,54.895348,9.797490,54.903439,9.782220
1390096243,3,0,0.0,0,0,0,0,180,190,-0.0292,0.2922,6.8213,0.4212,54.906960,9.782220,108.3,5.845,1.85,335.95,54.895348,9.797490,54.903439,9.782220
1390096243,3,0,0.0,0,0,4,0,180,178,-0.0292,0.2922,6.8213,0.4212,54.906979,9.782220,108.3,5.845,1.85,335.95,54.895348,9.797490,54.903439,9.782220
1390096243,3,0,0.0,0,0,0,0,180,190,-0.0292,0.2922,6.8213,0.4212,54.906994,9.782220,108.3,5.845,1.85,335.95,54.895348,9.797490,54.903439,9.782220
1390096243,3,0,0.0,0,0,4,0,180,178,-0.0292,0.2922,6.8213,0.4212,54.907013,9.782220,108.3,5.845,1.85,335.95,54.895348,9.797490,54.903439,9.782220
1390096244,3,0,0.0,0,0,0,0,180,190,-0.0292,0.2922,6.8213,0.4212,54.907032,9.782220,108.3,5.845,1.85,335.95,54.895348,9.797490,54.903439,9.782220
1390096244,3,0,0.0,0,0,4,0,180,178,-0.0292,0.2922,6.8213,0.4212,54.907051,9.782220,108.3,5.845,1.85,335.95,54.895348,9.797490,54.903439,9.782220
1390096244,3,0,0.0,0,0,0,0,180,190,-0.0292,0.2922,6.8213,0.4212,54.907066,9.782220,108.3,5.845,1.85,335.95,54.895348,9.797490,54.903439,9.782220
1390096244,3,0,0.0,0,0,4,0,180,178,-0.0292,0.2922,6.8213,0.4212,54.907085,9.782220,108.3,5.845,1.85,335.95,54.895348,9.797490,54.903439,9.782220
1390096245,3,0,0.0,0,0,0,0,180,190,-0.0292,0.2922,6.8213,0.4212,54.907104,9.782220,108.3,5.845,1.85,335.95,54.895348,9.797490,54.903439,9.782220
1390096245,3,0,0.0,0,0,4,0,180,178,-0.0292,0.2922,6.8213,0.4212,54.907124,9.782220,108.3,5.845,1.85,335.95,54.895348,9.797490,54.903439,9.782220
1390096245,3,0,0.0,0,0,0,0,180,190,-0.0292,0.2922,6.8213,0.4212,54.907139,9.782220,108.3,5.845,1.85,335.95,54.895348,9.797490,54.903439,9.782220
1390096245,3,0,0.0,0,0,4,0,180,178,-0.0292,0.2922,6.8213,0.4212,54.907158,9.782220,108.3,5.845,1.85,335.95,54.895348,9.797490,54.903439,9.782220
1390096246,3,0,0.0,0,0,0,0,180,190,-0.0292,0.2922,6.8213,0.4212,54.907177,9.782220,108.3,5.845,1.85,335.95,54.895348,9.797490,54.903439,9.782220
1390096246,3,0,0.0,0,0,4,0,160,178,-0.0292,0.2922,6.8213,0.4212,54.907196,9.782220,108.3,5.845,1.85,335.95,54.895348,9.797490,54.903439,9.782220
1390096246,3,0,0.0,0,0,0,0,160,166,-0.0292,0.2922,6.8213,0.4212,54.907211,9.782220,108.3,5.845,1.85,335.95,54.895348,9.797490,54.903439,9.782220
1390096246,3,0,0.0,0,0,4,0,160,154,-0.0292,0.2922,6.8213,0.4212,54.907230,9.782220,108.3,5.845,1.85,335.95,54.895348,9.797490,54.903439,9.782220
1390096247,3,0,0.0,0,0,0,0,160,166,-0.0292,0.2922,6.8213,0.4212,54.907249,9.782220,108.3,5.845,1.85,335.95,54.895348,9.797490,54.903439,9.782220
1390096247,3,0,0.0,0,0,4,0,160,154,-0.0292,0.2922,6.8213,0.4212,54.907265,9.782220,108.3,5.845,1.85,335.95,54.895348,9.797490,54.903439,9.782220
1390096247,3,0,0.0,0,0,0,0,160,166,-0.0292,0.2922,6.8213,0.4212,54.907284,9.782220,108.3,5.845,1.85,335.95,54.895348,9.797490,54.903439,9.782220
1390096247,3,0,0.0,0,0,4,0,160,154,-0.0292,0.2922,6.8213,0.4212,54.907303,9.782220,108.3,5.845,1.85,335.95,54.895348,9.797490,54.903439,9.782220
1390096248,3,0,0.0,0,0,0,0,160,166,-0.0292,0.2922,6.8213,0.4212,54.907322,9.782220,108.3,5.845,1.85,335.95,54.895348,9.797490,54.903439,9.782220
1390096248,3,0,0.0,0,0,4,0,160,154,-0.0292,0.2922,6.8213,0.4212,54.907337,9.782220,108.3,5.845,1.85,335.95,54.895348,9.797490,54.903439,9.782220
1390096248,3,0,0.0,0,0,0,0,160,166,-0.0292,0.2922,6.8213,0.4212,54.907356,9.782220,108.3,5.845,1.85,335.95,54.895348,9.797490,54.903439,9.782220
1390096248,3,0,0.0,0,0,4,0,160,154,-0.0292,0.2922,6.8213,0.4212,54.907375,9.782220,108.3,5.845,1.85,335.95,54.895348,9.797490,54.903439,9.782220
1390096249,3,0,0.0,0,0,0,0,160,166,-0.0292,0.2922,6.8213,0.4212,54.907394,9.782220,108.3,5.845,1.85,335.95,54.895348,9.797490,54.903439,9.782220
1390096249,3,0,0.0,0,0,4,0,160,154,-0.0292,0.2922,6.8213,0.4212,54.907410,9.782220,108.3,5.845,1.85,335.95,54.895348,9.797490,54.903439,9.782220
1390096249,3,0,0.0,0,0,0,0,160,166,-0.0292,0.2922,6.8213,0.4212,54.907429,9.782220,108.3,5.845,1.85,335.95,54.895348,9.797490,54.903439,9.782220
1390096249,3,0,0.0,0,0,4,0,160,154,-0.0292,0.2922,6.8213,0.4212,54.907448,9.782220,108.3,5.845,1.85,335.95,54.895348,9.797490,54.903439,9.782220
1390096250,3,0,0.0,0,0,0,0,160,166,-0.0292,0.2922,6.8213,0.4212,54.907463,9.782220,108.3,5.845,1.85,335.95,54.895348,9.797490,54.903439,9.782220
1390096250,3,0,0.0,0,0,4,0,160,154,-0.0292,0.2922,6.8213,0.4212,54.907482,9.782220,108.3,5.845,1.85,335.95,54.895348,9.797490,54.903439,9.782220
1390096250,3,0,0.0,0,0,0,0,160,166,-0.0292,0.2922,6.8213,0.4212,54.907501,9.782220,108.3,5.845,1.85,335.95,54.895348,9.797490,54.903439,9.782220
1390096250,3,0,0.0,0,0,4,0,160,154,-0.0292,0.2922,6.8213,0.4212,54.907520,9.782220,108.3,5.845,1.85,335.95,54.895348,9.797490,54.903439,9.782220
1390096251,3,0,0.0,0,0,0,0,160,166,-0.0292,0.2922,6.8213,0.4212,54.907536,9.782220,108.3,5.845,1.85,335.95,54.895348,9.797490,54.903439,9.782220
1390096251,3,0,0.0,0,0,4,0,180,178,-0.0292,0.2922,6.8213,0.4212,54.907555,9.782220,108.3,5.845,1.85,335.95,54.895348,9.797490,54.903439,9.782220
1390096251,3,0,0.0,0,0,0,0,180,190,-0.0292,0.2922,6.8213,0.4212,54.907574,9.782220,108.3,5.845,1.85,335.95,54.895348,9.797490,54.903439,9.782220
1390096251,3,0,0.0,0,0,4,0,180,178,-0.0292,0.2922,6.8213,0.4212,54.907593,9.782220,108.3,5.845,1.85,335.95,54.895348,9.797490,54.903439,9.782220
1390096252,3,0,0.0,0,0,0,0,180,190,-0.0292,0.2922,6.8213,0.4212,54.907608,9.782220,108.3,5.845,1.85,335.95,54.895348,9.797490,54.903439,9.782220
1390096252,3,0,0.0,0,0,4,0,180,178,-0.0292,0.2922,6.8213,0.4212,54.907627,9.782220,108.3,5.845,1.85,335.95,54.895348,9.797490,54.903439,9.782220
1390096252,3,0,0.0,0,0,0,0,180,190,-0.0292,0.2922,6.8213,0.4212,54.907646,9.782220,108.3,5.845,1.85,335.95,54.895348,9.797490,54.903439,9.782220
1390096252,3,0,0.0,0,0,4,0,180,178,-0.0292,0.2922,6.8213,0.4212,54.907665,9.782220,108.3,5.845,1.85,335.95,54.895348,9.797490,54.903439,9.782220
1390096253,3,0,0.0,0,0,0,0,180,190,-0.0292,0.2922,6.8213,0.4212,54.907681,9.782220,108.3,5.845,1.85,335.95,54.895348,9.797490,54.903439,9.782220
1390096253,3,0,0.0,0,0,4,0,180,178,-0.0292,0.2922,6.8213,0.4212,54.907700,9.782220,108.3,5.845,1.85,335.95,54.895348,9.797490,54.903439,9.782220
1390096253,3,0,0.0,0,0,0,0,180,190,-0.0292,0.2922,6.8213,0.4212,54.907719,9.782220,108.3,5.845,1.85,335.95,54.895348,9.797490,54.903439,9.782220
1390096253,3,0,0.0,0,0,4,0,180,178,-0.0292,0.2922,6.8213,0.4212,54.907738,9.782220,108.3,5.845,1.85,335.95,54.895348,9.797490,54.903439,9.782220
1390096254,3,0,0.0,0,0,0,0,180,190,-0.0292,0.2922,6.8213,0.4212,54.907753,9.782220,108.3,5.845,1.85,335.95,54.895348,9.797490,54.903439,9.782220
