MCU_timestamp,Navigation_System,Manual_Control,Guidance_Heading,Manual_Ctrl_Rudder,Rudder_Desired_Angle,Rudder_Feedback,Manual_Ctrl_Sail,Sail_Desired_Pos,Sail_Feedback,Rate,Heading,Pitch,Roll,Latitude,Longitude,COG,SOG,Wind_Speed,Wind_Angle,Point_Start_Lat,Point_Start_Lon,Point_End_Lat,Point_End_Lon
1386769063,0,0,0.0,0,0,20,0,0,0,-0.0292,95.6255,6.8213,0.4212,54.896885,9.784269,108.3,5.845,1.85,335.95,0.000000,0.000000,0.000000,0.000000
1386769063,0,0,0.0,0,0,20,0,0,0,-0.0292,95.6255,6.8213,0.4212,54.896885,9.784269,108.3,5.845,1.85,335.95,0.000000,0.000000,0.000000,0.000000
1386769063,0,0,0.0,0,0,20,0,0,0,-0.0292,95.6255,6.8213,0.4212,54.896885,9.784269,108.3,5.845,1.85,335.95,0.000000,0.000000,0.000000,0.000000
1386769064,0,0,0.0,0,0,20,0,0,0,-0.0292,95.6255,6.8213,0.4212,54.896885,9.784269,108.3,5.845,1.85,335.95,0.000000,0.000000,0.000000,0.000000
1386769064,0,0,0.0,0,0,20,0,0,0,-0.0292,95.6255,6.8213,0.4212,54.896885,9.784269,108.3,5.845,1.85,335.95,0.000000,0.000000,0.000000,0.000000
1386769064,0,0,0.0,0,0,20,0,0,0,-0.0292,95.6255,6.8213,0.4212,54.896885,9.784269,108.3,5.845,1.85,335.95,0.000000,0.000000,0.000000,0.000000
1386769064,0,0,0.0,0,0,20,0,0,0,-0.0292,95.6255,6.8213,0.4212,54.896885,9.784269,108.3,5.845,1.85,335.95,0.000000,0.000000,0.000000,0.000000
1386769065,0,0,0.0,0,0,20,0,0,0,-0.0292,95.6255,6.8213,0.4212,54.896885,9.784269,108.3,5.845,1.85,335.95,0.000000,0.000000,0.000000,0.000000
1386769065,0,0,0.0,0,0,20,0,0,0,-0.0292,95.6255,6.8213,0.4212,54.896885,9.784269,108.3,5.845,1.85,335.95,0.000000,0.000000,0.000000,0.000000
1386769065,0,0,0.0,0,0,20,0,0,0,-0.0292,95.6255,6.8213,0.4212,54.896885,9.784269,108.3,5.845,1.85,335.95,0.000000,0.000000,0.000000,0.000000
1386769065,0,0,0.0,0,0,20,0,0,0,-0.0292,95.6255,6.8213,0.4212,54.896885,9.784269,108.3,5.845,1.85,335.95,0.000000,0.000000,0.000000,0.000000
1386769066,0,0,0.0,0,0,20,0,0,0,-0.0292,95.6255,6.8213,0.4212,54.896885,9.784269,108.3,5.845,1.85,335.95,0.000000,0.000000,0.000000,0.000000
1386769066,0,0,0.0,0,0,20,0,0,0,-0.0292,95.6255,6.8213,0.4212,54.896885,9.784269,108.3,5.845,1.85,335.95,0.000000,0.000000,0.000000,0.000000
1386769066,0,0,0.0,0,0,20,0,0,0,-0.0292,95.6255,6.8213,0.4212,54.896885,9.784269,108.3,5.845,1.85,335.95,0.000000,0.000000,0.000000,0.000000
1386769066,0,0,0.0,0,0,20,0,0,0,-0.0292,95.6255,6.8213,0.4212,54.896885,9.784269,108.3,5.845,1.85,335.95,0.000000,0.000000,0.000000,0.000000
1386769067,0,0,0.0,0,0,20,0,0,0,-0.0292,95.6255,6.8213,0.4212,54.896885,9.784269,108.3,5.845,1.85,335.95,0.000000,0.000000,0.000000,0.000000
1386769067,0,0,0.0,0,0,20,0,0,0,-0.0292,95.6255,6.8213,0.4212,54.896885,9.784269,108.3,5.845,1.85,335.95,0.000000,0.000000,0.000000,0.000000
1386769067,0,0,0.0,0,0,20,0,0,0,-0.0292,95.6255,6.8213,0.4212,54.896885,9.784269,108.3,5.845,1.85,335.95,0.000000,0.000000,0.000000,0.000000
1386769067,0,0,0.0,0,0,20,0,0,0,-0.0292,95.6255,6.8213,0.4212,54.896885,9.784269,108.3,5.845,1.85,335.95,0.000000,0.000000,0.000000,0.000000
1386769068,0,0,0.0,0,0,20,0,0,0,-0.0292,95.6255,6.8213,0.4212,54.896885,9.784269,108.3,5.845,1.85,335.95,0.000000,0.000000,0.000000,0.000000
1386769068,0,0,0.0,0,0,20,0,0,0,-0.0292,95.6255,6.8213,0.4212,54.896885,9.784269,108.3,5.845,1.85,335.95,0.000000,0.000000,0.000000,0.000000
1386769068,0,0,0.0,0,0,20,0,0,0,-0.0292,95.6255,6.8213,0.4212,54.896885,9.784269,108.3,5.845,1.85,335.95,0.000000,0.000000,0.000000,0.000000
1386769068,0,0,0.0,0,0,20,0,0,0,-0.0292,95.6255,6.8213,0.4212,54.896885,9.784269,108.3,5.845,1.85,335.95,0.000000,0.000000,0.000000,0.000000
1386769069,0,0,0.0,0,0,20,0,0,0,-0.0292,95.6255,6.8213,0.4212,54.896885,9.784269,108.3,5.845,1.85,335.95,0.000000,0.000000,0.000000,0.000000
1386769069,0,0,0.0,0,0,20,0,0,0,-0.0292,95.6255,6.8213,0.4212,54.896885,9.784269,108.3,5.845,1.85,335.95,0.000000,0.000000,0.000000,0.000000
1386769069,0,0,0.0,0,0,20,0,0,0,-0.0292,95.6255,6.8213,0.4212,54.896885,9.784269,108.3,5.845,1.85,335.95,0.000000,0.000000,0.000000,0.000000
1386769069,0,0,0.0,0,0,20,0,0,0,-0.0292,95.6255,6.8213,0.4212,54.896885,9.784269,108.3,5.845,1.85,335.95,0.000000,0.000000,0.000000,0.000000
1386769070,0,0,0.0,0,0,20,0,0,0,-0.0292,95.6255,6.8213,0.4212,54.896885,9.784269,108.3,5.845,1.85,335.95,0.000000,0.000000,0.000000,0.000000
1386769070,0,0,0.0,0,0,20,0,0,0,-0.0292,95.6255,6.8213,0.4212,54.896885,9.784269,108.3,5.845,1.85,335.95,0.000000,0.000000,0.000000,0.000000
1386769070,0,0,0.0,0,0,20,0,0,0,-0.0292,95.6255,6.8213,0.4212,54.896885,9.784269,108.3,5.845,1.85,335.95,0.000000,0.000000,0.000000,0.000000
1386769070,0,0,0.0,0,0,20,0,0,0,-0.0292,95.6255,6.8213,0.4212,54.896885,9.784269,108.3,5.845,1.85,335.95,0.000000,0.000000,0.000000,0.000000
1386769071,0,0,0.0,0,0,20,0,0,0,-0.0292,95.6255,6.8213,0.4212,54.896885,9.784269,108.3,5.845,1.85,335.95,0.000000,0.000000,0.000000,0.000000
1386769071,0,0,0.0,0,0,20,0,0,0,-0.0292,95.6255,6.8213,0.4212,54.896885,9.784269,108.3,5.845,1.85,335.95,0.000000,0.000000,0.000000,0.000000
1386769071,0,0,0.0,0,0,20,0,0,0,-0.0292,95.6255,6.8213,0.4212,54.896885,9.784269,108.3,5.845,1.85,335.95,0.000000,0.000000,0.000000,0.000000
1386769071,0,0,0.0,0,0,20,0,0,0,-0.0292,95.6255,6.8213,0.4212,54.896885,9.784269,108.3,5.845,1.85,335.95,0.000000,0.000000,0.000000,0.000000
1386769072,0,0,0.0,0,0,20,0,0,0,-0.0292,95.6255,6.8213,0.4212,54.896885,9.784269,108.3,5.845,1.85,335.95,0.000000,0.000000,0.000000,0.000000
1386769072,0,0,0.0,0,0,20,0,0,0,-0.0292,95.6255,6.8213,0.4212,54.896885,9.784269,108.3,5.845,1.85,335.95,0.000000,0.000000,0.000000,0.000000
1386769072,0,0,0.0,0,0,20,0,0,0,-0.0292,95.6255,6.8213,0.4212,54.896885,9.784269,108.3,5.845,1.85,335.95,0.000000,0.000000,0.000000,0.000000
1386769072,0,0,0.0,0,0,20,0,0,0,-0.0292,95.6255,6.8213,0.4212,54.896885,9.784269,108.3,5.845,1.85,335.95,0.000000,0.000000,0.000000,0.000000
1386769073,0,0,0.0,0,0,20,0,0,0,-0.0292,95.6255,6.8213,0.4212,54.896885,9.784269,108.3,5.845,1.85,335.95,0.000000,0.000000,0.000000,0.000000
1386769073,0,0,0.0,0,0,20,0,0,0,-0.0292,95.6255,6.8213,0.4212,54.896885,9.784269,108.3,5.845,1.85,335.95,0.000000,0.000000,0.000000,0.000000
1386769073,0,0,0.0,0,0,20,0,0,0,-0.0292,95.6255,6.8213,0.4212,54.896885,9.784269,108.3,5.845,1.85,335.95,0.000000,0.000000,0.000000,0.000000
1386769073,4,0,0.0,0,0,20,0,0,0,-0.0292,95.6255,6.8213,0.4212,54.896885,9.784269,108.3,5.845,1.85,335.95,0.000000,0.000000,0.000000,0.000000
1386769074,1,0,468.2,0,-13,16,0,476,25,-0.0292,99.0922,6.8213,0.4212,54.896885,9.784301,108.3,5.845,1.85,335.95,54.896885,9.784269,54.895069,9.793790
1386769074,1,0,468.3,0,-9,12,0,483,50,-0.0292,101.4922,6.8213,0.4212,54.896881,9.784331,108.3,5.845,1.85,335.95,54.896885,9.784269,54.895069,9.793790
1386769074,1,0,468.3,0,-7,8,0,488,75,-0.0292,103.3588,6.8213,0.4212,54.896877,9.784362,108.3,5.845,1.85,335.95,54.896885,9.784269,54.895069,9.793790
1386769074,1,0,468.3,0,-5,4,0,490,100,-0.0292,104.6922,6.8213,0.4212,54.896873,9.784391,108.3,5.845,1.85,335.95,54.896885,9.784269,54.895069,9.793790
1386769075,1,0,468.4,0,-4,0,0,492,125,-0.0292,105.7588,6.8213,0.4212,54.896870,9.784422,108.3,5.845,1.85,335.95,54.896885,9.784269,54.895069,9.793790
1386769075,1,0,468.4,0,-3,-4,0,493,150,-0.0292,106.5588,6.8213,0.4212,54.896862,9.784451,108.3,5.845,1.85,335.95,54.896885,9.784269,54.895069,9.793790
1386769075,1,0,468.4,0,-2,0,0,494,175,-0.0292,107.0922,6.8213,0.4212,54.896858,9.784481,108.3,5.845,1.85,335.95,54.896885,9.784269,54.895069,9.793790
1386769075,1,0,468.4,0,-1,-4,0,494,200,-0.0292,107.3588,6.8213,0.4212,54.896854,9.784512,108.3,5.845,1.85,335.95,54.896885,9.784269,54.895069,9.793790
1386769076,1,0,468.4,0,-1,0,0,494,225,-0.0292,107.6255,6.8213,0.4212,54.896851,9.784541,108.3,5.845,1.85,335.95,54.896885,9.784269,54.895069,9.793790
1386769076,1,0,468.4,0,-1,-4,0,495,250,-0.0292,107.8922,6.8213,0.4212,54.896843,9.784571,108.3,5.845,1.85,335.95,54.896885,9.784269,54.895069,9.793790
1386769076,1,0,468.4,0,-1,0,0,495,275,-0.0292,108.1588,6.8213,0.4212,54.896835,9.784601,108.3,5.845,1.85,335.95,54.896885,9.784269,54.895069,9.793790
1386769076,1,0,468.4,0,0,4,0,495,300,-0.0292,108.1588,6.8213,0.4212,54.896832,9.784631,108.3,5.845,1.85,335.95,54.896885,9.784269,54.895069,9.793790
1386769077,1,0,468.4,0,0,0,0,495,325,-0.0292,108.1588,6.8213,0.4212,54.896828,9.784660,108.3,5.845,1.85,335.95,54.896885,9.784269,54.895069,9.793790
1386769077,1,0,468.4,0,0,4,0,495,350,-0.0292,108.1588,6.8213,0.4212,54.896824,9.784690,108.3,5.845,1.85,335.95,54.896885,9.784269,54.895069,9.793790
1386769077,1,0,468.4,0,0,0,0,495,375,-0.0292,108.1588,6.8213,0.4212,54.896816,9.784719,108.3,5.845,1.85,335.95,54.896885,9.784269,54.895069,9.793790
1386769077,1,0,468.4,0,0,4,0,495,400,-0.0292,108.1588,6.8213,0.4212,54.896809,9.784749,108.3,5.845,1.85,335.95,54.896885,9.784269,54.895069,9.793790
1386769078,1,0,468.4,0,0,0,0,495,425,-0.0292,108.1588,6.8213,0.4212,54.896805,9.784779,108.3,5.845,1.85,335.95,54.896885,9.784269,54.895069,9.793790
1386769078,1,0,468.4,0,0,4,0,495,450,-0.0292,108.1588,6.8213,0.4212,54.896801,9.784808,108.3,5.845,1.85,335.95,54.896885,9.784269,54.895069,9.793790
1386769078,1,0,468.4,0,0,0,0,495,475,-0.0292,108.1588,6.8213,0.4212,54.896793,9.784838,108.3,5.845,1.85,335.95,54.896885,9.784269,54.895069,9.793790
1386769078,1,0,468.4,0,0,4,0,495,500,-0.0292,108.1588,6.8213,0.4212,54.896786,9.784867,108.3,5.845,1.85,335.95,54.896885,9.784269,54.895069,9.793790
1386769079,1,0,468.4,0,0,0,0,495,475,-0.0292,108.1588,6.8213,0.4212,54.896782,9.784897,108.3,5.845,1.85,335.95,54.896885,9.784269,54.895069,9.793790
1386769079,1,0,468.4,0,0,4,0,495,500,-0.0292,108.1588,6.8213,0.4212,54.896778,9.784926,108.3,5.845,1.85,335.95,54.896885,9.784269,54.895069,9.793790
1386769079,1,0,468.4,0,0,0,0,495,475,-0.0292,108.1588,6.8213,0.4212,54.896774,9.784956,108.3,5.845,1.85,335.95,54.896885,9.784269,54.895069,9.793790
1386769079,1,0,468.4,0,0,4,0,495,500,-0.0292,108.1588,6.8213,0.4212,54.896767,9.784986,108.3,5.845,1.85,335.95,54.896885,9.784269,54.895069,9.793790
1386769080,1,0,468.4,0,0,0,0,495,475,-0.0292,108.1588,6.8213,0.4212,54.896759,9.785016,108.3,5.845,1.85,335.95,54.896885,9.784269,54.895069,9.793790
1386769080,1,0,468.4,0,0,4,0,495,500,-0.0292,108.1588,6.8213,0.4212,54.896755,9.785046,108.3,5.845,1.85,335.95,54.896885,9.784269,54.895069,9.793790
1386769080,1,0,390.9,0,35,8,0,495,475,-0.0292,98.8255,6.8213,0.4212,54.889198,9.792863,108.3,5.845,1.85,335.95,54.896885,9.784269,54.895069,9.793790
1386769080,1,0,390.9,0,35,12,0,483,500,-0.0292,89.4922,6.8213,0.4212,54.889198,9.792894,108.3,5.845,1.85,335.95,54.896885,9.784269,54.895069,9.793790
1386769081,1,0,390.9,0,35,16,0,460,475,-0.0292,80.1588,6.8213,0.4212,54.889202,9.792925,108.3,5.845,1.85,335.95,54.896885,9.784269,54.895069,9.793790
1386769081,1,0,390.9,0,35,20,0,430,450,-0.0292,70.8255,6.8213,0.4212,54.889210,9.792954,108.3,5.845,1.85,335.95,54.896885,9.784269,54.895069,9.793790
1386769081,1,0,390.9,0,35,24,0,398,425,-0.0292,61.4922,6.8213,0.4212,54.889221,9.792982,108.3,5.845,1.85,335.95,54.896885,9.784269,54.895069,9.793790
1386769081,1,0,390.9,0,31,28,0,365,400,-0.0292,53.2255,6.8213,0.4212,54.889233,9.793007,108.3,5.845,1.85,335.95,54.896885,9.784269,54.895069,9.793790
1386769082,1,0,390.9,0,22,24,0,336,375,-0.0292,47.3588,6.8213,0.4212,54.889244,9.793030,108.3,5.845,1.85,335.95,54.896885,9.784269,54.895069,9.793790
1386769082,1,0,390.9,0,16,20,0,315,350,-0.0292,43.0922,6.8213,0.4212,54.889256,9.793051,108.3,5.845,1.85,335.95,54.896885,9.784269,54.895069,9.793790
1386769082,1,0,390.9,0,12,16,0,300,325,-0.0292,39.8922,6.8213,0.4212,54.889271,9.793071,108.3,5.845,1.85,335.95,54.896885,9.784269,54.895069,9.793790
1386769082,1,0,390.9,0,9,12,0,289,300,-0.0292,37.4922,6.8213,0.4212,54.889282,9.793090,108.3,5.845,1.85,335.95,54.896885,9.784269,54.895069,9.793790
1386769083,1,0,390.9,0,7,8,0,281,275,-0.0292,35.6255,6.8213,0.4212,54.889297,9.793108,108.3,5.845,1.85,335.95,54.896885,9.784269,54.895069,9.793790
1386769083,1,0,390.9,0,5,4,0,275,300,-0.0292,34.2922,6.8213,0.4212,54.889313,9.793125,108.3,5.845,1.85,335.95,54.896885,9.784269,54.895069,9.793790
1386769083,1,0,390.9,0,3,0,0,271,275,-0.0292,33.4922,6.8213,0.4212,54.889328,9.793142,108.3,5.845,1.85,335.95,54.896885,9.784269,54.895069,9.793790
1386769083,1,0,390.9,0,3,4,0,268,250,-0.0292,32.6922,6.8213,0.4212,54.889343,9.793159,108.3,5.845,1.85,335.95,54.896885,9.784269,54.895069,9.793790
1386769084,1,0,390.9,0,2,0,0,266,275,-0.0292,32.1588,6.8213,0.4212,54.889359,9.793176,108.3,5.845,1.85,335.95,54.896885,9.784269,54.895069,9.793790
1386769084,1,0,390.9,0,1,4,0,264,250,-0.0292,31.8922,6.8213,0.4212,54.889374,9.793192,108.3,5.845,1.85,335.95,54.896885,9.784269,54.895069,9.793790
1386769084,1,0,390.9,0,1,0,0,263,275,-0.0292,31.6255,6.8213,0.4212,54.889389,9.793208,108.3,5.845,1.85,335.95,54.896885,9.784269,54.895069,9.793790
1386769084,1,0,390.9,0,1,4,0,262,250,-0.0292,31.3588,6.8213,0.4212,54.889404,9.793224,108.3,5.845,1.85,335.95,54.896885,9.784269,54.895069,9.793790
1386769085,1,0,390.9,0,0,0,0,261,275,-0.0292,31.3588,6.8213,0.4212,54.889420,9.793241,108.3,5.845,1.85,335.95,54.896885,9.784269,54.895069,9.793790
1386769085,1,0,390.9,0,0,4,0,261,250,-0.0292,31.3588,6.8213,0.4212,54.889435,9.793257,108.3,5.845,1.85,335.95,54.896885,9.784269,54.895069,9.793790
1386769085,1,0,390.9,0,0,0,0,261,275,-0.0292,31.3588,6.8213,0.4212,54.889454,9.793273,108.3,5.845,1.85,335.95,54.896885,9.784269,54.895069,9.793790
1386769085,1,0,390.9,0,0,4,0,261,250,-0.0292,31.3588,6.8213,0.4212,54.889469,9.793290,108.3,5.845,1.85,335.95,54.896885,9.784269,54.895069,9.793790
1386769086,1,0,390.9,0,0,0,0,261,275,-0.0292,31.3588,6.8213,0.4212,54.889484,9.793306,108.3,5.845,1.85,335.95,54.896885,9.784269,54.895069,9.793790
1386769086,1,0,390.9,0,0,4,0,261,250,-0.0292,31.3588,6.8213,0.4212,54.889503,9.793323,108.3,5.845,1.85,335.95,54.896885,9.784269,54.895069,9.793790
1386769086,1,0,390.9,0,0,0,0,261,275,-0.0292,31.3588,6.8213,0.4212,54.889519,9.793339,108.3,5.845,1.85,335.95,54.896885,9.784269,54.895069,9.793790
1386769086,1,0,390.9,0,0,4,0,261,250,-0.0292,31.3588,6.8213,0.4212,54.889534,9.793355,108.3,5.845,1.85,335.95,54.896885,9.784269,54.895069,9.793790
1386769087,1,0,390.9,0,0,0,0,261,275,-0.0292,31.3588,6.8213,0.4212,54.889553,9.793371,108.3,5.845,1.85,335.95,54.896885,9.784269,54.895069,9.793790
1386769087,1,0,390.9,0,0,4,0,261,250,-0.0292,31.3588,6.8213,0.4212,54.889568,9.793387,108.3,5.845,1.85,335.95,54.896885,9.784269,54.895069,9.793790
1386769087,1,0,390.9,0,0,0,0,261,275,-0.0292,31.3588,6.8213,0.4212,54.889584,9.793404,108.3,5.845,1.85,335.95,54.896885,9.784269,54.895069,9.793790
1386769087,1,0,390.9,0,0,4,0,261,250,-0.0292,31.3588,6.8213,0.4212,54.889603,9.793420,108.3,5.845,1.85,335.95,54.896885,9.784269,54.895069,9.793790
1386769088,1,0,390.9,0,0,0,0,261,275,-0.0292,31.3588,6.8213,0.4212,54.889618,9.793436,108.3,5.845,1.85,335.95,54.896885,9.784269,54.895069,9.793790
1386769088,1,0,390.9,0,0,4,0,261,250,-0.0292,31.3588,6.8213,0.4212,54.889633,9.793452,108.3,5.845,1.85,335.95,54.896885,9.784269,54.895069,9.793790
1386769088,1,0,390.9,0,0,0,0,261,275,-0.0292,31.3588,6.8213,0.4212,54.889652,9.793468,108.3,5.845,1.85,335.95,54.896885,9.784269,54.895069,9.793790
1386769088,1,0,390.9,0,0,4,0,261,250,-0.0292,31.3588,6.8213,0.4212,54.889668,9.793485,108.3,5.845,1.85,335.95,54.896885,9.784269,54.895069,9.793790
1386769089,1,0,390.9,0,0,0,0,261,275,-0.0292,31.3588,6.8213,0.4212,54.889683,9.793501,108.3,5.845,1.85,335.95,54.896885,9.784269,54.895069,9.793790
1386769089,1,0,390.9,0,0,4,0,261,250,-0.0292,31.3588,6.8213,0.4212,54.889694,9.793517,108.3,5.845,1.85,335.95,54.896885,9.784269,54.895069,9.793790
1386769089,1,0,390.9,0,0,0,0,261,275,-0.0292,31.3588,6.8213,0.4212,54.889709,9.793533,108.3,5.845,1.85,335.95,54.896885,9.784269,54.895069,9.793790
1386769089,1,0,390.9,0,0,4,0,261,250,-0.0292,31.3588,6.8213,0.4212,54.889725,9.793550,108.3,5.845,1.85,335.95,54.896885,9.784269,54.895069,9.793790
1386769090,1,0,390.9,0,0,0,0,261,275,-0.0292,31.3588,6.8213,0.4212,54.889740,9.793566,108.3,5.845,1.85,335.95,54.896885,9.784269,54.895069,9.793790
1386769090,1,0,390.9,0,0,4,0,261,250,-0.0292,31.3588,6.8213,0.4212,54.889755,9.793582,108.3,5.845,1.85,335.95,54.896885,9.784269,54.895069,9.793790
1386769090,1,0,390.9,0,0,0,0,261,275,-0.0292,31.3588,6.8213,0.4212,54.889774,9.793598,108.3,5.845,1.85,335.95,54.896885,9.784269,54.895069,9.793790
1386769090,1,0,390.9,0,0,4,0,261,250,-0.0292,31.3588,6.8213,0.4212,54.889790,9.793614,108.3,5.845,1.85,335.95,54.896885,9.784269,54.895069,9.793790
1386769091,1,0,390.9,0,0,0,0,261,275,-0.0292,31.3588,6.8213,0.4212,54.889805,9.793631,108.3,5.845,1.85,335.95,54.896885,9.784269,54.895069,9.793790
1386769091,1,0,390.9,0,0,4,0,261,250,-0.0292,31.3588,6.8213,0.4212,54.889824,9.793647,108.3,5.845,1.85,335.95,54.896885,9.784269,54.895069,9.793790
1386769091,1,0,390.9,0,0,0,0,261,275,-0.0292,31.3588,6.8213,0.4212,54.889839,9.793663,108.3,5.845,1.85,335.95,54.896885,9.784269,54.895069,9.793790
1386769091,1,0,390.9,0,0,4,0,261,250,-0.0292,31.3588,6.8213,0.4212,54.889854,9.793679,108.3,5.845,1.85,335.95,54.896885,9.784269,54.895069,9.793790
1386769092,1,0,390.9,0,0,0,0,261,275,-0.0292,31.3588,6.8213,0.4212,54.889874,9.793695,108.3,5.845,1.85,335.95,54.896885,9.784269,54.895069,9.793790
1386769092,1,0,390.9,0,0,4,0,261,250,-0.0292,31.3588,6.8213,0.4212,54.889889,9.793712,108.3,5.845,1.85,335.95,54.896885,9.784269,54.895069,9.793790
1386769092,1,0,390.9,0,0,0,0,261,275,-0.0292,31.3588,6.8213,0.4212,54.889904,9.793728,108.3,5.845,1.85,335.95,54.896885,9.784269,54.895069,9.793790
1386769092,1,0,390.9,0,0,4,0,261,250,-0.0292,31.3588,6.8213,0.4212,54.889923,9.793744,108.3,5.845,1.85,335.95,54.896885,9.784269,54.895069,9.793790
1386769093,1,0,390.9,0,0,0,0,261,275,-0.0292,31.3588,6.8213,0.4212,54.889938,9.793761,108.3,5.845,1.85,335.95,54.896885,9.784269,54.895069,9.793790
1386769093,1,0,390.9,0,0,4,0,261,250,-0.0292,31.3588,6.8213,0.4212,54.889954,9.793777,108.3,5.845,1.85,335.95,54.896885,9.784269,54.895069,9.793790
1386769093,1,0,390.9,0,0,0,0,261,275,-0.0292,31.3588,6.8213,0.4212,54.889965,9.793794,108.3,5.845,1.85,335.95,54.896885,9.784269,54.895069,9.793790
1386769093,1,0,390.9,0,0,4,0,261,250,-0.0292,31.3588,6.8213,0.4212,54.889980,9.793810,108.3,5.845,1.85,335.95,54.896885,9.784269,54.895069,9.793790
1386769094,1,0,390.9,0,0,0,0,261,275,-0.0292,31.3588,6.8213,0.4212,54.889996,9.793826,108.3,5.845,1.85,335.95,54.896885,9.784269,54.895069,9.793790
1386769094,1,0,390.9,0,0,4,0,261,250,-0.0292,31.3588,6.8213,0.4212,54.890011,9.793842,108.3,5.845,1.85,335.95,54.896885,9.784269,54.895069,9.793790
1386769094,1,0,390.9,0,0,0,0,261,275,-0.0292,31.3588,6.8213,0.4212,54.890026,9.793859,108.3,5.845,1.85,335.95,54.896885,9.784269,54.895069,9.793790
1386769094,1,0,390.9,0,0,4,0,261,250,-0.0292,31.3588,6.8213,0.4212,54.890045,9.793875,108.3,5.845,1.85,335.95,54.896885,9.784269,54.895069,9.793790
1386769095,1,0,390.9,0,0,0,0,261,275,-0.0292,31.3588,6.8213,0.4212,54.890060,9.793891,108.3,5.845,1.85,335.95,54.896885,9.784269,54.895069,9.793790
1386769095,1,0,390.9,0,0,4,0,261,250,-0.0292,31.3588,6.8213,0.4212,54.890076,9.793907,108.3,5.845,1.85,335.95,54.896885,9.784269,54.895069,9.793790
1386769095,1,0,390.9,0,0,0,0,261,275,-0.0292,31.3588,6.8213,0.4212,54.890095,9.793923,108.3,5.845,1.85,335.95,54.896885,9.784269,54.895069,9.793790
1386769095,1,0,390.9,0,0,4,0,261,250,-0.0292,31.3588,6.8213,0.4212,54.890110,9.793940,108.3,5.845,1.85,335.95,54.896885,9.784269,54.895069,9.793790
1386769096,1,0,390.9,0,0,0,0,261,275,-0.0292,31.3588,6.8213,0.4212,54.890125,9.793956,108.3,5.845,1.85,335.95,54.896885,9.784269,54.895069,9.793790
1386769096,1,0,390.9,0,0,4,0,261,250,-0.0292,31.3588,6.8213,0.4212,54.890144,9.793972,108.3,5.845,1.85,335.95,54.896885,9.784269,54.895069,9.793790
1386769096,1,0,390.9,0,0,0,0,261,275,-0.0292,31.3588,6.8213,0.4212,54.890160,9.793988,108.3,5.845,1.85,335.95,54.896885,9.784269,54.895069,9.793790
1386769096,1,0,390.9,0,0,4,0,261,250,-0.0292,31.3588,6.8213,0.4212,54.890175,9.794004,108.3,5.845,1.85,335.95,54.896885,9.784269,54.895069,9.793790
1386769097,1,0,390.9,0,0,0,0,261,275,-0.0292,31.3588,6.8213,0.4212,54.890186,9.794021,108.3,5.845,1.85,335.95,54.896885,9.784269,54.895069,9.793790
1386769097,1,0,390.9,0,0,4,0,261,250,-0.0292,31.3588,6.8213,0.4212,54.890202,9.794037,108.3,5.845,1.85,335.95,54.896885,9.784269,54.895069,9.793790
1386769097,1,0,390.9,0,0,0,0,261,275,-0.0292,31.3588,6.8213,0.4212,54.890217,9.794053,108.3,5.845,1.85,335.95,54.896885,9.784269,54.895069,9.793790
1386769098,1,0,390.9,0,0,4,0,261,250,-0.0292,31.3588,6.8213,0.4212,54.890232,9.794069,108.3,5.845,1.85,335.95,54.896885,9.784269,54.895069,9.793790
1386769098,1,0,390.9,0,0,0,0,261,275,-0.0292,31.3588,6.8213,0.4212,54.890247,9.794086,108.3,5.845,1.85,335.95,54.896885,9.784269,54.895069,9.793790
1386769098,1,0,390.9,0,0,4,0,261,250,-0.0292,31.3588,6.8213,0.4212,54.890266,9.794102,108.3,5.845,1.85,335.95,54.896885,9.784269,54.895069,9.793790
1386769098,1,0,390.9,0,0,0,0,261,275,-0.0292,31.3588,6.8213,0.4212,54.890282,9.794118,108.3,5.845,1.85,335.95,54.896885,9.784269,54.895069,9.793790
1386769099,1,0,390.9,0,0,4,0,261,250,-0.0292,31.3588,6.8213,0.4212,54.890297,9.794134,108.3,5.845,1.85,335.95,54.896885,9.784269,54.895069,9.793790
1386769099,1,0,390.9,0,0,0,0,261,275,-0.0292,31.3588,6.8213,0.4212,54.890316,9.794150,108.3,5.845,1.85,335.95,54.896885,9.784269,54.895069,9.793790
1386769099,1,0,390.9,0,0,4,0,261,250,-0.0292,31.3588,6.8213,0.4212,54.890331,9.794167,108.3,5.845,1.85,335.95,54.896885,9.784269,54.895069,9.793790
1386769099,1,0,390.9,0,0,0,0,261,275,-0.0292,31.3588,6.8213,0.4212,54.890347,9.794183,108.3,5.845,1.85,335.95,54.896885,9.784269,54.895069,9.793790
1386769100,1,0,390.9,0,0,4,0,261,250,-0.0292,31.3588,6.8213,0.4212,54.890366,9.794199,108.3,5.845,1.85,335.95,54.896885,9.784269,54.895069,9.793790
1386769100,1,0,390.9,0,0,0,0,261,275,-0.0292,31.3588,6.8213,0.4212,54.890381,9.794215,108.3,5.845,1.85,335.95,54.896885,9.784269,54.895069,9.793790
1386769100,1,0,390.9,0,0,4,0,261,250,-0.0292,31.3588,6.8213,0.4212,54.890396,9.794231,108.3,5.845,1.85,335.95,54.896885,9.784269,54.895069,9.793790
1386769100,1,0,390.9,0,0,0,0,261,275,-0.0292,31.3588,6.8213,0.4212,54.890408,9.794248,108.3,5.845,1.85,335.95,54.896885,9.784269,54.895069,9.793790
1386769101,1,0,390.9,0,0,4,0,261,250,-0.0292,31.3588,6.8213,0.4212,54.890423,9.794264,108.3,5.845,1.85,335.95,54.896885,9.784269,54.895069,9.793790
1386769101,1,0,390.9,0,0,0,0,261,275,-0.0292,31.3588,6.8213,0.4212,54.890438,9.794280,108.3,5.845,1.85,335.95,54.896885,9.784269,54.895069,9.793790
1386769101,1,0,390.9,0,0,4,0,261,250,-0.0292,31.3588,6.8213,0.4212,54.890453,9.794296,108.3,5.845,1.85,335.95,54.896885,9.784269,54.895069,9.793790
1386769101,1,0,390.9,0,0,0,0,261,275,-0.0292,31.3588,6.8213,0.4212,54.890469,9.794312,108.3,5.845,1.85,335.95,54.896885,9.784269,54.895069,9.793790
1386769102,1,0,390.9,0,0,4,0,261,250,-0.0292,31.3588,6.8213,0.4212,54.890488,9.794329,108.3,5.845,1.85,335.95,54.896885,9.784269,54.895069,9.793790
1386769102,1,0,390.9,0,0,0,0,261,275,-0.0292,31.3588,6.8213,0.4212,54.890503,9.794345,108.3,5.845,1.85,335.95,54.896885,9.784269,54.895069,9.793790
1386769102,1,0,390.9,0,0,4,0,261,250,-0.0292,31.3588,6.8213,0.4212,54.890518,9.794362,108.3,5.845,1.85,335.95,54.896885,9.784269,54.895069,9.793790
1386769102,1,0,390.9,0,0,0,0,261,275,-0.0292,31.3588,6.8213,0.4212,54.890537,9.794378,108.3,5.845,1.85,335.95,54.896885,9.784269,54.895069,9.793790
1386769103,1,0,390.9,0,0,4,0,261,250,-0.0292,31.3588,6.8213,0.4212,54.890553,9.794394,108.3,5.845,1.85,335.95,54.896885,9.784269,54.895069,9.793790
1386769103,1,0,390.9,0,0,0,0,261,275,-0.0292,31.3588,6.8213,0.4212,54.890568,9.794411,108.3,5.845,1.85,335.95,54.896885,9.784269,54.895069,9.793790
1386769103,1,0,390.9,0,0,4,0,261,250,-0.0292,31.3588,6.8213,0.4212,54.890587,9.794427,108.3,5.845,1.85,335.95,54.896885,9.784269,54.895069,9.793790
1386769103,1,0,390.9,0,0,0,0,261,275,-0.0292,31.3588,6.8213,0.4212,54.890602,9.794443,108.3,5.845,1.85,335.95,54.896885,9.784269,54.895069,9.793790
1386769104,1,0,390.9,0,0,4,0,261,250,-0.0292,31.3588,6.8213,0.4212,54.890617,9.794459,108.3,5.845,1.85,335.95,54.896885,9.784269,54.895069,9.793790
1386769104,1,0,390.9,0,0,0,0,261,275,-0.0292,31.3588,6.8213,0.4212,54.890629,9.794476,108.3,5.845,1.85,335.95,54.896885,9.784269,54.895069,9.793790
1386769104,1,0,390.9,0,0,4,0,261,250,-0.0292,31.3588,6.8213,0.4212,54.890644,9.794492,108.3,5.845,1.85,335.95,54.896885,9.784269,54.895069,9.793790
1386769104,1,0,390.9,0,0,0,0,261,275,-0.0292,31.3588,6.8213,0.4212,54.890659,9.794508,108.3,5.845,1.85,335.95,54.896885,9.784269,54.895069,9.793790
1386769105,1,0,390.9,0,0,4,0,261,250,-0.0292,31.3588,6.8213,0.4212,54.890675,9.794524,108.3,5.845,1.85,335.95,54.896885,9.784269,54.895069,9.793790
1386769105,1,0,390.9,0,0,0,0,261,275,-0.0292,31.3588,6.8213,0.4212,54.890690,9.794540,108.3,5.845,1.85,335.95,54.896885,9.784269,54.895069,9.793790
1386769105,1,0,390.9,0,0,4,0,261,250,-0.0292,31.3588,6.8213,0.4212,54.890709,9.794557,108.3,5.845,1.85,335.95,54.896885,9.784269,54.895069,9.793790
1386769105,1,0,390.9,0,0,0,0,261,275,-0.0292,31.3588,6.8213,0.4212,54.890724,9.794573,108.3,5.845,1.85,335.95,54.896885,9.784269,54.895069,9.793790
1386769106,1,0,390.9,0,0,4,0,261,250,-0.0292,31.3588,6.8213,0.4212,54.890739,9.794589,108.3,5.845,1.85,335.95,54.896885,9.784269,54.895069,9.793790
1386769106,1,0,390.9,0,0,0,0,261,275,-0.0292,31.3588,6.8213,0.4212,54.890759,9.794605,108.3,5.845,1.85,335.95,54.896885,9.784269,54.895069,9.793790
1386769106,1,0,390.9,0,0,4,0,261,250,-0.0292,31.3588,6.8213,0.4212,54.890774,9.794621,108.3,5.845,1.85,335.95,54.896885,9.784269,54.895069,9.793790
1386769106,1,0,390.9,0,0,0,0,261,275,-0.0292,31.3588,6.8213,0.4212,54.890789,9.794638,108.3,5.845,1.85,335.95,54.896885,9.784269,54.895069,9.793790
1386769107,1,0,390.9,0,0,4,0,261,250,-0.0292,31.3588,6.8213,0.4212,54.890808,9.794654,108.3,5.845,1.85,335.95,54.896885,9.784269,54.895069,9.793790
1386769107,1,0,390.9,0,0,0,0,261,275,-0.0292,31.3588,6.8213,0.4212,54.890823,9.794670,108.3,5.845,1.85,335.95,54.896885,9.784269,54.895069,9.793790
1386769107,1,0,390.9,0,0,4,0,261,250,-0.0292,31.3588,6.8213,0.4212,54.890839,9.794686,108.3,5.845,1.85,335.95,54.896885,9.784269,54.895069,9.793790
1386769107,1,0,390.9,0,0,0,0,261,275,-0.0292,31.3588,6.8213,0.4212,54.890858,9.794703,108.3,5.845,1.85,335.95,54.896885,9.784269,54.895069,9.793790
1386769108,1,0,390.9,0,0,4,0,261,250,-0.0292,31.3588,6.8213,0.4212,54.890873,9.794719,108.3,5.845,1.85,335.95,54.896885,9.784269,54.895069,9.793790
1386769108,1,0,390.9,0,0,0,0,261,275,-0.0292,31.3588,6.8213,0.4212,54.890888,9.794735,108.3,5.845,1.85,335.95,54.896885,9.784269,54.895069,9.793790
1386769108,1,0,390.9,0,0,4,0,261,250,-0.0292,31.3588,6.8213,0.4212,54.890900,9.794751,108.3,5.845,1.85,335.95,54.896885,9.784269,54.895069,9.793790
1386769108,1,0,390.9,0,0,0,0,261,275,-0.0292,31.3588,6.8213,0.4212,54.890915,9.794767,108.3,5.845,1.85,335.95,54.896885,9.784269,54.895069,9.793790
1386769109,1,0,390.9,0,0,4,0,261,250,-0.0292,31.3588,6.8213,0.4212,54.890930,9.794784,108.3,5.845,1.85,335.95,54.896885,9.784269,54.895069,9.793790
1386769109,1,0,390.9,0,0,0,0,261,275,-0.0292,31.3588,6.8213,0.4212,54.890945,9.794800,108.3,5.845,1.85,335.95,54.896885,9.784269,54.895069,9.793790
1386769109,1,0,390.9,0,0,4,0,261,250,-0.0292,31.3588,6.8213,0.4212,54.890961,9.794816,108.3,5.845,1.85,335.95,54.896885,9.784269,54.895069,9.793790
1386769109,1,0,390.9,0,0,0,0,261,275,-0.0292,31.3588,6.8213,0.4212,54.890980,9.794833,108.3,5.845,1.85,335.95,54.896885,9.784269,54.895069,9.793790
1386769110,1,0,390.9,0,0,4,0,261,250,-0.0292,31.3588,6.8213,0.4212,54.890995,9.794849,108.3,5.845,1.85,335.95,54.896885,9.784269,54.895069,9.793790
1386769110,1,0,390.9,0,0,0,0,261,275,-0.0292,31.3588,6.8213,0.4212,54.891010,9.794866,108.3,5.845,1.85,335.95,54.896885,9.784269,54.895069,9.793790
1386769110,1,0,390.9,0,0,4,0,261,250,-0.0292,31.3588,6.8213,0.4212,54.891029,9.794882,108.3,5.845,1.85,335.95,54.896885,9.784269,54.895069,9.793790
1386769110,1,0,390.9,0,0,0,0,261,275,-0.0292,31.3588,6.8213,0.4212,54.891045,9.794898,108.3,5.845,1.85,335.95,54.896885,9.784269,54.895069,9.793790
1386769111,1,0,390.9,0,0,4,0,261,250,-0.0292,31.3588,6.8213,0.4212,54.891060,9.794914,108.3,5.845,1.85,335.95,54.896885,9.784269,54.895069,9.793790
1386769111,1,0,390.9,0,0,0,0,261,275,-0.0292,31.3588,6.8213,0.4212,54.891079,9.794930,108.3,5.845,1.85,335.95,54.896885,9.784269,54.895069,9.793790
1386769111,1,0,390.9,0,0,4,0,261,250,-0.0292,31.3588,6.8213,0.4212,54.891094,9.794947,108.3,5.845,1.85,335.95,54.896885,9.784269,54.895069,9.793790
1386769111,1,0,390.9,0,0,0,0,261,275,-0.0292,31.3588,6.8213,0.4212,54.891109,9.794963,108.3,5.845,1.85,335.95,54.896885,9.784269,54.895069,9.793790
1386769112,1,0,390.9,0,0,4,0,261,250,-0.0292,31.3588,6.8213,0.4212,54.891121,9.794979,108.3,5.845,1.85,335.95,54.896885,9.784269,54.895069,9.793790
1386769112,1,0,390.9,0,0,0,0,261,275,-0.0292,31.3588,6.8213,0.4212,54.891136,9.794995,108.3,5.845,1.85,335.95,54.896885,9.784269,54.895069,9.793790
1386769112,1,0,390.9,0,0,4,0,261,250,-0.0292,31.3588,6.8213,0.4212,54.891151,9.795012,108.3,5.845,1.85,335.95,54.896885,9.784269,54.895069,9.793790
1386769112,1,0,390.9,0,0,0,0,261,275,-0.0292,31.3588,6.8213,0.4212,54.891167,9.795028,108.3,5.845,1.85,335.95,54.896885,9.784269,54.895069,9.793790
1386769113,1,0,390.9,0,0,4,0,261,250,-0.0292,31.3588,6.8213,0.4212,54.891182,9.795044,108.3,5.845,1.85,335.95,54.896885,9.784269,54.895069,9.793790
1386769113,1,0,390.9,0,0,0,0,261,275,-0.0292,31.3588,6.8213,0.4212,54.891201,9.795060,108.3,5.845,1.85,335.95,54.896885,9.784269,54.895069,9.793790
1386769113,1,0,390.9,0,0,4,0,261,250,-0.0292,31.3588,6.8213,0.4212,54.891216,9.795076,108.3,5.845,1.85,335.95,54.896885,9.784269,54.895069,9.793790
1386769113,1,0,390.9,0,0,0,0,261,275,-0.0292,31.3588,6.8213,0.4212,54.891232,9.795093,108.3,5.845,1.85,335.95,54.896885,9.784269,54.895069,9.793790
1386769114,1,0,390.9,0,0,4,0,261,250,-0.0292,31.3588,6.8213,0.4212,54.891251,9.795109,108.3,5.845,1.85,335.95,54.896885,9.784269,54.895069,9.793790
1386769114,1,0,390.9,0,0,0,0,261,275,-0.0292,31.3588,6.8213,0.4212,54.891266,9.795125,108.3,5.845,1.85,335.95,54.896885,9.784269,54.895069,9.793790
1386769114,1,0,390.9,0,0,4,0,261,250,-0.0292,31.3588,6.8213,0.4212,54.891281,9.795141,108.3,5.845,1.85,335.95,54.896885,9.784269,54.895069,9.793790
1386769114,1,0,390.9,0,0,0,0,261,275,-0.0292,31.3588,6.8213,0.4212,54.891300,9.795157,108.3,5.845,1.85,335.95,54.896885,9.784269,54.895069,9.793790
1386769115,1,0,390.9,0,0,4,0,261,250,-0.0292,31.3588,6.8213,0.4212,54.891315,9.795174,108.3,5.845,1.85,335.95,54.896885,9.784269,54.895069,9.793790
1386769115,1,0,390.9,0,0,0,0,261,275,-0.0292,31.3588,6.8213,0.4212,54.891331,9.795190,108.3,5.845,1.85,335.95,54.896885,9.784269,54.895069,9.793790
1386769115,1,0,390.9,0,0,4,0,261,250,-0.0292,31.3588,6.8213,0.4212,54.891342,9.795206,108.3,5.845,1.85,335.95,54.896885,9.784269,54.895069,9.793790
1386769115,1,0,390.9,0,0,0,0,261,275,-0.0292,31.3588,6.8213,0.4212,54.891357,9.795222,108.3,5.845,1.85,335.95,54.896885,9.784269,54.895069,9.793790
1386769116,1,0,390.9,0,0,4,0,261,250,-0.0292,31.3588,6.8213,0.4212,54.891373,9.795238,108.3,5.845,1.85,335.95,54.896885,9.784269,54.895069,9.793790
1386769116,1,0,390.9,0,0,0,0,261,275,-0.0292,31.3588,6.8213,0.4212,54.891388,9.795255,108.3,5.845,1.85,335.95,54.896885,9.784269,54.895069,9.793790
1386769116,1,0,390.9,0,0,4,0,261,250,-0.0292,31.3588,6.8213,0.4212,54.891403,9.795271,108.3,5.845,1.85,335.95,54.896885,9.784269,54.895069,9.793790
1386769116,1,0,390.9,0,0,0,0,261,275,-0.0292,31.3588,6.8213,0.4212,54.891422,9.795287,108.3,5.845,1.85,335.95,54.896885,9.784269,54.895069,9.793790
1386769117,1,0,390.9,0,0,4,0,261,250,-0.0292,31.3588,6.8213,0.4212,54.891438,9.795304,108.3,5.845,1.85,335.95,54.896885,9.784269,54.895069,9.793790
1386769117,1,0,390.9,0,0,0,0,261,275,-0.0292,31.3588,6.8213,0.4212,54.891453,9.795321,108.3,5.845,1.85,335.95,54.896885,9.784269,54.895069,9.793790
1386769117,1,0,390.9,0,0,4,0,261,250,-0.0292,31.3588,6.8213,0.4212,54.891472,9.795337,108.3,5.845,1.85,335.95,54.896885,9.784269,54.895069,9.793790
1386769117,1,0,390.9,0,0,0,0,261,275,-0.0292,31.3588,6.8213,0.4212,54.891487,9.795353,108.3,5.845,1.85,335.95,54.896885,9.784269,54.895069,9.793790
1386769118,1,0,390.9,0,0,4,0,261,250,-0.0292,31.3588,6.8213,0.4212,54.891502,9.795369,108.3,5.845,1.85,335.95,54.896885,9.784269,54.895069,9.793790
1386769118,1,0,390.9,0,0,0,0,261,275,-0.0292,31.3588,6.8213,0.4212,54.891521,9.795385,108.3,5.845,1.85,335.95,54.896885,9.784269,54.895069,9.793790
1386769118,1,0,390.9,0,0,4,0,261,250,-0.0292,31.3588,6.8213,0.4212,54.891537,9.795402,108.3,5.845,1.85,335.95,54.896885,9.784269,54.895069,9.793790
1386769118,1,0,390.9,0,0,0,0,261,275,-0.0292,31.3588,6.8213,0.4212,54.891552,9.795418,108.3,5.845,1.85,335.95,54.896885,9.784269,54.895069,9.793790
1386769119,1,0,390.9,0,0,4,0,261,250,-0.0292,31.3588,6.8213,0.4212,54.891563,9.795434,108.3,5.845,1.85,335.95,54.896885,9.784269,54.895069,9.793790
1386769119,1,0,390.9,0,0,0,0,261,275,-0.0292,31.3588,6.8213,0.4212,54.891579,9.795450,108.3,5.845,1.85,335.95,54.896885,9.784269,54.895069,9.793790
1386769119,1,0,390.9,0,0,4,0,261,250,-0.0292,31.3588,6.8213,0.4212,54.891594,9.795466,108.3,5.845,1.85,335.95,54.896885,9.784269,54.895069,9.793790
1386769119,1,0,390.9,0,0,0,0,261,275,-0.0292,31.3588,6.8213,0.4212,54.891609,9.795483,108.3,5.845,1.85,335.95,54.896885,9.784269,54.895069,9.793790
1386769120,1,0,390.9,0,0,4,0,261,250,-0.0292,31.3588,6.8213,0.4212,54.891624,9.795499,108.3,5.845,1.85,335.95,54.896885,9.784269,54.895069,9.793790
1386769120,1,0,390.9,0,0,0,0,261,275,-0.0292,31.3588,6.8213,0.4212,54.891644,9.795515,108.3,5.845,1.85,335.95,54.896885,9.784269,54.895069,9.793790
1386769120,1,0,390.9,0,0,4,0,261,250,-0.0292,31.3588,6.8213,0.4212,54.891659,9.795531,108.3,5.845,1.85,335.95,54.896885,9.784269,54.895069,9.793790
1386769120,1,0,390.9,0,0,0,0,261,275,-0.0292,31.3588,6.8213,0.4212,54.891674,9.795547,108.3,5.845,1.85,335.95,54.896885,9.784269,54.895069,9.793790
1386769121,1,0,390.9,0,0,4,0,261,250,-0.0292,31.3588,6.8213,0.4212,54.891693,9.795564,108.3,5.845,1.85,335.95,54.896885,9.784269,54.895069,9.793790
1386769121,1,0,390.9,0,0,0,0,261,275,-0.0292,31.3588,6.8213,0.4212,54.891708,9.795580,108.3,5.845,1.85,335.95,54.896885,9.784269,54.895069,9.793790
1386769121,1,0,390.9,0,0,4,0,261,250,-0.0292,31.3588,6.8213,0.4212,54.891724,9.795596,108.3,5.845,1.85,335.95,54.896885,9.784269,54.895069,9.793790
1386769121,1,0,390.9,0,0,0,0,261,275,-0.0292,31.3588,6.8213,0.4212,54.891743,9.795612,108.3,5.845,1.85,335.95,54.896885,9.784269,54.895069,9.793790
1386769122,1,0,390.9,0,0,4,0,261,250,-0.0292,31.3588,6.8213,0.4212,54.891758,9.795629,108.3,5.845,1.85,335.95,54.896885,9.784269,54.895069,9.793790
1386769122,1,0,390.9,0,0,0,0,261,275,-0.0292,31.3588,6.8213,0.4212,54.891773,9.795645,108.3,5.845,1.85,335.95,54.896885,9.784269,54.895069,9.793790
1386769122,1,0,390.9,0,0,4,0,261,250,-0.0292,31.3588,6.8213,0.4212,54.891792,9.795661,108.3,5.845,1.85,335.95,54.896885,9.784269,54.895069,9.793790
1386769122,1,0,390.9,0,0,0,0,261,275,-0.0292,31.3588,6.8213,0.4212,54.891808,9.795677,108.3,5.845,1.85,335.95,54.896885,9.784269,54.895069,9.793790
1386769123,1,0,390.9,0,0,4,0,261,250,-0.0292,31.3588,6.8213,0.4212,54.891823,9.795693,108.3,5.845,1.85,335.95,54.896885,9.784269,54.895069,9.793790
1386769123,1,0,390.9,0,0,0,0,261,275,-0.0292,31.3588,6.8213,0.4212,54.891834,9.795710,108.3,5.845,1.85,335.95,54.896885,9.784269,54.895069,9.793790
1386769123,1,0,390.9,0,0,4,0,261,250,-0.0292,31.3588,6.8213,0.4212,54.891850,9.795726,108.3,5.845,1.85,335.95,54.896885,9.784269,54.895069,9.793790
1386769123,1,0,390.9,0,0,0,0,261,275,-0.0292,31.3588,6.8213,0.4212,54.891865,9.795742,108.3,5.845,1.85,335.95,54.896885,9.784269,54.895069,9.793790
1386769124,1,0,390.9,0,0,4,0,261,250,-0.0292,31.3588,6.8213,0.4212,54.891880,9.795758,108.3,5.845,1.85,335.95,54.896885,9.784269,54.895069,9.793790
1386769124,1,0,390.9,0,0,0,0,261,275,-0.0292,31.3588,6.8213,0.4212,54.891895,9.795774,108.3,5.845,1.85,335.95,54.896885,9.784269,54.895069,9.793790
1386769124,1,0,390.9,0,0,4,0,261,250,-0.0292,31.3588,6.8213,0.4212,54.891914,9.795791,108.3,5.845,1.85,335.95,54.896885,9.784269,54.895069,9.793790
1386769124,1,0,390.9,0,0,0,0,261,275,-0.0292,31.3588,6.8213,0.4212,54.891930,9.795807,108.3,5.845,1.85,335.95,54.896885,9.784269,54.895069,9.793790
1386769125,1,0,390.9,0,0,4,0,261,250,-0.0292,31.3588,6.8213,0.4212,54.891945,9.795823,108.3,5.845,1.85,335.95,54.896885,9.784269,54.895069,9.793790
1386769125,1,0,390.9,0,0,0,0,261,275,-0.0292,31.3588,6.8213,0.4212,54.891964,9.795839,108.3,5.845,1.85,335.95,54.896885,9.784269,54.895069,9.793790
1386769125,1,0,390.9,0,0,4,0,261,250,-0.0292,31.3588,6.8213,0.4212,54.891979,9.795856,108.3,5.845,1.85,335.95,54.896885,9.784269,54.895069,9.793790
1386769125,1,0,390.9,0,0,0,0,261,275,-0.0292,31.3588,6.8213,0.4212,54.891994,9.795872,108.3,5.845,1.85,335.95,54.896885,9.784269,54.895069,9.793790
1386769126,1,0,390.9,0,0,4,0,261,250,-0.0292,31.3588,6.8213,0.4212,54.892014,9.795888,108.3,5.845,1.85,335.95,54.896885,9.784269,54.895069,9.793790
1386769126,1,0,390.9,0,0,0,0,261,275,-0.0292,31.3588,6.8213,0.4212,54.892029,9.795905,108.3,5.845,1.85,335.95,54.896885,9.784269,54.895069,9.793790
1386769126,1,0,390.9,0,0,4,0,261,250,-0.0292,31.3588,6.8213,0.4212,54.892044,9.795921,108.3,5.845,1.85,335.95,54.896885,9.784269,54.895069,9.793790
1386769126,1,0,390.9,0,0,0,0,261,275,-0.0292,31.3588,6.8213,0.4212,54.892056,9.795938,108.3,5.845,1.85,335.95,54.896885,9.784269,54.895069,9.793790
1386769127,1,0,390.9,0,0,4,0,261,250,-0.0292,31.3588,6.8213,0.4212,54.892071,9.795954,108.3,5.845,1.85,335.95,54.896885,9.784269,54.895069,9.793790
1386769127,1,0,390.9,0,0,0,0,261,275,-0.0292,31.3588,6.8213,0.4212,54.892086,9.795970,108.3,5.845,1.85,335.95,54.896885,9.784269,54.895069,9.793790
1386769127,1,0,390.9,0,0,4,0,261,250,-0.0292,31.3588,6.8213,0.4212,54.892101,9.795986,108.3,5.845,1.85,335.95,54.896885,9.784269,54.895069,9.793790
1386769127,1,0,390.9,0,0,0,0,261,275,-0.0292,31.3588,6.8213,0.4212,54.892117,9.796002,108.3,5.845,1.85,335.95,54.896885,9.784269,54.895069,9.793790
1386769128,1,0,390.9,0,0,4,0,261,250,-0.0292,31.3588,6.8213,0.4212,54.892136,9.796019,108.3,5.845,1.85,335.95,54.896885,9.784269,54.895069,9.793790
1386769128,1,0,390.9,0,0,0,0,261,275,-0.0292,31.3588,6.8213,0.4212,54.892151,9.796035,108.3,5.845,1.85,335.95,54.896885,9.784269,54.895069,9.793790
1386769128,1,0,390.9,0,0,4,0,261,250,-0.0292,31.3588,6.8213,0.4212,54.892166,9.796051,108.3,5.845,1.85,335.95,54.896885,9.784269,54.895069,9.793790
1386769129,1,0,390.9,0,0,0,0,261,275,-0.0292,31.3588,6.8213,0.4212,54.892185,9.796067,108.3,5.845,1.85,335.95,54.896885,9.784269,54.895069,9.793790
1386769129,1,0,390.9,0,0,4,0,261,250,-0.0292,31.3588,6.8213,0.4212,54.892200,9.796083,108.3,5.845,1.85,335.95,54.896885,9.784269,54.895069,9.793790
1386769129,1,0,390.9,0,0,0,0,261,275,-0.0292,31.3588,6.8213,0.4212,54.892216,9.796100,108.3,5.845,1.85,335.95,54.896885,9.784269,54.895069,9.793790
1386769129,1,0,390.9,0,0,4,0,261,250,-0.0292,31.3588,6.8213,0.4212,54.892235,9.796116,108.3,5.845,1.85,335.95,54.896885,9.784269,54.895069,9.793790
1386769130,1,0,390.9,0,0,0,0,261,275,-0.0292,31.3588,6.8213,0.4212,54.892250,9.796132,108.3,5.845,1.85,335.95,54.896885,9.784269,54.895069,9.793790
1386769130,1,0,390.9,0,0,4,0,261,250,-0.0292,31.3588,6.8213,0.4212,54.892265,9.796148,108.3,5.845,1.85,335.95,54.896885,9.784269,54.895069,9.793790
1386769130,1,0,390.9,0,0,0,0,261,275,-0.0292,31.3588,6.8213,0.4212,54.892277,9.796165,108.3,5.845,1.85,335.95,54.896885,9.784269,54.895069,9.793790
1386769130,1,0,390.9,0,0,4,0,261,250,-0.0292,31.3588,6.8213,0.4212,54.892292,9.796181,108.3,5.845,1.85,335.95,54.896885,9.784269,54.895069,9.793790
1386769131,1,0,390.9,0,0,0,0,261,275,-0.0292,31.3588,6.8213,0.4212,54.892307,9.796197,108.3,5.845,1.85,335.95,54.896885,9.784269,54.895069,9.793790
1386769131,1,0,390.9,0,0,4,0,261,250,-0.0292,31.3588,6.8213,0.4212,54.892323,9.796213,108.3,5.845,1.85,335.95,54.896885,9.784269,54.895069,9.793790
1386769131,1,0,390.9,0,0,0,0,261,275,-0.0292,31.3588,6.8213,0.4212,54.892338,9.796229,108.3,5.845,1.85,335.95,54.896885,9.784269,54.895069,9.793790
1386769131,1,0,390.9,0,0,4,0,261,250,-0.0292,31.3588,6.8213,0.4212,54.892357,9.796246,108.3,5.845,1.85,335.95,54.896885,9.784269,54.895069,9.793790
1386769132,1,0,390.9,0,0,0,0,261,275,-0.0292,31.3588,6.8213,0.4212,54.892372,9.796262,108.3,5.845,1.85,335.95,54.896885,9.784269,54.895069,9.793790
1386769132,1,0,390.9,0,0,4,0,261,250,-0.0292,31.3588,6.8213,0.4212,54.892387,9.796278,108.3,5.845,1.85,335.95,54.896885,9.784269,54.895069,9.793790
1386769132,1,0,390.9,0,0,0,0,261,275,-0.0292,31.3588,6.8213,0.4212,54.892406,9.796294,108.3,5.845,1.85,335.95,54.896885,9.784269,54.895069,9.793790
1386769132,1,0,390.9,0,0,4,0,261,250,-0.0292,31.3588,6.8213,0.4212,54.892422,9.796310,108.3,5.845,1.85,335.95,54.896885,9.784269,54.895069,9.793790
1386769133,1,0,390.9,0,0,0,0,261,275,-0.0292,31.3588,6.8213,0.4212,54.892437,9.796327,108.3,5.845,1.85,335.95,54.896885,9.784269,54.895069,9.793790
1386769133,1,0,390.9,0,0,4,0,261,250,-0.0292,31.3588,6.8213,0.4212,54.892456,9.796343,108.3,5.845,1.85,335.95,54.896885,9.784269,54.895069,9.793790
1386769133,1,0,390.9,0,0,0,0,261,275,-0.0292,31.3588,6.8213,0.4212,54.892471,9.796359,108.3,5.845,1.85,335.95,54.896885,9.784269,54.895069,9.793790
1386769133,1,0,390.9,0,0,4,0,261,250,-0.0292,31.3588,6.8213,0.4212,54.892487,9.796376,108.3,5.845,1.85,335.95,54.896885,9.784269,54.895069,9.793790
1386769134,1,0,390.9,0,0,0,0,261,275,-0.0292,31.3588,6.8213,0.4212,54.892498,9.796392,108.3,5.845,1.85,335.95,54.896885,9.784269,54.895069,9.793790
1386769134,1,0,390.9,0,0,4,0,261,250,-0.0292,31.3588,6.8213,0.4212,54.892513,9.796409,108.3,5.845,1.85,335.95,54.896885,9.784269,54.895069,9.793790
1386769134,1,0,390.9,0,0,0,0,261,275,-0.0292,31.3588,6.8213,0.4212,54.892529,9.796425,108.3,5.845,1.85,335.95,54.896885,9.784269,54.895069,9.793790
1386769134,1,0,390.9,0,0,4,0,261,250,-0.0292,31.3588,6.8213,0.4212,54.892544,9.796441,108.3,5.845,1.85,335.95,54.896885,9.784269,54.895069,9.793790
1386769135,1,0,390.9,0,0,0,0,261,275,-0.0292,31.3588,6.8213,0.4212,54.892559,9.796457,108.3,5.845,1.85,335.95,54.896885,9.784269,54.895069,9.793790
1386769135,1,0,390.9,0,0,4,0,261,250,-0.0292,31.3588,6.8213,0.4212,54.892578,9.796474,108.3,5.845,1.85,335.95,54.896885,9.784269,54.895069,9.793790
1386769135,1,0,390.9,0,0,0,0,261,275,-0.0292,31.3588,6.8213,0.4212,54.892593,9.796490,108.3,5.845,1.85,335.95,54.896885,9.784269,54.895069,9.793790
1386769135,1,0,390.9,0,0,4,0,261,250,-0.0292,31.3588,6.8213,0.4212,54.892609,9.796506,108.3,5.845,1.85,335.95,54.896885,9.784269,54.895069,9.793790
1386769136,1,0,390.9,0,0,0,0,261,275,-0.0292,31.3588,6.8213,0.4212,54.892628,9.796522,108.3,5.845,1.85,335.95,54.896885,9.784269,54.895069,9.793790
1386769136,1,0,390.9,0,0,4,0,261,250,-0.0292,31.3588,6.8213,0.4212,54.892643,9.796538,108.3,5.845,1.85,335.95,54.896885,9.784269,54.895069,9.793790
1386769136,1,0,390.9,0,0,0,0,261,275,-0.0292,31.3588,6.8213,0.4212,54.892658,9.796555,108.3,5.845,1.85,335.95,54.896885,9.784269,54.895069,9.793790
1386769136,1,0,390.9,0,0,4,0,261,250,-0.0292,31.3588,6.8213,0.4212,54.892677,9.796571,108.3,5.845,1.85,335.95,54.896885,9.784269,54.895069,9.793790
1386769137,1,0,390.9,0,0,0,0,261,275,-0.0292,31.3588,6.8213,0.4212,54.892693,9.796587,108.3,5.845,1.85,335.95,54.896885,9.784269,54.895069,9.793790
1386769137,1,0,390.9,0,0,4,0,261,250,-0.0292,31.3588,6.8213,0.4212,54.892708,9.796603,108.3,5.845,1.85,335.95,54.896885,9.784269,54.895069,9.793790
1386769137,1,0,390.9,0,0,0,0,261,275,-0.0292,31.3588,6.8213,0.4212,54.892719,9.796619,108.3,5.845,1.85,335.95,54.896885,9.784269,54.895069,9.793790
1386769137,1,0,390.9,0,0,4,0,261,250,-0.0292,31.3588,6.8213,0.4212,54.892735,9.796636,108.3,5.845,1.85,335.95,54.896885,9.784269,54.895069,9.793790
1386769138,1,0,390.9,0,0,0,0,261,275,-0.0292,31.3588,6.8213,0.4212,54.892750,9.796652,108.3,5.845,1.85,335.95,54.896885,9.784269,54.895069,9.793790
1386769138,1,0,390.9,0,0,4,0,261,250,-0.0292,31.3588,6.8213,0.4212,54.892765,9.796668,108.3,5.845,1.85,335.95,54.896885,9.784269,54.895069,9.793790
1386769138,1,0,390.9,0,0,0,0,261,275,-0.0292,31.3588,6.8213,0.4212,54.892780,9.796684,108.3,5.845,1.85,335.95,54.896885,9.784269,54.895069,9.793790
1386769138,1,0,390.9,0,0,4,0,261,250,-0.0292,31.3588,6.8213,0.4212,54.892799,9.796700,108.3,5.845,1.85,335.95,54.896885,9.784269,54.895069,9.793790
1386769139,1,0,390.9,0,0,0,0,261,275,-0.0292,31.3588,6.8213,0.4212,54.892815,9.796717,108.3,5.845,1.85,335.95,54.896885,9.784269,54.895069,9.793790
1386769139,1,0,390.9,0,0,4,0,261,250,-0.0292,31.3588,6.8213,0.4212,54.892830,9.796733,108.3,5.845,1.85,335.95,54.896885,9.784269,54.895069,9.793790
1386769139,1,0,390.9,0,0,0,0,261,275,-0.0292,31.3588,6.8213,0.4212,54.892849,9.796749,108.3,5.845,1.85,335.95,54.896885,9.784269,54.895069,9.793790
1386769139,1,0,390.9,0,0,4,0,261,250,-0.0292,31.3588,6.8213,0.4212,54.892864,9.796765,108.3,5.845,1.85,335.95,54.896885,9.784269,54.895069,9.793790
1386769140,1,0,390.9,0,0,0,0,261,275,-0.0292,31.3588,6.8213,0.4212,54.892879,9.796782,108.3,5.845,1.85,335.95,54.896885,9.784269,54.895069,9.793790
1386769140,1,0,390.9,0,0,4,0,261,250,-0.0292,31.3588,6.8213,0.4212,54.892899,9.796798,108.3,5.845,1.85,335.95,54.896885,9.784269,54.895069,9.793790
1386769140,1,0,390.9,0,0,0,0,261,275,-0.0292,31.3588,6.8213,0.4212,54.892914,9.796814,108.3,5.845,1.85,335.95,54.896885,9.784269,54.895069,9.793790
1386769140,1,0,390.9,0,0,4,0,261,250,-0.0292,31.3588,6.8213,0.4212,54.892929,9.796830,108.3,5.845,1.85,335.95,54.896885,9.784269,54.895069,9.793790
1386769141,1,0,390.9,0,0,0,0,261,275,-0.0292,31.3588,6.8213,0.4212,54.892948,9.796846,108.3,5.845,1.85,335.95,54.896885,9.784269,54.895069,9.793790
1386769141,1,0,390.9,0,0,4,0,261,250,-0.0292,31.3588,6.8213,0.4212,54.892963,9.796863,108.3,5.845,1.85,335.95,54.896885,9.784269,54.895069,9.793790
1386769141,1,0,390.9,0,0,0,0,261,275,-0.0292,31.3588,6.8213,0.4212,54.892979,9.796879,108.3,5.845,1.85,335.95,54.896885,9.784269,54.895069,9.793790
1386769141,1,0,390.9,0,0,4,0,261,250,-0.0292,31.3588,6.8213,0.4212,54.892990,9.796895,108.3,5.845,1.85,335.95,54.896885,9.784269,54.895069,9.793790
1386769142,1,0,390.9,0,0,0,0,261,275,-0.0292,31.3588,6.8213,0.4212,54.893005,9.796911,108.3,5.845,1.85,335.95,54.896885,9.784269,54.895069,9.793790
1386769142,1,0,390.9,0,0,4,0,261,250,-0.0292,31.3588,6.8213,0.4212,54.893021,9.796927,108.3,5.845,1.85,335.95,54.896885,9.784269,54.895069,9.793790
1386769142,1,0,390.9,0,0,0,0,261,275,-0.0292,31.3588,6.8213,0.4212,54.893036,9.796944,108.3,5.845,1.85,335.95,54.896885,9.784269,54.895069,9.793790
1386769142,1,0,390.9,0,0,4,0,261,250,-0.0292,31.3588,6.8213,0.4212,54.893051,9.796960,108.3,5.845,1.85,335.95,54.896885,9.784269,54.895069,9.793790
1386769143,1,0,390.9,0,0,0,0,261,275,-0.0292,31.3588,6.8213,0.4212,54.893070,9.796977,108.3,5.845,1.85,335.95,54.896885,9.784269,54.895069,9.793790
1386769143,1,0,390.9,0,0,4,0,261,250,-0.0292,31.3588,6.8213,0.4212,54.893085,9.796993,108.3,5.845,1.85,335.95,54.896885,9.784269,54.895069,9.793790
1386769143,1,0,390.9,0,0,0,0,261,275,-0.0292,31.3588,6.8213,0.4212,54.893101,9.797009,108.3,5.845,1.85,335.95,54.896885,9.784269,54.895069,9.793790
1386769143,1,0,390.9,0,0,4,0,261,250,-0.0292,31.3588,6.8213,0.4212,54.893120,9.797026,108.3,5.845,1.85,335.95,54.896885,9.784269,54.895069,9.793790
1386769144,1,0,390.9,0,0,0,0,261,275,-0.0292,31.3588,6.8213,0.4212,54.893135,9.797042,108.3,5.845,1.85,335.95,54.896885,9.784269,54.895069,9.793790
1386769144,1,0,390.9,0,0,4,0,261,250,-0.0292,31.3588,6.8213,0.4212,54.893150,9.797058,108.3,5.845,1.85,335.95,54.896885,9.784269,54.895069,9.793790
1386769144,1,0,390.9,0,0,0,0,261,275,-0.0292,31.3588,6.8213,0.4212,54.893169,9.797074,108.3,5.845,1.85,335.95,54.896885,9.784269,54.895069,9.793790
1386769144,1,0,390.9,0,0,4,0,261,250,-0.0292,31.3588,6.8213,0.4212,54.893185,9.797091,108.3,5.845,1.85,335.95,54.896885,9.784269,54.895069,9.793790
1386769145,1,0,390.9,0,0,0,0,261,275,-0.0292,31.3588,6.8213,0.4212,54.893200,9.797107,108.3,5.845,1.85,335.95,54.896885,9.784269,54.895069,9.793790
1386769145,1,0,390.9,0,0,4,0,261,250,-0.0292,31.3588,6.8213,0.4212,54.893211,9.797123,108.3,5.845,1.85,335.95,54.896885,9.784269,54.895069,9.793790
1386769145,1,0,390.9,0,0,0,0,261,275,-0.0292,31.3588,6.8213,0.4212,54.893227,9.797139,108.3,5.845,1.85,335.95,54.896885,9.784269,54.895069,9.793790
1386769145,1,0,390.9,0,0,4,0,261,250,-0.0292,31.3588,6.8213,0.4212,54.893242,9.797155,108.3,5.845,1.85,335.95,54.896885,9.784269,54.895069,9.793790
1386769146,1,0,390.9,0,0,0,0,261,275,-0.0292,31.3588,6.8213,0.4212,54.893257,9.797172,108.3,5.845,1.85,335.95,54.896885,9.784269,54.895069,9.793790
1386769146,1,0,390.9,0,0,4,0,261,250,-0.0292,31.3588,6.8213,0.4212,54.893272,9.797188,108.3,5.845,1.85,335.95,54.896885,9.784269,54.895069,9.793790
1386769146,1,0,390.9,0,0,0,0,261,275,-0.0292,31.3588,6.8213,0.4212,54.893291,9.797204,108.3,5.845,1.85,335.95,54.896885,9.784269,54.895069,9.793790
1386769146,1,0,390.9,0,0,4,0,261,250,-0.0292,31.3588,6.8213,0.4212,54.893307,9.797220,108.3,5.845,1.85,335.95,54.896885,9.784269,54.895069,9.793790
1386769147,1,0,390.9,0,0,0,0,261,275,-0.0292,31.3588,6.8213,0.4212,54.893322,9.797236,108.3,5.845,1.85,335.95,54.896885,9.784269,54.895069,9.793790
1386769147,1,0,390.9,0,0,4,0,261,250,-0.0292,31.3588,6.8213,0.4212,54.893341,9.797253,108.3,5.845,1.85,335.95,54.896885,9.784269,54.895069,9.793790
1386769147,1,0,390.9,0,0,0,0,261,275,-0.0292,31.3588,6.8213,0.4212,54.893356,9.797269,108.3,5.845,1.85,335.95,54.896885,9.784269,54.895069,9.793790
1386769147,1,0,390.9,0,0,4,0,261,250,-0.0292,31.3588,6.8213,0.4212,54.893372,9.797285,108.3,5.845,1.85,335.95,54.896885,9.784269,54.895069,9.793790
1386769148,1,0,390.9,0,0,0,0,261,275,-0.0292,31.3588,6.8213,0.4212,54.893391,9.797301,108.3,5.845,1.85,335.95,54.896885,9.784269,54.895069,9.793790
1386769148,1,0,390.9,0,0,4,0,261,250,-0.0292,31.3588,6.8213,0.4212,54.893406,9.797318,108.3,5.845,1.85,335.95,54.896885,9.784269,54.895069,9.793790
1386769148,1,0,390.9,0,0,0,0,261,275,-0.0292,31.3588,6.8213,0.4212,54.893421,9.797334,108.3,5.845,1.85,335.95,54.896885,9.784269,54.895069,9.793790
1386769148,1,0,390.9,0,0,4,0,261,250,-0.0292,31.3588,6.8213,0.4212,54.893433,9.797350,108.3,5.845,1.85,335.95,54.896885,9.784269,54.895069,9.793790
1386769149,1,0,390.9,0,0,0,0,261,275,-0.0292,31.3588,6.8213,0.4212,54.893448,9.797366,108.3,5.845,1.85,335.95,54.896885,9.784269,54.895069,9.793790
1386769149,1,0,390.9,0,0,4,0,261,250,-0.0292,31.3588,6.8213,0.4212,54.893463,9.797382,108.3,5.845,1.85,335.95,54.896885,9.784269,54.895069,9.793790
1386769149,1,0,390.9,0,0,0,0,261,275,-0.0292,31.3588,6.8213,0.4212,54.893478,9.797399,108.3,5.845,1.85,335.95,54.896885,9.784269,54.895069,9.793790
1386769149,1,0,390.9,0,0,4,0,261,250,-0.0292,31.3588,6.8213,0.4212,54.893494,9.797415,108.3,5.845,1.85,335.95,54.896885,9.784269,54.895069,9.793790
1386769150,1,0,390.9,0,0,0,0,261,275,-0.0292,31.3588,6.8213,0.4212,54.893513,9.797431,108.3,5.845,1.85,335.95,54.896885,9.784269,54.895069,9.793790
1386769150,1,0,390.9,0,0,4,0,261,250,-0.0292,31.3588,6.8213,0.4212,54.893528,9.797448,108.3,5.845,1.85,335.95,54.896885,9.784269,54.895069,9.793790
1386769150,1,0,390.9,0,0,0,0,261,275,-0.0292,31.3588,6.8213,0.4212,54.893543,9.797464,108.3,5.845,1.85,335.95,54.896885,9.784269,54.895069,9.793790
1386769150,1,0,390.9,0,0,4,0,261,250,-0.0292,31.3588,6.8213,0.4212,54.893562,9.797481,108.3,5.845,1.85,335.95,54.896885,9.784269,54.895069,9.793790
1386769151,1,0,390.9,0,0,0,0,261,275,-0.0292,31.3588,6.8213,0.4212,54.893578,9.797497,108.3,5.845,1.85,335.95,54.896885,9.784269,54.895069,9.793790
1386769151,1,0,390.9,0,0,4,0,261,250,-0.0292,31.3588,6.8213,0.4212,54.893593,9.797513,108.3,5.845,1.85,335.95,54.896885,9.784269,54.895069,9.793790
1386769151,1,0,390.9,0,0,0,0,261,275,-0.0292,31.3588,6.8213,0.4212,54.893612,9.797529,108.3,5.845,1.85,335.95,54.896885,9.784269,54.895069,9.793790
1386769151,1,0,390.9,0,0,4,0,261,250,-0.0292,31.3588,6.8213,0.4212,54.893627,9.797545,108.3,5.845,1.85,335.95,54.896885,9.784269,54.895069,9.793790
1386769152,1,0,390.9,0,0,0,0,261,275,-0.0292,31.3588,6.8213,0.4212,54.893642,9.797562,108.3,5.845,1.85,335.95,54.896885,9.784269,54.895069,9.793790
1386769152,1,0,390.9,0,0,4,0,261,250,-0.0292,31.3588,6.8213,0.4212,54.893654,9.797578,108.3,5.845,1.85,335.95,54.896885,9.784269,54.895069,9.793790
1386769152,1,0,390.9,0,0,0,0,261,275,-0.0292,31.3588,6.8213,0.4212,54.893669,9.797594,108.3,5.845,1.85,335.95,54.896885,9.784269,54.895069,9.793790
1386769152,1,0,390.9,0,0,4,0,261,250,-0.0292,31.3588,6.8213,0.4212,54.893684,9.797610,108.3,5.845,1.85,335.95,54.896885,9.784269,54.895069,9.793790
1386769153,1,0,390.9,0,0,0,0,261,275,-0.0292,31.3588,6.8213,0.4212,54.893700,9.797626,108.3,5.845,1.85,335.95,54.896885,9.784269,54.895069,9.793790
1386769153,1,0,390.9,0,0,4,0,261,250,-0.0292,31.3588,6.8213,0.4212,54.893715,9.797643,108.3,5.845,1.85,335.95,54.896885,9.784269,54.895069,9.793790
1386769153,1,0,390.9,0,0,0,0,261,275,-0.0292,31.3588,6.8213,0.4212,54.893734,9.797659,108.3,5.845,1.85,335.95,54.896885,9.784269,54.895069,9.793790
1386769153,1,0,390.9,0,0,4,0,261,250,-0.0292,31.3588,6.8213,0.4212,54.893749,9.797675,108.3,5.845,1.85,335.95,54.896885,9.784269,54.895069,9.793790
1386769154,1,0,390.9,0,0,0,0,261,275,-0.0292,31.3588,6.8213,0.4212,54.893764,9.797691,108.3,5.845,1.85,335.95,54.896885,9.784269,54.895069,9.793790
1386769154,1,0,390.9,0,0,4,0,261,250,-0.0292,31.3588,6.8213,0.4212,54.893784,9.797708,108.3,5.845,1.85,335.95,54.896885,9.784269,54.895069,9.793790
1386769154,1,0,390.9,0,0,0,0,261,275,-0.0292,31.3588,6.8213,0.4212,54.893799,9.797724,108.3,5.845,1.85,335.95,54.896885,9.784269,54.895069,9.793790
1386769154,1,0,390.9,0,0,4,0,261,250,-0.0292,31.3588,6.8213,0.4212,54.893814,9.797740,108.3,5.845,1.85,335.95,54.896885,9.784269,54.895069,9.793790
1386769155,1,0,390.9,0,0,0,0,261,275,-0.0292,31.3588,6.8213,0.4212,54.893833,9.797756,108.3,5.845,1.85,335.95,54.896885,9.784269,54.895069,9.793790
1386769155,1,0,390.9,0,0,4,0,261,250,-0.0292,31.3588,6.8213,0.4212,54.893848,9.797772,108.3,5.845,1.85,335.95,54.896885,9.784269,54.895069,9.793790
1386769155,1,0,390.9,0,0,0,0,261,275,-0.0292,31.3588,6.8213,0.4212,54.893864,9.797789,108.3,5.845,1.85,335.95,54.896885,9.784269,54.895069,9.793790
1386769155,1,0,390.9,0,0,4,0,261,250,-0.0292,31.3588,6.8213,0.4212,54.893883,9.797805,108.3,5.845,1.85,335.95,54.896885,9.784269,54.895069,9.793790
1386769156,1,0,390.9,0,0,0,0,261,275,-0.0292,31.3588,6.8213,0.4212,54.893898,9.797821,108.3,5.845,1.85,335.95,54.896885,9.784269,54.895069,9.793790
1386769156,1,0,390.9,0,0,4,0,261,250,-0.0292,31.3588,6.8213,0.4212,54.893913,9.797837,108.3,5.845,1.85,335.95,54.896885,9.784269,54.895069,9.793790
1386769156,1,0,390.9,0,0,0,0,261,275,-0.0292,31.3588,6.8213,0.4212,54.893925,9.797853,108.3,5.845,1.85,335.95,54.896885,9.784269,54.895069,9.793790
1386769156,1,0,390.9,0,0,4,0,261,250,-0.0292,31.3588,6.8213,0.4212,54.893940,9.797870,108.3,5.845,1.85,335.95,54.896885,9.784269,54.895069,9.793790
1386769157,1,0,390.9,0,0,0,0,261,275,-0.0292,31.3588,6.8213,0.4212,54.893955,9.797886,108.3,5.845,1.85,335.95,54.896885,9.784269,54.895069,9.793790
1386769157,1,0,390.9,0,0,4,0,261,250,-0.0292,31.3588,6.8213,0.4212,54.893970,9.797902,108.3,5.845,1.85,335.95,54.896885,9.784269,54.895069,9.793790
1386769157,1,0,390.9,0,0,0,0,261,275,-0.0292,31.3588,6.8213,0.4212,54.893986,9.797919,108.3,5.845,1.85,335.95,54.896885,9.784269,54.895069,9.793790
1386769157,1,0,390.9,0,0,4,0,261,250,-0.0292,31.3588,6.8213,0.4212,54.894005,9.797935,108.3,5.845,1.85,335.95,54.896885,9.784269,54.895069,9.793790
1386769158,1,0,390.9,0,0,0,0,261,275,-0.0292,31.3588,6.8213,0.4212,54.894020,9.797952,108.3,5.845,1.85,335.95,54.896885,9.784269,54.895069,9.793790
1386769158,1,0,390.9,0,0,4,0,261,250,-0.0292,31.3588,6.8213,0.4212,54.894035,9.797968,108.3,5.845,1.85,335.95,54.896885,9.784269,54.895069,9.793790
1386769158,1,0,390.9,0,0,0,0,261,275,-0.0292,31.3588,6.8213,0.4212,54.894054,9.797984,108.3,5.845,1.85,335.95,54.896885,9.784269,54.895069,9.793790
1386769158,1,0,390.9,0,0,4,0,261,250,-0.0292,31.3588,6.8213,0.4212,54.894070,9.798000,108.3,5.845,1.85,335.95,54.896885,9.784269,54.895069,9.793790
1386769159,1,0,390.9,0,0,0,0,261,275,-0.0292,31.3588,6.8213,0.4212,54.894085,9.798017,108.3,5.845,1.85,335.95,54.896885,9.784269,54.895069,9.793790
1386769159,1,0,390.9,0,0,4,0,261,250,-0.0292,31.3588,6.8213,0.4212,54.894104,9.798033,108.3,5.845,1.85,335.95,54.896885,9.784269,54.895069,9.793790
1386769159,1,0,390.9,0,0,0,0,261,275,-0.0292,31.3588,6.8213,0.4212,54.894119,9.798049,108.3,5.845,1.85,335.95,54.896885,9.784269,54.895069,9.793790
1386769159,1,0,390.9,0,0,4,0,261,250,-0.0292,31.3588,6.8213,0.4212,54.894135,9.798065,108.3,5.845,1.85,335.95,54.896885,9.784269,54.895069,9.793790
1386769160,1,0,390.9,0,0,0,0,261,275,-0.0292,31.3588,6.8213,0.4212,54.894146,9.798081,108.3,5.845,1.85,335.95,54.896885,9.784269,54.895069,9.793790
1386769160,1,0,390.9,0,0,4,0,261,250,-0.0292,31.3588,6.8213,0.4212,54.894161,9.798098,108.3,5.845,1.85,335.95,54.896885,9.784269,54.895069,9.793790
1386769160,1,0,390.9,0,0,0,0,261,275,-0.0292,31.3588,6.8213,0.4212,54.894176,9.798114,108.3,5.845,1.85,335.95,54.896885,9.784269,54.895069,9.793790
1386769160,1,0,390.9,0,0,4,0,261,250,-0.0292,31.3588,6.8213,0.4212,54.894192,9.798130,108.3,5.845,1.85,335.95,54.896885,9.784269,54.895069,9.793790
1386769161,1,0,390.9,0,0,0,0,261,275,-0.0292,31.3588,6.8213,0.4212,54.894207,9.798146,108.3,5.845,1.85,335.95,54.896885,9.784269,54.895069,9.793790
1386769161,1,0,390.9,0,0,4,0,261,250,-0.0292,31.3588,6.8213,0.4212,54.894226,9.798162,108.3,5.845,1.85,335.95,54.896885,9.784269,54.895069,9.793790
1386769161,1,0,390.9,0,0,0,0,261,275,-0.0292,31.3588,6.8213,0.4212,54.894241,9.798179,108.3,5.845,1.85,335.95,54.896885,9.784269,54.895069,9.793790
1386769161,1,0,390.9,0,0,4,0,261,250,-0.0292,31.3588,6.8213,0.4212,54.894257,9.798195,108.3,5.845,1.85,335.95,54.896885,9.784269,54.895069,9.793790
1386769162,1,0,390.9,0,0,0,0,261,275,-0.0292,31.3588,6.8213,0.4212,54.894276,9.798211,108.3,5.845,1.85,335.95,54.896885,9.784269,54.895069,9.793790
1386769162,1,0,390.9,0,0,4,0,261,250,-0.0292,31.3588,6.8213,0.4212,54.894291,9.798227,108.3,5.845,1.85,335.95,54.896885,9.784269,54.895069,9.793790
1386769162,1,0,390.9,0,0,0,0,261,275,-0.0292,31.3588,6.8213,0.4212,54.894306,9.798244,108.3,5.845,1.85,335.95,54.896885,9.784269,54.895069,9.793790
1386769162,1,0,390.9,0,0,4,0,261,250,-0.0292,31.3588,6.8213,0.4212,54.894325,9.798260,108.3,5.845,1.85,335.95,54.896885,9.784269,54.895069,9.793790
1386769163,1,0,390.9,0,0,0,0,261,275,-0.0292,31.3588,6.8213,0.4212,54.894341,9.798276,108.3,5.845,1.85,335.95,54.896885,9.784269,54.895069,9.793790
1386769163,1,0,390.9,0,0,4,0,261,250,-0.0292,31.3588,6.8213,0.4212,54.894356,9.798292,108.3,5.845,1.85,335.95,54.896885,9.784269,54.895069,9.793790
1386769163,1,0,390.9,0,0,0,0,261,275,-0.0292,31.3588,6.8213,0.4212,54.894367,9.798308,108.3,5.845,1.85,335.95,54.896885,9.784269,54.895069,9.793790
1386769164,1,0,390.9,0,0,4,0,261,250,-0.0292,31.3588,6.8213,0.4212,54.894382,9.798325,108.3,5.845,1.85,335.95,54.896885,9.784269,54.895069,9.793790
1386769164,1,0,390.9,0,0,0,0,261,275,-0.0292,31.3588,6.8213,0.4212,54.894398,9.798341,108.3,5.845,1.85,335.95,54.896885,9.784269,54.895069,9.793790
1386769164,1,0,390.9,0,0,4,0,261,250,-0.0292,31.3588,6.8213,0.4212,54.894413,9.798357,108.3,5.845,1.85,335.95,54.896885,9.784269,54.895069,9.793790
1386769164,1,0,390.9,0,0,0,0,261,275,-0.0292,31.3588,6.8213,0.4212,54.894428,9.798373,108.3,5.845,1.85,335.95,54.896885,9.784269,54.895069,9.793790
1386769165,1,0,390.9,0,0,4,0,261,250,-0.0292,31.3588,6.8213,0.4212,54.894447,9.798389,108.3,5.845,1.85,335.95,54.896885,9.784269,54.895069,9.793790
