MCU_timestamp,Navigation_System,Manual_Control,Guidance_Heading,Manual_Ctrl_Rudder,Rudder_Desired_Angle,Rudder_Feedback,Manual_Ctrl_Sail,Sail_Desired_Pos,Sail_Feedback,Rate,Heading,Pitch,Roll,Latitude,Longitude,COG,SOG,Wind_Speed,Wind_Angle,Point_Start_Lat,Point_Start_Lon,Point_End_Lat,Point_End_Lon
1390199734,0,0,0.0,0,0,4,0,0,0,-0.0292,414.6254,6.8213,0.4212,54.885036,9.810369,108.3,5.845,1.85,0.00,0.000000,0.000000,0.000000,0.000000
1390199734,0,0,0.0,0,0,4,0,0,0,-0.0292,414.6254,6.8213,0.4212,54.885036,9.810369,108.3,5.845,1.85,0.00,0.000000,0.000000,0.000000,0.000000
1390199734,0,0,0.0,0,0,4,0,0,0,-0.0292,414.6254,6.8213,0.4212,54.885036,9.810369,108.3,5.845,1.85,0.00,0.000000,0.000000,0.000000,0.000000
1390199735,0,0,0.0,0,0,4,0,0,0,-0.0292,414.6254,6.8213,0.4212,54.885036,9.810369,108.3,5.845,1.85,0.00,0.000000,0.000000,0.000000,0.000000
1390199735,0,0,0.0,0,0,4,0,0,0,-0.0292,414.6254,6.8213,0.4212,54.885036,9.810369,108.3,5.845,1.85,0.00,0.000000,0.000000,0.000000,0.000000
1390199735,0,0,0.0,0,0,4,0,0,0,-0.0292,414.6254,6.8213,0.4212,54.885036,9.810369,108.3,5.845,1.85,0.00,0.000000,0.000000,0.000000,0.000000
1390199735,0,0,0.0,0,0,4,0,0,0,-0.0292,414.6254,6.8213,0.4212,54.885036,9.810369,108.3,5.845,1.85,0.00,0.000000,0.000000,0.000000,0.000000
1390199736,0,0,0.0,0,0,4,0,0,0,-0.0292,414.6254,6.8213,0.4212,54.885036,9.810369,108.3,5.845,1.85,0.00,0.000000,0.000000,0.000000,0.000000
1390199736,0,0,0.0,0,0,4,0,0,0,-0.0292,414.6254,6.8213,0.4212,54.885036,9.810369,108.3,5.845,1.85,0.00,0.000000,0.000000,0.000000,0.000000
1390199736,0,0,0.0,0,0,4,0,0,0,-0.0292,414.6254,6.8213,0.4212,54.885036,9.810369,108.3,5.845,1.85,0.00,0.000000,0.000000,0.000000,0.000000
1390199736,0,0,0.0,0,0,4,0,0,0,-0.0292,414.6254,6.8213,0.4212,54.885036,9.810369,108.3,5.845,1.85,0.00,0.000000,0.000000,0.000000,0.000000
1390199737,0,0,0.0,0,0,4,0,0,0,-0.0292,414.6254,6.8213,0.4212,54.885036,9.810369,108.3,5.845,1.85,0.00,0.000000,0.000000,0.000000,0.000000
1390199737,0,0,0.0,0,0,4,0,0,0,-0.0292,414.6254,6.8213,0.4212,54.885036,9.810369,108.3,5.845,1.85,0.00,0.000000,0.000000,0.000000,0.000000
1390199737,0,0,0.0,0,0,4,0,0,0,-0.0292,414.6254,6.8213,0.4212,54.885036,9.810369,108.3,5.845,1.85,0.00,0.000000,0.000000,0.000000,0.000000
1390199737,0,0,0.0,0,0,4,0,0,0,-0.0292,414.6254,6.8213,0.4212,54.885036,9.810369,108.3,5.845,1.85,0.00,0.000000,0.000000,0.000000,0.000000
1390199738,0,0,0.0,0,0,4,0,0,0,-0.0292,414.6254,6.8213,0.4212,54.885036,9.810369,108.3,5.845,1.85,0.00,0.000000,0.000000,0.000000,0.000000
1390199738,0,0,0.0,0,0,4,0,0,0,-0.0292,414.6254,6.8213,0.4212,54.885036,9.810369,108.3,5.845,1.85,0.00,0.000000,0.000000,0.000000,0.000000
1390199738,0,0,0.0,0,0,4,0,0,0,-0.0292,414.6254,6.8213,0.4212,54.885036,9.810369,108.3,5.845,1.85,0.00,0.000000,0.000000,0.000000,0.000000
1390199738,0,0,0.0,0,0,4,0,0,0,-0.0292,414.6254,6.8213,0.4212,54.885036,9.810369,108.3,5.845,1.85,0.00,0.000000,0.000000,0.000000,0.000000
1390199739,0,0,0.0,0,0,4,0,0,0,-0.0292,414.6254,6.8213,0.4212,54.885036,9.810369,108.3,5.845,1.85,0.00,0.000000,0.000000,0.000000,0.000000
1390199739,0,0,0.0,0,0,4,0,0,0,-0.0292,414.6254,6.8213,0.4212,54.885036,9.810369,108.3,5.845,1.85,0.00,0.000000,0.000000,0.000000,0.000000
1390199739,0,0,0.0,0,0,4,0,0,0,-0.0292,414.6254,6.8213,0.4212,54.885036,9.810369,108.3,5.845,1.85,0.00,0.000000,0.000000,0.000000,0.000000
1390199739,0,0,0.0,0,0,4,0,0,0,-0.0292,414.6254,6.8213,0.4212,54.885036,9.810369,108.3,5.845,1.85,0.00,0.000000,0.000000,0.000000,0.000000
1390199740,0,0,0.0,0,0,4,0,0,0,-0.0292,414.6254,6.8213,0.4212,54.885036,9.810369,108.3,5.845,1.85,0.00,0.000000,0.000000,0.000000,0.000000
1390199740,0,0,0.0,0,0,4,0,0,0,-0.0292,414.6254,6.8213,0.4212,54.885036,9.810369,108.3,5.845,1.85,0.00,0.000000,0.000000,0.000000,0.000000
1390199740,0,0,0.0,0,0,4,0,0,0,-0.0292,414.6254,6.8213,0.4212,54.885036,9.810369,108.3,5.845,1.85,0.00,0.000000,0.000000,0.000000,0.000000
1390199740,0,0,0.0,0,0,4,0,0,0,-0.0292,414.6254,6.8213,0.4212,54.885036,9.810369,108.3,5.845,1.85,0.00,0.000000,0.000000,0.000000,0.000000
1390199741,0,0,0.0,0,0,4,0,0,0,-0.0292,414.6254,6.8213,0.4212,54.885036,9.810369,108.3,5.845,1.85,0.00,0.000000,0.000000,0.000000,0.000000
1390199741,0,0,0.0,0,0,4,0,0,0,-0.0292,414.6254,6.8213,0.4212,54.885036,9.810369,108.3,5.845,1.85,0.00,0.000000,0.000000,0.000000,0.000000
1390199741,0,0,0.0,0,0,4,0,0,0,-0.0292,414.6254,6.8213,0.4212,54.885036,9.810369,108.3,5.845,1.85,0.00,0.000000,0.000000,0.000000,0.000000
1390199741,0,0,0.0,0,0,4,0,0,0,-0.0292,414.6254,6.8213,0.4212,54.885376,9.813645,108.3,5.845,1.85,0.00,0.000000,0.000000,0.000000,0.000000
1390199742,0,0,0.0,0,0,4,0,0,0,-0.0292,414.6254,6.8213,0.4212,54.885376,9.813645,108.3,5.845,1.85,0.00,0.000000,0.000000,0.000000,0.000000
1390199742,0,0,0.0,0,0,4,0,0,0,-0.0292,414.6254,6.8213,0.4212,54.885376,9.813645,108.3,5.845,1.85,0.00,0.000000,0.000000,0.000000,0.000000
1390199742,0,0,0.0,0,0,4,0,0,0,-0.0292,414.6254,6.8213,0.4212,54.885376,9.813645,108.3,5.845,1.85,0.00,0.000000,0.000000,0.000000,0.000000
1390199743,0,0,0.0,0,0,4,0,0,0,-0.0292,414.6254,6.8213,0.4212,54.885376,9.813645,108.3,5.845,1.85,0.00,0.000000,0.000000,0.000000,0.000000
1390199743,0,0,0.0,0,0,4,0,0,0,-0.0292,414.6254,6.8213,0.4212,54.885376,9.813645,108.3,5.845,1.85,0.00,0.000000,0.000000,0.000000,0.000000
1390199743,0,0,0.0,0,0,4,0,0,0,-0.0292,414.6254,6.8213,0.4212,54.885376,9.813645,108.3,5.845,1.85,0.00,0.000000,0.000000,0.000000,0.000000
1390199743,0,0,0.0,0,0,4,0,0,0,-0.0292,414.6254,6.8213,0.4212,54.885376,9.813645,108.3,5.845,1.85,0.00,0.000000,0.000000,0.000000,0.000000
1390199744,0,0,0.0,0,0,4,0,0,0,-0.0292,414.6254,6.8213,0.4212,54.885376,9.813645,108.3,5.845,1.85,0.00,0.000000,0.000000,0.000000,0.000000
1390199744,4,0,0.0,0,0,4,0,0,0,-0.0292,414.6254,6.8213,0.4212,54.885376,9.813645,108.3,5.845,1.85,0.00,0.000000,0.000000,0.000000,0.000000
1390199744,1,0,150.0,0,-35,0,0,0,0,-0.0292,422.6254,6.8213,0.4212,54.885376,9.813645,108.3,5.845,1.85,0.00,54.885376,9.813645,54.895069,9.793790
1390199744,1,0,150.0,0,-35,-4,0,30,12,-0.0292,430.6254,6.8213,0.4212,54.885376,9.813642,108.3,5.845,1.85,0.00,54.885376,9.813645,54.895069,9.793790
1390199745,1,0,150.0,0,-35,-8,0,111,24,-0.0292,438.6254,6.8213,0.4212,54.885376,9.813634,108.3,5.845,1.85,0.00,54.885376,9.813645,54.895069,9.793790
1390199745,1,0,150.0,0,-35,-12,0,222,36,-0.0292,446.6254,6.8213,0.4212,54.885376,9.813622,108.3,5.845,1.85,0.00,54.885376,9.813645,54.895069,9.793790
1390199745,1,0,150.0,0,-35,-16,0,345,48,-0.0292,454.6254,6.8213,0.4212,54.885380,9.813604,108.3,5.845,1.85,0.00,54.885376,9.813645,54.895069,9.793790
1390199745,1,0,150.0,0,-35,-20,0,473,60,-0.0292,462.6254,6.8213,0.4212,54.885380,9.813581,108.3,5.845,1.85,0.00,54.885376,9.813645,54.895069,9.793790
1390199746,1,0,150.0,0,-35,-24,0,600,72,-0.0292,470.6254,6.8213,0.4212,54.885384,9.813553,108.3,5.845,1.85,0.00,54.885376,9.813645,54.895069,9.793790
1390199746,1,0,150.0,0,-35,-28,0,723,84,-0.0292,478.6254,6.8213,0.4212,54.885391,9.813520,108.3,5.845,1.85,0.00,54.885376,9.813645,54.895069,9.793790
1390199746,1,0,150.0,0,-31,-32,0,840,96,-0.0292,486.6254,6.8213,0.4212,54.885406,9.813485,108.3,5.845,1.85,0.00,54.885376,9.813645,54.895069,9.793790
1390199746,1,0,150.0,0,-23,-28,0,870,108,-0.0292,494.6254,6.8213,0.4212,54.885426,9.813449,108.3,5.845,1.85,0.00,54.885376,9.813645,54.895069,9.793790
1390199747,1,0,150.0,0,-15,-24,0,870,120,-0.0292,502.6254,6.8213,0.4212,54.885452,9.813414,108.3,5.845,1.85,0.00,54.885376,9.813645,54.895069,9.793790
1390199747,1,0,150.0,0,-7,-20,0,713,132,-0.0292,510.6254,6.8213,0.4212,54.885487,9.813382,108.3,5.845,1.85,0.00,54.885376,9.813645,54.895069,9.793790
1390199747,1,0,150.0,0,1,-16,0,713,144,-0.0292,518.6254,6.8213,0.4212,54.885525,9.813355,108.3,5.845,1.85,0.00,54.885376,9.813645,54.895069,9.793790
1390199747,1,0,150.0,0,9,-12,0,0,132,-0.0292,526.6254,6.8213,0.4212,54.885571,9.813338,108.3,5.845,1.85,0.00,54.885376,9.813645,54.895069,9.793790
1390199748,1,0,150.0,0,17,-8,0,0,120,-0.0292,534.6254,6.8213,0.4212,54.885616,9.813331,108.3,5.845,1.85,0.00,54.885376,9.813645,54.895069,9.793790
1390199748,1,0,150.0,0,25,-4,0,0,108,-0.0292,542.6254,6.8213,0.4212,54.885662,9.813334,108.3,5.845,1.85,0.00,54.885376,9.813645,54.895069,9.793790
1390199748,1,0,150.0,0,33,0,0,0,96,-0.0292,550.6254,6.8213,0.4212,54.885704,9.813349,108.3,5.845,1.85,0.00,54.885376,9.813645,54.895069,9.793790
1390199748,1,0,150.0,0,35,4,0,0,84,-0.0292,558.6254,6.8213,0.4212,54.885742,9.813372,108.3,5.845,1.85,0.00,54.885376,9.813645,54.895069,9.793790
1390199749,1,0,150.0,0,35,8,0,0,72,-0.0292,566.6254,6.8213,0.4212,54.885780,9.813403,108.3,5.845,1.85,0.00,54.885376,9.813645,54.895069,9.793790
1390199749,1,0,150.0,0,35,12,0,0,60,-0.0292,574.6254,6.8213,0.4212,54.885811,9.813439,108.3,5.845,1.85,0.00,54.885376,9.813645,54.895069,9.793790
1390199749,1,0,150.0,0,35,16,0,0,48,-0.0292,582.6254,6.8213,0.4212,54.885834,9.813477,108.3,5.845,1.85,0.00,54.885376,9.813645,54.895069,9.793790
1390199749,1,0,150.0,0,35,20,0,0,36,-0.0292,590.6254,6.8213,0.4212,54.885849,9.813511,108.3,5.845,1.85,0.00,54.885376,9.813645,54.895069,9.793790
1390199750,1,0,150.0,0,35,24,0,0,24,-0.0292,598.6254,6.8213,0.4212,54.885857,9.813539,108.3,5.845,1.85,0.00,54.885376,9.813645,54.895069,9.793790
1390199750,1,0,150.0,0,35,28,0,0,12,-0.0292,606.6254,6.8213,0.4212,54.885860,9.813555,108.3,5.845,1.85,0.00,54.885376,9.813645,54.895069,9.793790
1390199750,1,0,150.0,0,35,32,0,0,0,-0.0292,614.6254,6.8213,0.4212,54.885860,9.813554,108.3,5.845,1.85,0.00,54.885376,9.813645,54.895069,9.793790
1390199750,1,0,150.0,0,35,36,0,0,0,-0.0292,622.6254,6.8213,0.4212,54.885860,9.813553,108.3,5.845,1.85,0.00,54.885376,9.813645,54.895069,9.793790
1390199751,1,0,150.0,0,35,32,0,0,0,-0.0292,630.6254,6.8213,0.4212,54.885860,9.813552,108.3,5.845,1.85,0.00,54.885376,9.813645,54.895069,9.793790
1390199751,1,0,150.0,0,35,36,0,0,0,-0.0292,638.6254,6.8213,0.4212,54.885860,9.813551,108.3,5.845,1.85,0.00,54.885376,9.813645,54.895069,9.793790
1390199751,1,0,150.0,0,35,32,0,0,0,-0.0292,646.6254,6.8213,0.4212,54.885860,9.813550,108.3,5.845,1.85,0.00,54.885376,9.813645,54.895069,9.793790
1390199751,1,0,150.0,0,35,36,0,0,0,-0.0292,654.6254,6.8213,0.4212,54.885860,9.813550,108.3,5.845,1.85,0.00,54.885376,9.813645,54.895069,9.793790
1390199752,1,0,150.0,0,35,32,0,0,0,-0.0292,662.6254,6.8213,0.4212,54.885860,9.813550,108.3,5.845,1.85,0.00,54.885376,9.813645,54.895069,9.793790
1390199752,1,0,150.0,0,35,36,0,0,0,-0.0292,670.6254,6.8213,0.4212,54.885860,9.813550,108.3,5.845,1.85,0.00,54.885376,9.813645,54.895069,9.793790
1390199752,1,0,150.0,0,35,32,0,0,0,-0.0292,678.6254,6.8213,0.4212,54.885860,9.813550,108.3,5.845,1.85,0.00,54.885376,9.813645,54.895069,9.793790
1390199752,1,0,150.0,0,35,36,0,0,0,-0.0292,686.6254,6.8213,0.4212,54.885860,9.813550,108.3,5.845,1.85,0.00,54.885376,9.813645,54.895069,9.793790
1390199753,1,0,150.0,0,35,32,0,0,0,-0.0292,694.6254,6.8213,0.4212,54.885860,9.813550,108.3,5.845,1.85,0.00,54.885376,9.813645,54.895069,9.793790
1390199753,1,0,150.0,0,-35,28,0,0,0,-0.0292,702.6254,6.8213,0.4212,54.885860,9.813550,108.3,5.845,1.85,0.00,54.885376,9.813645,54.895069,9.793790
1390199753,1,0,150.0,0,-35,24,0,0,0,-0.0292,710.6254,6.8213,0.4212,54.885860,9.813550,108.3,5.845,1.85,0.00,54.885376,9.813645,54.895069,9.793790
1390199753,1,0,150.0,0,-35,20,0,0,0,-0.0292,718.6254,6.8213,0.4212,54.885860,9.813550,108.3,5.845,1.85,0.00,54.885376,9.813645,54.895069,9.793790
1390199754,1,0,150.0,0,-35,16,0,0,0,-0.0292,726.6254,6.8213,0.4212,54.885860,9.813551,108.3,5.845,1.85,0.00,54.885376,9.813645,54.895069,9.793790
1390199754,1,0,150.0,0,-35,12,0,0,0,-0.0292,734.6254,6.8213,0.4212,54.885860,9.813551,108.3,5.845,1.85,0.00,54.885376,9.813645,54.895069,9.793790
1390199754,1,0,150.0,0,-35,8,0,0,0,-0.0292,742.6254,6.8213,0.4212,54.885860,9.813551,108.3,5.845,1.85,0.00,54.885376,9.813645,54.895069,9.793790
1390199754,1,0,150.0,0,-35,4,0,0,0,-0.0292,750.6254,6.8213,0.4212,54.885860,9.813551,108.3,5.845,1.85,0.00,54.885376,9.813645,54.895069,9.793790
1390199755,1,0,150.0,0,-35,0,0,0,0,-0.0292,758.6254,6.8213,0.4212,54.885860,9.813551,108.3,5.845,1.85,0.00,54.885376,9.813645,54.895069,9.793790
1390199755,1,0,150.0,0,-35,-4,0,0,0,-0.0292,766.6254,6.8213,0.4212,54.885860,9.813551,108.3,5.845,1.85,0.00,54.885376,9.813645,54.895069,9.793790
1390199755,1,0,150.0,0,-35,-8,0,0,0,-0.0292,774.6254,6.8213,0.4212,54.885860,9.813551,108.3,5.845,1.85,0.00,54.885376,9.813645,54.895069,9.793790
1390199755,1,0,150.0,0,-35,-12,0,0,0,-0.0292,782.6254,6.8213,0.4212,54.885860,9.813551,108.3,5.845,1.85,0.00,54.885376,9.813645,54.895069,9.793790
1390199756,1,0,150.0,0,-35,-16,0,0,0,-0.0292,790.6254,6.8213,0.4212,54.885860,9.813551,108.3,5.845,1.85,0.00,54.885376,9.813645,54.895069,9.793790
1390199756,1,0,150.0,0,-35,-20,0,0,0,-0.0292,798.6254,6.8213,0.4212,54.885860,9.813551,108.3,5.845,1.85,0.00,54.885376,9.813645,54.895069,9.793790
1390199756,1,0,150.0,0,-35,-24,0,0,0,-0.0292,806.6254,6.8213,0.4212,54.885860,9.813551,108.3,5.845,1.85,0.00,54.885376,9.813645,54.895069,9.793790
1390199756,1,0,150.0,0,-35,-28,0,0,0,-0.0292,814.6254,6.8213,0.4212,54.885860,9.813551,108.3,5.845,1.85,0.00,54.885376,9.813645,54.895069,9.793790
1390199757,1,0,150.0,0,-35,-32,0,0,0,-0.0292,822.6254,6.8213,0.4212,54.885860,9.813551,108.3,5.845,1.85,0.00,54.885376,9.813645,54.895069,9.793790
1390199757,1,0,150.0,0,-35,-36,0,0,0,-0.0292,830.6254,6.8213,0.4212,54.885860,9.813551,108.3,5.845,1.85,0.00,54.885376,9.813645,54.895069,9.793790
1390199757,1,0,150.0,0,-35,-32,0,0,0,-0.0292,838.6254,6.8213,0.4212,54.885860,9.813551,108.3,5.845,1.85,0.00,54.885376,9.813645,54.895069,9.793790
1390199757,1,0,150.0,0,-31,-28,0,0,0,-0.0292,846.6254,6.8213,0.4212,54.885860,9.813551,108.3,5.845,1.85,0.00,54.885376,9.813645,54.895069,9.793790
1390199758,1,0,150.0,0,-23,-24,0,0,0,-0.0292,854.6254,6.8213,0.4212,54.885860,9.813551,108.3,5.845,1.85,0.00,54.885376,9.813645,54.895069,9.793790
1390199758,1,0,150.0,0,-15,-20,0,0,0,-0.0292,862.6254,6.8213,0.4212,54.885860,9.813551,108.3,5.845,1.85,0.00,54.885376,9.813645,54.895069,9.793790
1390199758,1,0,150.0,0,-7,-16,0,0,0,-0.0292,870.6254,6.8213,0.4212,54.885860,9.813551,108.3,5.845,1.85,0.00,54.885376,9.813645,54.895069,9.793790
1390199758,1,0,150.0,0,1,-12,0,0,0,-0.0292,878.6254,6.8213,0.4212,54.885860,9.813551,108.3,5.845,1.85,0.00,54.885376,9.813645,54.895069,9.793790
1390199759,1,0,210.0,0,-35,-16,0,0,0,-0.0292,886.6254,6.8213,0.4212,54.885860,9.813551,108.3,5.845,1.85,0.00,54.885376,9.813645,54.895069,9.793790
1390199759,1,0,210.0,0,-35,-20,0,0,0,-0.0292,894.6254,6.8213,0.4212,54.885860,9.813551,108.3,5.845,1.85,0.00,54.885376,9.813645,54.895069,9.793790
1390199759,1,0,210.0,0,-35,-24,0,0,0,-0.0292,902.6254,6.8213,0.4212,54.885860,9.813550,108.3,5.845,1.85,0.00,54.885376,9.813645,54.895069,9.793790
1390199759,1,0,210.0,0,-27,-28,0,0,0,-0.0292,910.6254,6.8213,0.4212,54.885860,9.813550,108.3,5.845,1.85,0.00,54.885376,9.813645,54.895069,9.793790
1390199760,1,0,210.0,0,-19,-24,0,0,0,-0.0292,918.6254,6.8213,0.4212,54.885860,9.813550,108.3,5.845,1.85,0.00,54.885376,9.813645,54.895069,9.793790
1390199760,1,0,210.0,0,-11,-20,0,0,0,-0.0292,926.6254,6.8213,0.4212,54.885860,9.813550,108.3,5.845,1.85,0.00,54.885376,9.813645,54.895069,9.793790
1390199760,1,0,210.0,0,-3,-16,0,0,0,-0.0292,934.6254,6.8213,0.4212,54.885860,9.813550,108.3,5.845,1.85,0.00,54.885376,9.813645,54.895069,9.793790
1390199760,1,0,210.0,0,5,-12,0,713,12,-0.0292,942.6254,6.8213,0.4212,54.885887,9.813595,108.3,5.845,1.85,0.00,54.885376,9.813645,54.895069,9.793790
1390199761,1,0,210.0,0,13,-8,0,713,24,-0.0292,950.6254,6.8213,0.4212,54.885937,9.813694,108.3,5.845,1.85,0.00,54.885376,9.813645,54.895069,9.793790
1390199761,1,0,210.0,0,21,-4,0,870,36,-0.0292,958.6254,6.8213,0.4212,54.885994,9.813857,108.3,5.845,1.85,0.00,54.885376,9.813645,54.895069,9.793790
1390199761,1,0,210.0,0,29,0,0,870,48,-0.0292,966.6254,6.8213,0.4212,54.886051,9.814088,108.3,5.845,1.85,0.00,54.885376,9.813645,54.895069,9.793790
1390199761,1,0,210.0,0,35,4,0,764,60,-0.0292,974.6254,6.8213,0.4212,54.886097,9.814385,108.3,5.845,1.85,0.00,54.885376,9.813645,54.895069,9.793790
1390199762,1,0,210.0,0,35,8,0,643,72,-0.0292,982.6254,6.8213,0.4212,54.886124,9.814746,108.3,5.845,1.85,0.00,54.885376,9.813645,54.895069,9.793790
1390199762,1,0,210.0,0,35,12,0,517,84,-0.0292,990.6254,6.8213,0.4212,54.886120,9.815162,108.3,5.845,1.85,0.00,54.885376,9.813645,54.895069,9.793790
1390199762,1,0,210.0,0,35,16,0,389,96,-0.0292,998.6254,6.8213,0.4212,54.886078,9.815621,108.3,5.845,1.85,0.00,54.885376,9.813645,54.895069,9.793790
1390199762,1,0,210.0,0,35,20,0,264,108,-0.0292,1006.6254,6.8213,0.4212,54.885994,9.816110,108.3,5.845,1.85,0.00,54.885376,9.813645,54.895069,9.793790
1390199763,1,0,210.0,0,35,24,0,147,120,-0.0292,1014.6254,6.8213,0.4212,54.885860,9.816610,108.3,5.845,1.85,0.00,54.885376,9.813645,54.895069,9.793790
1390199763,1,0,210.0,0,35,28,0,53,108,-0.0292,1022.6254,6.8213,0.4212,54.885696,9.817057,108.3,5.845,1.85,0.00,54.885376,9.813645,54.895069,9.793790
1390199763,1,0,210.0,0,35,32,0,3,96,-0.0292,1030.6255,6.8213,0.4212,54.885509,9.817439,108.3,5.845,1.85,0.00,54.885376,9.813645,54.895069,9.793790
1390199763,1,0,210.0,0,35,36,0,0,84,-0.0292,1038.6255,6.8213,0.4212,54.885303,9.817750,108.3,5.845,1.85,0.00,54.885376,9.813645,54.895069,9.793790
1390199764,1,0,210.0,0,35,32,0,0,72,-0.0292,1046.6255,6.8213,0.4212,54.885098,9.817986,108.3,5.845,1.85,0.00,54.885376,9.813645,54.895069,9.793790
1390199764,1,0,210.0,0,35,36,0,0,60,-0.0292,1054.6255,6.8213,0.4212,54.884899,9.818148,108.3,5.845,1.85,0.00,54.885376,9.813645,54.895069,9.793790
1390199764,1,0,210.0,0,35,32,0,0,48,-0.0292,1062.6255,6.8213,0.4212,54.884724,9.818243,108.3,5.845,1.85,0.00,54.885376,9.813645,54.895069,9.793790
1390199764,1,0,210.0,0,35,36,0,0,36,-0.0292,1070.6255,6.8213,0.4212,54.884579,9.818284,108.3,5.845,1.85,0.00,54.885376,9.813645,54.895069,9.793790
1390199765,1,0,210.0,0,35,32,0,0,24,-0.0292,1078.6255,6.8213,0.4212,54.884476,9.818288,108.3,5.845,1.85,0.00,54.885376,9.813645,54.895069,9.793790
1390199765,1,0,210.0,0,35,36,0,0,12,-0.0292,1086.6255,6.8213,0.4212,54.884422,9.818277,108.3,5.845,1.85,0.00,54.885376,9.813645,54.895069,9.793790
1390199765,1,0,210.0,0,35,32,0,0,0,-0.0292,1094.6255,6.8213,0.4212,54.884422,9.818277,108.3,5.845,1.85,0.00,54.885376,9.813645,54.895069,9.793790
1390199765,1,0,210.0,0,35,36,0,0,0,-0.0292,1102.6255,6.8213,0.4212,54.884422,9.818277,108.3,5.845,1.85,0.00,54.885376,9.813645,54.895069,9.793790
1390199766,1,0,210.0,0,35,32,0,0,0,-0.0292,1110.6255,6.8213,0.4212,54.884422,9.818278,108.3,5.845,1.85,0.00,54.885376,9.813645,54.895069,9.793790
1390199766,1,0,210.0,0,-35,28,0,0,0,-0.0292,1118.6255,6.8213,0.4212,54.884422,9.818279,108.3,5.845,1.85,0.00,54.885376,9.813645,54.895069,9.793790
1390199766,1,0,210.0,0,-35,24,0,0,0,-0.0292,1126.6255,6.8213,0.4212,54.884422,9.818280,108.3,5.845,1.85,0.00,54.885376,9.813645,54.895069,9.793790
1390199766,1,0,210.0,0,-35,20,0,0,0,-0.0292,1134.6255,6.8213,0.4212,54.884422,9.818281,108.3,5.845,1.85,0.00,54.885376,9.813645,54.895069,9.793790
1390199767,1,0,210.0,0,-35,16,0,0,0,-0.0292,1142.6255,6.8213,0.4212,54.884422,9.818282,108.3,5.845,1.85,0.00,54.885376,9.813645,54.895069,9.793790
1390199767,1,0,210.0,0,-35,12,0,30,12,-0.0292,1150.6255,6.8213,0.4212,54.884399,9.818180,108.3,5.845,1.85,0.00,54.885376,9.813645,54.895069,9.793790
1390199767,1,0,210.0,0,-35,8,0,111,24,-0.0292,1158.6255,6.8213,0.4212,54.884373,9.817971,108.3,5.845,1.85,0.00,54.885376,9.813645,54.895069,9.793790
1390199767,1,0,210.0,0,-35,4,0,222,36,-0.0292,1166.6255,6.8213,0.4212,54.884361,9.817657,108.3,5.845,1.85,0.00,54.885376,9.813645,54.895069,9.793790
1390199768,1,0,210.0,0,-35,0,0,345,48,-0.0292,1174.6255,6.8213,0.4212,54.884380,9.817248,108.3,5.845,1.85,0.00,54.885376,9.813645,54.895069,9.793790
1390199768,1,0,210.0,0,-35,-4,0,473,60,-0.0292,1182.6255,6.8213,0.4212,54.884445,9.816758,108.3,5.845,1.85,0.00,54.885376,9.813645,54.895069,9.793790
1390199768,1,0,210.0,0,-35,-8,0,600,72,-0.0292,1190.6255,6.8213,0.4212,54.884563,9.816207,108.3,5.845,1.85,0.00,54.885376,9.813645,54.895069,9.793790
1390199768,1,0,210.0,0,-35,-12,0,723,84,-0.0292,1198.6255,6.8213,0.4212,54.884750,9.815619,108.3,5.845,1.85,0.00,54.885376,9.813645,54.895069,9.793790
1390199769,1,0,210.0,0,-35,-16,0,840,96,-0.0292,1206.6255,6.8213,0.4212,54.885006,9.815022,108.3,5.845,1.85,0.00,54.885376,9.813645,54.895069,9.793790
1390199769,1,0,210.0,0,-35,-20,0,870,108,-0.0292,1214.6255,6.8213,0.4212,54.885338,9.814442,108.3,5.845,1.85,0.00,54.885376,9.813645,54.895069,9.793790
1390199769,1,0,210.0,0,-35,-24,0,870,120,-0.0292,1222.6255,6.8213,0.4212,54.885738,9.813910,108.3,5.845,1.85,0.00,54.885376,9.813645,54.895069,9.793790
1390199769,1,0,210.0,0,-35,-28,0,713,132,-0.0292,1230.6255,6.8213,0.4212,54.886208,9.813454,108.3,5.845,1.85,0.00,54.885376,9.813645,54.895069,9.793790
1390199770,1,0,210.0,0,-35,-32,0,713,144,-0.0292,1238.6255,6.8213,0.4212,54.886734,9.813097,108.3,5.845,1.85,0.00,54.885376,9.813645,54.895069,9.793790
1390199770,1,0,210.0,0,-35,-36,0,713,156,-0.0292,1246.6255,6.8213,0.4212,54.887306,9.812861,108.3,5.845,1.85,0.00,54.885376,9.813645,54.895069,9.793790
1390199770,1,0,210.0,0,-35,-32,0,713,168,-0.0292,1254.6255,6.8213,0.4212,54.887909,9.812763,108.3,5.845,1.85,0.00,54.885376,9.813645,54.895069,9.793790
1390199770,1,0,210.0,0,-35,-36,0,0,156,-0.0292,1262.6255,6.8213,0.4212,54.888515,9.812812,108.3,5.845,1.85,0.00,54.885376,9.813645,54.895069,9.793790
1390199771,1,0,210.0,0,-27,-32,0,0,144,-0.0292,1270.6255,6.8213,0.4212,54.889107,9.813004,108.3,5.845,1.85,0.00,54.885376,9.813645,54.895069,9.793790
1390199771,1,0,210.0,0,-19,-28,0,713,156,-0.0292,1278.6255,6.8213,0.4212,54.889702,9.813349,108.3,5.845,1.85,0.00,54.885376,9.813645,54.895069,9.793790
1390199771,1,0,210.0,0,-11,-24,0,713,168,-0.0292,1286.6255,6.8213,0.4212,54.890278,9.813848,108.3,5.845,1.85,0.00,54.885376,9.813645,54.895069,9.793790
1390199771,1,0,210.0,0,-3,-20,0,713,180,-0.0292,1294.6255,6.8213,0.4212,54.890820,9.814494,108.3,5.845,1.85,0.00,54.885376,9.813645,54.895069,9.793790
1390199772,1,0,210.0,0,5,-16,0,713,192,-0.0292,1302.6255,6.8213,0.4212,54.891308,9.815273,108.3,5.845,1.85,0.00,54.885376,9.813645,54.895069,9.793790
1390199772,1,0,210.0,0,13,-12,0,713,204,-0.0292,1310.6255,6.8213,0.4212,54.891731,9.816165,108.3,5.845,1.85,0.00,54.885376,9.813645,54.895069,9.793790
1390199772,1,0,210.0,0,21,-8,0,870,216,-0.0292,1318.6255,6.8213,0.4212,54.892075,9.817144,108.3,5.845,1.85,0.00,54.885376,9.813645,54.895069,9.793790
1390199772,1,0,210.0,0,29,-4,0,870,228,-0.0292,1326.6255,6.8213,0.4212,54.892334,9.818181,108.3,5.845,1.85,0.00,54.885376,9.813645,54.895069,9.793790
1390199773,1,0,210.0,0,35,0,0,764,240,-0.0292,1334.6255,6.8213,0.4212,54.892506,9.819240,108.3,5.845,1.85,0.00,54.885376,9.813645,54.895069,9.793790
1390199773,1,0,210.0,0,35,4,0,643,252,-0.0292,1342.6255,6.8213,0.4212,54.892586,9.820288,108.3,5.845,1.85,0.00,54.885376,9.813645,54.895069,9.793790
1390199773,1,0,210.0,0,35,8,0,517,264,-0.0292,1350.6255,6.8213,0.4212,54.892578,9.821290,108.3,5.845,1.85,0.00,54.885376,9.813645,54.895069,9.793790
1390199773,1,0,210.0,0,35,12,0,389,276,-0.0292,1358.6255,6.8213,0.4212,54.892498,9.822214,108.3,5.845,1.85,0.00,54.885376,9.813645,54.895069,9.793790
1390199774,1,0,210.0,0,35,16,0,264,264,-0.0292,1366.6255,6.8213,0.4212,54.892326,9.823201,108.3,5.845,1.85,0.00,54.885376,9.813645,54.895069,9.793790
1390199774,1,0,210.0,0,35,20,0,147,252,-0.0292,1374.6255,6.8213,0.4212,54.892056,9.824217,108.3,5.845,1.85,0.00,54.885376,9.813645,54.895069,9.793790
1390199774,1,0,210.0,0,35,24,0,53,240,-0.0292,1382.6255,6.8213,0.4212,54.891682,9.825223,108.3,5.845,1.85,0.00,54.885376,9.813645,54.895069,9.793790
1390199774,1,0,210.0,0,35,28,0,3,228,-0.0292,1390.6255,6.8213,0.4212,54.891205,9.826180,108.3,5.845,1.85,0.00,54.885376,9.813645,54.895069,9.793790
1390199775,1,0,210.0,0,35,32,0,0,216,-0.0292,1398.6255,6.8213,0.4212,54.890633,9.827052,108.3,5.845,1.85,0.00,54.885376,9.813645,54.895069,9.793790
1390199775,1,0,210.0,0,35,36,0,0,204,-0.0292,1406.6255,6.8213,0.4212,54.889973,9.827803,108.3,5.845,1.85,0.00,54.885376,9.813645,54.895069,9.793790
1390199775,1,0,210.0,0,35,32,0,0,192,-0.0292,1414.6255,6.8213,0.4212,54.889244,9.828403,108.3,5.845,1.85,0.00,54.885376,9.813645,54.895069,9.793790
1390199775,1,0,210.0,0,35,36,0,0,180,-0.0292,1422.6255,6.8213,0.4212,54.888458,9.828827,108.3,5.845,1.85,0.00,54.885376,9.813645,54.895069,9.793790
1390199776,1,0,210.0,0,35,32,0,0,168,-0.0292,1430.6255,6.8213,0.4212,54.887638,9.829060,108.3,5.845,1.85,0.00,54.885376,9.813645,54.895069,9.793790
1390199776,1,0,210.0,0,35,36,0,0,156,-0.0292,1438.6255,6.8213,0.4212,54.886814,9.829094,108.3,5.845,1.85,0.00,54.885376,9.813645,54.895069,9.793790
1390199776,1,0,210.0,0,35,32,0,0,144,-0.0292,1446.6255,6.8213,0.4212,54.886002,9.828931,108.3,5.845,1.85,0.00,54.885376,9.813645,54.895069,9.793790
1390199776,1,0,210.0,0,35,36,0,0,132,-0.0292,1454.6255,6.8213,0.4212,54.885227,9.828582,108.3,5.845,1.85,0.00,54.885376,9.813645,54.895069,9.793790
1390199777,1,0,210.0,0,35,32,0,0,120,-0.0292,1462.6255,6.8213,0.4212,54.884514,9.828066,108.3,5.845,1.85,0.00,54.885376,9.813645,54.895069,9.793790
1390199777,1,0,210.0,0,35,36,0,0,108,-0.0292,1470.6255,6.8213,0.4212,54.883877,9.827413,108.3,5.845,1.85,0.00,54.885376,9.813645,54.895069,9.793790
1390199777,1,0,210.0,0,-35,32,0,0,96,-0.0292,1478.6255,6.8213,0.4212,54.883331,9.826658,108.3,5.845,1.85,0.00,54.885376,9.813645,54.895069,9.793790
1390199777,1,0,210.0,0,-35,28,0,0,84,-0.0292,1486.6255,6.8213,0.4212,54.882889,9.825846,108.3,5.845,1.85,0.00,54.885376,9.813645,54.895069,9.793790
1390199778,1,0,210.0,0,-35,24,0,0,72,-0.0292,1494.6255,6.8213,0.4212,54.882549,9.825022,108.3,5.845,1.85,0.00,54.885376,9.813645,54.895069,9.793790
1390199778,1,0,210.0,0,-35,20,0,0,60,-0.0292,1502.6255,6.8213,0.4212,54.882317,9.824233,108.3,5.845,1.85,0.00,54.885376,9.813645,54.895069,9.793790
1390199778,1,0,210.0,0,-35,16,0,30,48,-0.0292,1510.6255,6.8213,0.4212,54.882172,9.823528,108.3,5.845,1.85,0.00,54.885376,9.813645,54.895069,9.793790
1390199778,1,0,210.0,0,-35,12,0,111,60,-0.0292,1518.6255,6.8213,0.4212,54.882069,9.822637,108.3,5.845,1.85,0.00,54.885376,9.813645,54.895069,9.793790
1390199779,0,0,210.0,0,-35,12,0,111,60,-0.0292,1518.6255,6.8213,0.4212,54.882069,9.822637,108.3,5.845,1.85,0.00,54.885376,9.813645,54.895069,9.793790
1390199779,0,0,210.0,0,-35,12,0,111,60,-0.0292,1518.6255,6.8213,0.4212,54.882069,9.822637,108.3,5.845,1.85,0.00,54.885376,9.813645,54.895069,9.793790
1390199779,0,0,210.0,0,-35,12,0,111,60,-0.0292,1518.6255,6.8213,0.4212,54.882069,9.822637,108.3,5.845,1.85,0.00,54.885376,9.813645,54.895069,9.793790
1390199779,0,0,210.0,0,-35,12,0,111,60,-0.0292,1518.6255,6.8213,0.4212,54.882069,9.822637,108.3,5.845,1.85,0.00,54.885376,9.813645,54.895069,9.793790
1390199780,0,0,210.0,0,-35,12,0,111,60,-0.0292,1518.6255,6.8213,0.4212,54.882069,9.822637,108.3,5.845,1.85,0.00,54.885376,9.813645,54.895069,9.793790
1390199780,0,0,210.0,0,-35,12,0,111,60,-0.0292,1518.6255,6.8213,0.4212,54.882069,9.822637,108.3,5.845,1.85,0.00,54.885376,9.813645,54.895069,9.793790
1390199780,0,0,210.0,0,-35,12,0,111,60,-0.0292,1518.6255,6.8213,0.4212,54.882069,9.822637,108.3,5.845,1.85,0.00,54.885376,9.813645,54.895069,9.793790
1390199780,0,0,210.0,0,-35,12,0,111,60,-0.0292,1518.6255,6.8213,0.4212,54.882069,9.822637,108.3,5.845,1.85,0.00,54.885376,9.813645,54.895069,9.793790
1390199781,0,0,210.0,0,-35,12,0,111,60,-0.0292,1518.6255,6.8213,0.4212,54.882069,9.822637,108.3,5.845,1.85,0.00,54.885376,9.813645,54.895069,9.793790
1390199781,0,0,210.0,0,-35,12,0,111,60,-0.0292,1518.6255,6.8213,0.4212,54.882069,9.822637,108.3,5.845,1.85,0.00,54.885376,9.813645,54.895069,9.793790
1390199781,0,0,210.0,0,-35,12,0,111,60,-0.0292,1518.6255,6.8213,0.4212,54.882069,9.822637,108.3,5.845,1.85,0.00,54.885376,9.813645,54.895069,9.793790
1390199782,0,0,210.0,0,-35,12,0,111,60,-0.0292,1518.6255,6.8213,0.4212,54.882069,9.822637,108.3,5.845,1.85,0.00,54.885376,9.813645,54.895069,9.793790
1390199782,0,0,210.0,0,-35,12,0,111,60,-0.0292,1518.6255,6.8213,0.4212,54.882069,9.822637,108.3,5.845,1.85,0.00,54.885376,9.813645,54.895069,9.793790
1390199782,0,0,210.0,0,-35,12,0,111,60,-0.0292,1518.6255,6.8213,0.4212,54.882069,9.822637,108.3,5.845,1.85,0.00,54.885376,9.813645,54.895069,9.793790
1390199782,0,0,210.0,0,-35,12,0,111,60,-0.0292,1518.6255,6.8213,0.4212,54.882069,9.822637,108.3,5.845,1.85,0.00,54.885376,9.813645,54.895069,9.793790
1390199783,0,0,210.0,0,-35,12,0,111,60,-0.0292,1518.6255,6.8213,0.4212,54.882069,9.822637,108.3,5.845,1.85,0.00,54.885376,9.813645,54.895069,9.793790
1390199783,0,0,210.0,0,-35,12,0,111,60,-0.0292,1518.6255,6.8213,0.4212,54.882069,9.822637,108.3,5.845,1.85,0.00,54.885376,9.813645,54.895069,9.793790
1390199783,0,0,210.0,0,-35,12,0,111,60,-0.0292,1518.6255,6.8213,0.4212,54.882069,9.822637,108.3,5.845,1.85,0.00,54.885376,9.813645,54.895069,9.793790
1390199783,0,0,210.0,0,-35,12,0,111,60,-0.0292,1518.6255,6.8213,0.4212,54.882069,9.822637,108.3,5.845,1.85,0.00,54.885376,9.813645,54.895069,9.793790
1390199784,0,0,210.0,0,-35,12,0,111,60,-0.0292,1518.6255,6.8213,0.4212,54.882069,9.822637,108.3,5.845,1.85,0.00,54.885376,9.813645,54.895069,9.793790
1390199784,0,0,210.0,0,-35,12,0,111,60,-0.0292,1518.6255,6.8213,0.4212,54.882069,9.822637,108.3,5.845,1.85,0.00,54.885376,9.813645,54.895069,9.793790
1390199784,0,0,210.0,0,-35,12,0,111,60,-0.0292,1518.6255,6.8213,0.4212,54.882069,9.822637,108.3,5.845,1.85,0.00,54.885376,9.813645,54.895069,9.793790
1390199784,0,0,210.0,0,-35,12,0,111,60,-0.0292,1518.6255,6.8213,0.4212,54.882069,9.822637,108.3,5.845,1.85,0.00,54.885376,9.813645,54.895069,9.793790
1390199785,0,0,210.0,0,-35,12,0,111,60,-0.0292,1518.6255,6.8213,0.4212,54.882069,9.822637,108.3,5.845,1.85,0.00,54.885376,9.813645,54.895069,9.793790
1390199785,0,0,210.0,0,-35,12,0,111,60,-0.0292,1518.6255,6.8213,0.4212,54.882069,9.822637,108.3,5.845,1.85,0.00,54.885376,9.813645,54.895069,9.793790
1390199785,0,0,210.0,0,-35,12,0,111,60,-0.0292,1518.6255,6.8213,0.4212,54.882069,9.822637,108.3,5.845,1.85,0.00,54.885376,9.813645,54.895069,9.793790
1390199785,0,0,210.0,0,-35,12,0,111,60,-0.0292,1518.6255,6.8213,0.4212,54.882069,9.822637,108.3,5.845,1.85,0.00,54.885376,9.813645,54.895069,9.793790
1390199786,0,0,210.0,0,-35,12,0,111,60,-0.0292,1518.6255,6.8213,0.4212,54.882069,9.822637,108.3,5.845,1.85,0.00,54.885376,9.813645,54.895069,9.793790
1390199786,0,0,210.0,0,-35,12,0,111,60,-0.0292,1518.6255,6.8213,0.4212,54.882069,9.822637,108.3,5.845,1.85,0.00,54.885376,9.813645,54.895069,9.793790
1390199786,0,0,210.0,0,-35,12,0,111,60,-0.0292,1518.6255,6.8213,0.4212,54.882069,9.822637,108.3,5.845,1.85,0.00,54.885376,9.813645,54.895069,9.793790
1390199786,0,0,210.0,0,-35,12,0,111,60,-0.0292,1518.6255,6.8213,0.4212,54.882069,9.822637,108.3,5.845,1.85,0.00,54.885376,9.813645,54.895069,9.793790
1390199787,0,0,210.0,0,-35,12,0,111,60,-0.0292,1518.6255,6.8213,0.4212,54.882069,9.822637,108.3,5.845,1.85,0.00,54.885376,9.813645,54.895069,9.793790
1390199787,0,0,210.0,0,-35,12,0,111,60,-0.0292,1518.6255,6.8213,0.4212,54.882069,9.822637,108.3,5.845,1.85,0.00,54.885376,9.813645,54.895069,9.793790
1390199787,0,0,210.0,0,-35,12,0,111,60,-0.0292,1518.6255,6.8213,0.4212,54.882069,9.822637,108.3,5.845,1.85,0.00,54.885376,9.813645,54.895069,9.793790
1390199787,0,0,210.0,0,-35,12,0,111,60,-0.0292,1518.6255,6.8213,0.4212,54.882069,9.822637,108.3,5.845,1.85,0.00,54.885376,9.813645,54.895069,9.793790
1390199788,0,0,210.0,0,-35,12,0,111,60,-0.0292,1518.6255,6.8213,0.4212,54.882069,9.822637,108.3,5.845,1.85,0.00,54.885376,9.813645,54.895069,9.793790
1390199788,0,0,210.0,0,-35,12,0,111,60,-0.0292,1518.6255,6.8213,0.4212,54.882069,9.822637,108.3,5.845,1.85,0.00,54.885376,9.813645,54.895069,9.793790
1390199788,0,0,210.0,0,-35,12,0,111,60,-0.0292,1518.6255,6.8213,0.4212,54.882069,9.822637,108.3,5.845,1.85,0.00,54.885376,9.813645,54.895069,9.793790
1390199788,0,0,210.0,0,-35,12,0,111,60,-0.0292,1518.6255,6.8213,0.4212,54.882069,9.822637,108.3,5.845,1.85,0.00,54.885376,9.813645,54.895069,9.793790
1390199789,0,0,210.0,0,-35,12,0,111,60,-0.0292,1518.6255,6.8213,0.4212,54.882069,9.822637,108.3,5.845,1.85,0.00,54.885376,9.813645,54.895069,9.793790
1390199789,0,0,210.0,0,-35,12,0,111,60,-0.0292,1518.6255,6.8213,0.4212,54.882069,9.822637,108.3,5.845,1.85,0.00,54.885376,9.813645,54.895069,9.793790
1390199789,0,0,210.0,0,-35,12,0,111,60,-0.0292,1518.6255,6.8213,0.4212,54.882069,9.822637,108.3,5.845,1.85,0.00,54.885376,9.813645,54.895069,9.793790
1390199789,0,0,210.0,0,-35,12,0,111,60,-0.0292,1518.6255,6.8213,0.4212,54.882069,9.822637,108.3,5.845,1.85,0.00,54.885376,9.813645,54.895069,9.793790
1390199790,0,0,210.0,0,-35,12,0,111,60,-0.0292,1518.6255,6.8213,0.4212,54.882069,9.822637,108.3,5.845,1.85,0.00,54.885376,9.813645,54.895069,9.793790
1390199790,0,0,210.0,0,-35,12,0,111,60,-0.0292,1518.6255,6.8213,0.4212,54.882069,9.822637,108.3,5.845,1.85,0.00,54.885376,9.813645,54.895069,9.793790
1390199790,0,0,210.0,0,-35,12,0,111,60,-0.0292,1518.6255,6.8213,0.4212,54.882069,9.822637,108.3,5.845,1.85,0.00,54.885376,9.813645,54.895069,9.793790
1390199790,0,0,210.0,0,-35,12,0,111,60,-0.0292,1518.6255,6.8213,0.4212,54.882069,9.822637,108.3,5.845,1.85,0.00,54.885376,9.813645,54.895069,9.793790
1390199791,0,0,210.0,0,-35,12,0,111,60,-0.0292,1518.6255,6.8213,0.4212,54.882069,9.822637,108.3,5.845,1.85,0.00,54.885376,9.813645,54.895069,9.793790
1390199791,0,0,210.0,0,-35,12,0,111,60,-0.0292,1518.6255,6.8213,0.4212,54.882069,9.822637,108.3,5.845,1.85,0.00,54.885376,9.813645,54.895069,9.793790
1390199791,0,0,210.0,0,-35,12,0,111,60,-0.0292,1518.6255,6.8213,0.4212,54.882069,9.822637,108.3,5.845,1.85,0.00,54.885376,9.813645,54.895069,9.793790
1390199791,0,0,210.0,0,-35,12,0,111,60,-0.0292,1518.6255,6.8213,0.4212,54.882069,9.822637,108.3,5.845,1.85,0.00,54.885376,9.813645,54.895069,9.793790
1390199792,0,0,210.0,0,-35,12,0,111,60,-0.0292,1518.6255,6.8213,0.4212,54.882069,9.822637,108.3,5.845,1.85,0.00,54.885376,9.813645,54.895069,9.793790
1390199792,0,0,210.0,0,-35,12,0,111,60,-0.0292,1518.6255,6.8213,0.4212,54.882069,9.822637,108.3,5.845,1.85,0.00,54.885376,9.813645,54.895069,9.793790
1390199792,0,0,210.0,0,-35,12,0,111,60,-0.0292,1518.6255,6.8213,0.4212,54.882069,9.822637,108.3,5.845,1.85,0.00,54.885376,9.813645,54.895069,9.793790
1390199792,0,0,210.0,0,-35,12,0,111,60,-0.0292,1518.6255,6.8213,0.4212,54.882069,9.822637,108.3,5.845,1.85,0.00,54.885376,9.813645,54.895069,9.793790
1390199793,0,0,210.0,0,-35,12,0,111,60,-0.0292,1518.6255,6.8213,0.4212,54.882069,9.822637,108.3,5.845,1.85,0.00,54.885376,9.813645,54.895069,9.793790
1390199793,0,0,210.0,0,-35,12,0,111,60,-0.0292,1518.6255,6.8213,0.4212,54.882069,9.822637,108.3,5.845,1.85,0.00,54.885376,9.813645,54.895069,9.793790
1390199793,0,0,210.0,0,-35,12,0,111,60,-0.0292,1518.6255,6.8213,0.4212,54.882069,9.822637,108.3,5.845,1.85,0.00,54.885376,9.813645,54.895069,9.793790
1390199793,0,0,210.0,0,-35,12,0,111,60,-0.0292,1518.6255,6.8213,0.4212,54.882069,9.822637,108.3,5.845,1.85,0.00,54.885376,9.813645,54.895069,9.793790
1390199794,0,0,210.0,0,-35,12,0,111,60,-0.0292,1518.6255,6.8213,0.4212,54.882069,9.822637,108.3,5.845,1.85,0.00,54.885376,9.813645,54.895069,9.793790
1390199794,0,0,210.0,0,-35,12,0,111,60,-0.0292,1518.6255,6.8213,0.4212,54.882069,9.822637,108.3,5.845,1.85,0.00,54.885376,9.813645,54.895069,9.793790
1390199794,0,0,210.0,0,-35,12,0,111,60,-0.0292,1518.6255,6.8213,0.4212,54.882069,9.822637,108.3,5.845,1.85,0.00,54.885376,9.813645,54.895069,9.793790
1390199794,0,0,210.0,0,-35,12,0,111,60,-0.0292,1518.6255,6.8213,0.4212,54.882069,9.822637,108.3,5.845,1.85,0.00,54.885376,9.813645,54.895069,9.793790
1390199795,0,0,210.0,0,-35,12,0,111,60,-0.0292,1518.6255,6.8213,0.4212,54.882069,9.822637,108.3,5.845,1.85,0.00,54.885376,9.813645,54.895069,9.793790
1390199795,0,0,210.0,0,-35,12,0,111,60,-0.0292,1518.6255,6.8213,0.4212,54.882069,9.822637,108.3,5.845,1.85,0.00,54.885376,9.813645,54.895069,9.793790
1390199795,0,0,210.0,0,-35,12,0,111,60,-0.0292,1518.6255,6.8213,0.4212,54.882069,9.822637,108.3,5.845,1.85,0.00,54.885376,9.813645,54.895069,9.793790
1390199795,0,0,210.0,0,-35,12,0,111,60,-0.0292,1518.6255,6.8213,0.4212,54.882069,9.822637,108.3,5.845,1.85,0.00,54.885376,9.813645,54.895069,9.793790
1390199796,0,0,210.0,0,-35,12,0,111,60,-0.0292,1518.6255,6.8213,0.4212,54.882069,9.822637,108.3,5.845,1.85,0.00,54.885376,9.813645,54.895069,9.793790
1390199796,0,0,210.0,0,-35,12,0,111,60,-0.0292,1518.6255,6.8213,0.4212,54.882069,9.822637,108.3,5.845,1.85,0.00,54.885376,9.813645,54.895069,9.793790
1390199796,0,0,210.0,0,-35,12,0,111,60,-0.0292,1518.6255,6.8213,0.4212,54.882069,9.822637,108.3,5.845,1.85,0.00,54.885376,9.813645,54.895069,9.793790
1390199796,0,0,210.0,0,-35,12,0,111,60,-0.0292,1518.6255,6.8213,0.4212,54.882069,9.822637,108.3,5.845,1.85,0.00,54.885376,9.813645,54.895069,9.793790
1390199797,0,0,210.0,0,-35,12,0,111,60,-0.0292,1518.6255,6.8213,0.4212,54.882069,9.822637,108.3,5.845,1.85,0.00,54.885376,9.813645,54.895069,9.793790
1390199797,0,0,210.0,0,-35,12,0,111,60,-0.0292,1518.6255,6.8213,0.4212,54.882069,9.822637,108.3,5.845,1.85,0.00,54.885376,9.813645,54.895069,9.793790
1390199797,0,0,210.0,0,-35,12,0,111,60,-0.0292,1518.6255,6.8213,0.4212,54.882069,9.822637,108.3,5.845,1.85,0.00,54.885376,9.813645,54.895069,9.793790
1390199797,0,0,210.0,0,-35,12,0,111,60,-0.0292,1518.6255,6.8213,0.4212,54.882069,9.822637,108.3,5.845,1.85,0.00,54.885376,9.813645,54.895069,9.793790
1390199798,0,0,210.0,0,-35,12,0,111,60,-0.0292,1518.6255,6.8213,0.4212,54.882069,9.822637,108.3,5.845,1.85,0.00,54.885376,9.813645,54.895069,9.793790
1390199798,0,0,210.0,0,-35,12,0,111,60,-0.0292,1518.6255,6.8213,0.4212,54.882069,9.822637,108.3,5.845,1.85,0.00,54.885376,9.813645,54.895069,9.793790
1390199798,0,0,210.0,0,-35,12,0,111,60,-0.0292,1518.6255,6.8213,0.4212,54.882069,9.822637,108.3,5.845,1.85,0.00,54.885376,9.813645,54.895069,9.793790
1390199798,0,0,210.0,0,-35,12,0,111,60,-0.0292,1518.6255,6.8213,0.4212,54.882069,9.822637,108.3,5.845,1.85,0.00,54.885376,9.813645,54.895069,9.793790
1390199799,0,0,210.0,0,-35,12,0,111,60,-0.0292,1518.6255,6.8213,0.4212,54.882069,9.822637,108.3,5.845,1.85,0.00,54.885376,9.813645,54.895069,9.793790
1390199799,0,0,210.0,0,-35,12,0,111,60,-0.0292,1518.6255,6.8213,0.4212,54.882069,9.822637,108.3,5.845,1.85,0.00,54.885376,9.813645,54.895069,9.793790
1390199799,0,0,210.0,0,-35,12,0,111,60,-0.0292,1518.6255,6.8213,0.4212,54.882069,9.822637,108.3,5.845,1.85,0.00,54.885376,9.813645,54.895069,9.793790
1390199799,0,0,210.0,0,-35,12,0,111,60,-0.0292,1518.6255,6.8213,0.4212,54.882069,9.822637,108.3,5.845,1.85,0.00,54.885376,9.813645,54.895069,9.793790
1390199800,0,0,210.0,0,-35,12,0,111,60,-0.0292,1518.6255,6.8213,0.4212,54.882069,9.822637,108.3,5.845,1.85,0.00,54.885376,9.813645,54.895069,9.793790
1390199800,0,0,210.0,0,-35,12,0,111,60,-0.0292,1518.6255,6.8213,0.4212,54.882069,9.822637,108.3,5.845,1.85,0.00,54.885376,9.813645,54.895069,9.793790
1390199800,0,0,210.0,0,-35,12,0,111,60,-0.0292,1518.6255,6.8213,0.4212,54.882069,9.822637,108.3,5.845,1.85,0.00,54.885376,9.813645,54.895069,9.793790
1390199800,0,0,210.0,0,-35,12,0,111,60,-0.0292,1518.6255,6.8213,0.4212,54.882069,9.822637,108.3,5.845,1.85,0.00,54.885376,9.813645,54.895069,9.793790
1390199801,0,0,210.0,0,-35,12,0,111,60,-0.0292,1518.6255,6.8213,0.4212,54.882069,9.822637,108.3,5.845,1.85,0.00,54.885376,9.813645,54.895069,9.793790
1390199801,0,0,210.0,0,-35,12,0,111,60,-0.0292,1518.6255,6.8213,0.4212,54.882069,9.822637,108.3,5.845,1.85,0.00,54.885376,9.813645,54.895069,9.793790
1390199801,0,0,210.0,0,-35,12,0,111,60,-0.0292,1518.6255,6.8213,0.4212,54.882069,9.822637,108.3,5.845,1.85,0.00,54.885376,9.813645,54.895069,9.793790
1390199801,0,0,210.0,0,-35,12,0,111,60,-0.0292,1518.6255,6.8213,0.4212,54.882069,9.822637,108.3,5.845,1.85,0.00,54.885376,9.813645,54.895069,9.793790
1390199802,0,0,210.0,0,-35,12,0,111,60,-0.0292,1518.6255,6.8213,0.4212,54.882069,9.822637,108.3,5.845,1.85,0.00,54.885376,9.813645,54.895069,9.793790
1390199802,0,0,210.0,0,-35,12,0,111,60,-0.0292,1518.6255,6.8213,0.4212,54.882069,9.822637,108.3,5.845,1.85,0.00,54.885376,9.813645,54.895069,9.793790
1390199802,0,0,210.0,0,-35,12,0,111,60,-0.0292,1518.6255,6.8213,0.4212,54.882069,9.822637,108.3,5.845,1.85,0.00,54.885376,9.813645,54.895069,9.793790
1390199802,0,0,210.0,0,-35,12,0,111,60,-0.0292,1518.6255,6.8213,0.4212,54.882069,9.822637,108.3,5.845,1.85,0.00,54.885376,9.813645,54.895069,9.793790
1390199803,0,0,210.0,0,-35,12,0,111,60,-0.0292,1518.6255,6.8213,0.4212,54.882069,9.822637,108.3,5.845,1.85,0.00,54.885376,9.813645,54.895069,9.793790
1390199803,0,0,210.0,0,-35,12,0,111,60,-0.0292,1518.6255,6.8213,0.4212,54.882069,9.822637,108.3,5.845,1.85,0.00,54.885376,9.813645,54.895069,9.793790
1390199803,0,0,210.0,0,-35,12,0,111,60,-0.0292,1518.6255,6.8213,0.4212,54.882069,9.822637,108.3,5.845,1.85,0.00,54.885376,9.813645,54.895069,9.793790
1390199803,0,0,210.0,0,-35,12,0,111,60,-0.0292,1518.6255,6.8213,0.4212,54.882069,9.822637,108.3,5.845,1.85,0.00,54.885376,9.813645,54.895069,9.793790
1390199804,0,0,210.0,0,-35,12,0,111,60,-0.0292,1518.6255,6.8213,0.4212,54.882069,9.822637,108.3,5.845,1.85,0.00,54.885376,9.813645,54.895069,9.793790
1390199804,0,0,210.0,0,-35,12,0,111,60,-0.0292,1518.6255,6.8213,0.4212,54.882069,9.822637,108.3,5.845,1.85,0.00,54.885376,9.813645,54.895069,9.793790
1390199804,0,0,210.0,0,-35,12,0,111,60,-0.0292,1518.6255,6.8213,0.4212,54.882069,9.822637,108.3,5.845,1.85,0.00,54.885376,9.813645,54.895069,9.793790
1390199804,0,0,210.0,0,-35,12,0,111,60,-0.0292,1518.6255,6.8213,0.4212,54.882069,9.822637,108.3,5.845,1.85,0.00,54.885376,9.813645,54.895069,9.793790
1390199805,0,0,210.0,0,-35,12,0,111,60,-0.0292,1518.6255,6.8213,0.4212,54.882069,9.822637,108.3,5.845,1.85,0.00,54.885376,9.813645,54.895069,9.793790
1390199805,0,0,210.0,0,-35,12,0,111,60,-0.0292,1518.6255,6.8213,0.4212,54.882069,9.822637,108.3,5.845,1.85,0.00,54.885376,9.813645,54.895069,9.793790
1390199805,0,0,210.0,0,-35,12,0,111,60,-0.0292,1518.6255,6.8213,0.4212,54.882069,9.822637,108.3,5.845,1.85,0.00,54.885376,9.813645,54.895069,9.793790
1390199805,0,0,210.0,0,-35,12,0,111,60,-0.0292,1518.6255,6.8213,0.4212,54.882069,9.822637,108.3,5.845,1.85,0.00,54.885376,9.813645,54.895069,9.793790
1390199806,0,0,210.0,0,-35,12,0,111,60,-0.0292,1518.6255,6.8213,0.4212,54.882069,9.822637,108.3,5.845,1.85,0.00,54.885376,9.813645,54.895069,9.793790
1390199806,0,0,210.0,0,-35,12,0,111,60,-0.0292,1518.6255,6.8213,0.4212,54.882069,9.822637,108.3,5.845,1.85,0.00,54.885376,9.813645,54.895069,9.793790
1390199806,0,0,210.0,0,-35,12,0,111,60,-0.0292,1518.6255,6.8213,0.4212,54.882069,9.822637,108.3,5.845,1.85,0.00,54.885376,9.813645,54.895069,9.793790
1390199806,0,0,210.0,0,-35,12,0,111,60,-0.0292,1518.6255,6.8213,0.4212,54.882069,9.822637,108.3,5.845,1.85,0.00,54.885376,9.813645,54.895069,9.793790
1390199807,0,0,210.0,0,-35,12,0,111,60,-0.0292,1518.6255,6.8213,0.4212,54.882069,9.822637,108.3,5.845,1.85,0.00,54.885376,9.813645,54.895069,9.793790
1390199807,0,0,210.0,0,-35,12,0,111,60,-0.0292,1518.6255,6.8213,0.4212,54.882069,9.822637,108.3,5.845,1.85,0.00,54.885376,9.813645,54.895069,9.793790
1390199807,0,0,210.0,0,-35,12,0,111,60,-0.0292,1518.6255,6.8213,0.4212,54.882069,9.822637,108.3,5.845,1.85,0.00,54.885376,9.813645,54.895069,9.793790
1390199807,0,0,210.0,0,-35,12,0,111,60,-0.0292,1518.6255,6.8213,0.4212,54.882069,9.822637,108.3,5.845,1.85,0.00,54.885376,9.813645,54.895069,9.793790
1390199808,0,0,210.0,0,-35,12,0,111,60,-0.0292,1518.6255,6.8213,0.4212,54.882069,9.822637,108.3,5.845,1.85,0.00,54.885376,9.813645,54.895069,9.793790
1390199808,0,0,210.0,0,-35,12,0,111,60,-0.0292,1518.6255,6.8213,0.4212,54.882069,9.822637,108.3,5.845,1.85,0.00,54.885376,9.813645,54.895069,9.793790
1390199808,0,0,210.0,0,-35,12,0,111,60,-0.0292,1518.6255,6.8213,0.4212,54.882069,9.822637,108.3,5.845,1.85,0.00,54.885376,9.813645,54.895069,9.793790
1390199808,0,0,210.0,0,-35,12,0,111,60,-0.0292,1518.6255,6.8213,0.4212,54.882069,9.822637,108.3,5.845,1.85,0.00,54.885376,9.813645,54.895069,9.793790
1390199809,0,0,210.0,0,-35,12,0,111,60,-0.0292,1518.6255,6.8213,0.4212,54.882069,9.822637,108.3,5.845,1.85,0.00,54.885376,9.813645,54.895069,9.793790
1390199809,0,0,210.0,0,-35,12,0,111,60,-0.0292,1518.6255,6.8213,0.4212,54.882069,9.822637,108.3,5.845,1.85,0.00,54.885376,9.813645,54.895069,9.793790
1390199809,0,0,210.0,0,-35,12,0,111,60,-0.0292,1518.6255,6.8213,0.4212,54.882069,9.822637,108.3,5.845,1.85,0.00,54.885376,9.813645,54.895069,9.793790
1390199809,0,0,210.0,0,-35,12,0,111,60,-0.0292,1518.6255,6.8213,0.4212,54.882069,9.822637,108.3,5.845,1.85,0.00,54.885376,9.813645,54.895069,9.793790
1390199810,0,0,210.0,0,-35,12,0,111,60,-0.0292,1518.6255,6.8213,0.4212,54.882069,9.822637,108.3,5.845,1.85,0.00,54.885376,9.813645,54.895069,9.793790
1390199810,0,0,210.0,0,-35,12,0,111,60,-0.0292,1518.6255,6.8213,0.4212,54.882069,9.822637,108.3,5.845,1.85,0.00,54.885376,9.813645,54.895069,9.793790
1390199810,0,0,210.0,0,-35,12,0,111,60,-0.0292,1518.6255,6.8213,0.4212,54.882069,9.822637,108.3,5.845,1.85,0.00,54.885376,9.813645,54.895069,9.793790
1390199810,0,0,210.0,0,-35,12,0,111,60,-0.0292,1518.6255,6.8213,0.4212,54.882069,9.822637,108.3,5.845,1.85,0.00,54.885376,9.813645,54.895069,9.793790
1390199811,0,0,210.0,0,-35,12,0,111,60,-0.0292,1518.6255,6.8213,0.4212,54.882069,9.822637,108.3,5.845,1.85,0.00,54.885376,9.813645,54.895069,9.793790
1390199811,0,0,210.0,0,-35,12,0,111,60,-0.0292,1518.6255,6.8213,0.4212,54.882069,9.822637,108.3,5.845,1.85,0.00,54.885376,9.813645,54.895069,9.793790
1390199811,0,0,210.0,0,-35,12,0,111,60,-0.0292,1518.6255,6.8213,0.4212,54.882069,9.822637,108.3,5.845,1.85,0.00,54.885376,9.813645,54.895069,9.793790
1390199811,0,0,210.0,0,-35,12,0,111,60,-0.0292,1518.6255,6.8213,0.4212,54.882069,9.822637,108.3,5.845,1.85,0.00,54.885376,9.813645,54.895069,9.793790
1390199812,0,0,210.0,0,-35,12,0,111,60,-0.0292,1518.6255,6.8213,0.4212,54.882069,9.822637,108.3,5.845,1.85,0.00,54.885376,9.813645,54.895069,9.793790
1390199812,0,0,210.0,0,-35,12,0,111,60,-0.0292,1518.6255,6.8213,0.4212,54.882069,9.822637,108.3,5.845,1.85,0.00,54.885376,9.813645,54.895069,9.793790
1390199812,0,0,210.0,0,-35,12,0,111,60,-0.0292,1518.6255,6.8213,0.4212,54.882069,9.822637,108.3,5.845,1.85,0.00,54.885376,9.813645,54.895069,9.793790
1390199812,0,0,210.0,0,-35,12,0,111,60,-0.0292,1518.6255,6.8213,0.4212,54.882069,9.822637,108.3,5.845,1.85,0.00,54.885376,9.813645,54.895069,9.793790
1390199813,0,0,210.0,0,-35,12,0,111,60,-0.0292,1518.6255,6.8213,0.4212,54.882069,9.822637,108.3,5.845,1.85,0.00,54.885376,9.813645,54.895069,9.793790
1390199813,0,0,210.0,0,-35,12,0,111,60,-0.0292,1518.6255,6.8213,0.4212,54.882069,9.822637,108.3,5.845,1.85,0.00,54.885376,9.813645,54.895069,9.793790
1390199813,0,0,210.0,0,-35,12,0,111,60,-0.0292,1518.6255,6.8213,0.4212,54.882069,9.822637,108.3,5.845,1.85,0.00,54.885376,9.813645,54.895069,9.793790
1390199813,0,0,210.0,0,-35,12,0,111,60,-0.0292,1518.6255,6.8213,0.4212,54.882069,9.822637,108.3,5.845,1.85,0.00,54.885376,9.813645,54.895069,9.793790
1390199814,0,0,210.0,0,-35,12,0,111,60,-0.0292,1518.6255,6.8213,0.4212,54.882069,9.822637,108.3,5.845,1.85,0.00,54.885376,9.813645,54.895069,9.793790
1390199814,0,0,210.0,0,-35,12,0,111,60,-0.0292,1518.6255,6.8213,0.4212,54.882069,9.822637,108.3,5.845,1.85,0.00,54.885376,9.813645,54.895069,9.793790
1390199814,0,0,210.0,0,-35,12,0,111,60,-0.0292,1518.6255,6.8213,0.4212,54.882069,9.822637,108.3,5.845,1.85,0.00,54.885376,9.813645,54.895069,9.793790
1390199814,0,0,210.0,0,-35,12,0,111,60,-0.0292,1518.6255,6.8213,0.4212,54.882069,9.822637,108.3,5.845,1.85,0.00,54.885376,9.813645,54.895069,9.793790
1390199815,0,0,210.0,0,-35,12,0,111,60,-0.0292,1518.6255,6.8213,0.4212,54.882069,9.822637,108.3,5.845,1.85,0.00,54.885376,9.813645,54.895069,9.793790
1390199815,0,0,210.0,0,-35,12,0,111,60,-0.0292,1518.6255,6.8213,0.4212,54.882069,9.822637,108.3,5.845,1.85,0.00,54.885376,9.813645,54.895069,9.793790
1390199815,0,0,210.0,0,-35,12,0,111,60,-0.0292,1518.6255,6.8213,0.4212,54.882069,9.822637,108.3,5.845,1.85,0.00,54.885376,9.813645,54.895069,9.793790
1390199815,0,0,210.0,0,-35,12,0,111,60,-0.0292,1518.6255,6.8213,0.4212,54.882069,9.822637,108.3,5.845,1.85,0.00,54.885376,9.813645,54.895069,9.793790
1390199816,0,0,210.0,0,-35,12,0,111,60,-0.0292,1518.6255,6.8213,0.4212,54.882069,9.822637,108.3,5.845,1.85,0.00,54.885376,9.813645,54.895069,9.793790
1390199816,0,0,210.0,0,-35,12,0,111,60,-0.0292,1518.6255,6.8213,0.4212,54.882069,9.822637,108.3,5.845,1.85,0.00,54.885376,9.813645,54.895069,9.793790
1390199816,0,0,210.0,0,-35,12,0,111,60,-0.0292,1518.6255,6.8213,0.4212,54.882069,9.822637,108.3,5.845,1.85,0.00,54.885376,9.813645,54.895069,9.793790
1390199816,0,0,210.0,0,-35,12,0,111,60,-0.0292,1518.6255,6.8213,0.4212,54.882069,9.822637,108.3,5.845,1.85,0.00,54.885376,9.813645,54.895069,9.793790
1390199817,0,0,210.0,0,-35,12,0,111,60,-0.0292,1518.6255,6.8213,0.4212,54.882069,9.822637,108.3,5.845,1.85,0.00,54.885376,9.813645,54.895069,9.793790
1390199817,0,0,210.0,0,-35,12,0,111,60,-0.0292,1518.6255,6.8213,0.4212,54.882069,9.822637,108.3,5.845,1.85,0.00,54.885376,9.813645,54.895069,9.793790
1390199817,0,0,210.0,0,-35,12,0,111,60,-0.0292,1518.6255,6.8213,0.4212,54.882069,9.822637,108.3,5.845,1.85,0.00,54.885376,9.813645,54.895069,9.793790
1390199817,0,0,210.0,0,-35,12,0,111,60,-0.0292,1518.6255,6.8213,0.4212,54.882069,9.822637,108.3,5.845,1.85,0.00,54.885376,9.813645,54.895069,9.793790
1390199818,0,0,210.0,0,-35,12,0,111,60,-0.0292,1518.6255,6.8213,0.4212,54.882069,9.822637,108.3,5.845,1.85,0.00,54.885376,9.813645,54.895069,9.793790
1390199818,0,0,210.0,0,-35,12,0,111,60,-0.0292,1518.6255,6.8213,0.4212,54.882069,9.822637,108.3,5.845,1.85,0.00,54.885376,9.813645,54.895069,9.793790
1390199818,0,0,210.0,0,-35,12,0,111,60,-0.0292,1518.6255,6.8213,0.4212,54.882069,9.822637,108.3,5.845,1.85,0.00,54.885376,9.813645,54.895069,9.793790
1390199818,0,0,210.0,0,-35,12,0,111,60,-0.0292,1518.6255,6.8213,0.4212,54.882069,9.822637,108.3,5.845,1.85,0.00,54.885376,9.813645,54.895069,9.793790
1390199819,0,0,210.0,0,-35,12,0,111,60,-0.0292,1518.6255,6.8213,0.4212,54.882069,9.822637,108.3,5.845,1.85,0.00,54.885376,9.813645,54.895069,9.793790
1390199819,0,0,210.0,0,-35,12,0,111,60,-0.0292,1518.6255,6.8213,0.4212,54.882069,9.822637,108.3,5.845,1.85,0.00,54.885376,9.813645,54.895069,9.793790
1390199819,0,0,210.0,0,-35,12,0,111,60,-0.0292,1518.6255,6.8213,0.4212,54.882069,9.822637,108.3,5.845,1.85,0.00,54.885376,9.813645,54.895069,9.793790
1390199819,0,0,210.0,0,-35,12,0,111,60,-0.0292,1518.6255,6.8213,0.4212,54.882069,9.822637,108.3,5.845,1.85,0.00,54.885376,9.813645,54.895069,9.793790
1390199820,0,0,210.0,0,-35,12,0,111,60,-0.0292,1518.6255,6.8213,0.4212,54.882069,9.822637,108.3,5.845,1.85,0.00,54.885376,9.813645,54.895069,9.793790
1390199820,0,0,210.0,0,-35,12,0,111,60,-0.0292,1518.6255,6.8213,0.4212,54.882069,9.822637,108.3,5.845,1.85,0.00,54.885376,9.813645,54.895069,9.793790
1390199820,0,0,210.0,0,-35,12,0,111,60,-0.0292,1518.6255,6.8213,0.4212,54.882069,9.822637,108.3,5.845,1.85,0.00,54.885376,9.813645,54.895069,9.793790
1390199820,0,0,210.0,0,-35,12,0,111,60,-0.0292,1518.6255,6.8213,0.4212,54.882069,9.822637,108.3,5.845,1.85,0.00,54.885376,9.813645,54.895069,9.793790
1390199821,0,0,210.0,0,-35,12,0,111,60,-0.0292,1518.6255,6.8213,0.4212,54.882069,9.822637,108.3,5.845,1.85,0.00,54.885376,9.813645,54.895069,9.793790
1390199821,0,0,210.0,0,-35,12,0,111,60,-0.0292,1518.6255,6.8213,0.4212,54.882069,9.822637,108.3,5.845,1.85,0.00,54.885376,9.813645,54.895069,9.793790
1390199821,0,0,210.0,0,-35,12,0,111,60,-0.0292,1518.6255,6.8213,0.4212,54.882069,9.822637,108.3,5.845,1.85,0.00,54.885376,9.813645,54.895069,9.793790
1390199821,0,0,210.0,0,-35,12,0,111,60,-0.0292,1518.6255,6.8213,0.4212,54.882069,9.822637,108.3,5.845,1.85,0.00,54.885376,9.813645,54.895069,9.793790
1390199822,0,0,210.0,0,-35,12,0,111,60,-0.0292,1518.6255,6.8213,0.4212,54.882069,9.822637,108.3,5.845,1.85,0.00,54.885376,9.813645,54.895069,9.793790
1390199822,0,0,210.0,0,-35,12,0,111,60,-0.0292,1518.6255,6.8213,0.4212,54.882069,9.822637,108.3,5.845,1.85,0.00,54.885376,9.813645,54.895069,9.793790
1390199822,0,0,210.0,0,-35,12,0,111,60,-0.0292,1518.6255,6.8213,0.4212,54.882069,9.822637,108.3,5.845,1.85,0.00,54.885376,9.813645,54.895069,9.793790
1390199822,0,0,210.0,0,-35,12,0,111,60,-0.0292,1518.6255,6.8213,0.4212,54.882069,9.822637,108.3,5.845,1.85,0.00,54.885376,9.813645,54.895069,9.793790
1390199823,0,0,210.0,0,-35,12,0,111,60,-0.0292,1518.6255,6.8213,0.4212,54.882069,9.822637,108.3,5.845,1.85,0.00,54.885376,9.813645,54.895069,9.793790
1390199823,0,0,210.0,0,-35,12,0,111,60,-0.0292,1518.6255,6.8213,0.4212,54.882069,9.822637,108.3,5.845,1.85,0.00,54.885376,9.813645,54.895069,9.793790
1390199823,0,0,210.0,0,-35,12,0,111,60,-0.0292,1518.6255,6.8213,0.4212,54.882069,9.822637,108.3,5.845,1.85,0.00,54.885376,9.813645,54.895069,9.793790
1390199823,0,0,210.0,0,-35,12,0,111,60,-0.0292,1518.6255,6.8213,0.4212,54.882069,9.822637,108.3,5.845,1.85,0.00,54.885376,9.813645,54.895069,9.793790
1390199824,0,0,210.0,0,-35,12,0,111,60,-0.0292,1518.6255,6.8213,0.4212,54.882069,9.822637,108.3,5.845,1.85,0.00,54.885376,9.813645,54.895069,9.793790
1390199824,0,0,210.0,0,-35,12,0,111,60,-0.0292,1518.6255,6.8213,0.4212,54.882069,9.822637,108.3,5.845,1.85,0.00,54.885376,9.813645,54.895069,9.793790
1390199824,0,0,210.0,0,-35,12,0,111,60,-0.0292,1518.6255,6.8213,0.4212,54.882069,9.822637,108.3,5.845,1.85,0.00,54.885376,9.813645,54.895069,9.793790
1390199824,0,0,210.0,0,-35,12,0,111,60,-0.0292,1518.6255,6.8213,0.4212,54.882069,9.822637,108.3,5.845,1.85,0.00,54.885376,9.813645,54.895069,9.793790
1390199825,0,0,210.0,0,-35,12,0,111,60,-0.0292,1518.6255,6.8213,0.4212,54.882069,9.822637,108.3,5.845,1.85,0.00,54.885376,9.813645,54.895069,9.793790
1390199825,0,0,210.0,0,-35,12,0,111,60,-0.0292,1518.6255,6.8213,0.4212,54.882069,9.822637,108.3,5.845,1.85,0.00,54.885376,9.813645,54.895069,9.793790
1390199825,0,0,210.0,0,-35,12,0,111,60,-0.0292,1518.6255,6.8213,0.4212,54.882069,9.822637,108.3,5.845,1.85,0.00,54.885376,9.813645,54.895069,9.793790
1390199825,0,0,210.0,0,-35,12,0,111,60,-0.0292,1518.6255,6.8213,0.4212,54.882069,9.822637,108.3,5.845,1.85,0.00,54.885376,9.813645,54.895069,9.793790
1390199826,0,0,210.0,0,-35,12,0,111,60,-0.0292,1518.6255,6.8213,0.4212,54.882069,9.822637,108.3,5.845,1.85,0.00,54.885376,9.813645,54.895069,9.793790
1390199826,0,0,210.0,0,-35,12,0,111,60,-0.0292,1518.6255,6.8213,0.4212,54.882069,9.822637,108.3,5.845,1.85,0.00,54.885376,9.813645,54.895069,9.793790
1390199826,0,0,210.0,0,-35,12,0,111,60,-0.0292,1518.6255,6.8213,0.4212,54.882069,9.822637,108.3,5.845,1.85,0.00,54.885376,9.813645,54.895069,9.793790
1390199826,0,0,210.0,0,-35,12,0,111,60,-0.0292,1518.6255,6.8213,0.4212,54.882069,9.822637,108.3,5.845,1.85,0.00,54.885376,9.813645,54.895069,9.793790
1390199827,0,0,210.0,0,-35,12,0,111,60,-0.0292,1518.6255,6.8213,0.4212,54.882069,9.822637,108.3,5.845,1.85,0.00,54.885376,9.813645,54.895069,9.793790
1390199827,0,0,210.0,0,-35,12,0,111,60,-0.0292,1518.6255,6.8213,0.4212,54.882069,9.822637,108.3,5.845,1.85,0.00,54.885376,9.813645,54.895069,9.793790
1390199827,0,0,210.0,0,-35,12,0,111,60,-0.0292,1518.6255,6.8213,0.4212,54.882069,9.822637,108.3,5.845,1.85,0.00,54.885376,9.813645,54.895069,9.793790
1390199827,0,0,210.0,0,-35,12,0,111,60,-0.0292,1518.6255,6.8213,0.4212,54.882069,9.822637,108.3,5.845,1.85,0.00,54.885376,9.813645,54.895069,9.793790
1390199828,0,0,210.0,0,-35,12,0,111,60,-0.0292,1518.6255,6.8213,0.4212,54.882069,9.822637,108.3,5.845,1.85,0.00,54.885376,9.813645,54.895069,9.793790
1390199828,0,0,210.0,0,-35,12,0,111,60,-0.0292,1518.6255,6.8213,0.4212,54.882069,9.822637,108.3,5.845,1.85,0.00,54.885376,9.813645,54.895069,9.793790
1390199828,0,0,210.0,0,-35,12,0,111,60,-0.0292,1518.6255,6.8213,0.4212,54.882069,9.822637,108.3,5.845,1.85,0.00,54.885376,9.813645,54.895069,9.793790
1390199828,0,0,210.0,0,-35,12,0,111,60,-0.0292,1518.6255,6.8213,0.4212,54.882069,9.822637,108.3,5.845,1.85,0.00,54.885376,9.813645,54.895069,9.793790
1390199829,0,0,210.0,0,-35,12,0,111,60,-0.0292,1518.6255,6.8213,0.4212,54.882069,9.822637,108.3,5.845,1.85,0.00,54.885376,9.813645,54.895069,9.793790
1390199829,0,0,210.0,0,-35,12,0,111,60,-0.0292,1518.6255,6.8213,0.4212,54.882069,9.822637,108.3,5.845,1.85,0.00,54.885376,9.813645,54.895069,9.793790
1390199829,0,0,210.0,0,-35,12,0,111,60,-0.0292,1518.6255,6.8213,0.4212,54.882069,9.822637,108.3,5.845,1.85,0.00,54.885376,9.813645,54.895069,9.793790
1390199829,0,0,210.0,0,-35,12,0,111,60,-0.0292,1518.6255,6.8213,0.4212,54.882069,9.822637,108.3,5.845,1.85,0.00,54.885376,9.813645,54.895069,9.793790
1390199830,0,0,210.0,0,-35,12,0,111,60,-0.0292,1518.6255,6.8213,0.4212,54.882069,9.822637,108.3,5.845,1.85,0.00,54.885376,9.813645,54.895069,9.793790
1390199830,0,0,210.0,0,-35,12,0,111,60,-0.0292,1518.6255,6.8213,0.4212,54.882069,9.822637,108.3,5.845,1.85,0.00,54.885376,9.813645,54.895069,9.793790
1390199830,0,0,210.0,0,-35,12,0,111,60,-0.0292,1518.6255,6.8213,0.4212,54.882069,9.822637,108.3,5.845,1.85,0.00,54.885376,9.813645,54.895069,9.793790
1390199830,0,0,210.0,0,-35,12,0,111,60,-0.0292,1518.6255,6.8213,0.4212,54.882069,9.822637,108.3,5.845,1.85,0.00,54.885376,9.813645,54.895069,9.793790
1390199831,0,0,210.0,0,-35,12,0,111,60,-0.0292,1518.6255,6.8213,0.4212,54.882069,9.822637,108.3,5.845,1.85,0.00,54.885376,9.813645,54.895069,9.793790
1390199831,0,0,210.0,0,-35,12,0,111,60,-0.0292,1518.6255,6.8213,0.4212,54.882069,9.822637,108.3,5.845,1.85,0.00,54.885376,9.813645,54.895069,9.793790
1390199831,0,0,210.0,0,-35,12,0,111,60,-0.0292,1518.6255,6.8213,0.4212,54.882069,9.822637,108.3,5.845,1.85,0.00,54.885376,9.813645,54.895069,9.793790
1390199831,0,0,210.0,0,-35,12,0,111,60,-0.0292,1518.6255,6.8213,0.4212,54.882069,9.822637,108.3,5.845,1.85,0.00,54.885376,9.813645,54.895069,9.793790
1390199832,0,0,210.0,0,-35,12,0,111,60,-0.0292,1518.6255,6.8213,0.4212,54.882069,9.822637,108.3,5.845,1.85,0.00,54.885376,9.813645,54.895069,9.793790
1390199832,0,0,210.0,0,-35,12,0,111,60,-0.0292,1518.6255,6.8213,0.4212,54.882069,9.822637,108.3,5.845,1.85,0.00,54.885376,9.813645,54.895069,9.793790
1390199832,0,0,210.0,0,-35,12,0,111,60,-0.0292,1518.6255,6.8213,0.4212,54.882069,9.822637,108.3,5.845,1.85,0.00,54.885376,9.813645,54.895069,9.793790
1390199832,0,0,210.0,0,-35,12,0,111,60,-0.0292,1518.6255,6.8213,0.4212,54.882069,9.822637,108.3,5.845,1.85,0.00,54.885376,9.813645,54.895069,9.793790
1390199833,0,0,210.0,0,-35,12,0,111,60,-0.0292,1518.6255,6.8213,0.4212,54.882069,9.822637,108.3,5.845,1.85,0.00,54.885376,9.813645,54.895069,9.793790
1390199833,0,0,210.0,0,-35,12,0,111,60,-0.0292,1518.6255,6.8213,0.4212,54.882069,9.822637,108.3,5.845,1.85,0.00,54.885376,9.813645,54.895069,9.793790
1390199833,0,0,210.0,0,-35,12,0,111,60,-0.0292,1518.6255,6.8213,0.4212,54.882069,9.822637,108.3,5.845,1.85,0.00,54.885376,9.813645,54.895069,9.793790
1390199833,0,0,210.0,0,-35,12,0,111,60,-0.0292,1518.6255,6.8213,0.4212,54.882069,9.822637,108.3,5.845,1.85,0.00,54.885376,9.813645,54.895069,9.793790
1390199834,0,0,210.0,0,-35,12,0,111,60,-0.0292,1518.6255,6.8213,0.4212,54.882069,9.822637,108.3,5.845,1.85,0.00,54.885376,9.813645,54.895069,9.793790
1390199834,0,0,210.0,0,-35,12,0,111,60,-0.0292,1518.6255,6.8213,0.4212,54.882069,9.822637,108.3,5.845,1.85,0.00,54.885376,9.813645,54.895069,9.793790
1390199834,0,0,210.0,0,-35,12,0,111,60,-0.0292,1518.6255,6.8213,0.4212,54.882069,9.822637,108.3,5.845,1.85,0.00,54.885376,9.813645,54.895069,9.793790
1390199834,0,0,210.0,0,-35,12,0,111,60,-0.0292,1518.6255,6.8213,0.4212,54.882069,9.822637,108.3,5.845,1.85,0.00,54.885376,9.813645,54.895069,9.793790
1390199835,0,0,210.0,0,-35,12,0,111,60,-0.0292,1518.6255,6.8213,0.4212,54.882069,9.822637,108.3,5.845,1.85,0.00,54.885376,9.813645,54.895069,9.793790
