MCU_timestamp,Navigation_System,Manual_Control,Guidance_Heading,Manual_Ctrl_Rudder,Rudder_Desired_Angle,Rudder_Feedback,Manual_Ctrl_Sail,Sail_Desired_Pos,Sail_Feedback,Rate,Heading,Pitch,Roll,Latitude,Longitude,COG,SOG,Wind_Speed,Wind_Angle,Point_Start_Lat,Point_Start_Lon,Point_End_Lat,Point_End_Lon
1386956875,1,0,150.0,0,35,4,0,192,150,-0.0292,5314.0269,6.8213,0.4212,54.894863,9.795209,108.3,5.845,1.85,0.00,54.894863,9.795239,0.000000,0.000000
1386956875,1,0,150.0,0,35,8,0,335,200,-0.0292,5304.6934,6.8213,0.4212,54.894863,9.795177,108.3,5.845,1.85,0.00,54.894863,9.795239,0.000000,0.000000
1386956876,1,0,150.0,0,35,12,0,483,250,-0.0292,5295.3599,6.8213,0.4212,54.894859,9.795147,108.3,5.845,1.85,0.00,54.894863,9.795239,0.000000,0.000000
1386956876,1,0,150.0,0,35,16,0,631,300,-0.0292,5286.0264,6.8213,0.4212,54.894852,9.795118,108.3,5.845,1.85,0.00,54.894863,9.795239,0.000000,0.000000
1386956876,1,0,150.0,0,35,20,0,772,350,-0.0292,5276.6929,6.8213,0.4212,54.894840,9.795092,108.3,5.845,1.85,0.00,54.894863,9.795239,0.000000,0.000000
1386956876,1,0,150.0,0,35,24,0,870,400,-0.0292,5267.3594,6.8213,0.4212,54.894829,9.795069,108.3,5.845,1.85,0.00,54.894863,9.795239,0.000000,0.000000
1386956877,1,0,150.0,0,35,28,0,870,450,-0.0292,5258.0259,6.8213,0.4212,54.894814,9.795050,108.3,5.845,1.85,0.00,54.894863,9.795239,0.000000,0.000000
1386956877,1,0,150.0,0,35,32,0,713,500,-0.0292,5248.6924,6.8213,0.4212,54.894798,9.795034,108.3,5.845,1.85,0.00,54.894863,9.795239,0.000000,0.000000
1386956877,1,0,150.0,0,35,36,0,713,550,-0.0292,5239.3589,6.8213,0.4212,54.894783,9.795024,108.3,5.845,1.85,0.00,54.894863,9.795239,0.000000,0.000000
1386956877,1,0,150.0,0,35,32,0,713,600,-0.0292,5230.0254,6.8213,0.4212,54.894764,9.795019,108.3,5.845,1.85,0.00,54.894863,9.795239,0.000000,0.000000
1386956878,1,0,150.0,0,35,36,0,713,650,-0.0292,5220.6919,6.8213,0.4212,54.894745,9.795019,108.3,5.845,1.85,0.00,54.894863,9.795239,0.000000,0.000000
1386956878,1,0,150.0,0,31,32,0,0,600,-0.0292,5212.4253,6.8213,0.4212,54.894730,9.795024,108.3,5.845,1.85,0.00,54.894863,9.795239,0.000000,0.000000
1386956878,1,0,150.0,0,22,28,0,0,550,-0.0292,5206.5586,6.8213,0.4212,54.894711,9.795032,108.3,5.845,1.85,0.00,54.894863,9.795239,0.000000,0.000000
1386956878,1,0,150.0,0,17,24,0,713,600,-0.0292,5202.0254,6.8213,0.4212,54.894691,9.795042,108.3,5.845,1.85,0.00,54.894863,9.795239,0.000000,0.000000
1386956879,1,0,150.0,0,12,20,0,713,650,-0.0292,5198.8252,6.8213,0.4212,54.894676,9.795053,108.3,5.845,1.85,0.00,54.894863,9.795239,0.000000,0.000000
1386956879,1,0,150.0,0,9,16,0,713,700,-0.0292,5196.4253,6.8213,0.4212,54.894657,9.795066,108.3,5.845,1.85,0.00,54.894863,9.795239,0.000000,0.000000
1386956879,1,0,150.0,0,6,12,0,713,750,-0.0292,5194.8252,6.8213,0.4212,54.894638,9.795079,108.3,5.845,1.85,0.00,54.894863,9.795239,0.000000,0.000000
1386956879,1,0,150.0,0,5,8,0,713,700,-0.0292,5193.4917,6.8213,0.4212,54.894623,9.795093,108.3,5.845,1.85,0.00,54.894863,9.795239,0.000000,0.000000
1386956880,1,0,150.0,0,3,4,0,0,650,-0.0292,5192.6919,6.8213,0.4212,54.894608,9.795107,108.3,5.845,1.85,0.00,54.894863,9.795239,0.000000,0.000000
1386956880,1,0,150.0,0,3,0,0,0,600,-0.0292,5191.8921,6.8213,0.4212,54.894592,9.795122,108.3,5.845,1.85,0.00,54.894863,9.795239,0.000000,0.000000
1386956880,1,0,150.0,0,2,4,0,0,550,-0.0292,5191.3589,6.8213,0.4212,54.894577,9.795136,108.3,5.845,1.85,0.00,54.894863,9.795239,0.000000,0.000000
1386956880,1,0,150.0,0,1,0,0,0,500,-0.0292,5191.0923,6.8213,0.4212,54.894558,9.795152,108.3,5.845,1.85,0.00,54.894863,9.795239,0.000000,0.000000
1386956881,1,0,150.0,0,1,4,0,0,450,-0.0292,5190.8257,6.8213,0.4212,54.894543,9.795167,108.3,5.845,1.85,0.00,54.894863,9.795239,0.000000,0.000000
1386956881,1,0,150.0,0,1,0,0,0,400,-0.0292,5190.5591,6.8213,0.4212,54.894527,9.795182,108.3,5.845,1.85,0.00,54.894863,9.795239,0.000000,0.000000
1386956881,1,0,150.0,0,1,4,0,0,350,-0.0292,5190.2925,6.8213,0.4212,54.894512,9.795197,108.3,5.845,1.85,0.00,54.894863,9.795239,0.000000,0.000000
1386956881,1,0,150.0,0,0,0,0,0,300,-0.0292,5190.2925,6.8213,0.4212,54.894497,9.795214,108.3,5.845,1.85,0.00,54.894863,9.795239,0.000000,0.000000
1386956882,1,0,150.0,0,0,4,0,0,250,-0.0292,5190.2925,6.8213,0.4212,54.894482,9.795229,108.3,5.845,1.85,0.00,54.894863,9.795239,0.000000,0.000000
1386956882,1,0,150.0,0,0,0,0,0,200,-0.0292,5190.2925,6.8213,0.4212,54.894463,9.795244,108.3,5.845,1.85,0.00,54.894863,9.795239,0.000000,0.000000
1386956882,1,0,150.0,0,0,4,0,0,150,-0.0292,5190.2925,6.8213,0.4212,54.894447,9.795260,108.3,5.845,1.85,0.00,54.894863,9.795239,0.000000,0.000000
1386956882,1,0,150.0,0,0,0,0,0,100,-0.0292,5190.2925,6.8213,0.4212,54.894432,9.795276,108.3,5.845,1.85,0.00,54.894863,9.795239,0.000000,0.000000
1386956883,1,0,150.0,0,0,4,0,0,50,-0.0292,5190.2925,6.8213,0.4212,54.894413,9.795291,108.3,5.845,1.85,0.00,54.894863,9.795239,0.000000,0.000000
1386956883,1,0,150.0,0,0,0,0,0,0,-0.0292,5190.2925,6.8213,0.4212,54.894398,9.795306,108.3,5.845,1.85,0.00,54.894863,9.795239,0.000000,0.000000
1386956883,1,0,150.0,0,0,4,0,0,0,-0.0292,5190.2925,6.8213,0.4212,54.894382,9.795321,108.3,5.845,1.85,0.00,54.894863,9.795239,0.000000,0.000000
1386956883,1,0,210.0,0,-35,0,0,0,0,-0.0292,5199.6260,6.8213,0.4212,54.894363,9.795333,108.3,5.845,1.85,0.00,54.894863,9.795239,0.000000,0.000000
1386956884,1,0,210.0,0,-35,-4,0,0,0,-0.0292,5208.9595,6.8213,0.4212,54.894344,9.795339,108.3,5.845,1.85,0.00,54.894863,9.795239,0.000000,0.000000
1386956884,1,0,210.0,0,-35,-8,0,0,0,-0.0292,5218.2930,6.8213,0.4212,54.894325,9.795340,108.3,5.845,1.85,0.00,54.894863,9.795239,0.000000,0.000000
1386956884,1,0,210.0,0,-32,-12,0,0,0,-0.0292,5226.8262,6.8213,0.4212,54.894310,9.795336,108.3,5.845,1.85,0.00,54.894863,9.795239,0.000000,0.000000
1386956884,1,0,210.0,0,-23,-16,0,0,0,-0.0292,5232.9595,6.8213,0.4212,54.894291,9.795328,108.3,5.845,1.85,0.00,54.894863,9.795239,0.000000,0.000000
1386956885,1,0,210.0,0,-17,-20,0,0,0,-0.0292,5237.4927,6.8213,0.4212,54.894272,9.795320,108.3,5.845,1.85,0.00,54.894863,9.795239,0.000000,0.000000
1386956885,1,0,210.0,0,-13,-16,0,0,0,-0.0292,5240.9595,6.8213,0.4212,54.894257,9.795309,108.3,5.845,1.85,0.00,54.894863,9.795239,0.000000,0.000000
1386956885,1,0,210.0,0,-9,-12,0,0,0,-0.0292,5243.3594,6.8213,0.4212,54.894241,9.795297,108.3,5.845,1.85,0.00,54.894863,9.795239,0.000000,0.000000
1386956885,1,0,210.0,0,-7,-8,0,0,0,-0.0292,5245.2261,6.8213,0.4212,54.894226,9.795283,108.3,5.845,1.85,0.00,54.894863,9.795239,0.000000,0.000000
1386956886,1,0,210.0,0,-5,-4,0,0,0,-0.0292,5246.5596,6.8213,0.4212,54.894211,9.795270,108.3,5.845,1.85,0.00,54.894863,9.795239,0.000000,0.000000
1386956886,1,0,210.0,0,-3,0,0,713,50,-0.0292,5247.3594,6.8213,0.4212,54.894192,9.795256,108.3,5.845,1.85,0.00,54.894863,9.795239,0.000000,0.000000
1386956886,1,0,210.0,0,-3,-4,0,713,100,-0.0292,5248.1592,6.8213,0.4212,54.894176,9.795240,108.3,5.845,1.85,0.00,54.894863,9.795239,0.000000,0.000000
1386956886,1,0,210.0,0,-2,0,0,713,150,-0.0292,5248.6924,6.8213,0.4212,54.894161,9.795226,108.3,5.845,1.85,0.00,54.894863,9.795239,0.000000,0.000000
1386956887,1,0,210.0,0,-1,-4,0,713,200,-0.0292,5248.9590,6.8213,0.4212,54.894142,9.795211,108.3,5.845,1.85,0.00,54.894863,9.795239,0.000000,0.000000
1386956887,1,0,210.0,0,-1,0,0,713,250,-0.0292,5249.2256,6.8213,0.4212,54.894127,9.795196,108.3,5.845,1.85,0.00,54.894863,9.795239,0.000000,0.000000
1386956887,1,0,210.0,0,-1,-4,0,713,300,-0.0292,5249.4922,6.8213,0.4212,54.894112,9.795180,108.3,5.845,1.85,0.00,54.894863,9.795239,0.000000,0.000000
1386956887,1,0,210.0,0,-1,0,0,713,350,-0.0292,5249.7588,6.8213,0.4212,54.894093,9.795165,108.3,5.845,1.85,0.00,54.894863,9.795239,0.000000,0.000000
1386956888,1,0,210.0,0,0,4,0,713,400,-0.0292,5249.7588,6.8213,0.4212,54.894077,9.795149,108.3,5.845,1.85,0.00,54.894863,9.795239,0.000000,0.000000
1386956888,1,0,210.0,0,0,0,0,713,450,-0.0292,5249.7588,6.8213,0.4212,54.894062,9.795134,108.3,5.845,1.85,0.00,54.894863,9.795239,0.000000,0.000000
1386956888,1,0,210.0,0,0,4,0,713,500,-0.0292,5249.7588,6.8213,0.4212,54.894043,9.795118,108.3,5.845,1.85,0.00,54.894863,9.795239,0.000000,0.000000
1386956888,1,0,210.0,0,0,0,0,713,550,-0.0292,5249.7588,6.8213,0.4212,54.894028,9.795102,108.3,5.845,1.85,0.00,54.894863,9.795239,0.000000,0.000000
1386956889,1,0,210.0,0,0,4,0,713,600,-0.0292,5249.7588,6.8213,0.4212,54.894012,9.795087,108.3,5.845,1.85,0.00,54.894863,9.795239,0.000000,0.000000
1386956889,1,0,210.0,0,0,0,0,713,650,-0.0292,5249.7588,6.8213,0.4212,54.893993,9.795072,108.3,5.845,1.85,0.00,54.894863,9.795239,0.000000,0.000000
1386956889,1,0,210.0,0,0,4,0,713,700,-0.0292,5249.7588,6.8213,0.4212,54.893978,9.795056,108.3,5.845,1.85,0.00,54.894863,9.795239,0.000000,0.000000
1386956889,1,0,210.0,0,0,0,0,713,750,-0.0292,5249.7588,6.8213,0.4212,54.893963,9.795041,108.3,5.845,1.85,0.00,54.894863,9.795239,0.000000,0.000000
1386956890,1,0,210.0,0,0,4,0,713,700,-0.0292,5249.7588,6.8213,0.4212,54.893944,9.795025,108.3,5.845,1.85,0.00,54.894863,9.795239,0.000000,0.000000
1386956890,1,0,210.0,0,0,0,0,713,750,-0.0292,5249.7588,6.8213,0.4212,54.893929,9.795010,108.3,5.845,1.85,0.00,54.894863,9.795239,0.000000,0.000000
1386956890,1,0,210.0,0,0,4,0,713,700,-0.0292,5249.7588,6.8213,0.4212,54.893913,9.794994,108.3,5.845,1.85,0.00,54.894863,9.795239,0.000000,0.000000
1386956890,1,0,210.0,0,0,0,0,713,750,-0.0292,5249.7588,6.8213,0.4212,54.893894,9.794978,108.3,5.845,1.85,0.00,54.894863,9.795239,0.000000,0.000000
1386956891,1,0,210.0,0,0,4,0,713,700,-0.0292,5249.7588,6.8213,0.4212,54.893879,9.794963,108.3,5.845,1.85,0.00,54.894863,9.795239,0.000000,0.000000
