MCU_timestamp,Navigation_System,Manual_Control,Guidance_Heading,Manual_Ctrl_Rudder,Rudder_Desired_Angle,Rudder_Feedback,Manual_Ctrl_Sail,Sail_Desired_Pos,Sail_Feedback,Rate,Heading,Pitch,Roll,Latitude,Longitude,COG,SOG,Wind_Speed,Wind_Angle,Point_Start_Lat,Point_Start_Lon,Point_End_Lat,Point_End_Lon
1386961307,1,0,150.0,0,35,4,0,0,0,-0.0292,5217.4956,6.8213,0.4212,54.892860,9.791751,108.3,5.845,1.85,0.00,54.892876,9.791750,0.000000,0.000000
1386961307,1,0,150.0,0,27,8,0,0,0,-0.0292,5210.2954,6.8213,0.4212,54.892841,9.791756,108.3,5.845,1.85,0.00,54.892876,9.791750,0.000000,0.000000
1386961308,1,0,150.0,0,20,12,0,0,0,-0.0292,5204.9619,6.8213,0.4212,54.892822,9.791764,108.3,5.845,1.85,0.00,54.892876,9.791750,0.000000,0.000000
1386961308,1,0,150.0,0,15,16,0,713,50,-0.0292,5200.9619,6.8213,0.4212,54.892807,9.791775,108.3,5.845,1.85,0.00,54.892876,9.791750,0.000000,0.000000
1386961308,1,0,150.0,0,11,12,0,713,100,-0.0292,5198.0288,6.8213,0.4212,54.892788,9.791786,108.3,5.845,1.85,0.00,54.892876,9.791750,0.000000,0.000000
1386961308,1,0,150.0,0,8,8,0,713,150,-0.0292,5195.8955,6.8213,0.4212,54.892769,9.791799,108.3,5.845,1.85,0.00,54.892876,9.791750,0.000000,0.000000
1386961309,1,0,150.0,0,6,4,0,713,200,-0.0292,5194.2954,6.8213,0.4212,54.892754,9.791812,108.3,5.845,1.85,0.00,54.892876,9.791750,0.000000,0.000000
1386961309,1,0,150.0,0,4,8,0,713,250,-0.0292,5193.2285,6.8213,0.4212,54.892738,9.791826,108.3,5.845,1.85,0.00,54.892876,9.791750,0.000000,0.000000
1386961309,1,0,150.0,0,3,4,0,0,200,-0.0292,5192.4287,6.8213,0.4212,54.892719,9.791841,108.3,5.845,1.85,0.00,54.892876,9.791750,0.000000,0.000000
1386961309,1,0,150.0,0,2,0,0,0,150,-0.0292,5191.8955,6.8213,0.4212,54.892704,9.791855,108.3,5.845,1.85,0.00,54.892876,9.791750,0.000000,0.000000
1386961310,1,0,150.0,0,2,4,0,0,100,-0.0292,5191.3623,6.8213,0.4212,54.892689,9.791870,108.3,5.845,1.85,0.00,54.892876,9.791750,0.000000,0.000000
1386961310,1,0,150.0,0,1,0,0,0,50,-0.0292,5191.0957,6.8213,0.4212,54.892673,9.791885,108.3,5.845,1.85,0.00,54.892876,9.791750,0.000000,0.000000
1386961310,1,0,150.0,0,1,4,0,0,0,-0.0292,5190.8291,6.8213,0.4212,54.892658,9.791901,108.3,5.845,1.85,0.00,54.892876,9.791750,0.000000,0.000000
1386961310,1,0,150.0,0,1,0,0,0,0,-0.0292,5190.5625,6.8213,0.4212,54.892643,9.791917,108.3,5.845,1.85,0.00,54.892876,9.791750,0.000000,0.000000
1386961311,1,0,210.0,0,-35,-4,0,0,0,-0.0292,5199.8960,6.8213,0.4212,54.892624,9.791927,108.3,5.845,1.85,0.00,54.892876,9.791750,0.000000,0.000000
1386961311,1,0,210.0,0,-35,-8,0,0,0,-0.0292,5209.2295,6.8213,0.4212,54.892605,9.791933,108.3,5.845,1.85,0.00,54.892876,9.791750,0.000000,0.000000
1386961311,1,0,210.0,0,-35,-12,0,0,0,-0.0292,5218.5630,6.8213,0.4212,54.892590,9.791934,108.3,5.845,1.85,0.00,54.892876,9.791750,0.000000,0.000000
1386961311,1,0,210.0,0,-31,-16,0,0,0,-0.0292,5226.8296,6.8213,0.4212,54.892570,9.791930,108.3,5.845,1.85,0.00,54.892876,9.791750,0.000000,0.000000
1386961312,1,0,210.0,0,-23,-20,0,0,0,-0.0292,5232.9629,6.8213,0.4212,54.892551,9.791924,108.3,5.845,1.85,0.00,54.892876,9.791750,0.000000,0.000000
1386961312,1,0,210.0,0,-17,-16,0,0,0,-0.0292,5237.4961,6.8213,0.4212,54.892536,9.791914,108.3,5.845,1.85,0.00,54.892876,9.791750,0.000000,0.000000
1386961312,1,0,210.0,0,-13,-12,0,0,0,-0.0292,5240.9629,6.8213,0.4212,54.892517,9.791903,108.3,5.845,1.85,0.00,54.892876,9.791750,0.000000,0.000000
1386961312,1,0,210.0,0,-9,-8,0,0,0,-0.0292,5243.3628,6.8213,0.4212,54.892498,9.791890,108.3,5.845,1.85,0.00,54.892876,9.791750,0.000000,0.000000
1386961313,1,0,210.0,0,-7,-4,0,0,0,-0.0292,5245.2295,6.8213,0.4212,54.892483,9.791877,108.3,5.845,1.85,0.00,54.892876,9.791750,0.000000,0.000000
1386961313,1,0,210.0,0,-5,-8,0,0,0,-0.0292,5246.5630,6.8213,0.4212,54.892467,9.791862,108.3,5.845,1.85,0.00,54.892876,9.791750,0.000000,0.000000
1386961313,1,0,210.0,0,-3,-4,0,713,50,-0.0292,5247.3628,6.8213,0.4212,54.892448,9.791848,108.3,5.845,1.85,0.00,54.892876,9.791750,0.000000,0.000000
1386961313,1,0,210.0,0,-3,0,0,713,100,-0.0292,5248.1626,6.8213,0.4212,54.892433,9.791834,108.3,5.845,1.85,0.00,54.892876,9.791750,0.000000,0.000000
1386961314,1,0,210.0,0,-2,-4,0,713,150,-0.0292,5248.6958,6.8213,0.4212,54.892418,9.791819,108.3,5.845,1.85,0.00,54.892876,9.791750,0.000000,0.000000
1386961314,1,0,210.0,0,-1,0,0,713,200,-0.0292,5248.9624,6.8213,0.4212,54.892403,9.791803,108.3,5.845,1.85,0.00,54.892876,9.791750,0.000000,0.000000
1386961314,1,0,210.0,0,-1,-4,0,713,250,-0.0292,5249.2290,6.8213,0.4212,54.892387,9.791788,108.3,5.845,1.85,0.00,54.892876,9.791750,0.000000,0.000000
1386961314,1,0,210.0,0,-1,0,0,713,300,-0.0292,5249.4956,6.8213,0.4212,54.892372,9.791773,108.3,5.845,1.85,0.00,54.892876,9.791750,0.000000,0.000000
1386961315,1,0,210.0,0,-1,-4,0,713,350,-0.0292,5249.7622,6.8213,0.4212,54.892357,9.791758,108.3,5.845,1.85,0.00,54.892876,9.791750,0.000000,0.000000
