MCU_timestamp,Navigation_System,Manual_Control,Guidance_Heading,Manual_Ctrl_Rudder,Rudder_Desired_Angle,Rudder_Feedback,Manual_Ctrl_Sail,Sail_Desired_Pos,Sail_Feedback,Rate,Heading,Pitch,Roll,Latitude,Longitude,COG,SOG,Wind_Speed,Wind_Angle,Point_Start_Lat,Point_Start_Lon,Point_End_Lat,Point_End_Lon
1386781272,0,0,0.0,0,0,4,0,0,0,-0.0292,126.2913,6.8213,0.4212,54.892475,9.794132,108.3,5.845,1.85,335.95,0.000000,0.000000,0.000000,0.000000
1386781272,0,0,0.0,0,0,4,0,0,0,-0.0292,126.2913,6.8213,0.4212,54.892475,9.794132,108.3,5.845,1.85,335.95,0.000000,0.000000,0.000000,0.000000
1386781272,0,0,0.0,0,0,4,0,0,0,-0.0292,126.2913,6.8213,0.4212,54.892475,9.794132,108.3,5.845,1.85,335.95,0.000000,0.000000,0.000000,0.000000
1386781272,0,0,0.0,0,0,4,0,0,0,-0.0292,126.2913,6.8213,0.4212,54.892475,9.794132,108.3,5.845,1.85,335.95,0.000000,0.000000,0.000000,0.000000
1386781273,0,0,0.0,0,0,4,0,0,0,-0.0292,126.2913,6.8213,0.4212,54.892475,9.794132,108.3,5.845,1.85,335.95,0.000000,0.000000,0.000000,0.000000
1386781273,0,0,0.0,0,0,4,0,0,0,-0.0292,126.2913,6.8213,0.4212,54.892475,9.794132,108.3,5.845,1.85,335.95,0.000000,0.000000,0.000000,0.000000
1386781273,0,0,0.0,0,0,4,0,0,0,-0.0292,126.2913,6.8213,0.4212,54.892475,9.794132,108.3,5.845,1.85,335.95,0.000000,0.000000,0.000000,0.000000
1386781273,0,0,0.0,0,0,4,0,0,0,-0.0292,126.2913,6.8213,0.4212,54.892475,9.794132,108.3,5.845,1.85,335.95,0.000000,0.000000,0.000000,0.000000
1386781274,0,0,0.0,0,0,4,0,0,0,-0.0292,126.2913,6.8213,0.4212,54.892475,9.794132,108.3,5.845,1.85,335.95,0.000000,0.000000,0.000000,0.000000
1386781274,4,0,0.0,0,0,4,0,0,0,-0.0292,126.2913,6.8213,0.4212,54.892475,9.794132,108.3,5.845,1.85,335.95,0.000000,0.000000,0.000000,0.000000
1386781274,1,0,390.9,0,35,8,0,409,325,-0.0292,116.9579,6.8213,0.4212,54.892467,9.794160,108.3,5.845,1.85,335.95,54.892475,9.794132,54.895069,9.793790
1386781274,1,0,390.9,0,35,12,0,409,350,-0.0292,107.6246,6.8213,0.4212,54.892460,9.794189,108.3,5.845,1.85,335.95,54.892475,9.794132,54.895069,9.793790
1386781275,1,0,390.9,0,35,16,0,2,325,-0.0292,98.2913,6.8213,0.4212,54.892460,9.794220,108.3,5.845,1.85,335.95,54.892475,9.794132,54.895069,9.793790
1386781275,1,0,390.9,0,35,20,0,27,300,-0.0292,88.9579,6.8213,0.4212,54.892464,9.794250,108.3,5.845,1.85,335.95,54.892475,9.794132,54.895069,9.793790
1386781275,1,0,390.9,0,35,24,0,75,275,-0.0292,79.6246,6.8213,0.4212,54.892464,9.794281,108.3,5.845,1.85,335.95,54.892475,9.794132,54.895069,9.793790
1386781275,1,0,390.9,0,35,28,0,134,250,-0.0292,70.2913,6.8213,0.4212,54.892467,9.794311,108.3,5.845,1.85,335.95,54.892475,9.794132,54.895069,9.793790
1386781276,1,0,390.9,0,35,32,0,199,225,-0.0292,60.9579,6.8213,0.4212,54.892475,9.794337,108.3,5.845,1.85,335.95,54.892475,9.794132,54.895069,9.793790
1386781276,1,0,390.9,0,30,28,0,266,250,-0.0292,52.9579,6.8213,0.4212,54.892487,9.794362,108.3,5.845,1.85,335.95,54.892475,9.794132,54.895069,9.793790
1386781276,1,0,390.9,0,22,24,0,323,275,-0.0292,47.0913,6.8213,0.4212,54.892498,9.794385,108.3,5.845,1.85,335.95,54.892475,9.794132,54.895069,9.793790
1386781276,1,0,390.9,0,16,20,0,364,300,-0.0292,42.8246,6.8213,0.4212,54.892509,9.794407,108.3,5.845,1.85,335.95,54.892475,9.794132,54.895069,9.793790
1386781277,1,0,390.9,0,12,16,0,393,325,-0.0292,39.6246,6.8213,0.4212,54.892525,9.794427,108.3,5.845,1.85,335.95,54.892475,9.794132,54.895069,9.793790
1386781277,1,0,390.9,0,9,12,0,415,350,-0.0292,37.2246,6.8213,0.4212,54.892540,9.794446,108.3,5.845,1.85,335.95,54.892475,9.794132,54.895069,9.793790
1386781277,1,0,390.9,0,6,8,0,431,375,-0.0292,35.6246,6.8213,0.4212,54.892551,9.794464,108.3,5.845,1.85,335.95,54.892475,9.794132,54.895069,9.793790
1386781278,1,0,390.9,0,5,4,0,442,400,-0.0292,34.2913,6.8213,0.4212,54.892567,9.794482,108.3,5.845,1.85,335.95,54.892475,9.794132,54.895069,9.793790
1386781278,1,0,390.9,0,3,0,0,451,425,-0.0292,33.4913,6.8213,0.4212,54.892582,9.794499,108.3,5.845,1.85,335.95,54.892475,9.794132,54.895069,9.793790
1386781278,1,0,390.9,0,3,4,0,456,450,-0.0292,32.6913,6.8213,0.4212,54.892597,9.794517,108.3,5.845,1.85,335.95,54.892475,9.794132,54.895069,9.793790
1386781278,1,0,390.9,0,2,0,0,461,475,-0.0292,32.1579,6.8213,0.4212,54.892612,9.794534,108.3,5.845,1.85,335.95,54.892475,9.794132,54.895069,9.793790
1386781279,1,0,390.9,0,1,4,0,465,450,-0.0292,31.8913,6.8213,0.4212,54.892628,9.794550,108.3,5.845,1.85,335.95,54.892475,9.794132,54.895069,9.793790
1386781279,1,0,390.9,0,1,0,0,466,475,-0.0292,31.6246,6.8213,0.4212,54.892643,9.794566,108.3,5.845,1.85,335.95,54.892475,9.794132,54.895069,9.793790
1386781279,1,0,390.9,0,1,4,0,468,450,-0.0292,31.3579,6.8213,0.4212,54.892658,9.794582,108.3,5.845,1.85,335.95,54.892475,9.794132,54.895069,9.793790
1386781279,1,0,390.9,0,0,0,0,470,475,-0.0292,31.3579,6.8213,0.4212,54.892677,9.794599,108.3,5.845,1.85,335.95,54.892475,9.794132,54.895069,9.793790
1386781280,1,0,390.9,0,0,4,0,470,450,-0.0292,31.3579,6.8213,0.4212,54.892693,9.794615,108.3,5.845,1.85,335.95,54.892475,9.794132,54.895069,9.793790
1386781280,1,0,390.9,0,0,0,0,470,475,-0.0292,31.3579,6.8213,0.4212,54.892708,9.794631,108.3,5.845,1.85,335.95,54.892475,9.794132,54.895069,9.793790
1386781280,1,0,390.9,0,0,4,0,470,450,-0.0292,31.3579,6.8213,0.4212,54.892719,9.794647,108.3,5.845,1.85,335.95,54.892475,9.794132,54.895069,9.793790
1386781280,1,0,390.9,0,0,0,0,470,475,-0.0292,31.3579,6.8213,0.4212,54.892735,9.794663,108.3,5.845,1.85,335.95,54.892475,9.794132,54.895069,9.793790
1386781281,1,0,390.9,0,0,4,0,470,450,-0.0292,31.3579,6.8213,0.4212,54.892750,9.794680,108.3,5.845,1.85,335.95,54.892475,9.794132,54.895069,9.793790
1386781281,1,0,390.9,0,0,0,0,470,475,-0.0292,31.3579,6.8213,0.4212,54.892765,9.794696,108.3,5.845,1.85,335.95,54.892475,9.794132,54.895069,9.793790
1386781281,1,0,390.9,0,0,4,0,470,450,-0.0292,31.3579,6.8213,0.4212,54.892780,9.794712,108.3,5.845,1.85,335.95,54.892475,9.794132,54.895069,9.793790
1386781281,1,0,390.9,0,0,0,0,470,475,-0.0292,31.3579,6.8213,0.4212,54.892799,9.794728,108.3,5.845,1.85,335.95,54.892475,9.794132,54.895069,9.793790
1386781282,1,0,390.9,0,0,4,0,470,450,-0.0292,31.3579,6.8213,0.4212,54.892815,9.794744,108.3,5.845,1.85,335.95,54.892475,9.794132,54.895069,9.793790
1386781282,1,0,390.9,0,0,0,0,470,475,-0.0292,31.3579,6.8213,0.4212,54.892830,9.794761,108.3,5.845,1.85,335.95,54.892475,9.794132,54.895069,9.793790
1386781282,1,0,390.9,0,0,4,0,470,450,-0.0292,31.3579,6.8213,0.4212,54.892849,9.794777,108.3,5.845,1.85,335.95,54.892475,9.794132,54.895069,9.793790
1386781282,1,0,390.9,0,0,0,0,470,475,-0.0292,31.3579,6.8213,0.4212,54.892864,9.794793,108.3,5.845,1.85,335.95,54.892475,9.794132,54.895069,9.793790
1386781283,1,0,390.9,0,0,4,0,470,450,-0.0292,31.3579,6.8213,0.4212,54.892879,9.794809,108.3,5.845,1.85,335.95,54.892475,9.794132,54.895069,9.793790
1386781283,1,0,390.9,0,0,0,0,470,475,-0.0292,31.3579,6.8213,0.4212,54.892899,9.794826,108.3,5.845,1.85,335.95,54.892475,9.794132,54.895069,9.793790
1386781283,1,0,485.9,0,-35,-4,0,470,450,-0.0292,40.6913,6.8213,0.4212,54.892914,9.794846,108.3,5.845,1.85,335.95,54.892475,9.794132,54.895069,9.793790
1386781283,1,0,485.9,0,-35,-8,0,408,425,-0.0292,50.0246,6.8213,0.4212,54.892925,9.794869,108.3,5.845,1.85,335.95,54.892475,9.794132,54.895069,9.793790
1386781284,1,0,485.9,0,-35,-12,0,343,400,-0.0292,59.3579,6.8213,0.4212,54.892937,9.794896,108.3,5.845,1.85,335.95,54.892475,9.794132,54.895069,9.793790
1386781284,1,0,485.9,0,-35,-16,0,277,375,-0.0292,68.6913,6.8213,0.4212,54.892941,9.794926,108.3,5.845,1.85,335.95,54.892475,9.794132,54.895069,9.793790
1386781284,1,0,485.9,0,-35,-20,0,210,350,-0.0292,78.0246,6.8213,0.4212,54.892944,9.794956,108.3,5.845,1.85,335.95,54.892475,9.794132,54.895069,9.793790
1386781284,1,0,485.9,0,-35,-24,0,145,325,-0.0292,87.3579,6.8213,0.4212,54.892944,9.794987,108.3,5.845,1.85,335.95,54.892475,9.794132,54.895069,9.793790
1386781285,1,0,485.9,0,-35,-28,0,84,300,-0.0292,96.6913,6.8213,0.4212,54.892944,9.795018,108.3,5.845,1.85,335.95,54.892475,9.794132,54.895069,9.793790
1386781285,1,0,485.9,0,-29,-32,0,34,275,-0.0292,104.4246,6.8213,0.4212,54.892941,9.795049,108.3,5.845,1.85,335.95,54.892475,9.794132,54.895069,9.793790
1386781285,1,0,485.9,0,-22,-28,0,7,250,-0.0292,110.2913,6.8213,0.4212,54.892933,9.795078,108.3,5.845,1.85,335.95,54.892475,9.794132,54.895069,9.793790
1386781285,1,0,485.9,0,-16,-24,0,0,225,-0.0292,114.5579,6.8213,0.4212,54.892925,9.795106,108.3,5.845,1.85,335.95,54.892475,9.794132,54.895069,9.793790
1386781286,1,0,485.9,0,-11,-20,0,409,250,-0.0292,117.4913,6.8213,0.4212,54.892918,9.795134,108.3,5.845,1.85,335.95,54.892475,9.794132,54.895069,9.793790
1386781286,1,0,485.9,0,-8,-16,0,409,275,-0.0292,119.6246,6.8213,0.4212,54.892910,9.795160,108.3,5.845,1.85,335.95,54.892475,9.794132,54.895069,9.793790
1386781286,1,0,485.9,0,-6,-12,0,409,300,-0.0292,121.2246,6.8213,0.4212,54.892899,9.795187,108.3,5.845,1.85,335.95,54.892475,9.794132,54.895069,9.793790
1386781286,1,0,485.9,0,-5,-8,0,409,325,-0.0292,122.5579,6.8213,0.4212,54.892891,9.795214,108.3,5.845,1.85,335.95,54.892475,9.794132,54.895069,9.793790
1386781287,1,0,485.9,0,-3,-4,0,409,350,-0.0292,123.3579,6.8213,0.4212,54.892879,9.795239,108.3,5.845,1.85,335.95,54.892475,9.794132,54.895069,9.793790
1386781287,1,0,485.9,0,-3,0,0,409,375,-0.0292,124.1579,6.8213,0.4212,54.892872,9.795265,108.3,5.845,1.85,335.95,54.892475,9.794132,54.895069,9.793790
1386781287,1,0,485.9,0,-2,-4,0,409,400,-0.0292,124.6913,6.8213,0.4212,54.892864,9.795291,108.3,5.845,1.85,335.95,54.892475,9.794132,54.895069,9.793790
1386781287,1,0,485.9,0,-1,0,0,409,425,-0.0292,124.9579,6.8213,0.4212,54.892853,9.795316,108.3,5.845,1.85,335.95,54.892475,9.794132,54.895069,9.793790
1386781288,1,0,485.9,0,-1,-4,0,409,400,-0.0292,125.2246,6.8213,0.4212,54.892845,9.795341,108.3,5.845,1.85,335.95,54.892475,9.794132,54.895069,9.793790
1386781288,1,0,485.9,0,-1,0,0,409,425,-0.0292,125.4913,6.8213,0.4212,54.892834,9.795366,108.3,5.845,1.85,335.95,54.892475,9.794132,54.895069,9.793790
1386781288,1,0,485.9,0,0,4,0,409,400,-0.0292,125.4913,6.8213,0.4212,54.892822,9.795392,108.3,5.845,1.85,335.95,54.892475,9.794132,54.895069,9.793790
1386781288,1,0,485.9,0,0,0,0,409,425,-0.0292,125.4913,6.8213,0.4212,54.892811,9.795418,108.3,5.845,1.85,335.95,54.892475,9.794132,54.895069,9.793790
1386781289,1,0,485.9,0,0,4,0,409,400,-0.0292,125.4913,6.8213,0.4212,54.892799,9.795443,108.3,5.845,1.85,335.95,54.892475,9.794132,54.895069,9.793790
1386781289,1,0,485.9,0,0,0,0,409,425,-0.0292,125.4913,6.8213,0.4212,54.892792,9.795468,108.3,5.845,1.85,335.95,54.892475,9.794132,54.895069,9.793790
1386781289,1,0,485.9,0,0,4,0,409,400,-0.0292,125.4913,6.8213,0.4212,54.892780,9.795493,108.3,5.845,1.85,335.95,54.892475,9.794132,54.895069,9.793790
1386781289,1,0,485.9,0,0,0,0,409,425,-0.0292,125.4913,6.8213,0.4212,54.892773,9.795519,108.3,5.845,1.85,335.95,54.892475,9.794132,54.895069,9.793790
1386781290,1,0,485.9,0,0,4,0,409,400,-0.0292,125.4913,6.8213,0.4212,54.892761,9.795545,108.3,5.845,1.85,335.95,54.892475,9.794132,54.895069,9.793790
1386781290,1,0,485.9,0,0,0,0,409,425,-0.0292,125.4913,6.8213,0.4212,54.892750,9.795570,108.3,5.845,1.85,335.95,54.892475,9.794132,54.895069,9.793790
1386781290,1,0,485.9,0,0,4,0,409,400,-0.0292,125.4913,6.8213,0.4212,54.892738,9.795596,108.3,5.845,1.85,335.95,54.892475,9.794132,54.895069,9.793790
1386781290,1,0,485.9,0,0,0,0,409,425,-0.0292,125.4913,6.8213,0.4212,54.892727,9.795621,108.3,5.845,1.85,335.95,54.892475,9.794132,54.895069,9.793790
1386781291,1,0,485.9,0,0,4,0,409,400,-0.0292,125.4913,6.8213,0.4212,54.892719,9.795647,108.3,5.845,1.85,335.95,54.892475,9.794132,54.895069,9.793790
1386781291,1,0,485.9,0,0,0,0,409,425,-0.0292,125.4913,6.8213,0.4212,54.892708,9.795671,108.3,5.845,1.85,335.95,54.892475,9.794132,54.895069,9.793790
1386781291,1,0,485.9,0,0,4,0,409,400,-0.0292,125.4913,6.8213,0.4212,54.892696,9.795697,108.3,5.845,1.85,335.95,54.892475,9.794132,54.895069,9.793790
1386781291,1,0,485.9,0,0,0,0,409,425,-0.0292,125.4913,6.8213,0.4212,54.892685,9.795723,108.3,5.845,1.85,335.95,54.892475,9.794132,54.895069,9.793790
1386781292,1,0,485.9,0,0,4,0,409,400,-0.0292,125.4913,6.8213,0.4212,54.892673,9.795748,108.3,5.845,1.85,335.95,54.892475,9.794132,54.895069,9.793790
1386781292,1,0,485.9,0,0,0,0,409,425,-0.0292,125.4913,6.8213,0.4212,54.892662,9.795774,108.3,5.845,1.85,335.95,54.892475,9.794132,54.895069,9.793790
1386781292,1,0,485.9,0,0,4,0,409,400,-0.0292,125.4913,6.8213,0.4212,54.892651,9.795798,108.3,5.845,1.85,335.95,54.892475,9.794132,54.895069,9.793790
1386781292,1,0,485.9,0,0,0,0,409,425,-0.0292,125.4913,6.8213,0.4212,54.892639,9.795824,108.3,5.845,1.85,335.95,54.892475,9.794132,54.895069,9.793790
1386781293,1,0,485.9,0,0,4,0,409,400,-0.0292,125.4913,6.8213,0.4212,54.892628,9.795850,108.3,5.845,1.85,335.95,54.892475,9.794132,54.895069,9.793790
1386781293,1,0,485.9,0,0,0,0,409,425,-0.0292,125.4913,6.8213,0.4212,54.892620,9.795875,108.3,5.845,1.85,335.95,54.892475,9.794132,54.895069,9.793790
1386781293,1,0,485.9,0,0,4,0,409,400,-0.0292,125.4913,6.8213,0.4212,54.892609,9.795900,108.3,5.845,1.85,335.95,54.892475,9.794132,54.895069,9.793790
1386781293,1,0,485.9,0,0,0,0,409,425,-0.0292,125.4913,6.8213,0.4212,54.892601,9.795925,108.3,5.845,1.85,335.95,54.892475,9.794132,54.895069,9.793790
1386781294,1,0,485.9,0,0,4,0,409,400,-0.0292,125.4913,6.8213,0.4212,54.892590,9.795951,108.3,5.845,1.85,335.95,54.892475,9.794132,54.895069,9.793790
1386781294,1,0,485.9,0,0,0,0,409,425,-0.0292,125.4913,6.8213,0.4212,54.892578,9.795977,108.3,5.845,1.85,335.95,54.892475,9.794132,54.895069,9.793790
1386781294,1,0,485.9,0,0,4,0,409,400,-0.0292,125.4913,6.8213,0.4212,54.892570,9.796001,108.3,5.845,1.85,335.95,54.892475,9.794132,54.895069,9.793790
1386781294,1,0,485.9,0,0,0,0,409,425,-0.0292,125.4913,6.8213,0.4212,54.892559,9.796027,108.3,5.845,1.85,335.95,54.892475,9.794132,54.895069,9.793790
1386781295,1,0,485.9,0,0,4,0,409,400,-0.0292,125.4913,6.8213,0.4212,54.892551,9.796052,108.3,5.845,1.85,335.95,54.892475,9.794132,54.895069,9.793790
1386781295,1,0,485.9,0,0,0,0,409,425,-0.0292,125.4913,6.8213,0.4212,54.892540,9.796078,108.3,5.845,1.85,335.95,54.892475,9.794132,54.895069,9.793790
1386781295,1,0,485.9,0,0,4,0,409,400,-0.0292,125.4913,6.8213,0.4212,54.892529,9.796103,108.3,5.845,1.85,335.95,54.892475,9.794132,54.895069,9.793790
1386781295,1,0,485.9,0,0,0,0,409,425,-0.0292,125.4913,6.8213,0.4212,54.892521,9.796128,108.3,5.845,1.85,335.95,54.892475,9.794132,54.895069,9.793790
1386781296,1,0,485.9,0,0,4,0,409,400,-0.0292,125.4913,6.8213,0.4212,54.892509,9.796154,108.3,5.845,1.85,335.95,54.892475,9.794132,54.895069,9.793790
1386781296,1,0,485.9,0,0,0,0,409,425,-0.0292,125.4913,6.8213,0.4212,54.892502,9.796179,108.3,5.845,1.85,335.95,54.892475,9.794132,54.895069,9.793790
1386781296,1,0,485.9,0,0,4,0,409,400,-0.0292,125.4913,6.8213,0.4212,54.892490,9.796205,108.3,5.845,1.85,335.95,54.892475,9.794132,54.895069,9.793790
1386781296,1,0,485.9,0,0,0,0,409,425,-0.0292,125.4913,6.8213,0.4212,54.892479,9.796230,108.3,5.845,1.85,335.95,54.892475,9.794132,54.895069,9.793790
1386781297,1,0,485.9,0,0,4,0,409,400,-0.0292,125.4913,6.8213,0.4212,54.892467,9.796256,108.3,5.845,1.85,335.95,54.892475,9.794132,54.895069,9.793790
1386781297,1,0,485.9,0,0,0,0,409,425,-0.0292,125.4913,6.8213,0.4212,54.892456,9.796282,108.3,5.845,1.85,335.95,54.892475,9.794132,54.895069,9.793790
1386781297,1,0,485.9,0,0,4,0,409,400,-0.0292,125.4913,6.8213,0.4212,54.892448,9.796307,108.3,5.845,1.85,335.95,54.892475,9.794132,54.895069,9.793790
1386781297,1,0,485.9,0,0,0,0,409,425,-0.0292,125.4913,6.8213,0.4212,54.892437,9.796332,108.3,5.845,1.85,335.95,54.892475,9.794132,54.895069,9.793790
1386781298,1,0,485.9,0,0,4,0,409,400,-0.0292,125.4913,6.8213,0.4212,54.892429,9.796357,108.3,5.845,1.85,335.95,54.892475,9.794132,54.895069,9.793790
1386781298,1,0,485.9,0,0,0,0,409,425,-0.0292,125.4913,6.8213,0.4212,54.892418,9.796383,108.3,5.845,1.85,335.95,54.892475,9.794132,54.895069,9.793790
1386781298,1,0,485.9,0,0,4,0,409,400,-0.0292,125.4913,6.8213,0.4212,54.892406,9.796409,108.3,5.845,1.85,335.95,54.892475,9.794132,54.895069,9.793790
1386781298,1,0,485.9,0,0,0,0,409,425,-0.0292,125.4913,6.8213,0.4212,54.892399,9.796433,108.3,5.845,1.85,335.95,54.892475,9.794132,54.895069,9.793790
1386781299,1,0,485.9,0,0,4,0,409,400,-0.0292,125.4913,6.8213,0.4212,54.892387,9.796459,108.3,5.845,1.85,335.95,54.892475,9.794132,54.895069,9.793790
1386781299,1,0,485.9,0,0,0,0,409,425,-0.0292,125.4913,6.8213,0.4212,54.892380,9.796484,108.3,5.845,1.85,335.95,54.892475,9.794132,54.895069,9.793790
1386781299,1,0,485.9,0,0,4,0,409,400,-0.0292,125.4913,6.8213,0.4212,54.892368,9.796510,108.3,5.845,1.85,335.95,54.892475,9.794132,54.895069,9.793790
1386781299,1,0,485.9,0,0,0,0,409,425,-0.0292,125.4913,6.8213,0.4212,54.892357,9.796535,108.3,5.845,1.85,335.95,54.892475,9.794132,54.895069,9.793790
1386781300,1,0,485.9,0,0,4,0,409,400,-0.0292,125.4913,6.8213,0.4212,54.892349,9.796560,108.3,5.845,1.85,335.95,54.892475,9.794132,54.895069,9.793790
1386781300,1,0,485.9,0,0,0,0,409,425,-0.0292,125.4913,6.8213,0.4212,54.892338,9.796586,108.3,5.845,1.85,335.95,54.892475,9.794132,54.895069,9.793790
1386781300,1,0,485.9,0,0,4,0,409,400,-0.0292,125.4913,6.8213,0.4212,54.892330,9.796611,108.3,5.845,1.85,335.95,54.892475,9.794132,54.895069,9.793790
1386781300,1,0,485.9,0,0,0,0,409,425,-0.0292,125.4913,6.8213,0.4212,54.892319,9.796637,108.3,5.845,1.85,335.95,54.892475,9.794132,54.895069,9.793790
1386781301,1,0,485.9,0,0,4,0,409,400,-0.0292,125.4913,6.8213,0.4212,54.892307,9.796662,108.3,5.845,1.85,335.95,54.892475,9.794132,54.895069,9.793790
1386781301,1,0,485.9,0,0,0,0,409,425,-0.0292,125.4913,6.8213,0.4212,54.892300,9.796687,108.3,5.845,1.85,335.95,54.892475,9.794132,54.895069,9.793790
1386781301,1,0,485.9,0,0,4,0,409,400,-0.0292,125.4913,6.8213,0.4212,54.892288,9.796713,108.3,5.845,1.85,335.95,54.892475,9.794132,54.895069,9.793790
1386781301,1,0,485.9,0,0,0,0,409,425,-0.0292,125.4913,6.8213,0.4212,54.892281,9.796738,108.3,5.845,1.85,335.95,54.892475,9.794132,54.895069,9.793790
1386781302,1,0,485.9,0,0,4,0,409,400,-0.0292,125.4913,6.8213,0.4212,54.892269,9.796763,108.3,5.845,1.85,335.95,54.892475,9.794132,54.895069,9.793790
1386781302,1,0,485.9,0,0,0,0,409,425,-0.0292,125.4913,6.8213,0.4212,54.892258,9.796789,108.3,5.845,1.85,335.95,54.892475,9.794132,54.895069,9.793790
1386781302,1,0,485.9,0,0,4,0,409,400,-0.0292,125.4913,6.8213,0.4212,54.892246,9.796815,108.3,5.845,1.85,335.95,54.892475,9.794132,54.895069,9.793790
1386781302,1,0,485.9,0,0,0,0,409,425,-0.0292,125.4913,6.8213,0.4212,54.892235,9.796841,108.3,5.845,1.85,335.95,54.892475,9.794132,54.895069,9.793790
1386781303,1,0,485.9,0,0,4,0,409,400,-0.0292,125.4913,6.8213,0.4212,54.892227,9.796865,108.3,5.845,1.85,335.95,54.892475,9.794132,54.895069,9.793790
1386781303,1,0,485.9,0,0,0,0,409,425,-0.0292,125.4913,6.8213,0.4212,54.892216,9.796891,108.3,5.845,1.85,335.95,54.892475,9.794132,54.895069,9.793790
1386781303,1,0,485.9,0,0,4,0,409,400,-0.0292,125.4913,6.8213,0.4212,54.892208,9.796917,108.3,5.845,1.85,335.95,54.892475,9.794132,54.895069,9.793790
1386781303,1,0,485.9,0,0,0,0,409,425,-0.0292,125.4913,6.8213,0.4212,54.892197,9.796943,108.3,5.845,1.85,335.95,54.892475,9.794132,54.895069,9.793790
1386781304,1,0,485.9,0,0,4,0,409,400,-0.0292,125.4913,6.8213,0.4212,54.892185,9.796968,108.3,5.845,1.85,335.95,54.892475,9.794132,54.895069,9.793790
1386781304,1,0,485.9,0,0,0,0,409,425,-0.0292,125.4913,6.8213,0.4212,54.892178,9.796993,108.3,5.845,1.85,335.95,54.892475,9.794132,54.895069,9.793790
1386781304,1,0,485.9,0,0,4,0,409,400,-0.0292,125.4913,6.8213,0.4212,54.892166,9.797019,108.3,5.845,1.85,335.95,54.892475,9.794132,54.895069,9.793790
1386781304,1,0,485.9,0,0,0,0,409,425,-0.0292,125.4913,6.8213,0.4212,54.892159,9.797045,108.3,5.845,1.85,335.95,54.892475,9.794132,54.895069,9.793790
1386781305,1,0,485.9,0,0,4,0,409,400,-0.0292,125.4913,6.8213,0.4212,54.892147,9.797071,108.3,5.845,1.85,335.95,54.892475,9.794132,54.895069,9.793790
1386781305,1,0,485.9,0,0,0,0,409,425,-0.0292,125.4913,6.8213,0.4212,54.892136,9.797096,108.3,5.845,1.85,335.95,54.892475,9.794132,54.895069,9.793790
1386781305,1,0,485.9,0,0,4,0,409,400,-0.0292,125.4913,6.8213,0.4212,54.892128,9.797121,108.3,5.845,1.85,335.95,54.892475,9.794132,54.895069,9.793790
1386781306,1,0,485.9,0,0,0,0,409,425,-0.0292,125.4913,6.8213,0.4212,54.892117,9.797147,108.3,5.845,1.85,335.95,54.892475,9.794132,54.895069,9.793790
1386781306,1,0,485.9,0,0,4,0,409,400,-0.0292,125.4913,6.8213,0.4212,54.892109,9.797172,108.3,5.845,1.85,335.95,54.892475,9.794132,54.895069,9.793790
1386781306,1,0,485.9,0,0,0,0,409,425,-0.0292,125.4913,6.8213,0.4212,54.892097,9.797197,108.3,5.845,1.85,335.95,54.892475,9.794132,54.895069,9.793790
1386781306,1,0,485.9,0,0,4,0,409,400,-0.0292,125.4913,6.8213,0.4212,54.892086,9.797223,108.3,5.845,1.85,335.95,54.892475,9.794132,54.895069,9.793790
1386781307,1,0,485.9,0,0,0,0,409,425,-0.0292,125.4913,6.8213,0.4212,54.892078,9.797248,108.3,5.845,1.85,335.95,54.892475,9.794132,54.895069,9.793790
1386781307,1,0,485.9,0,0,4,0,409,400,-0.0292,125.4913,6.8213,0.4212,54.892067,9.797274,108.3,5.845,1.85,335.95,54.892475,9.794132,54.895069,9.793790
1386781307,1,0,485.9,0,0,0,0,409,425,-0.0292,125.4913,6.8213,0.4212,54.892059,9.797298,108.3,5.845,1.85,335.95,54.892475,9.794132,54.895069,9.793790
1386781307,1,0,485.9,0,0,4,0,409,400,-0.0292,125.4913,6.8213,0.4212,54.892048,9.797324,108.3,5.845,1.85,335.95,54.892475,9.794132,54.895069,9.793790
1386781308,1,0,485.9,0,0,0,0,409,425,-0.0292,125.4913,6.8213,0.4212,54.892036,9.797350,108.3,5.845,1.85,335.95,54.892475,9.794132,54.895069,9.793790
1386781308,1,0,485.9,0,0,4,0,409,400,-0.0292,125.4913,6.8213,0.4212,54.892025,9.797375,108.3,5.845,1.85,335.95,54.892475,9.794132,54.895069,9.793790
1386781308,1,0,485.9,0,0,0,0,409,425,-0.0292,125.4913,6.8213,0.4212,54.892014,9.797400,108.3,5.845,1.85,335.95,54.892475,9.794132,54.895069,9.793790
1386781308,1,0,485.9,0,0,4,0,409,400,-0.0292,125.4913,6.8213,0.4212,54.892006,9.797425,108.3,5.845,1.85,335.95,54.892475,9.794132,54.895069,9.793790
1386781309,1,0,485.9,0,0,0,0,409,425,-0.0292,125.4913,6.8213,0.4212,54.891994,9.797451,108.3,5.845,1.85,335.95,54.892475,9.794132,54.895069,9.793790
1386781309,1,0,485.9,0,0,4,0,409,400,-0.0292,125.4913,6.8213,0.4212,54.891987,9.797477,108.3,5.845,1.85,335.95,54.892475,9.794132,54.895069,9.793790
1386781309,1,0,485.9,0,0,0,0,409,425,-0.0292,125.4913,6.8213,0.4212,54.891975,9.797502,108.3,5.845,1.85,335.95,54.892475,9.794132,54.895069,9.793790
1386781309,1,0,485.9,0,0,4,0,409,400,-0.0292,125.4913,6.8213,0.4212,54.891964,9.797527,108.3,5.845,1.85,335.95,54.892475,9.794132,54.895069,9.793790
1386781310,1,0,485.9,0,0,0,0,409,425,-0.0292,125.4913,6.8213,0.4212,54.891956,9.797552,108.3,5.845,1.85,335.95,54.892475,9.794132,54.895069,9.793790
1386781310,1,0,485.9,0,0,4,0,409,400,-0.0292,125.4913,6.8213,0.4212,54.891945,9.797578,108.3,5.845,1.85,335.95,54.892475,9.794132,54.895069,9.793790
1386781310,1,0,485.9,0,0,0,0,409,425,-0.0292,125.4913,6.8213,0.4212,54.891937,9.797604,108.3,5.845,1.85,335.95,54.892475,9.794132,54.895069,9.793790
1386781310,1,0,485.9,0,0,4,0,409,400,-0.0292,125.4913,6.8213,0.4212,54.891926,9.797629,108.3,5.845,1.85,335.95,54.892475,9.794132,54.895069,9.793790
1386781311,1,0,485.9,0,0,0,0,409,425,-0.0292,125.4913,6.8213,0.4212,54.891914,9.797655,108.3,5.845,1.85,335.95,54.892475,9.794132,54.895069,9.793790
1386781311,1,0,485.9,0,0,4,0,409,400,-0.0292,125.4913,6.8213,0.4212,54.891907,9.797680,108.3,5.845,1.85,335.95,54.892475,9.794132,54.895069,9.793790
1386781311,1,0,485.9,0,0,0,0,409,425,-0.0292,125.4913,6.8213,0.4212,54.891895,9.797706,108.3,5.845,1.85,335.95,54.892475,9.794132,54.895069,9.793790
1386781311,1,0,485.9,0,0,4,0,409,400,-0.0292,125.4913,6.8213,0.4212,54.891888,9.797731,108.3,5.845,1.85,335.95,54.892475,9.794132,54.895069,9.793790
1386781312,1,0,485.9,0,0,0,0,409,425,-0.0292,125.4913,6.8213,0.4212,54.891876,9.797757,108.3,5.845,1.85,335.95,54.892475,9.794132,54.895069,9.793790
1386781312,1,0,485.9,0,0,4,0,409,400,-0.0292,125.4913,6.8213,0.4212,54.891865,9.797783,108.3,5.845,1.85,335.95,54.892475,9.794132,54.895069,9.793790
1386781312,1,0,485.9,0,0,0,0,409,425,-0.0292,125.4913,6.8213,0.4212,54.891857,9.797808,108.3,5.845,1.85,335.95,54.892475,9.794132,54.895069,9.793790
1386781312,1,0,485.9,0,0,4,0,409,400,-0.0292,125.4913,6.8213,0.4212,54.891846,9.797833,108.3,5.845,1.85,335.95,54.892475,9.794132,54.895069,9.793790
1386781313,1,0,485.9,0,0,0,0,409,425,-0.0292,125.4913,6.8213,0.4212,54.891838,9.797859,108.3,5.845,1.85,335.95,54.892475,9.794132,54.895069,9.793790
1386781313,1,0,485.9,0,0,4,0,409,400,-0.0292,125.4913,6.8213,0.4212,54.891827,9.797885,108.3,5.845,1.85,335.95,54.892475,9.794132,54.895069,9.793790
1386781313,1,0,485.9,0,0,0,0,409,425,-0.0292,125.4913,6.8213,0.4212,54.891815,9.797911,108.3,5.845,1.85,335.95,54.892475,9.794132,54.895069,9.793790
1386781313,1,0,485.9,0,0,4,0,409,400,-0.0292,125.4913,6.8213,0.4212,54.891804,9.797935,108.3,5.845,1.85,335.95,54.892475,9.794132,54.895069,9.793790
1386781314,1,0,485.9,0,0,0,0,409,425,-0.0292,125.4913,6.8213,0.4212,54.891792,9.797961,108.3,5.845,1.85,335.95,54.892475,9.794132,54.895069,9.793790
1386781314,1,0,485.9,0,0,4,0,409,400,-0.0292,125.4913,6.8213,0.4212,54.891785,9.797986,108.3,5.845,1.85,335.95,54.892475,9.794132,54.895069,9.793790
1386781314,1,0,485.9,0,0,0,0,409,425,-0.0292,125.4913,6.8213,0.4212,54.891773,9.798012,108.3,5.845,1.85,335.95,54.892475,9.794132,54.895069,9.793790
1386781314,1,0,485.9,0,0,4,0,409,400,-0.0292,125.4913,6.8213,0.4212,54.891766,9.798038,108.3,5.845,1.85,335.95,54.892475,9.794132,54.895069,9.793790
1386781315,1,0,485.9,0,0,0,0,409,425,-0.0292,125.4913,6.8213,0.4212,54.891754,9.798062,108.3,5.845,1.85,335.95,54.892475,9.794132,54.895069,9.793790
1386781315,1,0,485.9,0,0,4,0,409,400,-0.0292,125.4913,6.8213,0.4212,54.891743,9.798088,108.3,5.845,1.85,335.95,54.892475,9.794132,54.895069,9.793790
1386781315,1,0,485.9,0,0,0,0,409,425,-0.0292,125.4913,6.8213,0.4212,54.891735,9.798113,108.3,5.845,1.85,335.95,54.892475,9.794132,54.895069,9.793790
1386781315,1,0,485.9,0,0,4,0,409,400,-0.0292,125.4913,6.8213,0.4212,54.891724,9.798139,108.3,5.845,1.85,335.95,54.892475,9.794132,54.895069,9.793790
1386781316,1,0,485.9,0,0,0,0,409,425,-0.0292,125.4913,6.8213,0.4212,54.891716,9.798164,108.3,5.845,1.85,335.95,54.892475,9.794132,54.895069,9.793790
1386781316,1,0,485.9,0,0,4,0,409,400,-0.0292,125.4913,6.8213,0.4212,54.891705,9.798189,108.3,5.845,1.85,335.95,54.892475,9.794132,54.895069,9.793790
1386781316,1,0,485.9,0,0,0,0,409,425,-0.0292,125.4913,6.8213,0.4212,54.891693,9.798215,108.3,5.845,1.85,335.95,54.892475,9.794132,54.895069,9.793790
1386781316,1,0,485.9,0,0,4,0,409,400,-0.0292,125.4913,6.8213,0.4212,54.891685,9.798240,108.3,5.845,1.85,335.95,54.892475,9.794132,54.895069,9.793790
1386781317,1,0,485.9,0,0,0,0,409,425,-0.0292,125.4913,6.8213,0.4212,54.891674,9.798265,108.3,5.845,1.85,335.95,54.892475,9.794132,54.895069,9.793790
1386781317,1,0,485.9,0,0,4,0,409,400,-0.0292,125.4913,6.8213,0.4212,54.891666,9.798291,108.3,5.845,1.85,335.95,54.892475,9.794132,54.895069,9.793790
1386781317,1,0,485.9,0,0,0,0,409,425,-0.0292,125.4913,6.8213,0.4212,54.891655,9.798316,108.3,5.845,1.85,335.95,54.892475,9.794132,54.895069,9.793790
1386781317,1,0,485.9,0,0,4,0,409,400,-0.0292,125.4913,6.8213,0.4212,54.891644,9.798342,108.3,5.845,1.85,335.95,54.892475,9.794132,54.895069,9.793790
1386781318,1,0,485.9,0,0,0,0,409,425,-0.0292,125.4913,6.8213,0.4212,54.891636,9.798367,108.3,5.845,1.85,335.95,54.892475,9.794132,54.895069,9.793790
1386781318,1,0,485.9,0,0,4,0,409,400,-0.0292,125.4913,6.8213,0.4212,54.891624,9.798392,108.3,5.845,1.85,335.95,54.892475,9.794132,54.895069,9.793790
1386781318,1,0,485.9,0,0,0,0,409,425,-0.0292,125.4913,6.8213,0.4212,54.891617,9.798418,108.3,5.845,1.85,335.95,54.892475,9.794132,54.895069,9.793790
1386781318,1,0,485.9,0,0,4,0,409,400,-0.0292,125.4913,6.8213,0.4212,54.891605,9.798444,108.3,5.845,1.85,335.95,54.892475,9.794132,54.895069,9.793790
1386781319,1,0,485.9,0,0,0,0,409,425,-0.0292,125.4913,6.8213,0.4212,54.891594,9.798470,108.3,5.845,1.85,335.95,54.892475,9.794132,54.895069,9.793790
1386781319,1,0,485.9,0,0,4,0,409,400,-0.0292,125.4913,6.8213,0.4212,54.891582,9.798494,108.3,5.845,1.85,335.95,54.892475,9.794132,54.895069,9.793790
1386781319,1,0,485.9,0,0,0,0,409,425,-0.0292,125.4913,6.8213,0.4212,54.891571,9.798520,108.3,5.845,1.85,335.95,54.892475,9.794132,54.895069,9.793790
1386781319,1,0,485.9,0,0,4,0,409,400,-0.0292,125.4913,6.8213,0.4212,54.891563,9.798546,108.3,5.845,1.85,335.95,54.892475,9.794132,54.895069,9.793790
1386781320,1,0,485.9,0,0,0,0,409,425,-0.0292,125.4913,6.8213,0.4212,54.891552,9.798572,108.3,5.845,1.85,335.95,54.892475,9.794132,54.895069,9.793790
1386781320,1,0,485.9,0,0,4,0,409,400,-0.0292,125.4913,6.8213,0.4212,54.891541,9.798597,108.3,5.845,1.85,335.95,54.892475,9.794132,54.895069,9.793790
1386781320,1,0,485.9,0,0,0,0,409,425,-0.0292,125.4913,6.8213,0.4212,54.891529,9.798622,108.3,5.845,1.85,335.95,54.892475,9.794132,54.895069,9.793790
1386781320,1,0,485.9,0,0,4,0,409,400,-0.0292,125.4913,6.8213,0.4212,54.891518,9.798648,108.3,5.845,1.85,335.95,54.892475,9.794132,54.895069,9.793790
1386781321,1,0,485.9,0,0,0,0,409,425,-0.0292,125.4913,6.8213,0.4212,54.891506,9.798674,108.3,5.845,1.85,335.95,54.892475,9.794132,54.895069,9.793790
1386781321,1,0,485.9,0,0,4,0,409,400,-0.0292,125.4913,6.8213,0.4212,54.891495,9.798699,108.3,5.845,1.85,335.95,54.892475,9.794132,54.895069,9.793790
1386781321,1,0,485.9,0,0,0,0,409,425,-0.0292,125.4913,6.8213,0.4212,54.891483,9.798725,108.3,5.845,1.85,335.95,54.892475,9.794132,54.895069,9.793790
1386781321,1,0,485.9,0,0,4,0,409,400,-0.0292,125.4913,6.8213,0.4212,54.891472,9.798750,108.3,5.845,1.85,335.95,54.892475,9.794132,54.895069,9.793790
1386781322,1,0,485.9,0,0,0,0,409,425,-0.0292,125.4913,6.8213,0.4212,54.891464,9.798776,108.3,5.845,1.85,335.95,54.892475,9.794132,54.895069,9.793790
1386781322,1,0,485.9,0,0,4,0,409,400,-0.0292,125.4913,6.8213,0.4212,54.891453,9.798800,108.3,5.845,1.85,335.95,54.892475,9.794132,54.895069,9.793790
1386781322,1,0,485.9,0,0,0,0,409,425,-0.0292,125.4913,6.8213,0.4212,54.891445,9.798826,108.3,5.845,1.85,335.95,54.892475,9.794132,54.895069,9.793790
1386781322,1,0,485.9,0,0,4,0,409,400,-0.0292,125.4913,6.8213,0.4212,54.891434,9.798852,108.3,5.845,1.85,335.95,54.892475,9.794132,54.895069,9.793790
1386781323,1,0,485.9,0,0,0,0,409,425,-0.0292,125.4913,6.8213,0.4212,54.891422,9.798877,108.3,5.845,1.85,335.95,54.892475,9.794132,54.895069,9.793790
1386781323,1,0,485.9,0,0,4,0,409,400,-0.0292,125.4913,6.8213,0.4212,54.891415,9.798903,108.3,5.845,1.85,335.95,54.892475,9.794132,54.895069,9.793790
1386781323,1,0,485.9,0,0,0,0,409,425,-0.0292,125.4913,6.8213,0.4212,54.891403,9.798927,108.3,5.845,1.85,335.95,54.892475,9.794132,54.895069,9.793790
1386781323,1,0,485.9,0,0,4,0,409,400,-0.0292,125.4913,6.8213,0.4212,54.891396,9.798953,108.3,5.845,1.85,335.95,54.892475,9.794132,54.895069,9.793790
1386781324,1,0,485.9,0,0,0,0,409,425,-0.0292,125.4913,6.8213,0.4212,54.891384,9.798979,108.3,5.845,1.85,335.95,54.892475,9.794132,54.895069,9.793790
1386781324,1,0,485.9,0,0,4,0,409,400,-0.0292,125.4913,6.8213,0.4212,54.891373,9.799004,108.3,5.845,1.85,335.95,54.892475,9.794132,54.895069,9.793790
1386781324,1,0,485.9,0,0,0,0,409,425,-0.0292,125.4913,6.8213,0.4212,54.891365,9.799029,108.3,5.845,1.85,335.95,54.892475,9.794132,54.895069,9.793790
1386781324,1,0,485.9,0,0,4,0,409,400,-0.0292,125.4913,6.8213,0.4212,54.891354,9.799054,108.3,5.845,1.85,335.95,54.892475,9.794132,54.895069,9.793790
1386781325,1,0,485.9,0,0,0,0,409,425,-0.0292,125.4913,6.8213,0.4212,54.891346,9.799080,108.3,5.845,1.85,335.95,54.892475,9.794132,54.895069,9.793790
1386781325,1,0,485.9,0,0,4,0,409,400,-0.0292,125.4913,6.8213,0.4212,54.891335,9.799106,108.3,5.845,1.85,335.95,54.892475,9.794132,54.895069,9.793790
1386781325,1,0,485.9,0,0,0,0,409,425,-0.0292,125.4913,6.8213,0.4212,54.891323,9.799130,108.3,5.845,1.85,335.95,54.892475,9.794132,54.895069,9.793790
1386781325,1,0,485.9,0,0,4,0,409,400,-0.0292,125.4913,6.8213,0.4212,54.891312,9.799156,108.3,5.845,1.85,335.95,54.892475,9.794132,54.895069,9.793790
1386781326,1,0,485.9,0,0,0,0,409,425,-0.0292,125.4913,6.8213,0.4212,54.891300,9.799181,108.3,5.845,1.85,335.95,54.892475,9.794132,54.895069,9.793790
1386781326,1,0,485.9,0,0,4,0,409,400,-0.0292,125.4913,6.8213,0.4212,54.891293,9.799207,108.3,5.845,1.85,335.95,54.892475,9.794132,54.895069,9.793790
1386781326,1,0,485.9,0,0,0,0,409,425,-0.0292,125.4913,6.8213,0.4212,54.891281,9.799232,108.3,5.845,1.85,335.95,54.892475,9.794132,54.895069,9.793790
1386781326,1,0,485.9,0,0,4,0,409,400,-0.0292,125.4913,6.8213,0.4212,54.891273,9.799258,108.3,5.845,1.85,335.95,54.892475,9.794132,54.895069,9.793790
1386781327,1,0,485.9,0,0,0,0,409,425,-0.0292,125.4913,6.8213,0.4212,54.891262,9.799284,108.3,5.845,1.85,335.95,54.892475,9.794132,54.895069,9.793790
1386781327,1,0,485.9,0,0,4,0,409,400,-0.0292,125.4913,6.8213,0.4212,54.891251,9.799309,108.3,5.845,1.85,335.95,54.892475,9.794132,54.895069,9.793790
1386781327,1,0,485.9,0,0,0,0,409,425,-0.0292,125.4913,6.8213,0.4212,54.891243,9.799335,108.3,5.845,1.85,335.95,54.892475,9.794132,54.895069,9.793790
1386781327,1,0,485.9,0,0,4,0,409,400,-0.0292,125.4913,6.8213,0.4212,54.891232,9.799360,108.3,5.845,1.85,335.95,54.892475,9.794132,54.895069,9.793790
1386781328,1,0,485.9,0,0,0,0,409,425,-0.0292,125.4913,6.8213,0.4212,54.891224,9.799386,108.3,5.845,1.85,335.95,54.892475,9.794132,54.895069,9.793790
1386781328,0,0,485.9,0,0,0,0,409,425,-0.0292,125.4913,6.8213,0.4212,54.891224,9.799386,108.3,5.845,1.85,335.95,54.892475,9.794132,54.895069,9.793790
1386781328,0,0,485.9,0,0,0,0,409,425,-0.0292,125.4913,6.8213,0.4212,54.891224,9.799386,108.3,5.845,1.85,335.95,54.892475,9.794132,54.895069,9.793790
1386781328,0,0,485.9,0,0,0,0,409,425,-0.0292,125.4913,6.8213,0.4212,54.891224,9.799386,108.3,5.845,1.85,335.95,54.892475,9.794132,54.895069,9.793790
1386781329,0,0,485.9,0,0,0,0,409,425,-0.0292,125.4913,6.8213,0.4212,54.891224,9.799386,108.3,5.845,1.85,335.95,54.892475,9.794132,54.895069,9.793790
1386781329,0,0,485.9,0,0,0,0,409,425,-0.0292,125.4913,6.8213,0.4212,54.891224,9.799386,108.3,5.845,1.85,335.95,54.892475,9.794132,54.895069,9.793790
1386781329,0,0,485.9,0,0,0,0,409,425,-0.0292,125.4913,6.8213,0.4212,54.891224,9.799386,108.3,5.845,1.85,335.95,54.892475,9.794132,54.895069,9.793790
1386781329,0,0,485.9,0,0,0,0,409,425,-0.0292,125.4913,6.8213,0.4212,54.891224,9.799386,108.3,5.845,1.85,335.95,54.892475,9.794132,54.895069,9.793790
1386781330,0,0,485.9,0,0,0,0,409,425,-0.0292,125.4913,6.8213,0.4212,54.891224,9.799386,108.3,5.845,1.85,335.95,54.892475,9.794132,54.895069,9.793790
1386781330,0,0,485.9,0,0,0,0,409,425,-0.0292,125.4913,6.8213,0.4212,54.891224,9.799386,108.3,5.845,1.85,335.95,54.892475,9.794132,54.895069,9.793790
1386781330,0,0,485.9,0,0,0,0,409,425,-0.0292,125.4913,6.8213,0.4212,54.891224,9.799386,108.3,5.845,1.85,335.95,54.892475,9.794132,54.895069,9.793790
1386781330,0,0,485.9,0,0,0,0,409,425,-0.0292,125.4913,6.8213,0.4212,54.891224,9.799386,108.3,5.845,1.85,335.95,54.892475,9.794132,54.895069,9.793790
1386781331,0,0,485.9,0,0,0,0,409,425,-0.0292,125.4913,6.8213,0.4212,54.891224,9.799386,108.3,5.845,1.85,335.95,54.892475,9.794132,54.895069,9.793790
1386781331,0,0,485.9,0,0,0,0,409,425,-0.0292,125.4913,6.8213,0.4212,54.891224,9.799386,108.3,5.845,1.85,335.95,54.892475,9.794132,54.895069,9.793790
1386781331,0,0,485.9,0,0,0,0,409,425,-0.0292,125.4913,6.8213,0.4212,54.891224,9.799386,108.3,5.845,1.85,335.95,54.892475,9.794132,54.895069,9.793790
1386781331,0,0,485.9,0,0,0,0,409,425,-0.0292,125.4913,6.8213,0.4212,54.891224,9.799386,108.3,5.845,1.85,335.95,54.892475,9.794132,54.895069,9.793790
1386781332,0,0,485.9,0,0,0,0,409,425,-0.0292,125.4913,6.8213,0.4212,54.891224,9.799386,108.3,5.845,1.85,335.95,54.892475,9.794132,54.895069,9.793790
1386781332,0,0,485.9,0,0,0,0,409,425,-0.0292,125.4913,6.8213,0.4212,54.891224,9.799386,108.3,5.845,1.85,335.95,54.892475,9.794132,54.895069,9.793790
1386781332,0,0,485.9,0,0,0,0,409,425,-0.0292,125.4913,6.8213,0.4212,54.891224,9.799386,108.3,5.845,1.85,335.95,54.892475,9.794132,54.895069,9.793790
1386781332,0,0,485.9,0,0,0,0,409,425,-0.0292,125.4913,6.8213,0.4212,54.891224,9.799386,108.3,5.845,1.85,335.95,54.892475,9.794132,54.895069,9.793790
1386781333,0,0,485.9,0,0,0,0,409,425,-0.0292,125.4913,6.8213,0.4212,54.891224,9.799386,108.3,5.845,1.85,335.95,54.892475,9.794132,54.895069,9.793790
1386781333,0,0,485.9,0,0,0,0,409,425,-0.0292,125.4913,6.8213,0.4212,54.891224,9.799386,108.3,5.845,1.85,335.95,54.892475,9.794132,54.895069,9.793790
1386781333,0,0,485.9,0,0,0,0,409,425,-0.0292,125.4913,6.8213,0.4212,54.891224,9.799386,108.3,5.845,1.85,335.95,54.892475,9.794132,54.895069,9.793790
1386781333,0,0,485.9,0,0,0,0,409,425,-0.0292,125.4913,6.8213,0.4212,54.891224,9.799386,108.3,5.845,1.85,335.95,54.892475,9.794132,54.895069,9.793790
1386781334,0,0,485.9,0,0,0,0,409,425,-0.0292,125.4913,6.8213,0.4212,54.891224,9.799386,108.3,5.845,1.85,335.95,54.892475,9.794132,54.895069,9.793790
1386781334,0,0,485.9,0,0,0,0,409,425,-0.0292,125.4913,6.8213,0.4212,54.891224,9.799386,108.3,5.845,1.85,335.95,54.892475,9.794132,54.895069,9.793790
1386781334,0,0,485.9,0,0,0,0,409,425,-0.0292,125.4913,6.8213,0.4212,54.891224,9.799386,108.3,5.845,1.85,335.95,54.892475,9.794132,54.895069,9.793790
1386781334,0,0,485.9,0,0,0,0,409,425,-0.0292,125.4913,6.8213,0.4212,54.891224,9.799386,108.3,5.845,1.85,335.95,54.892475,9.794132,54.895069,9.793790
1386781335,0,0,485.9,0,0,0,0,409,425,-0.0292,125.4913,6.8213,0.4212,54.891224,9.799386,108.3,5.845,1.85,335.95,54.892475,9.794132,54.895069,9.793790
1386781335,0,0,485.9,0,0,0,0,409,425,-0.0292,125.4913,6.8213,0.4212,54.891224,9.799386,108.3,5.845,1.85,335.95,54.892475,9.794132,54.895069,9.793790
1386781335,0,0,485.9,0,0,0,0,409,425,-0.0292,125.4913,6.8213,0.4212,54.891224,9.799386,108.3,5.845,1.85,335.95,54.892475,9.794132,54.895069,9.793790
1386781335,0,0,485.9,0,0,0,0,409,425,-0.0292,125.4913,6.8213,0.4212,54.891224,9.799386,108.3,5.845,1.85,335.95,54.892475,9.794132,54.895069,9.793790
1386781336,0,0,485.9,0,0,0,0,409,425,-0.0292,125.4913,6.8213,0.4212,54.891224,9.799386,108.3,5.845,1.85,335.95,54.892475,9.794132,54.895069,9.793790
1386781336,0,0,485.9,0,0,0,0,409,425,-0.0292,125.4913,6.8213,0.4212,54.891224,9.799386,108.3,5.845,1.85,335.95,54.892475,9.794132,54.895069,9.793790
1386781336,0,0,485.9,0,0,0,0,409,425,-0.0292,125.4913,6.8213,0.4212,54.891224,9.799386,108.3,5.845,1.85,335.95,54.892475,9.794132,54.895069,9.793790
1386781336,0,0,485.9,0,0,0,0,409,425,-0.0292,125.4913,6.8213,0.4212,54.891224,9.799386,108.3,5.845,1.85,335.95,54.892475,9.794132,54.895069,9.793790
1386781337,0,0,485.9,0,0,0,0,409,425,-0.0292,125.4913,6.8213,0.4212,54.891224,9.799386,108.3,5.845,1.85,335.95,54.892475,9.794132,54.895069,9.793790
1386781337,0,0,485.9,0,0,0,0,409,425,-0.0292,125.4913,6.8213,0.4212,54.891224,9.799386,108.3,5.845,1.85,335.95,54.892475,9.794132,54.895069,9.793790
1386781337,0,0,485.9,0,0,0,0,409,425,-0.0292,125.4913,6.8213,0.4212,54.891224,9.799386,108.3,5.845,1.85,335.95,54.892475,9.794132,54.895069,9.793790
1386781337,0,0,485.9,0,0,0,0,409,425,-0.0292,125.4913,6.8213,0.4212,54.891224,9.799386,108.3,5.845,1.85,335.95,54.892475,9.794132,54.895069,9.793790
1386781338,0,0,485.9,0,0,0,0,409,425,-0.0292,125.4913,6.8213,0.4212,54.891224,9.799386,108.3,5.845,1.85,335.95,54.892475,9.794132,54.895069,9.793790
1386781338,0,0,485.9,0,0,0,0,409,425,-0.0292,125.4913,6.8213,0.4212,54.891224,9.799386,108.3,5.845,1.85,335.95,54.892475,9.794132,54.895069,9.793790
1386781338,0,0,485.9,0,0,0,0,409,425,-0.0292,125.4913,6.8213,0.4212,54.891224,9.799386,108.3,5.845,1.85,335.95,54.892475,9.794132,54.895069,9.793790
1386781338,0,0,485.9,0,0,0,0,409,425,-0.0292,125.4913,6.8213,0.4212,54.891224,9.799386,108.3,5.845,1.85,335.95,54.892475,9.794132,54.895069,9.793790
1386781339,0,0,485.9,0,0,0,0,409,425,-0.0292,125.4913,6.8213,0.4212,54.891224,9.799386,108.3,5.845,1.85,335.95,54.892475,9.794132,54.895069,9.793790
1386781339,0,0,485.9,0,0,0,0,409,425,-0.0292,125.4913,6.8213,0.4212,54.891224,9.799386,108.3,5.845,1.85,335.95,54.892475,9.794132,54.895069,9.793790
1386781339,0,0,485.9,0,0,0,0,409,425,-0.0292,125.4913,6.8213,0.4212,54.891224,9.799386,108.3,5.845,1.85,335.95,54.892475,9.794132,54.895069,9.793790
1386781339,0,0,485.9,0,0,0,0,409,425,-0.0292,125.4913,6.8213,0.4212,54.891224,9.799386,108.3,5.845,1.85,335.95,54.892475,9.794132,54.895069,9.793790
1386781340,0,0,485.9,0,0,0,0,409,425,-0.0292,125.4913,6.8213,0.4212,54.891224,9.799386,108.3,5.845,1.85,335.95,54.892475,9.794132,54.895069,9.793790
1386781340,0,0,485.9,0,0,0,0,409,425,-0.0292,125.4913,6.8213,0.4212,54.891224,9.799386,108.3,5.845,1.85,335.95,54.892475,9.794132,54.895069,9.793790
1386781340,0,0,485.9,0,0,0,0,409,425,-0.0292,125.4913,6.8213,0.4212,54.891224,9.799386,108.3,5.845,1.85,335.95,54.892475,9.794132,54.895069,9.793790
1386781340,0,0,485.9,0,0,0,0,409,425,-0.0292,125.4913,6.8213,0.4212,54.891224,9.799386,108.3,5.845,1.85,335.95,54.892475,9.794132,54.895069,9.793790
1386781341,0,0,485.9,0,0,0,0,409,425,-0.0292,125.4913,6.8213,0.4212,54.891224,9.799386,108.3,5.845,1.85,335.95,54.892475,9.794132,54.895069,9.793790
1386781341,0,0,485.9,0,0,0,0,409,425,-0.0292,125.4913,6.8213,0.4212,54.891224,9.799386,108.3,5.845,1.85,335.95,54.892475,9.794132,54.895069,9.793790
1386781341,0,0,485.9,0,0,0,0,409,425,-0.0292,125.4913,6.8213,0.4212,54.891224,9.799386,108.3,5.845,1.85,335.95,54.892475,9.794132,54.895069,9.793790
1386781341,0,0,485.9,0,0,0,0,409,425,-0.0292,125.4913,6.8213,0.4212,54.891224,9.799386,108.3,5.845,1.85,335.95,54.892475,9.794132,54.895069,9.793790
1386781342,0,0,485.9,0,0,0,0,409,425,-0.0292,125.4913,6.8213,0.4212,54.891224,9.799386,108.3,5.845,1.85,335.95,54.892475,9.794132,54.895069,9.793790
1386781342,0,0,485.9,0,0,0,0,409,425,-0.0292,125.4913,6.8213,0.4212,54.891224,9.799386,108.3,5.845,1.85,335.95,54.892475,9.794132,54.895069,9.793790
1386781342,0,0,485.9,0,0,0,0,409,425,-0.0292,125.4913,6.8213,0.4212,54.891224,9.799386,108.3,5.845,1.85,335.95,54.892475,9.794132,54.895069,9.793790
1386781342,0,0,485.9,0,0,0,0,409,425,-0.0292,125.4913,6.8213,0.4212,54.891224,9.799386,108.3,5.845,1.85,335.95,54.892475,9.794132,54.895069,9.793790
1386781343,0,0,485.9,0,0,0,0,409,425,-0.0292,125.4913,6.8213,0.4212,54.891224,9.799386,108.3,5.845,1.85,335.95,54.892475,9.794132,54.895069,9.793790
1386781343,0,0,485.9,0,0,0,0,409,425,-0.0292,125.4913,6.8213,0.4212,54.891224,9.799386,108.3,5.845,1.85,335.95,54.892475,9.794132,54.895069,9.793790
1386781343,0,0,485.9,0,0,0,0,409,425,-0.0292,125.4913,6.8213,0.4212,54.891224,9.799386,108.3,5.845,1.85,335.95,54.892475,9.794132,54.895069,9.793790
1386781344,0,0,485.9,0,0,0,0,409,425,-0.0292,125.4913,6.8213,0.4212,54.891224,9.799386,108.3,5.845,1.85,335.95,54.892475,9.794132,54.895069,9.793790
1386781344,0,0,485.9,0,0,0,0,409,425,-0.0292,125.4913,6.8213,0.4212,54.891224,9.799386,108.3,5.845,1.85,335.95,54.892475,9.794132,54.895069,9.793790
1386781344,0,0,485.9,0,0,0,0,409,425,-0.0292,125.4913,6.8213,0.4212,54.891224,9.799386,108.3,5.845,1.85,335.95,54.892475,9.794132,54.895069,9.793790
1386781344,0,0,485.9,0,0,0,0,409,425,-0.0292,125.4913,6.8213,0.4212,54.891224,9.799386,108.3,5.845,1.85,335.95,54.892475,9.794132,54.895069,9.793790
1386781345,0,0,485.9,0,0,0,0,409,425,-0.0292,125.4913,6.8213,0.4212,54.891224,9.799386,108.3,5.845,1.85,335.95,54.892475,9.794132,54.895069,9.793790
1386781345,0,0,485.9,0,0,0,0,409,425,-0.0292,125.4913,6.8213,0.4212,54.891224,9.799386,108.3,5.845,1.85,335.95,54.892475,9.794132,54.895069,9.793790
1386781345,0,0,485.9,0,0,0,0,409,425,-0.0292,125.4913,6.8213,0.4212,54.891224,9.799386,108.3,5.845,1.85,335.95,54.892475,9.794132,54.895069,9.793790
1386781345,0,0,485.9,0,0,0,0,409,425,-0.0292,125.4913,6.8213,0.4212,54.891224,9.799386,108.3,5.845,1.85,335.95,54.892475,9.794132,54.895069,9.793790
1386781346,0,0,485.9,0,0,0,0,409,425,-0.0292,125.4913,6.8213,0.4212,54.891224,9.799386,108.3,5.845,1.85,335.95,54.892475,9.794132,54.895069,9.793790
1386781346,0,0,485.9,0,0,0,0,409,425,-0.0292,125.4913,6.8213,0.4212,54.891224,9.799386,108.3,5.845,1.85,335.95,54.892475,9.794132,54.895069,9.793790
1386781346,0,0,485.9,0,0,0,0,409,425,-0.0292,125.4913,6.8213,0.4212,54.891224,9.799386,108.3,5.845,1.85,335.95,54.892475,9.794132,54.895069,9.793790
1386781346,0,0,485.9,0,0,0,0,409,425,-0.0292,125.4913,6.8213,0.4212,54.891224,9.799386,108.3,5.845,1.85,335.95,54.892475,9.794132,54.895069,9.793790
1386781347,0,0,485.9,0,0,0,0,409,425,-0.0292,125.4913,6.8213,0.4212,54.891224,9.799386,108.3,5.845,1.85,335.95,54.892475,9.794132,54.895069,9.793790
1386781347,0,0,485.9,0,0,0,0,409,425,-0.0292,125.4913,6.8213,0.4212,54.891224,9.799386,108.3,5.845,1.85,335.95,54.892475,9.794132,54.895069,9.793790
1386781347,0,0,485.9,0,0,0,0,409,425,-0.0292,125.4913,6.8213,0.4212,54.891224,9.799386,108.3,5.845,1.85,335.95,54.892475,9.794132,54.895069,9.793790
1386781347,0,0,485.9,0,0,0,0,409,425,-0.0292,125.4913,6.8213,0.4212,54.891224,9.799386,108.3,5.845,1.85,335.95,54.892475,9.794132,54.895069,9.793790
1386781348,0,0,485.9,0,0,0,0,409,425,-0.0292,125.4913,6.8213,0.4212,54.891224,9.799386,108.3,5.845,1.85,335.95,54.892475,9.794132,54.895069,9.793790
1386781348,0,0,485.9,0,0,0,0,409,425,-0.0292,125.4913,6.8213,0.4212,54.891224,9.799386,108.3,5.845,1.85,335.95,54.892475,9.794132,54.895069,9.793790
1386781348,0,0,485.9,0,0,0,0,409,425,-0.0292,125.4913,6.8213,0.4212,54.891224,9.799386,108.3,5.845,1.85,335.95,54.892475,9.794132,54.895069,9.793790
1386781348,0,0,485.9,0,0,0,0,409,425,-0.0292,125.4913,6.8213,0.4212,54.891224,9.799386,108.3,5.845,1.85,335.95,54.892475,9.794132,54.895069,9.793790
1386781349,0,0,485.9,0,0,0,0,409,425,-0.0292,125.4913,6.8213,0.4212,54.891224,9.799386,108.3,5.845,1.85,335.95,54.892475,9.794132,54.895069,9.793790
1386781349,0,0,485.9,0,0,0,0,409,425,-0.0292,125.4913,6.8213,0.4212,54.891224,9.799386,108.3,5.845,1.85,335.95,54.892475,9.794132,54.895069,9.793790
1386781349,0,0,485.9,0,0,0,0,409,425,-0.0292,125.4913,6.8213,0.4212,54.891224,9.799386,108.3,5.845,1.85,335.95,54.892475,9.794132,54.895069,9.793790
1386781349,0,0,485.9,0,0,0,0,409,425,-0.0292,125.4913,6.8213,0.4212,54.891224,9.799386,108.3,5.845,1.85,335.95,54.892475,9.794132,54.895069,9.793790
1386781350,0,0,485.9,0,0,0,0,409,425,-0.0292,125.4913,6.8213,0.4212,54.891224,9.799386,108.3,5.845,1.85,335.95,54.892475,9.794132,54.895069,9.793790
1386781350,0,0,485.9,0,0,0,0,409,425,-0.0292,125.4913,6.8213,0.4212,54.891224,9.799386,108.3,5.845,1.85,335.95,54.892475,9.794132,54.895069,9.793790
1386781350,0,0,485.9,0,0,0,0,409,425,-0.0292,125.4913,6.8213,0.4212,54.891224,9.799386,108.3,5.845,1.85,335.95,54.892475,9.794132,54.895069,9.793790
1386781350,0,0,485.9,0,0,0,0,409,425,-0.0292,125.4913,6.8213,0.4212,54.891224,9.799386,108.3,5.845,1.85,335.95,54.892475,9.794132,54.895069,9.793790
1386781351,0,0,485.9,0,0,0,0,409,425,-0.0292,125.4913,6.8213,0.4212,54.891224,9.799386,108.3,5.845,1.85,335.95,54.892475,9.794132,54.895069,9.793790
1386781351,0,0,485.9,0,0,0,0,409,425,-0.0292,125.4913,6.8213,0.4212,54.891224,9.799386,108.3,5.845,1.85,335.95,54.892475,9.794132,54.895069,9.793790
1386781351,0,0,485.9,0,0,0,0,409,425,-0.0292,125.4913,6.8213,0.4212,54.891224,9.799386,108.3,5.845,1.85,335.95,54.892475,9.794132,54.895069,9.793790
1386781351,0,0,485.9,0,0,0,0,409,425,-0.0292,125.4913,6.8213,0.4212,54.891224,9.799386,108.3,5.845,1.85,335.95,54.892475,9.794132,54.895069,9.793790
1386781352,0,0,485.9,0,0,0,0,409,425,-0.0292,125.4913,6.8213,0.4212,54.891224,9.799386,108.3,5.845,1.85,335.95,54.892475,9.794132,54.895069,9.793790
1386781352,0,0,485.9,0,0,0,0,409,425,-0.0292,125.4913,6.8213,0.4212,54.891224,9.799386,108.3,5.845,1.85,335.95,54.892475,9.794132,54.895069,9.793790
1386781352,0,0,485.9,0,0,0,0,409,425,-0.0292,125.4913,6.8213,0.4212,54.891224,9.799386,108.3,5.845,1.85,335.95,54.892475,9.794132,54.895069,9.793790
1386781352,0,0,485.9,0,0,0,0,409,425,-0.0292,125.4913,6.8213,0.4212,54.891224,9.799386,108.3,5.845,1.85,335.95,54.892475,9.794132,54.895069,9.793790
1386781353,0,0,485.9,0,0,0,0,409,425,-0.0292,125.4913,6.8213,0.4212,54.891224,9.799386,108.3,5.845,1.85,335.95,54.892475,9.794132,54.895069,9.793790
1386781353,0,0,485.9,0,0,0,0,409,425,-0.0292,125.4913,6.8213,0.4212,54.891224,9.799386,108.3,5.845,1.85,335.95,54.892475,9.794132,54.895069,9.793790
1386781353,0,0,485.9,0,0,0,0,409,425,-0.0292,125.4913,6.8213,0.4212,54.891224,9.799386,108.3,5.845,1.85,335.95,54.892475,9.794132,54.895069,9.793790
1386781353,0,0,485.9,0,0,0,0,409,425,-0.0292,125.4913,6.8213,0.4212,54.891224,9.799386,108.3,5.845,1.85,335.95,54.892475,9.794132,54.895069,9.793790
1386781354,0,0,485.9,0,0,0,0,409,425,-0.0292,125.4913,6.8213,0.4212,54.891224,9.799386,108.3,5.845,1.85,335.95,54.892475,9.794132,54.895069,9.793790
1386781354,0,0,485.9,0,0,0,0,409,425,-0.0292,125.4913,6.8213,0.4212,54.891224,9.799386,108.3,5.845,1.85,335.95,54.892475,9.794132,54.895069,9.793790
1386781354,0,0,485.9,0,0,0,0,409,425,-0.0292,125.4913,6.8213,0.4212,54.891224,9.799386,108.3,5.845,1.85,335.95,54.892475,9.794132,54.895069,9.793790
1386781354,0,0,485.9,0,0,0,0,409,425,-0.0292,125.4913,6.8213,0.4212,54.891224,9.799386,108.3,5.845,1.85,335.95,54.892475,9.794132,54.895069,9.793790
1386781355,0,0,485.9,0,0,0,0,409,425,-0.0292,125.4913,6.8213,0.4212,54.891224,9.799386,108.3,5.845,1.85,335.95,54.892475,9.794132,54.895069,9.793790
1386781355,0,0,485.9,0,0,0,0,409,425,-0.0292,125.4913,6.8213,0.4212,54.891224,9.799386,108.3,5.845,1.85,335.95,54.892475,9.794132,54.895069,9.793790
1386781355,0,0,485.9,0,0,0,0,409,425,-0.0292,125.4913,6.8213,0.4212,54.891224,9.799386,108.3,5.845,1.85,335.95,54.892475,9.794132,54.895069,9.793790
1386781355,0,0,485.9,0,0,0,0,409,425,-0.0292,125.4913,6.8213,0.4212,54.891224,9.799386,108.3,5.845,1.85,335.95,54.892475,9.794132,54.895069,9.793790
1386781356,0,0,485.9,0,0,0,0,409,425,-0.0292,125.4913,6.8213,0.4212,54.891224,9.799386,108.3,5.845,1.85,335.95,54.892475,9.794132,54.895069,9.793790
1386781356,0,0,485.9,0,0,0,0,409,425,-0.0292,125.4913,6.8213,0.4212,54.891224,9.799386,108.3,5.845,1.85,335.95,54.892475,9.794132,54.895069,9.793790
1386781356,0,0,485.9,0,0,0,0,409,425,-0.0292,125.4913,6.8213,0.4212,54.891224,9.799386,108.3,5.845,1.85,335.95,54.892475,9.794132,54.895069,9.793790
1386781356,0,0,485.9,0,0,0,0,409,425,-0.0292,125.4913,6.8213,0.4212,54.891224,9.799386,108.3,5.845,1.85,335.95,54.892475,9.794132,54.895069,9.793790
1386781357,0,0,485.9,0,0,0,0,409,425,-0.0292,125.4913,6.8213,0.4212,54.891224,9.799386,108.3,5.845,1.85,335.95,54.892475,9.794132,54.895069,9.793790
1386781357,0,0,485.9,0,0,0,0,409,425,-0.0292,125.4913,6.8213,0.4212,54.891224,9.799386,108.3,5.845,1.85,335.95,54.892475,9.794132,54.895069,9.793790
1386781357,0,0,485.9,0,0,0,0,409,425,-0.0292,125.4913,6.8213,0.4212,54.891224,9.799386,108.3,5.845,1.85,335.95,54.892475,9.794132,54.895069,9.793790
1386781357,0,0,485.9,0,0,0,0,409,425,-0.0292,125.4913,6.8213,0.4212,54.891224,9.799386,108.3,5.845,1.85,335.95,54.892475,9.794132,54.895069,9.793790
1386781358,0,0,485.9,0,0,0,0,409,425,-0.0292,125.4913,6.8213,0.4212,54.891224,9.799386,108.3,5.845,1.85,335.95,54.892475,9.794132,54.895069,9.793790
1386781358,0,0,485.9,0,0,0,0,409,425,-0.0292,125.4913,6.8213,0.4212,54.891224,9.799386,108.3,5.845,1.85,335.95,54.892475,9.794132,54.895069,9.793790
1386781358,0,0,485.9,0,0,0,0,409,425,-0.0292,125.4913,6.8213,0.4212,54.891224,9.799386,108.3,5.845,1.85,335.95,54.892475,9.794132,54.895069,9.793790
1386781358,0,0,485.9,0,0,0,0,409,425,-0.0292,125.4913,6.8213,0.4212,54.891224,9.799386,108.3,5.845,1.85,335.95,54.892475,9.794132,54.895069,9.793790
1386781359,0,0,485.9,0,0,0,0,409,425,-0.0292,125.4913,6.8213,0.4212,54.891224,9.799386,108.3,5.845,1.85,335.95,54.892475,9.794132,54.895069,9.793790
1386781359,0,0,485.9,0,0,0,0,409,425,-0.0292,125.4913,6.8213,0.4212,54.891224,9.799386,108.3,5.845,1.85,335.95,54.892475,9.794132,54.895069,9.793790
1386781359,0,0,485.9,0,0,0,0,409,425,-0.0292,125.4913,6.8213,0.4212,54.891224,9.799386,108.3,5.845,1.85,335.95,54.892475,9.794132,54.895069,9.793790
1386781359,0,0,485.9,0,0,0,0,409,425,-0.0292,125.4913,6.8213,0.4212,54.891224,9.799386,108.3,5.845,1.85,335.95,54.892475,9.794132,54.895069,9.793790
1386781360,0,0,485.9,0,0,0,0,409,425,-0.0292,125.4913,6.8213,0.4212,54.891224,9.799386,108.3,5.845,1.85,335.95,54.892475,9.794132,54.895069,9.793790
1386781360,0,0,485.9,0,0,0,0,409,425,-0.0292,125.4913,6.8213,0.4212,54.891224,9.799386,108.3,5.845,1.85,335.95,54.892475,9.794132,54.895069,9.793790
1386781360,0,0,485.9,0,0,0,0,409,425,-0.0292,125.4913,6.8213,0.4212,54.891224,9.799386,108.3,5.845,1.85,335.95,54.892475,9.794132,54.895069,9.793790
1386781360,0,0,485.9,0,0,0,0,409,425,-0.0292,125.4913,6.8213,0.4212,54.891224,9.799386,108.3,5.845,1.85,335.95,54.892475,9.794132,54.895069,9.793790
1386781361,0,0,485.9,0,0,0,0,409,425,-0.0292,125.4913,6.8213,0.4212,54.891224,9.799386,108.3,5.845,1.85,335.95,54.892475,9.794132,54.895069,9.793790
1386781361,0,0,485.9,0,0,0,0,409,425,-0.0292,125.4913,6.8213,0.4212,54.891224,9.799386,108.3,5.845,1.85,335.95,54.892475,9.794132,54.895069,9.793790
1386781361,0,0,485.9,0,0,0,0,409,425,-0.0292,125.4913,6.8213,0.4212,54.891224,9.799386,108.3,5.845,1.85,335.95,54.892475,9.794132,54.895069,9.793790
1386781361,0,0,485.9,0,0,0,0,409,425,-0.0292,125.4913,6.8213,0.4212,54.891224,9.799386,108.3,5.845,1.85,335.95,54.892475,9.794132,54.895069,9.793790
1386781362,0,0,485.9,0,0,0,0,409,425,-0.0292,125.4913,6.8213,0.4212,54.891224,9.799386,108.3,5.845,1.85,335.95,54.892475,9.794132,54.895069,9.793790
1386781362,0,0,485.9,0,0,0,0,409,425,-0.0292,125.4913,6.8213,0.4212,54.891224,9.799386,108.3,5.845,1.85,335.95,54.892475,9.794132,54.895069,9.793790
1386781362,0,0,485.9,0,0,0,0,409,425,-0.0292,125.4913,6.8213,0.4212,54.891224,9.799386,108.3,5.845,1.85,335.95,54.892475,9.794132,54.895069,9.793790
1386781362,0,0,485.9,0,0,0,0,409,425,-0.0292,125.4913,6.8213,0.4212,54.891224,9.799386,108.3,5.845,1.85,335.95,54.892475,9.794132,54.895069,9.793790
1386781363,0,0,485.9,0,0,0,0,409,425,-0.0292,125.4913,6.8213,0.4212,54.891224,9.799386,108.3,5.845,1.85,335.95,54.892475,9.794132,54.895069,9.793790
1386781363,0,0,485.9,0,0,0,0,409,425,-0.0292,125.4913,6.8213,0.4212,54.891224,9.799386,108.3,5.845,1.85,335.95,54.892475,9.794132,54.895069,9.793790
1386781363,0,0,485.9,0,0,0,0,409,425,-0.0292,125.4913,6.8213,0.4212,54.891224,9.799386,108.3,5.845,1.85,335.95,54.892475,9.794132,54.895069,9.793790
1386781363,0,0,485.9,0,0,0,0,409,425,-0.0292,125.4913,6.8213,0.4212,54.891224,9.799386,108.3,5.845,1.85,335.95,54.892475,9.794132,54.895069,9.793790
1386781364,0,0,485.9,0,0,0,0,409,425,-0.0292,125.4913,6.8213,0.4212,54.891224,9.799386,108.3,5.845,1.85,335.95,54.892475,9.794132,54.895069,9.793790
1386781364,0,0,485.9,0,0,0,0,409,425,-0.0292,125.4913,6.8213,0.4212,54.891224,9.799386,108.3,5.845,1.85,335.95,54.892475,9.794132,54.895069,9.793790
1386781364,0,0,485.9,0,0,0,0,409,425,-0.0292,125.4913,6.8213,0.4212,54.891224,9.799386,108.3,5.845,1.85,335.95,54.892475,9.794132,54.895069,9.793790
1386781364,0,0,485.9,0,0,0,0,409,425,-0.0292,125.4913,6.8213,0.4212,54.891224,9.799386,108.3,5.845,1.85,335.95,54.892475,9.794132,54.895069,9.793790
1386781365,0,0,485.9,0,0,0,0,409,425,-0.0292,125.4913,6.8213,0.4212,54.891224,9.799386,108.3,5.845,1.85,335.95,54.892475,9.794132,54.895069,9.793790
1386781365,0,0,485.9,0,0,0,0,409,425,-0.0292,125.4913,6.8213,0.4212,54.891224,9.799386,108.3,5.845,1.85,335.95,54.892475,9.794132,54.895069,9.793790
1386781365,0,0,485.9,0,0,0,0,409,425,-0.0292,125.4913,6.8213,0.4212,54.891224,9.799386,108.3,5.845,1.85,335.95,54.892475,9.794132,54.895069,9.793790
1386781365,0,0,485.9,0,0,0,0,409,425,-0.0292,125.4913,6.8213,0.4212,54.891224,9.799386,108.3,5.845,1.85,335.95,54.892475,9.794132,54.895069,9.793790
1386781366,0,0,485.9,0,0,0,0,409,425,-0.0292,125.4913,6.8213,0.4212,54.891224,9.799386,108.3,5.845,1.85,335.95,54.892475,9.794132,54.895069,9.793790
1386781366,0,0,485.9,0,0,0,0,409,425,-0.0292,125.4913,6.8213,0.4212,54.891224,9.799386,108.3,5.845,1.85,335.95,54.892475,9.794132,54.895069,9.793790
1386781366,0,0,485.9,0,0,0,0,409,425,-0.0292,125.4913,6.8213,0.4212,54.891224,9.799386,108.3,5.845,1.85,335.95,54.892475,9.794132,54.895069,9.793790
1386781366,0,0,485.9,0,0,0,0,409,425,-0.0292,125.4913,6.8213,0.4212,54.891224,9.799386,108.3,5.845,1.85,335.95,54.892475,9.794132,54.895069,9.793790
1386781367,0,0,485.9,0,0,0,0,409,425,-0.0292,125.4913,6.8213,0.4212,54.891224,9.799386,108.3,5.845,1.85,335.95,54.892475,9.794132,54.895069,9.793790
1386781367,0,0,485.9,0,0,0,0,409,425,-0.0292,125.4913,6.8213,0.4212,54.891224,9.799386,108.3,5.845,1.85,335.95,54.892475,9.794132,54.895069,9.793790
1386781367,0,0,485.9,0,0,0,0,409,425,-0.0292,125.4913,6.8213,0.4212,54.891224,9.799386,108.3,5.845,1.85,335.95,54.892475,9.794132,54.895069,9.793790
1386781367,0,0,485.9,0,0,0,0,409,425,-0.0292,125.4913,6.8213,0.4212,54.891224,9.799386,108.3,5.845,1.85,335.95,54.892475,9.794132,54.895069,9.793790
1386781368,0,0,485.9,0,0,0,0,409,425,-0.0292,125.4913,6.8213,0.4212,54.891224,9.799386,108.3,5.845,1.85,335.95,54.892475,9.794132,54.895069,9.793790
1386781368,0,0,485.9,0,0,0,0,409,425,-0.0292,125.4913,6.8213,0.4212,54.891224,9.799386,108.3,5.845,1.85,335.95,54.892475,9.794132,54.895069,9.793790
1386781368,0,0,485.9,0,0,0,0,409,425,-0.0292,125.4913,6.8213,0.4212,54.891224,9.799386,108.3,5.845,1.85,335.95,54.892475,9.794132,54.895069,9.793790
1386781368,0,0,485.9,0,0,0,0,409,425,-0.0292,125.4913,6.8213,0.4212,54.891224,9.799386,108.3,5.845,1.85,335.95,54.892475,9.794132,54.895069,9.793790
1386781369,0,0,485.9,0,0,0,0,409,425,-0.0292,125.4913,6.8213,0.4212,54.891224,9.799386,108.3,5.845,1.85,335.95,54.892475,9.794132,54.895069,9.793790
1386781369,0,0,485.9,0,0,0,0,409,425,-0.0292,125.4913,6.8213,0.4212,54.891224,9.799386,108.3,5.845,1.85,335.95,54.892475,9.794132,54.895069,9.793790
1386781369,0,0,485.9,0,0,0,0,409,425,-0.0292,125.4913,6.8213,0.4212,54.891224,9.799386,108.3,5.845,1.85,335.95,54.892475,9.794132,54.895069,9.793790
1386781369,0,0,485.9,0,0,0,0,409,425,-0.0292,125.4913,6.8213,0.4212,54.891224,9.799386,108.3,5.845,1.85,335.95,54.892475,9.794132,54.895069,9.793790
1386781370,0,0,485.9,0,0,0,0,409,425,-0.0292,125.4913,6.8213,0.4212,54.891224,9.799386,108.3,5.845,1.85,335.95,54.892475,9.794132,54.895069,9.793790
1386781370,0,0,485.9,0,0,0,0,409,425,-0.0292,125.4913,6.8213,0.4212,54.891224,9.799386,108.3,5.845,1.85,335.95,54.892475,9.794132,54.895069,9.793790
1386781370,0,0,485.9,0,0,0,0,409,425,-0.0292,125.4913,6.8213,0.4212,54.891224,9.799386,108.3,5.845,1.85,335.95,54.892475,9.794132,54.895069,9.793790
1386781370,0,0,485.9,0,0,0,0,409,425,-0.0292,125.4913,6.8213,0.4212,54.891224,9.799386,108.3,5.845,1.85,335.95,54.892475,9.794132,54.895069,9.793790
1386781371,0,0,485.9,0,0,0,0,409,425,-0.0292,125.4913,6.8213,0.4212,54.891224,9.799386,108.3,5.845,1.85,335.95,54.892475,9.794132,54.895069,9.793790
1386781371,0,0,485.9,0,0,0,0,409,425,-0.0292,125.4913,6.8213,0.4212,54.891224,9.799386,108.3,5.845,1.85,335.95,54.892475,9.794132,54.895069,9.793790
1386781371,0,0,485.9,0,0,0,0,409,425,-0.0292,125.4913,6.8213,0.4212,54.891224,9.799386,108.3,5.845,1.85,335.95,54.892475,9.794132,54.895069,9.793790
1386781371,0,0,485.9,0,0,0,0,409,425,-0.0292,125.4913,6.8213,0.4212,54.891224,9.799386,108.3,5.845,1.85,335.95,54.892475,9.794132,54.895069,9.793790
1386781372,0,0,485.9,0,0,0,0,409,425,-0.0292,125.4913,6.8213,0.4212,54.891224,9.799386,108.3,5.845,1.85,335.95,54.892475,9.794132,54.895069,9.793790
1386781372,0,0,485.9,0,0,0,0,409,425,-0.0292,125.4913,6.8213,0.4212,54.891224,9.799386,108.3,5.845,1.85,335.95,54.892475,9.794132,54.895069,9.793790
1386781372,0,0,485.9,0,0,0,0,409,425,-0.0292,125.4913,6.8213,0.4212,54.891224,9.799386,108.3,5.845,1.85,335.95,54.892475,9.794132,54.895069,9.793790
