MCU_timestamp,Navigation_System,Manual_Control,Guidance_Heading,Manual_Ctrl_Rudder,Rudder_Desired_Angle,Rudder_Feedback,Manual_Ctrl_Sail,Sail_Desired_Pos,Sail_Feedback,Rate,Heading,Pitch,Roll,Latitude,Longitude,COG,SOG,Wind_Speed,Wind_Angle,Point_Start_Lat,Point_Start_Lon,Point_End_Lat,Point_End_Lon
1386787721,0,0,0.0,0,0,4,0,0,0,-0.0292,31.3578,6.8213,0.4212,54.893021,9.795014,108.3,5.845,1.85,335.95,0.000000,0.000000,0.000000,0.000000
1386787721,0,0,0.0,0,0,4,0,0,0,-0.0292,31.3578,6.8213,0.4212,54.893021,9.795014,108.3,5.845,1.85,335.95,0.000000,0.000000,0.000000,0.000000
1386787721,0,0,0.0,0,0,4,0,0,0,-0.0292,31.3578,6.8213,0.4212,54.893021,9.795014,108.3,5.845,1.85,335.95,0.000000,0.000000,0.000000,0.000000
1386787722,0,0,0.0,0,0,4,0,0,0,-0.0292,31.3578,6.8213,0.4212,54.893021,9.795014,108.3,5.845,1.85,335.95,0.000000,0.000000,0.000000,0.000000
1386787722,0,0,0.0,0,0,4,0,0,0,-0.0292,31.3578,6.8213,0.4212,54.893021,9.795014,108.3,5.845,1.85,335.95,0.000000,0.000000,0.000000,0.000000
1386787722,0,0,0.0,0,0,4,0,0,0,-0.0292,31.3578,6.8213,0.4212,54.893021,9.795014,108.3,5.845,1.85,335.95,0.000000,0.000000,0.000000,0.000000
1386787722,0,0,0.0,0,0,4,0,0,0,-0.0292,31.3578,6.8213,0.4212,54.893021,9.795014,108.3,5.845,1.85,335.95,0.000000,0.000000,0.000000,0.000000
1386787723,0,0,0.0,0,0,4,0,0,0,-0.0292,31.3578,6.8213,0.4212,54.893021,9.795014,108.3,5.845,1.85,335.95,0.000000,0.000000,0.000000,0.000000
1386787723,0,0,0.0,0,0,4,0,0,0,-0.0292,31.3578,6.8213,0.4212,54.893021,9.795014,108.3,5.845,1.85,335.95,0.000000,0.000000,0.000000,0.000000
1386787723,0,0,0.0,0,0,4,0,0,0,-0.0292,31.3578,6.8213,0.4212,54.893021,9.795014,108.3,5.845,1.85,335.95,0.000000,0.000000,0.000000,0.000000
1386787723,0,0,0.0,0,0,4,0,0,0,-0.0292,31.3578,6.8213,0.4212,54.893021,9.795014,108.3,5.845,1.85,335.95,0.000000,0.000000,0.000000,0.000000
1386787724,0,0,0.0,0,0,4,0,0,0,-0.0292,31.3578,6.8213,0.4212,54.893021,9.795014,108.3,5.845,1.85,335.95,0.000000,0.000000,0.000000,0.000000
1386787724,0,0,0.0,0,0,4,0,0,0,-0.0292,31.3578,6.8213,0.4212,54.893021,9.795014,108.3,5.845,1.85,335.95,0.000000,0.000000,0.000000,0.000000
1386787724,0,0,0.0,0,0,4,0,0,0,-0.0292,31.3578,6.8213,0.4212,54.893021,9.795014,108.3,5.845,1.85,335.95,0.000000,0.000000,0.000000,0.000000
1386787724,0,0,0.0,0,0,4,0,0,0,-0.0292,31.3578,6.8213,0.4212,54.893021,9.795014,108.3,5.845,1.85,335.95,0.000000,0.000000,0.000000,0.000000
1386787725,0,0,0.0,0,0,4,0,0,0,-0.0292,31.3578,6.8213,0.4212,54.893021,9.795014,108.3,5.845,1.85,335.95,0.000000,0.000000,0.000000,0.000000
1386787725,0,0,0.0,0,0,4,0,0,0,-0.0292,31.3578,6.8213,0.4212,54.893021,9.795014,108.3,5.845,1.85,335.95,0.000000,0.000000,0.000000,0.000000
1386787725,0,0,0.0,0,0,4,0,0,0,-0.0292,31.3578,6.8213,0.4212,54.893021,9.795014,108.3,5.845,1.85,335.95,0.000000,0.000000,0.000000,0.000000
1386787725,0,0,0.0,0,0,4,0,0,0,-0.0292,31.3578,6.8213,0.4212,54.893021,9.795014,108.3,5.845,1.85,335.95,0.000000,0.000000,0.000000,0.000000
1386787726,0,0,0.0,0,0,4,0,0,0,-0.0292,31.3578,6.8213,0.4212,54.891670,9.791750,108.3,5.845,1.85,335.95,0.000000,0.000000,0.000000,0.000000
1386787726,0,0,0.0,0,0,4,0,0,0,-0.0292,31.3578,6.8213,0.4212,54.891670,9.791750,108.3,5.845,1.85,335.95,0.000000,0.000000,0.000000,0.000000
1386787726,0,0,0.0,0,0,4,0,0,0,-0.0292,31.3578,6.8213,0.4212,54.891670,9.791750,108.3,5.845,1.85,335.95,0.000000,0.000000,0.000000,0.000000
1386787726,0,0,0.0,0,0,4,0,0,0,-0.0292,31.3578,6.8213,0.4212,54.891670,9.791750,108.3,5.845,1.85,335.95,0.000000,0.000000,0.000000,0.000000
1386787727,0,0,0.0,0,0,4,0,0,0,-0.0292,31.3578,6.8213,0.4212,54.891670,9.791750,108.3,5.845,1.85,335.95,0.000000,0.000000,0.000000,0.000000
1386787727,4,0,0.0,0,0,4,0,0,0,-0.0292,31.3578,6.8213,0.4212,54.891670,9.791750,108.3,5.845,1.85,335.95,0.000000,0.000000,0.000000,0.000000
1386787727,1,0,390.9,0,0,0,0,1,425,-0.0292,31.3578,6.8213,0.4212,54.891685,9.791766,108.3,5.845,1.85,2.94,54.891670,9.791750,54.895069,9.793790
1386787727,1,0,390.9,0,0,4,0,1,400,-0.0292,31.3578,6.8213,0.4212,54.891701,9.791782,108.3,5.845,1.85,2.94,54.891670,9.791750,54.895069,9.793790
1386787728,1,0,390.9,0,0,0,0,1,375,-0.0292,31.3578,6.8213,0.4212,54.891716,9.791799,108.3,5.845,1.85,2.94,54.891670,9.791750,54.895069,9.793790
1386787728,1,0,390.9,0,0,4,0,1,350,-0.0292,31.3578,6.8213,0.4212,54.891731,9.791815,108.3,5.845,1.85,2.94,54.891670,9.791750,54.895069,9.793790
1386787728,1,0,390.9,0,0,0,0,1,325,-0.0292,31.3578,6.8213,0.4212,54.891747,9.791831,108.3,5.845,1.85,2.94,54.891670,9.791750,54.895069,9.793790
1386787728,1,0,390.9,0,0,4,0,1,300,-0.0292,31.3578,6.8213,0.4212,54.891766,9.791847,108.3,5.845,1.85,2.94,54.891670,9.791750,54.895069,9.793790
1386787729,1,0,390.9,0,0,0,0,1,275,-0.0292,31.3578,6.8213,0.4212,54.891781,9.791863,108.3,5.845,1.85,2.94,54.891670,9.791750,54.895069,9.793790
1386787729,1,0,390.9,0,0,4,0,1,250,-0.0292,31.3578,6.8213,0.4212,54.891796,9.791880,108.3,5.845,1.85,2.94,54.891670,9.791750,54.895069,9.793790
1386787729,1,0,390.9,0,0,0,0,1,225,-0.0292,31.3578,6.8213,0.4212,54.891815,9.791896,108.3,5.845,1.85,2.94,54.891670,9.791750,54.895069,9.793790
1386787729,1,0,390.9,0,0,4,0,1,200,-0.0292,31.3578,6.8213,0.4212,54.891830,9.791912,108.3,5.845,1.85,2.94,54.891670,9.791750,54.895069,9.793790
1386787730,1,0,390.9,0,0,0,0,1,175,-0.0292,31.3578,6.8213,0.4212,54.891846,9.791928,108.3,5.845,1.85,2.94,54.891670,9.791750,54.895069,9.793790
1386787730,1,0,390.9,0,0,4,0,1,150,-0.0292,31.3578,6.8213,0.4212,54.891865,9.791945,108.3,5.845,1.85,2.94,54.891670,9.791750,54.895069,9.793790
1386787730,1,0,390.9,0,0,0,0,1,125,-0.0292,31.3578,6.8213,0.4212,54.891880,9.791962,108.3,5.845,1.85,2.94,54.891670,9.791750,54.895069,9.793790
1386787730,1,0,390.9,0,0,4,0,1,100,-0.0292,31.3578,6.8213,0.4212,54.891895,9.791978,108.3,5.845,1.85,2.94,54.891670,9.791750,54.895069,9.793790
1386787731,1,0,390.9,0,0,0,0,1,75,-0.0292,31.3578,6.8213,0.4212,54.891914,9.791994,108.3,5.845,1.85,2.94,54.891670,9.791750,54.895069,9.793790
1386787731,1,0,390.9,0,0,4,0,1,50,-0.0292,31.3578,6.8213,0.4212,54.891930,9.792010,108.3,5.845,1.85,2.94,54.891670,9.791750,54.895069,9.793790
1386787731,1,0,390.9,0,0,0,0,1,25,-0.0292,31.3578,6.8213,0.4212,54.891945,9.792027,108.3,5.845,1.85,2.94,54.891670,9.791750,54.895069,9.793790
1386787731,1,0,390.9,0,0,4,0,1,0,-0.0292,31.3578,6.8213,0.4212,54.891964,9.792043,108.3,5.845,1.85,2.94,54.891670,9.791750,54.895069,9.793790
1386787732,1,0,390.9,0,0,0,0,1,25,-0.0292,31.3578,6.8213,0.4212,54.891979,9.792059,108.3,5.845,1.85,2.94,54.891670,9.791750,54.895069,9.793790
1386787732,1,0,390.9,0,0,4,0,1,0,-0.0292,31.3578,6.8213,0.4212,54.891994,9.792075,108.3,5.845,1.85,2.94,54.891670,9.791750,54.895069,9.793790
1386787732,1,0,390.9,0,0,0,0,1,25,-0.0292,31.3578,6.8213,0.4212,54.892014,9.792091,108.3,5.845,1.85,2.94,54.891670,9.791750,54.895069,9.793790
1386787732,1,0,390.9,0,0,4,0,1,0,-0.0292,31.3578,6.8213,0.4212,54.892029,9.792108,108.3,5.845,1.85,2.94,54.891670,9.791750,54.895069,9.793790
1386787733,1,0,390.9,0,0,0,0,1,25,-0.0292,31.3578,6.8213,0.4212,54.892044,9.792124,108.3,5.845,1.85,2.94,54.891670,9.791750,54.895069,9.793790
1386787733,1,0,390.9,0,0,4,0,1,0,-0.0292,31.3578,6.8213,0.4212,54.892056,9.792140,108.3,5.845,1.85,2.94,54.891670,9.791750,54.895069,9.793790
1386787733,1,0,390.9,0,0,0,0,1,25,-0.0292,31.3578,6.8213,0.4212,54.892071,9.792156,108.3,5.845,1.85,2.94,54.891670,9.791750,54.895069,9.793790
1386787733,1,0,390.9,0,0,4,0,1,0,-0.0292,31.3578,6.8213,0.4212,54.892086,9.792172,108.3,5.845,1.85,2.94,54.891670,9.791750,54.895069,9.793790
1386787734,1,0,390.9,0,0,0,0,1,25,-0.0292,31.3578,6.8213,0.4212,54.892101,9.792189,108.3,5.845,1.85,2.94,54.891670,9.791750,54.895069,9.793790
1386787734,1,0,390.9,0,0,4,0,1,0,-0.0292,31.3578,6.8213,0.4212,54.892117,9.792205,108.3,5.845,1.85,2.94,54.891670,9.791750,54.895069,9.793790
1386787734,1,0,390.9,0,0,0,0,1,25,-0.0292,31.3578,6.8213,0.4212,54.892136,9.792221,108.3,5.845,1.85,2.94,54.891670,9.791750,54.895069,9.793790
1386787734,1,0,390.9,0,0,4,0,1,0,-0.0292,31.3578,6.8213,0.4212,54.892151,9.792237,108.3,5.845,1.85,2.94,54.891670,9.791750,54.895069,9.793790
1386787735,1,0,390.9,0,0,0,0,1,25,-0.0292,31.3578,6.8213,0.4212,54.892166,9.792253,108.3,5.845,1.85,2.94,54.891670,9.791750,54.895069,9.793790
1386787735,1,0,390.9,0,0,4,0,1,0,-0.0292,31.3578,6.8213,0.4212,54.892185,9.792270,108.3,5.845,1.85,2.94,54.891670,9.791750,54.895069,9.793790
1386787735,1,0,390.9,0,0,0,0,1,25,-0.0292,31.3578,6.8213,0.4212,54.892200,9.792286,108.3,5.845,1.85,2.94,54.891670,9.791750,54.895069,9.793790
1386787735,1,0,390.9,0,0,4,0,1,0,-0.0292,31.3578,6.8213,0.4212,54.892216,9.792302,108.3,5.845,1.85,2.94,54.891670,9.791750,54.895069,9.793790
1386787736,1,0,390.9,0,0,0,0,1,25,-0.0292,31.3578,6.8213,0.4212,54.892235,9.792318,108.3,5.845,1.85,2.94,54.891670,9.791750,54.895069,9.793790
1386787736,1,0,390.9,0,0,4,0,1,0,-0.0292,31.3578,6.8213,0.4212,54.892250,9.792335,108.3,5.845,1.85,2.94,54.891670,9.791750,54.895069,9.793790
1386787736,1,0,390.9,0,0,0,0,1,25,-0.0292,31.3578,6.8213,0.4212,54.892265,9.792351,108.3,5.845,1.85,2.94,54.891670,9.791750,54.895069,9.793790
1386787736,1,0,390.9,0,0,4,0,1,0,-0.0292,31.3578,6.8213,0.4212,54.892277,9.792367,108.3,5.845,1.85,2.94,54.891670,9.791750,54.895069,9.793790
1386787737,1,0,390.9,0,0,0,0,1,25,-0.0292,31.3578,6.8213,0.4212,54.892292,9.792383,108.3,5.845,1.85,2.94,54.891670,9.791750,54.895069,9.793790
1386787737,1,0,390.9,0,0,4,0,1,0,-0.0292,31.3578,6.8213,0.4212,54.892307,9.792399,108.3,5.845,1.85,2.94,54.891670,9.791750,54.895069,9.793790
1386787737,1,0,390.9,0,0,0,0,1,25,-0.0292,31.3578,6.8213,0.4212,54.892323,9.792416,108.3,5.845,1.85,2.94,54.891670,9.791750,54.895069,9.793790
1386787737,1,0,390.9,0,0,4,0,1,0,-0.0292,31.3578,6.8213,0.4212,54.892338,9.792433,108.3,5.845,1.85,2.94,54.891670,9.791750,54.895069,9.793790
1386787738,1,0,390.9,0,0,0,0,1,25,-0.0292,31.3578,6.8213,0.4212,54.892357,9.792449,108.3,5.845,1.85,2.94,54.891670,9.791750,54.895069,9.793790
1386787738,1,0,390.9,0,0,4,0,1,0,-0.0292,31.3578,6.8213,0.4212,54.892372,9.792465,108.3,5.845,1.85,2.94,54.891670,9.791750,54.895069,9.793790
1386787738,1,0,390.9,0,0,0,0,1,25,-0.0292,31.3578,6.8213,0.4212,54.892387,9.792481,108.3,5.845,1.85,2.94,54.891670,9.791750,54.895069,9.793790
1386787738,1,0,390.9,0,0,4,0,1,0,-0.0292,31.3578,6.8213,0.4212,54.892406,9.792498,108.3,5.845,1.85,2.94,54.891670,9.791750,54.895069,9.793790
1386787739,1,0,390.9,0,0,0,0,1,25,-0.0292,31.3578,6.8213,0.4212,54.892422,9.792514,108.3,5.845,1.85,2.94,54.891670,9.791750,54.895069,9.793790
1386787739,1,0,390.9,0,0,4,0,1,0,-0.0292,31.3578,6.8213,0.4212,54.892437,9.792530,108.3,5.845,1.85,2.94,54.891670,9.791750,54.895069,9.793790
1386787739,1,0,390.9,0,0,0,0,1,25,-0.0292,31.3578,6.8213,0.4212,54.892456,9.792546,108.3,5.845,1.85,2.94,54.891670,9.791750,54.895069,9.793790
1386787739,1,0,390.9,0,0,4,0,1,0,-0.0292,31.3578,6.8213,0.4212,54.892471,9.792562,108.3,5.845,1.85,2.94,54.891670,9.791750,54.895069,9.793790
1386787740,1,0,390.9,0,0,0,0,1,25,-0.0292,31.3578,6.8213,0.4212,54.892487,9.792579,108.3,5.845,1.85,2.94,54.891670,9.791750,54.895069,9.793790
1386787740,1,0,390.9,0,0,4,0,1,0,-0.0292,31.3578,6.8213,0.4212,54.892498,9.792595,108.3,5.845,1.85,2.94,54.891670,9.791750,54.895069,9.793790
1386787740,1,0,390.9,0,0,0,0,1,25,-0.0292,31.3578,6.8213,0.4212,54.892513,9.792611,108.3,5.845,1.85,2.94,54.891670,9.791750,54.895069,9.793790
1386787740,1,0,390.9,0,0,4,0,1,0,-0.0292,31.3578,6.8213,0.4212,54.892529,9.792627,108.3,5.845,1.85,2.94,54.891670,9.791750,54.895069,9.793790
1386787741,1,0,390.9,0,0,0,0,1,25,-0.0292,31.3578,6.8213,0.4212,54.892544,9.792644,108.3,5.845,1.85,2.94,54.891670,9.791750,54.895069,9.793790
1386787741,1,0,390.9,0,0,4,0,1,0,-0.0292,31.3578,6.8213,0.4212,54.892559,9.792660,108.3,5.845,1.85,2.94,54.891670,9.791750,54.895069,9.793790
1386787741,1,0,390.9,0,0,0,0,1,25,-0.0292,31.3578,6.8213,0.4212,54.892578,9.792676,108.3,5.845,1.85,2.94,54.891670,9.791750,54.895069,9.793790
1386787741,1,0,390.9,0,0,4,0,1,0,-0.0292,31.3578,6.8213,0.4212,54.892593,9.792692,108.3,5.845,1.85,2.94,54.891670,9.791750,54.895069,9.793790
1386787742,1,0,390.9,0,0,0,0,1,25,-0.0292,31.3578,6.8213,0.4212,54.892609,9.792708,108.3,5.845,1.85,2.94,54.891670,9.791750,54.895069,9.793790
1386787742,1,0,390.9,0,0,4,0,1,0,-0.0292,31.3578,6.8213,0.4212,54.892628,9.792725,108.3,5.845,1.85,2.94,54.891670,9.791750,54.895069,9.793790
1386787742,1,0,390.9,0,0,0,0,1,25,-0.0292,31.3578,6.8213,0.4212,54.892643,9.792741,108.3,5.845,1.85,2.94,54.891670,9.791750,54.895069,9.793790
1386787742,1,0,390.9,0,0,4,0,1,0,-0.0292,31.3578,6.8213,0.4212,54.892658,9.792757,108.3,5.845,1.85,2.94,54.891670,9.791750,54.895069,9.793790
1386787743,1,0,390.9,0,0,0,0,1,25,-0.0292,31.3578,6.8213,0.4212,54.892677,9.792773,108.3,5.845,1.85,2.94,54.891670,9.791750,54.895069,9.793790
1386787743,1,0,390.9,0,0,4,0,1,0,-0.0292,31.3578,6.8213,0.4212,54.892693,9.792789,108.3,5.845,1.85,2.94,54.891670,9.791750,54.895069,9.793790
1386787743,1,0,390.9,0,0,0,0,1,25,-0.0292,31.3578,6.8213,0.4212,54.892708,9.792806,108.3,5.845,1.85,2.94,54.891670,9.791750,54.895069,9.793790
1386787743,1,0,390.9,0,0,4,0,1,0,-0.0292,31.3578,6.8213,0.4212,54.892719,9.792822,108.3,5.845,1.85,2.94,54.891670,9.791750,54.895069,9.793790
1386787744,1,0,390.9,0,0,0,0,1,25,-0.0292,31.3578,6.8213,0.4212,54.892735,9.792838,108.3,5.845,1.85,2.94,54.891670,9.791750,54.895069,9.793790
1386787744,1,0,390.9,0,0,4,0,1,0,-0.0292,31.3578,6.8213,0.4212,54.892750,9.792854,108.3,5.845,1.85,2.94,54.891670,9.791750,54.895069,9.793790
1386787744,1,0,390.9,0,0,0,0,1,25,-0.0292,31.3578,6.8213,0.4212,54.892765,9.792871,108.3,5.845,1.85,2.94,54.891670,9.791750,54.895069,9.793790
1386787744,1,0,390.9,0,0,4,0,1,0,-0.0292,31.3578,6.8213,0.4212,54.892780,9.792887,108.3,5.845,1.85,2.94,54.891670,9.791750,54.895069,9.793790
1386787745,1,0,390.9,0,0,0,0,1,25,-0.0292,31.3578,6.8213,0.4212,54.892799,9.792904,108.3,5.845,1.85,2.94,54.891670,9.791750,54.895069,9.793790
1386787745,1,0,390.9,0,0,4,0,1,0,-0.0292,31.3578,6.8213,0.4212,54.892815,9.792920,108.3,5.845,1.85,2.94,54.891670,9.791750,54.895069,9.793790
1386787745,1,0,390.9,0,0,0,0,1,25,-0.0292,31.3578,6.8213,0.4212,54.892830,9.792936,108.3,5.845,1.85,2.94,54.891670,9.791750,54.895069,9.793790
1386787745,1,0,390.9,0,0,4,0,1,0,-0.0292,31.3578,6.8213,0.4212,54.892849,9.792953,108.3,5.845,1.85,2.94,54.891670,9.791750,54.895069,9.793790
1386787746,1,0,390.9,0,0,0,0,1,25,-0.0292,31.3578,6.8213,0.4212,54.892864,9.792969,108.3,5.845,1.85,2.94,54.891670,9.791750,54.895069,9.793790
1386787746,1,0,390.9,0,0,4,0,1,0,-0.0292,31.3578,6.8213,0.4212,54.892879,9.792985,108.3,5.845,1.85,2.94,54.891670,9.791750,54.895069,9.793790
1386787746,1,0,390.9,0,0,0,0,1,25,-0.0292,31.3578,6.8213,0.4212,54.892899,9.793001,108.3,5.845,1.85,2.94,54.891670,9.791750,54.895069,9.793790
1386787746,1,0,390.9,0,0,4,0,1,0,-0.0292,31.3578,6.8213,0.4212,54.892914,9.793017,108.3,5.845,1.85,2.94,54.891670,9.791750,54.895069,9.793790
1386787747,1,0,390.9,0,0,0,0,1,25,-0.0292,31.3578,6.8213,0.4212,54.892929,9.793034,108.3,5.845,1.85,2.94,54.891670,9.791750,54.895069,9.793790
1386787747,1,0,390.9,0,0,4,0,1,0,-0.0292,31.3578,6.8213,0.4212,54.892948,9.793050,108.3,5.845,1.85,2.94,54.891670,9.791750,54.895069,9.793790
1386787747,1,0,390.9,0,0,0,0,1,25,-0.0292,31.3578,6.8213,0.4212,54.892963,9.793066,108.3,5.845,1.85,2.94,54.891670,9.791750,54.895069,9.793790
1386787747,1,0,390.9,0,0,4,0,1,0,-0.0292,31.3578,6.8213,0.4212,54.892979,9.793082,108.3,5.845,1.85,2.94,54.891670,9.791750,54.895069,9.793790
1386787748,1,0,390.9,0,0,0,0,1,25,-0.0292,31.3578,6.8213,0.4212,54.892990,9.793098,108.3,5.845,1.85,2.94,54.891670,9.791750,54.895069,9.793790
1386787748,1,0,390.9,0,0,4,0,1,0,-0.0292,31.3578,6.8213,0.4212,54.893005,9.793115,108.3,5.845,1.85,2.94,54.891670,9.791750,54.895069,9.793790
1386787748,1,0,390.9,0,0,0,0,1,25,-0.0292,31.3578,6.8213,0.4212,54.893021,9.793131,108.3,5.845,1.85,2.94,54.891670,9.791750,54.895069,9.793790
1386787748,1,0,390.9,0,0,4,0,1,0,-0.0292,31.3578,6.8213,0.4212,54.893036,9.793147,108.3,5.845,1.85,2.94,54.891670,9.791750,54.895069,9.793790
1386787749,1,0,390.9,0,0,0,0,1,25,-0.0292,31.3578,6.8213,0.4212,54.893051,9.793163,108.3,5.845,1.85,2.94,54.891670,9.791750,54.895069,9.793790
1386787749,1,0,390.9,0,0,4,0,1,0,-0.0292,31.3578,6.8213,0.4212,54.893070,9.793180,108.3,5.845,1.85,2.94,54.891670,9.791750,54.895069,9.793790
1386787749,1,0,390.9,0,0,0,0,1,25,-0.0292,31.3578,6.8213,0.4212,54.893085,9.793196,108.3,5.845,1.85,2.94,54.891670,9.791750,54.895069,9.793790
1386787749,1,0,390.9,0,0,4,0,1,0,-0.0292,31.3578,6.8213,0.4212,54.893101,9.793212,108.3,5.845,1.85,2.94,54.891670,9.791750,54.895069,9.793790
1386787750,1,0,390.9,0,0,0,0,1,25,-0.0292,31.3578,6.8213,0.4212,54.893120,9.793228,108.3,5.845,1.85,2.94,54.891670,9.791750,54.895069,9.793790
1386787750,1,0,390.9,0,0,4,0,1,0,-0.0292,31.3578,6.8213,0.4212,54.893135,9.793244,108.3,5.845,1.85,2.94,54.891670,9.791750,54.895069,9.793790
1386787750,1,0,390.9,0,0,0,0,1,25,-0.0292,31.3578,6.8213,0.4212,54.893150,9.793261,108.3,5.845,1.85,2.94,54.891670,9.791750,54.895069,9.793790
1386787750,1,0,390.9,0,0,4,0,1,0,-0.0292,31.3578,6.8213,0.4212,54.893169,9.793277,108.3,5.845,1.85,2.94,54.891670,9.791750,54.895069,9.793790
1386787751,1,0,390.9,0,0,0,0,1,25,-0.0292,31.3578,6.8213,0.4212,54.893185,9.793293,108.3,5.845,1.85,2.94,54.891670,9.791750,54.895069,9.793790
1386787751,1,0,390.9,0,0,4,0,1,0,-0.0292,31.3578,6.8213,0.4212,54.893200,9.793309,108.3,5.845,1.85,2.94,54.891670,9.791750,54.895069,9.793790
1386787751,1,0,390.9,0,0,0,0,1,25,-0.0292,31.3578,6.8213,0.4212,54.893211,9.793325,108.3,5.845,1.85,2.94,54.891670,9.791750,54.895069,9.793790
1386787752,1,0,390.9,0,0,4,0,1,0,-0.0292,31.3578,6.8213,0.4212,54.893227,9.793342,108.3,5.845,1.85,2.94,54.891670,9.791750,54.895069,9.793790
1386787752,1,0,390.9,0,0,0,0,1,25,-0.0292,31.3578,6.8213,0.4212,54.893242,9.793358,108.3,5.845,1.85,2.94,54.891670,9.791750,54.895069,9.793790
1386787752,1,0,390.9,0,0,4,0,1,0,-0.0292,31.3578,6.8213,0.4212,54.893257,9.793374,108.3,5.845,1.85,2.94,54.891670,9.791750,54.895069,9.793790
1386787752,1,0,390.9,0,0,0,0,1,25,-0.0292,31.3578,6.8213,0.4212,54.893272,9.793390,108.3,5.845,1.85,2.94,54.891670,9.791750,54.895069,9.793790
1386787753,1,0,390.9,0,0,4,0,1,0,-0.0292,31.3578,6.8213,0.4212,54.893291,9.793406,108.3,5.845,1.85,2.94,54.891670,9.791750,54.895069,9.793790
1386787753,1,0,390.9,0,0,0,0,1,25,-0.0292,31.3578,6.8213,0.4212,54.893307,9.793423,108.3,5.845,1.85,2.94,54.891670,9.791750,54.895069,9.793790
1386787753,1,0,390.9,0,0,4,0,1,0,-0.0292,31.3578,6.8213,0.4212,54.893322,9.793439,108.3,5.845,1.85,2.94,54.891670,9.791750,54.895069,9.793790
1386787753,1,0,390.9,0,0,0,0,1,25,-0.0292,31.3578,6.8213,0.4212,54.893341,9.793455,108.3,5.845,1.85,2.94,54.891670,9.791750,54.895069,9.793790
1386787754,1,0,485.9,0,-35,-4,0,1,0,-0.0292,40.6912,6.8213,0.4212,54.893356,9.793475,108.3,5.845,1.85,2.94,54.891670,9.791750,54.895069,9.793790
1386787754,1,0,485.9,0,-35,-8,0,1,25,-0.0292,50.0245,6.8213,0.4212,54.893368,9.793499,108.3,5.845,1.85,2.94,54.891670,9.791750,54.895069,9.793790
1386787754,1,0,485.9,0,-35,-12,0,1,0,-0.0292,59.3578,6.8213,0.4212,54.893379,9.793526,108.3,5.845,1.85,2.94,54.891670,9.791750,54.895069,9.793790
1386787754,1,0,485.9,0,-35,-16,0,1,25,-0.0292,68.6912,6.8213,0.4212,54.893383,9.793555,108.3,5.845,1.85,2.94,54.891670,9.791750,54.895069,9.793790
1386787755,1,0,485.9,0,-35,-20,0,1,0,-0.0292,78.0245,6.8213,0.4212,54.893387,9.793586,108.3,5.845,1.85,2.94,54.891670,9.791750,54.895069,9.793790
1386787755,1,0,485.9,0,-35,-24,0,1,25,-0.0292,87.3578,6.8213,0.4212,54.893387,9.793616,108.3,5.845,1.85,2.94,54.891670,9.791750,54.895069,9.793790
1386787755,1,0,485.9,0,-35,-28,0,1,0,-0.0292,96.6912,6.8213,0.4212,54.893387,9.793648,108.3,5.845,1.85,2.94,54.891670,9.791750,54.895069,9.793790
1386787755,1,0,485.9,0,-29,-32,0,1,25,-0.0292,104.4245,6.8213,0.4212,54.893383,9.793678,108.3,5.845,1.85,2.94,54.891670,9.791750,54.895069,9.793790
1386787756,1,0,485.9,0,-22,-28,0,1,0,-0.0292,110.2912,6.8213,0.4212,54.893375,9.793708,108.3,5.845,1.85,2.94,54.891670,9.791750,54.895069,9.793790
1386787756,1,0,485.9,0,-16,-24,0,1,25,-0.0292,114.5578,6.8213,0.4212,54.893368,9.793736,108.3,5.845,1.85,2.94,54.891670,9.791750,54.895069,9.793790
1386787756,1,0,485.9,0,-11,-20,0,1,0,-0.0292,117.4912,6.8213,0.4212,54.893360,9.793763,108.3,5.845,1.85,2.94,54.891670,9.791750,54.895069,9.793790
1386787756,1,0,485.9,0,-8,-16,0,1,25,-0.0292,119.6245,6.8213,0.4212,54.893353,9.793790,108.3,5.845,1.85,2.94,54.891670,9.791750,54.895069,9.793790
1386787757,1,0,485.9,0,-6,-12,0,0,0,-0.0292,121.2245,6.8213,0.4212,54.893341,9.793817,108.3,5.845,1.85,2.94,54.891670,9.791750,54.895069,9.793790
1386787757,1,0,485.9,0,-5,-8,0,0,25,-0.0292,122.5578,6.8213,0.4212,54.893333,9.793843,108.3,5.845,1.85,2.94,54.891670,9.791750,54.895069,9.793790
1386787757,1,0,545.9,0,-35,-12,0,0,0,-0.0292,131.8912,6.8213,0.4212,54.893322,9.793866,108.3,5.845,1.85,2.94,54.891670,9.791750,54.895069,9.793790
1386787757,1,0,545.9,0,-35,-16,0,0,25,-0.0292,141.2245,6.8213,0.4212,54.893311,9.793886,108.3,5.845,1.85,2.94,54.891670,9.791750,54.895069,9.793790
1386787758,1,0,545.9,0,-35,-20,0,0,0,-0.0292,150.5578,6.8213,0.4212,54.893295,9.793901,108.3,5.845,1.85,2.94,54.891670,9.791750,54.895069,9.793790
1386787758,1,0,545.9,0,-35,-24,0,0,25,-0.0292,159.8912,6.8213,0.4212,54.893280,9.793912,108.3,5.845,1.85,2.94,54.891670,9.791750,54.895069,9.793790
1386787758,1,0,545.9,0,-26,-28,0,0,0,-0.0292,166.8245,6.8213,0.4212,54.893261,9.793920,108.3,5.845,1.85,2.94,54.891670,9.791750,54.895069,9.793790
1386787758,1,0,545.9,0,-19,-24,0,0,25,-0.0292,171.8912,6.8213,0.4212,54.893242,9.793923,108.3,5.845,1.85,2.94,54.891670,9.791750,54.895069,9.793790
1386787759,1,0,545.9,0,-14,-20,0,0,0,-0.0292,175.6245,6.8213,0.4212,54.893227,9.793925,108.3,5.845,1.85,2.94,54.891670,9.791750,54.895069,9.793790
1386787759,1,0,545.9,0,-10,-16,0,0,25,-0.0292,178.2912,6.8213,0.4212,54.893208,9.793926,108.3,5.845,1.85,2.94,54.891670,9.791750,54.895069,9.793790
1386787759,1,0,545.9,0,-8,-12,0,0,0,-0.0292,180.4245,6.8213,0.4212,54.893188,9.793925,108.3,5.845,1.85,2.94,54.891670,9.791750,54.895069,9.793790
1386787759,1,0,545.9,0,-6,-8,0,0,25,-0.0292,182.0245,6.8213,0.4212,54.893169,9.793924,108.3,5.845,1.85,2.94,54.891670,9.791750,54.895069,9.793790
1386787760,1,0,280.9,0,-35,-12,0,1,0,-0.0292,191.3578,6.8213,0.4212,54.893154,9.793918,108.3,5.845,1.85,2.94,54.891670,9.791750,54.895069,9.793790
1386787760,1,0,280.9,0,-35,-16,0,1,25,-0.0292,200.6912,6.8213,0.4212,54.893135,9.793906,108.3,5.845,1.85,2.94,54.891670,9.791750,54.895069,9.793790
1386787760,1,0,280.9,0,-35,-20,0,1,0,-0.0292,210.0245,6.8213,0.4212,54.893120,9.793891,108.3,5.845,1.85,2.94,54.891670,9.791750,54.895069,9.793790
1386787760,1,0,280.9,0,-35,-24,0,1,25,-0.0292,219.3578,6.8213,0.4212,54.893108,9.793871,108.3,5.845,1.85,2.94,54.891670,9.791750,54.895069,9.793790
1386787761,1,0,280.9,0,-35,-28,0,1,0,-0.0292,228.6911,6.8213,0.4212,54.893097,9.793848,108.3,5.845,1.85,2.94,54.891670,9.791750,54.895069,9.793790
1386787761,1,0,280.9,0,-35,-32,0,1,25,-0.0292,238.0245,6.8213,0.4212,54.893089,9.793821,108.3,5.845,1.85,2.94,54.891670,9.791750,54.895069,9.793790
1386787761,1,0,280.9,0,-35,-36,0,1,0,-0.0292,247.3578,6.8213,0.4212,54.893082,9.793793,108.3,5.845,1.85,2.94,54.891670,9.791750,54.895069,9.793790
1386787761,1,0,280.9,0,-34,-32,0,1,25,-0.0292,256.4245,6.8213,0.4212,54.893078,9.793762,108.3,5.845,1.85,2.94,54.891670,9.791750,54.895069,9.793790
1386787762,1,0,280.9,0,-25,-28,0,1,0,-0.0292,263.0911,6.8213,0.4212,54.893074,9.793731,108.3,5.845,1.85,2.94,54.891670,9.791750,54.895069,9.793790
1386787762,1,0,280.9,0,-18,-24,0,1,25,-0.0292,267.8911,6.8213,0.4212,54.893074,9.793699,108.3,5.845,1.85,2.94,54.891670,9.791750,54.895069,9.793790
1386787762,1,0,280.9,0,-13,-20,0,1,0,-0.0292,271.3578,6.8213,0.4212,54.893078,9.793669,108.3,5.845,1.85,2.94,54.891670,9.791750,54.895069,9.793790
1386787762,1,0,280.9,0,-10,-16,0,1,25,-0.0292,274.0244,6.8213,0.4212,54.893078,9.793637,108.3,5.845,1.85,2.94,54.891670,9.791750,54.895069,9.793790
1386787763,1,0,280.9,0,-7,-12,0,1,0,-0.0292,275.8911,6.8213,0.4212,54.893078,9.793606,108.3,5.845,1.85,2.94,54.891670,9.791750,54.895069,9.793790
1386787763,1,0,280.9,0,-5,-8,0,1,25,-0.0292,277.2245,6.8213,0.4212,54.893078,9.793575,108.3,5.845,1.85,2.94,54.891670,9.791750,54.895069,9.793790
1386787763,1,0,280.9,0,-4,-4,0,1,0,-0.0292,278.2911,6.8213,0.4212,54.893078,9.793544,108.3,5.845,1.85,2.94,54.891670,9.791750,54.895069,9.793790
1386787763,1,0,280.9,0,-3,0,0,1,25,-0.0292,279.0911,6.8213,0.4212,54.893078,9.793512,108.3,5.845,1.85,2.94,54.891670,9.791750,54.895069,9.793790
1386787764,1,0,280.9,0,-2,-4,0,1,0,-0.0292,279.6245,6.8213,0.4212,54.893078,9.793482,108.3,5.845,1.85,2.94,54.891670,9.791750,54.895069,9.793790
1386787764,1,0,280.9,0,-1,0,0,1,25,-0.0292,279.8911,6.8213,0.4212,54.893078,9.793451,108.3,5.845,1.85,2.94,54.891670,9.791750,54.895069,9.793790
1386787764,1,0,280.9,0,-1,-4,0,1,0,-0.0292,280.1578,6.8213,0.4212,54.893078,9.793420,108.3,5.845,1.85,2.94,54.891670,9.791750,54.895069,9.793790
1386787764,1,0,280.9,0,-1,0,0,1,25,-0.0292,280.4244,6.8213,0.4212,54.893078,9.793389,108.3,5.845,1.85,2.94,54.891670,9.791750,54.895069,9.793790
1386787765,1,0,280.9,0,-1,-4,0,1,0,-0.0292,280.6911,6.8213,0.4212,54.893078,9.793359,108.3,5.845,1.85,2.94,54.891670,9.791750,54.895069,9.793790
1386787765,1,0,280.9,0,0,0,0,1,25,-0.0292,280.6911,6.8213,0.4212,54.893078,9.793328,108.3,5.845,1.85,2.94,54.891670,9.791750,54.895069,9.793790
1386787765,1,0,280.9,0,0,4,0,1,0,-0.0292,280.6911,6.8213,0.4212,54.893078,9.793298,108.3,5.845,1.85,2.94,54.891670,9.791750,54.895069,9.793790
1386787765,1,0,280.9,0,0,0,0,1,25,-0.0292,280.6911,6.8213,0.4212,54.893078,9.793267,108.3,5.845,1.85,2.94,54.891670,9.791750,54.895069,9.793790
1386787766,1,0,280.9,0,0,4,0,1,0,-0.0292,280.6911,6.8213,0.4212,54.893078,9.793237,108.3,5.845,1.85,2.94,54.891670,9.791750,54.895069,9.793790
1386787766,1,0,280.9,0,0,0,0,1,25,-0.0292,280.6911,6.8213,0.4212,54.893078,9.793205,108.3,5.845,1.85,2.94,54.891670,9.791750,54.895069,9.793790
1386787766,1,0,280.9,0,0,4,0,1,0,-0.0292,280.6911,6.8213,0.4212,54.893078,9.793175,108.3,5.845,1.85,2.94,54.891670,9.791750,54.895069,9.793790
1386787766,1,0,280.9,0,0,0,0,1,25,-0.0292,280.6911,6.8213,0.4212,54.893078,9.793144,108.3,5.845,1.85,2.94,54.891670,9.791750,54.895069,9.793790
1386787767,1,0,280.9,0,0,4,0,1,0,-0.0292,280.6911,6.8213,0.4212,54.893078,9.793114,108.3,5.845,1.85,2.94,54.891670,9.791750,54.895069,9.793790
1386787767,1,0,280.9,0,0,0,0,1,25,-0.0292,280.6911,6.8213,0.4212,54.893078,9.793083,108.3,5.845,1.85,2.94,54.891670,9.791750,54.895069,9.793790
1386787767,1,0,280.9,0,0,4,0,1,0,-0.0292,280.6911,6.8213,0.4212,54.893078,9.793053,108.3,5.845,1.85,2.94,54.891670,9.791750,54.895069,9.793790
1386787767,1,0,280.9,0,0,0,0,1,25,-0.0292,280.6911,6.8213,0.4212,54.893078,9.793022,108.3,5.845,1.85,2.94,54.891670,9.791750,54.895069,9.793790
1386787768,1,0,280.9,0,0,4,0,1,0,-0.0292,280.6911,6.8213,0.4212,54.893078,9.792991,108.3,5.845,1.85,2.94,54.891670,9.791750,54.895069,9.793790
1386787768,1,0,280.9,0,0,0,0,1,25,-0.0292,280.6911,6.8213,0.4212,54.893078,9.792960,108.3,5.845,1.85,2.94,54.891670,9.791750,54.895069,9.793790
1386787768,1,0,280.9,0,0,4,0,1,0,-0.0292,280.6911,6.8213,0.4212,54.893078,9.792930,108.3,5.845,1.85,2.94,54.891670,9.791750,54.895069,9.793790
1386787768,1,0,280.9,0,0,0,0,1,25,-0.0292,280.6911,6.8213,0.4212,54.893078,9.792899,108.3,5.845,1.85,2.94,54.891670,9.791750,54.895069,9.793790
1386787769,1,0,280.9,0,0,4,0,1,0,-0.0292,280.6911,6.8213,0.4212,54.893078,9.792869,108.3,5.845,1.85,2.94,54.891670,9.791750,54.895069,9.793790
1386787769,1,0,280.9,0,0,0,0,1,25,-0.0292,280.6911,6.8213,0.4212,54.893078,9.792838,108.3,5.845,1.85,2.94,54.891670,9.791750,54.895069,9.793790
1386787769,1,0,280.9,0,0,4,0,1,0,-0.0292,280.6911,6.8213,0.4212,54.893078,9.792808,108.3,5.845,1.85,2.94,54.891670,9.791750,54.895069,9.793790
1386787769,1,0,280.9,0,0,0,0,1,25,-0.0292,280.6911,6.8213,0.4212,54.893078,9.792776,108.3,5.845,1.85,2.94,54.891670,9.791750,54.895069,9.793790
1386787770,1,0,280.9,0,0,4,0,1,0,-0.0292,280.6911,6.8213,0.4212,54.893078,9.792746,108.3,5.845,1.85,2.94,54.891670,9.791750,54.895069,9.793790
1386787770,1,0,280.9,0,0,0,0,1,25,-0.0292,280.6911,6.8213,0.4212,54.893078,9.792715,108.3,5.845,1.85,2.94,54.891670,9.791750,54.895069,9.793790
1386787770,1,0,280.9,0,0,4,0,1,0,-0.0292,280.6911,6.8213,0.4212,54.893078,9.792685,108.3,5.845,1.85,2.94,54.891670,9.791750,54.895069,9.793790
1386787770,1,0,280.9,0,0,0,0,1,25,-0.0292,280.6911,6.8213,0.4212,54.893078,9.792654,108.3,5.845,1.85,2.94,54.891670,9.791750,54.895069,9.793790
1386787771,1,0,280.9,0,0,4,0,1,0,-0.0292,280.6911,6.8213,0.4212,54.893078,9.792624,108.3,5.845,1.85,2.94,54.891670,9.791750,54.895069,9.793790
1386787771,1,0,280.9,0,0,0,0,1,25,-0.0292,280.6911,6.8213,0.4212,54.893078,9.792593,108.3,5.845,1.85,2.94,54.891670,9.791750,54.895069,9.793790
1386787771,1,0,280.9,0,0,4,0,1,0,-0.0292,280.6911,6.8213,0.4212,54.893078,9.792562,108.3,5.845,1.85,2.94,54.891670,9.791750,54.895069,9.793790
1386787771,1,0,280.9,0,0,0,0,1,25,-0.0292,280.6911,6.8213,0.4212,54.893078,9.792531,108.3,5.845,1.85,2.94,54.891670,9.791750,54.895069,9.793790
1386787772,1,0,280.9,0,0,4,0,1,0,-0.0292,280.6911,6.8213,0.4212,54.893078,9.792500,108.3,5.845,1.85,2.94,54.891670,9.791750,54.895069,9.793790
1386787772,1,0,545.9,0,35,8,0,1,25,-0.0292,271.3578,6.8213,0.4212,54.895645,9.791698,108.3,5.845,1.85,2.94,54.891670,9.791750,54.895069,9.793790
1386787772,1,0,545.9,0,35,12,0,1,0,-0.0292,262.0244,6.8213,0.4212,54.895641,9.791667,108.3,5.845,1.85,2.94,54.891670,9.791750,54.895069,9.793790
1386787772,1,0,545.9,0,35,16,0,1,25,-0.0292,252.6911,6.8213,0.4212,54.895634,9.791637,108.3,5.845,1.85,2.94,54.891670,9.791750,54.895069,9.793790
1386787773,1,0,545.9,0,35,20,0,1,0,-0.0292,243.3578,6.8213,0.4212,54.895626,9.791610,108.3,5.845,1.85,2.94,54.891670,9.791750,54.895069,9.793790
1386787773,1,0,545.9,0,35,24,0,1,25,-0.0292,234.0244,6.8213,0.4212,54.895615,9.791584,108.3,5.845,1.85,2.94,54.891670,9.791750,54.895069,9.793790
1386787773,1,0,545.9,0,35,28,0,1,0,-0.0292,224.6911,6.8213,0.4212,54.895599,9.791562,108.3,5.845,1.85,2.94,54.891670,9.791750,54.895069,9.793790
1386787773,1,0,545.9,0,35,32,0,1,25,-0.0292,215.3578,6.8213,0.4212,54.895584,9.791544,108.3,5.845,1.85,2.94,54.891670,9.791750,54.895069,9.793790
1386787774,1,0,545.9,0,29,28,0,1,0,-0.0292,207.6244,6.8213,0.4212,54.895569,9.791530,108.3,5.845,1.85,2.94,54.891670,9.791750,54.895069,9.793790
1386787774,1,0,545.9,0,22,24,0,1,25,-0.0292,201.7578,6.8213,0.4212,54.895550,9.791518,108.3,5.845,1.85,2.94,54.891670,9.791750,54.895069,9.793790
1386787774,1,0,545.9,0,16,20,0,1,0,-0.0292,197.4911,6.8213,0.4212,54.895535,9.791509,108.3,5.845,1.85,2.94,54.891670,9.791750,54.895069,9.793790
1386787774,1,0,545.9,0,12,16,0,1,25,-0.0292,194.2911,6.8213,0.4212,54.895519,9.791501,108.3,5.845,1.85,2.94,54.891670,9.791750,54.895069,9.793790
1386787775,1,0,545.9,0,8,12,0,1,0,-0.0292,192.1578,6.8213,0.4212,54.895500,9.791494,108.3,5.845,1.85,2.94,54.891670,9.791750,54.895069,9.793790
1386787775,1,0,545.9,0,6,8,0,0,25,-0.0292,190.5578,6.8213,0.4212,54.895481,9.791489,108.3,5.845,1.85,2.94,54.891670,9.791750,54.895069,9.793790
1386787775,1,0,485.9,0,35,12,0,0,0,-0.0292,181.2244,6.8213,0.4212,54.895466,9.791488,108.3,5.845,1.85,2.94,54.891670,9.791750,54.895069,9.793790
1386787775,1,0,485.9,0,35,16,0,0,25,-0.0292,171.8911,6.8213,0.4212,54.895447,9.791492,108.3,5.845,1.85,2.94,54.891670,9.791750,54.895069,9.793790
1386787776,1,0,485.9,0,35,20,0,0,0,-0.0292,162.5578,6.8213,0.4212,54.895428,9.791501,108.3,5.845,1.85,2.94,54.891670,9.791750,54.895069,9.793790
1386787776,1,0,485.9,0,35,24,0,0,25,-0.0292,153.2245,6.8213,0.4212,54.895412,9.791515,108.3,5.845,1.85,2.94,54.891670,9.791750,54.895069,9.793790
1386787776,1,0,485.9,0,27,28,0,0,0,-0.0292,146.0245,6.8213,0.4212,54.895401,9.791533,108.3,5.845,1.85,2.94,54.891670,9.791750,54.895069,9.793790
1386787777,1,0,485.9,0,20,24,0,0,25,-0.0292,140.6911,6.8213,0.4212,54.895386,9.791553,108.3,5.845,1.85,2.94,54.891670,9.791750,54.895069,9.793790
1386787777,1,0,485.9,0,15,20,0,0,0,-0.0292,136.6911,6.8213,0.4212,54.895374,9.791575,108.3,5.845,1.85,2.94,54.891670,9.791750,54.895069,9.793790
1386787777,1,0,485.9,0,11,16,0,0,25,-0.0292,133.7578,6.8213,0.4212,54.895363,9.791598,108.3,5.845,1.85,2.94,54.891670,9.791750,54.895069,9.793790
1386787777,1,0,485.9,0,8,12,0,0,0,-0.0292,131.6245,6.8213,0.4212,54.895351,9.791622,108.3,5.845,1.85,2.94,54.891670,9.791750,54.895069,9.793790
1386787778,1,0,485.9,0,6,8,0,0,25,-0.0292,130.0245,6.8213,0.4212,54.895340,9.791646,108.3,5.845,1.85,2.94,54.891670,9.791750,54.895069,9.793790
1386787778,1,0,475.8,0,14,12,0,1,0,-0.0292,126.2911,6.8213,0.4212,54.895329,9.791671,108.3,5.845,1.85,2.94,54.891670,9.791750,54.895069,9.793790
1386787778,1,0,461.9,0,24,16,0,1,25,-0.0292,119.8911,6.8213,0.4212,54.895321,9.791698,108.3,5.845,1.85,2.94,54.891670,9.791750,54.895069,9.793790
1386787778,1,0,461.7,0,18,20,0,1,0,-0.0292,115.0911,6.8213,0.4212,54.895313,9.791725,108.3,5.845,1.85,2.94,54.891670,9.791750,54.895069,9.793790
1386787779,1,0,461.5,0,14,16,0,1,25,-0.0292,111.3578,6.8213,0.4212,54.895309,9.791755,108.3,5.845,1.85,2.94,54.891670,9.791750,54.895069,9.793790
1386787779,1,0,461.5,0,10,12,0,1,0,-0.0292,108.6911,6.8213,0.4212,54.895306,9.791784,108.3,5.845,1.85,2.94,54.891670,9.791750,54.895069,9.793790
1386787779,1,0,461.5,0,7,8,0,1,25,-0.0292,106.8245,6.8213,0.4212,54.895302,9.791814,108.3,5.845,1.85,2.94,54.891670,9.791750,54.895069,9.793790
1386787779,1,0,461.5,0,5,4,0,1,0,-0.0292,105.4911,6.8213,0.4212,54.895298,9.791844,108.3,5.845,1.85,2.94,54.891670,9.791750,54.895069,9.793790
1386787780,1,0,461.5,0,4,8,0,1,25,-0.0292,104.4245,6.8213,0.4212,54.895294,9.791875,108.3,5.845,1.85,2.94,54.891670,9.791750,54.895069,9.793790
1386787780,1,0,461.5,0,3,4,0,1,0,-0.0292,103.6245,6.8213,0.4212,54.895287,9.791905,108.3,5.845,1.85,2.94,54.891670,9.791750,54.895069,9.793790
1386787780,1,0,461.3,0,2,0,0,1,25,-0.0292,103.0911,6.8213,0.4212,54.895283,9.791935,108.3,5.845,1.85,2.94,54.891670,9.791750,54.895069,9.793790
1386787780,1,0,461.3,0,2,4,0,1,0,-0.0292,102.5578,6.8213,0.4212,54.895279,9.791965,108.3,5.845,1.85,2.94,54.891670,9.791750,54.895069,9.793790
1386787781,1,0,461.2,0,1,0,0,1,25,-0.0292,102.2911,6.8213,0.4212,54.895275,9.791996,108.3,5.845,1.85,2.94,54.891670,9.791750,54.895069,9.793790
1386787781,1,0,461.2,0,1,4,0,1,0,-0.0292,102.0245,6.8213,0.4212,54.895271,9.792027,108.3,5.845,1.85,2.94,54.891670,9.791750,54.895069,9.793790
1386787781,1,0,461.2,0,1,0,0,1,25,-0.0292,101.7578,6.8213,0.4212,54.895267,9.792057,108.3,5.845,1.85,2.94,54.891670,9.791750,54.895069,9.793790
1386787781,1,0,461.2,0,1,4,0,1,0,-0.0292,101.4911,6.8213,0.4212,54.895264,9.792088,108.3,5.845,1.85,2.94,54.891670,9.791750,54.895069,9.793790
1386787782,1,0,461.2,0,0,0,0,1,25,-0.0292,101.4911,6.8213,0.4212,54.895264,9.792118,108.3,5.845,1.85,2.94,54.891670,9.791750,54.895069,9.793790
1386787782,1,0,461.4,0,0,4,0,1,0,-0.0292,101.4911,6.8213,0.4212,54.895264,9.792149,108.3,5.845,1.85,2.94,54.891670,9.791750,54.895069,9.793790
1386787782,1,0,461.6,0,0,0,0,1,25,-0.0292,101.4911,6.8213,0.4212,54.895264,9.792179,108.3,5.845,1.85,2.94,54.891670,9.791750,54.895069,9.793790
1386787782,1,0,461.8,0,0,4,0,1,0,-0.0292,101.4911,6.8213,0.4212,54.895264,9.792210,108.3,5.845,1.85,2.94,54.891670,9.791750,54.895069,9.793790
1386787783,1,0,462.0,0,-1,0,0,1,25,-0.0292,101.7578,6.8213,0.4212,54.895264,9.792240,108.3,5.845,1.85,2.94,54.891670,9.791750,54.895069,9.793790
1386787783,1,0,462.2,0,0,4,0,1,0,-0.0292,101.7578,6.8213,0.4212,54.895264,9.792271,108.3,5.845,1.85,2.94,54.891670,9.791750,54.895069,9.793790
1386787783,1,0,462.5,0,-1,0,0,1,25,-0.0292,102.0245,6.8213,0.4212,54.895264,9.792301,108.3,5.845,1.85,2.94,54.891670,9.791750,54.895069,9.793790
1386787783,1,0,462.7,0,-1,-4,0,1,0,-0.0292,102.2911,6.8213,0.4212,54.895260,9.792332,108.3,5.845,1.85,2.94,54.891670,9.791750,54.895069,9.793790
1386787784,1,0,462.7,0,0,0,0,1,25,-0.0292,102.2911,6.8213,0.4212,54.895256,9.792361,108.3,5.845,1.85,2.94,54.891670,9.791750,54.895069,9.793790
1386787784,1,0,462.7,0,0,4,0,1,0,-0.0292,102.2911,6.8213,0.4212,54.895252,9.792392,108.3,5.845,1.85,2.94,54.891670,9.791750,54.895069,9.793790
1386787784,1,0,462.8,0,0,0,0,1,25,-0.0292,102.2911,6.8213,0.4212,54.895248,9.792422,108.3,5.845,1.85,2.94,54.891670,9.791750,54.895069,9.793790
1386787784,1,0,462.8,0,0,4,0,1,0,-0.0292,102.2911,6.8213,0.4212,54.895245,9.792453,108.3,5.845,1.85,2.94,54.891670,9.791750,54.895069,9.793790
1386787785,1,0,462.8,0,0,0,0,1,25,-0.0292,102.2911,6.8213,0.4212,54.895241,9.792483,108.3,5.845,1.85,2.94,54.891670,9.791750,54.895069,9.793790
1386787785,1,0,462.8,0,-1,-4,0,1,0,-0.0292,102.5578,6.8213,0.4212,54.895241,9.792514,108.3,5.845,1.85,2.94,54.891670,9.791750,54.895069,9.793790
1386787785,1,0,463.1,0,-1,0,0,1,25,-0.0292,102.8245,6.8213,0.4212,54.895241,9.792544,108.3,5.845,1.85,2.94,54.891670,9.791750,54.895069,9.793790
1386787785,1,0,463.4,0,-1,-4,0,1,0,-0.0292,103.0911,6.8213,0.4212,54.895241,9.792575,108.3,5.845,1.85,2.94,54.891670,9.791750,54.895069,9.793790
1386787786,1,0,463.7,0,-1,0,0,1,25,-0.0292,103.3578,6.8213,0.4212,54.895237,9.792605,108.3,5.845,1.85,2.94,54.891670,9.791750,54.895069,9.793790
1386787786,1,0,463.8,0,0,4,0,1,0,-0.0292,103.3578,6.8213,0.4212,54.895233,9.792636,108.3,5.845,1.85,2.94,54.891670,9.791750,54.895069,9.793790
1386787786,1,0,463.8,0,0,0,0,1,25,-0.0292,103.3578,6.8213,0.4212,54.895229,9.792665,108.3,5.845,1.85,2.94,54.891670,9.791750,54.895069,9.793790
1386787786,1,0,463.8,0,0,4,0,1,0,-0.0292,103.3578,6.8213,0.4212,54.895226,9.792696,108.3,5.845,1.85,2.94,54.891670,9.791750,54.895069,9.793790
1386787787,1,0,463.9,0,-1,0,0,1,25,-0.0292,103.6245,6.8213,0.4212,54.895222,9.792727,108.3,5.845,1.85,2.94,54.891670,9.791750,54.895069,9.793790
1386787787,1,0,463.9,0,0,4,0,1,0,-0.0292,103.6245,6.8213,0.4212,54.895218,9.792757,108.3,5.845,1.85,2.94,54.891670,9.791750,54.895069,9.793790
1386787787,1,0,464.0,0,0,0,0,1,25,-0.0292,103.6245,6.8213,0.4212,54.895210,9.792788,108.3,5.845,1.85,2.94,54.891670,9.791750,54.895069,9.793790
1386787787,1,0,463.7,0,0,4,0,1,0,-0.0292,103.6245,6.8213,0.4212,54.895206,9.792818,108.3,5.845,1.85,2.94,54.891670,9.791750,54.895069,9.793790
1386787788,1,0,463.7,0,0,0,0,1,25,-0.0292,103.6245,6.8213,0.4212,54.895203,9.792849,108.3,5.845,1.85,2.94,54.891670,9.791750,54.895069,9.793790
1386787788,1,0,463.8,0,0,4,0,1,0,-0.0292,103.6245,6.8213,0.4212,54.895199,9.792878,108.3,5.845,1.85,2.94,54.891670,9.791750,54.895069,9.793790
1386787788,1,0,463.8,0,0,0,0,1,25,-0.0292,103.6245,6.8213,0.4212,54.895195,9.792909,108.3,5.845,1.85,2.94,54.891670,9.791750,54.895069,9.793790
1386787788,1,0,463.9,0,0,4,0,1,0,-0.0292,103.6245,6.8213,0.4212,54.895187,9.792939,108.3,5.845,1.85,2.94,54.891670,9.791750,54.895069,9.793790
1386787789,1,0,463.5,0,0,0,0,1,25,-0.0292,103.6245,6.8213,0.4212,54.895184,9.792969,108.3,5.845,1.85,2.94,54.891670,9.791750,54.895069,9.793790
1386787789,1,0,463.5,0,0,4,0,1,0,-0.0292,103.6245,6.8213,0.4212,54.895180,9.792999,108.3,5.845,1.85,2.94,54.891670,9.791750,54.895069,9.793790
1386787789,1,0,463.6,0,0,0,0,1,25,-0.0292,103.6245,6.8213,0.4212,54.895176,9.793030,108.3,5.845,1.85,2.94,54.891670,9.791750,54.895069,9.793790
1386787789,1,0,463.7,0,0,4,0,1,0,-0.0292,103.6245,6.8213,0.4212,54.895172,9.793060,108.3,5.845,1.85,2.94,54.891670,9.791750,54.895069,9.793790
1386787790,1,0,463.7,0,0,0,0,1,25,-0.0292,103.6245,6.8213,0.4212,54.895168,9.793090,108.3,5.845,1.85,2.94,54.891670,9.791750,54.895069,9.793790
1386787790,1,0,463.8,0,0,4,0,1,0,-0.0292,103.6245,6.8213,0.4212,54.895161,9.793120,108.3,5.845,1.85,2.94,54.891670,9.791750,54.895069,9.793790
1386787790,1,0,463.3,0,0,0,0,1,25,-0.0292,103.6245,6.8213,0.4212,54.895157,9.793151,108.3,5.845,1.85,2.94,54.891670,9.791750,54.895069,9.793790
1386787791,1,0,463.3,0,0,4,0,1,0,-0.0292,103.6245,6.8213,0.4212,54.895153,9.793180,108.3,5.845,1.85,2.94,54.891670,9.791750,54.895069,9.793790
1386787791,1,0,463.4,0,0,0,0,1,25,-0.0292,103.6245,6.8213,0.4212,54.895149,9.793211,108.3,5.845,1.85,2.94,54.891670,9.791750,54.895069,9.793790
1386787791,1,0,463.5,0,0,4,0,1,0,-0.0292,103.6245,6.8213,0.4212,54.895145,9.793242,108.3,5.845,1.85,2.94,54.891670,9.791750,54.895069,9.793790
1386787791,1,0,463.5,0,0,0,0,1,25,-0.0292,103.6245,6.8213,0.4212,54.895138,9.793272,108.3,5.845,1.85,2.94,54.891670,9.791750,54.895069,9.793790
1386787792,1,0,462.9,0,1,4,0,1,0,-0.0292,103.3578,6.8213,0.4212,54.895134,9.793303,108.3,5.845,1.85,2.94,54.891670,9.791750,54.895069,9.793790
1386787792,1,0,463.0,0,0,0,0,1,25,-0.0292,103.3578,6.8213,0.4212,54.895130,9.793333,108.3,5.845,1.85,2.94,54.891670,9.791750,54.895069,9.793790
1386787792,1,0,463.0,0,0,4,0,1,0,-0.0292,103.3578,6.8213,0.4212,54.895126,9.793364,108.3,5.845,1.85,2.94,54.891670,9.791750,54.895069,9.793790
1386787792,1,0,463.1,0,0,0,0,1,25,-0.0292,103.3578,6.8213,0.4212,54.895123,9.793393,108.3,5.845,1.85,2.94,54.891670,9.791750,54.895069,9.793790
1386787793,1,0,463.1,0,0,4,0,1,0,-0.0292,103.3578,6.8213,0.4212,54.895119,9.793424,108.3,5.845,1.85,2.94,54.891670,9.791750,54.895069,9.793790
1386787793,1,0,463.2,0,0,0,0,1,25,-0.0292,103.3578,6.8213,0.4212,54.895111,9.793454,108.3,5.845,1.85,2.94,54.891670,9.791750,54.895069,9.793790
1386787793,1,0,462.2,0,1,4,0,1,0,-0.0292,103.0911,6.8213,0.4212,54.895107,9.793485,108.3,5.845,1.85,2.94,54.891670,9.791750,54.895069,9.793790
1386787793,1,0,462.2,0,1,0,0,1,25,-0.0292,102.8245,6.8213,0.4212,54.895103,9.793515,108.3,5.845,1.85,2.94,54.891670,9.791750,54.895069,9.793790
1386787794,1,0,462.2,0,1,4,0,1,0,-0.0292,102.5578,6.8213,0.4212,54.895100,9.793546,108.3,5.845,1.85,2.94,54.891670,9.791750,54.895069,9.793790
1386787794,1,0,462.2,0,0,0,0,1,25,-0.0292,102.5578,6.8213,0.4212,54.895096,9.793576,108.3,5.845,1.85,2.94,54.891670,9.791750,54.895069,9.793790
1386787794,1,0,462.2,0,0,4,0,1,0,-0.0292,102.5578,6.8213,0.4212,54.895088,9.793606,108.3,5.845,1.85,2.94,54.891670,9.791750,54.895069,9.793790
1386787794,1,0,460.2,0,2,0,0,1,25,-0.0292,102.0245,6.8213,0.4212,54.895084,9.793636,108.3,5.845,1.85,2.94,54.891670,9.791750,54.895069,9.793790
1386787795,1,0,459.7,0,2,4,0,1,0,-0.0292,101.4911,6.8213,0.4212,54.895081,9.793667,108.3,5.845,1.85,2.94,54.891670,9.791750,54.895069,9.793790
1386787795,1,0,459.1,0,2,0,0,1,25,-0.0292,100.9578,6.8213,0.4212,54.895077,9.793697,108.3,5.845,1.85,2.94,54.891670,9.791750,54.895069,9.793790
1386787795,1,0,458.1,0,3,4,0,1,0,-0.0292,100.1578,6.8213,0.4212,54.895073,9.793729,108.3,5.845,1.85,2.94,54.891670,9.791750,54.895069,9.793790
1386787795,1,0,456.2,0,4,8,0,1,25,-0.0292,99.0911,6.8213,0.4212,54.895069,9.793759,108.3,5.845,1.85,2.94,54.895069,9.793790,54.895348,9.797490
1386787796,1,0,442.6,0,16,12,0,1,0,-0.0292,94.8245,6.8213,0.4212,54.895065,9.793790,108.3,5.845,1.85,2.94,54.895069,9.793790,54.895348,9.797490
1386787796,1,0,442.5,0,12,16,0,1,25,-0.0292,91.6245,6.8213,0.4212,54.895065,9.793820,108.3,5.845,1.85,2.94,54.895069,9.793790,54.895348,9.797490
1386787796,1,0,442.4,0,9,12,0,1,0,-0.0292,89.2245,6.8213,0.4212,54.895065,9.793852,108.3,5.845,1.85,2.94,54.895069,9.793790,54.895348,9.797490
1386787796,1,0,442.4,0,7,8,0,1,25,-0.0292,87.3578,6.8213,0.4212,54.895069,9.793883,108.3,5.845,1.85,2.94,54.895069,9.793790,54.895348,9.797490
1386787797,1,0,442.4,0,5,4,0,1,0,-0.0292,86.0245,6.8213,0.4212,54.895069,9.793914,108.3,5.845,1.85,2.94,54.895069,9.793790,54.895348,9.797490
1386787797,1,0,442.3,0,4,8,0,1,25,-0.0292,84.9578,6.8213,0.4212,54.895069,9.793945,108.3,5.845,1.85,2.94,54.895069,9.793790,54.895348,9.797490
1386787797,1,0,442.3,0,3,4,0,1,0,-0.0292,84.1578,6.8213,0.4212,54.895069,9.793977,108.3,5.845,1.85,2.94,54.895069,9.793790,54.895348,9.797490
1386787797,1,0,442.2,0,2,0,0,1,25,-0.0292,83.6245,6.8213,0.4212,54.895069,9.794007,108.3,5.845,1.85,2.94,54.895069,9.793790,54.895348,9.797490
1386787798,1,0,442.1,0,1,4,0,1,0,-0.0292,83.3578,6.8213,0.4212,54.895069,9.794038,108.3,5.845,1.85,2.94,54.895069,9.793790,54.895348,9.797490
1386787798,1,0,442.1,0,1,0,0,1,25,-0.0292,83.0911,6.8213,0.4212,54.895069,9.794069,108.3,5.845,1.85,2.94,54.895069,9.793790,54.895348,9.797490
1386787798,1,0,442.0,0,1,4,0,1,0,-0.0292,82.8244,6.8213,0.4212,54.895069,9.794101,108.3,5.845,1.85,2.94,54.895069,9.793790,54.895348,9.797490
1386787798,1,0,441.9,0,1,0,0,1,25,-0.0292,82.5578,6.8213,0.4212,54.895069,9.794131,108.3,5.845,1.85,2.94,54.895069,9.793790,54.895348,9.797490
1386787799,1,0,441.8,0,1,4,0,1,0,-0.0292,82.2911,6.8213,0.4212,54.895069,9.794163,108.3,5.845,1.85,2.94,54.895069,9.793790,54.895348,9.797490
1386787799,1,0,441.8,0,1,0,0,1,25,-0.0292,82.0244,6.8213,0.4212,54.895069,9.794194,108.3,5.845,1.85,2.94,54.895069,9.793790,54.895348,9.797490
1386787799,1,0,441.7,0,0,4,0,1,0,-0.0292,82.0244,6.8213,0.4212,54.895069,9.794225,108.3,5.845,1.85,2.94,54.895069,9.793790,54.895348,9.797490
1386787799,1,0,441.6,0,0,0,0,1,25,-0.0292,82.0244,6.8213,0.4212,54.895069,9.794255,108.3,5.845,1.85,2.94,54.895069,9.793790,54.895348,9.797490
1386787800,1,0,441.5,0,0,4,0,1,0,-0.0292,82.0244,6.8213,0.4212,54.895069,9.794287,108.3,5.845,1.85,2.94,54.895069,9.793790,54.895348,9.797490
1386787800,1,0,441.5,0,1,0,0,1,25,-0.0292,81.7578,6.8213,0.4212,54.895069,9.794318,108.3,5.845,1.85,2.94,54.895069,9.793790,54.895348,9.797490
1386787800,1,0,441.4,0,0,4,0,1,0,-0.0292,81.7578,6.8213,0.4212,54.895069,9.794349,108.3,5.845,1.85,2.94,54.895069,9.793790,54.895348,9.797490
1386787800,1,0,441.3,0,0,0,0,1,25,-0.0292,81.7578,6.8213,0.4212,54.895069,9.794379,108.3,5.845,1.85,2.94,54.895069,9.793790,54.895348,9.797490
1386787801,1,0,441.2,0,1,4,0,1,0,-0.0292,81.4911,6.8213,0.4212,54.895069,9.794411,108.3,5.845,1.85,2.94,54.895069,9.793790,54.895348,9.797490
1386787801,1,0,441.1,0,0,0,0,1,25,-0.0292,81.4911,6.8213,0.4212,54.895069,9.794441,108.3,5.845,1.85,2.94,54.895069,9.793790,54.895348,9.797490
1386787801,1,0,441.0,0,0,4,0,1,0,-0.0292,81.4911,6.8213,0.4212,54.895069,9.794472,108.3,5.845,1.85,2.94,54.895069,9.793790,54.895348,9.797490
1386787801,1,0,440.9,0,1,0,0,1,25,-0.0292,81.2244,6.8213,0.4212,54.895069,9.794503,108.3,5.845,1.85,2.94,54.895069,9.793790,54.895348,9.797490
1386787802,1,0,440.8,0,0,4,0,1,0,-0.0292,81.2244,6.8213,0.4212,54.895069,9.794535,108.3,5.845,1.85,2.94,54.895069,9.793790,54.895348,9.797490
1386787802,1,0,440.8,0,0,0,0,1,25,-0.0292,81.2244,6.8213,0.4212,54.895069,9.794565,108.3,5.845,1.85,2.94,54.895069,9.793790,54.895348,9.797490
1386787802,1,0,440.7,0,1,4,0,1,0,-0.0292,80.9577,6.8213,0.4212,54.895069,9.794596,108.3,5.845,1.85,2.94,54.895069,9.793790,54.895348,9.797490
1386787802,1,0,440.6,0,0,0,0,1,25,-0.0292,80.9577,6.8213,0.4212,54.895069,9.794627,108.3,5.845,1.85,2.94,54.895069,9.793790,54.895348,9.797490
1386787803,1,0,440.5,0,1,4,0,1,0,-0.0292,80.6911,6.8213,0.4212,54.895069,9.794658,108.3,5.845,1.85,2.94,54.895069,9.793790,54.895348,9.797490
1386787803,1,0,440.4,0,0,0,0,1,25,-0.0292,80.6911,6.8213,0.4212,54.895069,9.794688,108.3,5.845,1.85,2.94,54.895069,9.793790,54.895348,9.797490
1386787803,1,0,440.3,0,0,4,0,1,0,-0.0292,80.6911,6.8213,0.4212,54.895069,9.794720,108.3,5.845,1.85,2.94,54.895069,9.793790,54.895348,9.797490
1386787803,1,0,440.1,0,1,0,0,1,25,-0.0292,80.4244,6.8213,0.4212,54.895069,9.794750,108.3,5.845,1.85,2.94,54.895069,9.793790,54.895348,9.797490
1386787804,1,0,440.0,0,0,4,0,1,0,-0.0292,80.4244,6.8213,0.4212,54.895069,9.794781,108.3,5.845,1.85,2.94,54.895069,9.793790,54.895348,9.797490
1386787804,1,0,439.9,0,0,0,0,1,25,-0.0292,80.4244,6.8213,0.4212,54.895069,9.794811,108.3,5.845,1.85,2.94,54.895069,9.793790,54.895348,9.797490
1386787804,1,0,439.8,0,1,4,0,1,0,-0.0292,80.1577,6.8213,0.4212,54.895069,9.794843,108.3,5.845,1.85,2.94,54.895069,9.793790,54.895348,9.797490
1386787804,1,0,439.7,0,0,0,0,1,25,-0.0292,80.1577,6.8213,0.4212,54.895069,9.794873,108.3,5.845,1.85,2.94,54.895069,9.793790,54.895348,9.797490
1386787805,1,0,439.6,0,1,4,0,1,0,-0.0292,79.8911,6.8213,0.4212,54.895069,9.794904,108.3,5.845,1.85,2.94,54.895069,9.793790,54.895348,9.797490
1386787805,1,0,439.5,0,0,0,0,1,25,-0.0292,79.8911,6.8213,0.4212,54.895069,9.794934,108.3,5.845,1.85,2.94,54.895069,9.793790,54.895348,9.797490
1386787805,1,0,439.3,0,1,4,0,1,0,-0.0292,79.6244,6.8213,0.4212,54.895069,9.794965,108.3,5.845,1.85,2.94,54.895069,9.793790,54.895348,9.797490
1386787805,1,0,439.2,0,0,0,0,1,25,-0.0292,79.6244,6.8213,0.4212,54.895069,9.794995,108.3,5.845,1.85,2.94,54.895069,9.793790,54.895348,9.797490
1386787806,1,0,439.1,0,1,4,0,1,0,-0.0292,79.3577,6.8213,0.4212,54.895069,9.795026,108.3,5.845,1.85,2.94,54.895069,9.793790,54.895348,9.797490
1386787806,1,0,438.9,0,0,0,0,1,25,-0.0292,79.3577,6.8213,0.4212,54.895069,9.795057,108.3,5.845,1.85,2.94,54.895069,9.793790,54.895348,9.797490
1386787806,1,0,438.8,0,1,4,0,1,0,-0.0292,79.0911,6.8213,0.4212,54.895069,9.795088,108.3,5.845,1.85,2.94,54.895069,9.793790,54.895348,9.797490
1386787806,1,0,438.7,0,0,0,0,1,25,-0.0292,79.0911,6.8213,0.4212,54.895069,9.795118,108.3,5.845,1.85,2.94,54.895069,9.793790,54.895348,9.797490
1386787807,1,0,438.5,0,1,4,0,1,0,-0.0292,78.8244,6.8213,0.4212,54.895069,9.795149,108.3,5.845,1.85,2.94,54.895069,9.793790,54.895348,9.797490
1386787807,1,0,438.4,0,0,0,0,1,25,-0.0292,78.8244,6.8213,0.4212,54.895069,9.795179,108.3,5.845,1.85,2.94,54.895069,9.793790,54.895348,9.797490
1386787807,1,0,438.2,0,1,4,0,1,0,-0.0292,78.5577,6.8213,0.4212,54.895069,9.795210,108.3,5.845,1.85,2.94,54.895069,9.793790,54.895348,9.797490
1386787807,1,0,438.1,0,0,0,0,1,25,-0.0292,78.5577,6.8213,0.4212,54.895069,9.795240,108.3,5.845,1.85,2.94,54.895069,9.793790,54.895348,9.797490
1386787808,1,0,437.9,0,1,4,0,1,0,-0.0292,78.2910,6.8213,0.4212,54.895069,9.795271,108.3,5.845,1.85,2.94,54.895069,9.793790,54.895348,9.797490
1386787808,1,0,437.8,0,1,0,0,1,25,-0.0292,78.0244,6.8213,0.4212,54.895069,9.795301,108.3,5.845,1.85,2.94,54.895069,9.793790,54.895348,9.797490
1386787808,1,0,437.6,0,0,4,0,1,0,-0.0292,78.0244,6.8213,0.4212,54.895069,9.795332,108.3,5.845,1.85,2.94,54.895069,9.793790,54.895348,9.797490
1386787808,1,0,437.4,0,1,0,0,1,25,-0.0292,77.7577,6.8213,0.4212,54.895069,9.795362,108.3,5.845,1.85,2.94,54.895069,9.793790,54.895348,9.797490
1386787809,1,0,437.3,0,0,4,0,1,0,-0.0292,77.7577,6.8213,0.4212,54.895069,9.795392,108.3,5.845,1.85,2.94,54.895069,9.793790,54.895348,9.797490
1386787809,1,0,437.1,0,1,0,0,1,25,-0.0292,77.4910,6.8213,0.4212,54.895069,9.795423,108.3,5.845,1.85,2.94,54.895069,9.793790,54.895348,9.797490
1386787809,1,0,436.9,0,1,4,0,1,0,-0.0292,77.2244,6.8213,0.4212,54.895069,9.795453,108.3,5.845,1.85,2.94,54.895069,9.793790,54.895348,9.797490
1386787809,1,0,436.7,0,1,0,0,1,25,-0.0292,76.9577,6.8213,0.4212,54.895069,9.795484,108.3,5.845,1.85,2.94,54.895069,9.793790,54.895348,9.797490
1386787810,1,0,436.5,0,0,4,0,1,0,-0.0292,76.9577,6.8213,0.4212,54.895069,9.795514,108.3,5.845,1.85,2.94,54.895069,9.793790,54.895348,9.797490
1386787810,1,0,436.3,0,1,0,0,1,25,-0.0292,76.6910,6.8213,0.4212,54.895073,9.795545,108.3,5.845,1.85,2.94,54.895069,9.793790,54.895348,9.797490
1386787810,1,0,436.3,0,0,4,0,1,0,-0.0292,76.6910,6.8213,0.4212,54.895077,9.795575,108.3,5.845,1.85,2.94,54.895069,9.793790,54.895348,9.797490
1386787810,1,0,436.3,0,0,0,0,1,25,-0.0292,76.6910,6.8213,0.4212,54.895081,9.795606,108.3,5.845,1.85,2.94,54.895069,9.793790,54.895348,9.797490
1386787811,1,0,436.2,0,0,4,0,1,0,-0.0292,76.6910,6.8213,0.4212,54.895084,9.795636,108.3,5.845,1.85,2.94,54.895069,9.793790,54.895348,9.797490
1386787811,1,0,436.2,0,0,0,0,1,25,-0.0292,76.6910,6.8213,0.4212,54.895088,9.795666,108.3,5.845,1.85,2.94,54.895069,9.793790,54.895348,9.797490
1386787811,1,0,436.2,0,0,4,0,1,0,-0.0292,76.6910,6.8213,0.4212,54.895092,9.795696,108.3,5.845,1.85,2.94,54.895069,9.793790,54.895348,9.797490
1386787811,1,0,436.2,0,1,0,0,1,25,-0.0292,76.4244,6.8213,0.4212,54.895100,9.795727,108.3,5.845,1.85,2.94,54.895069,9.793790,54.895348,9.797490
1386787812,1,0,436.3,0,0,4,0,1,0,-0.0292,76.4244,6.8213,0.4212,54.895103,9.795757,108.3,5.845,1.85,2.94,54.895069,9.793790,54.895348,9.797490
1386787812,1,0,436.3,0,0,0,0,1,25,-0.0292,76.4244,6.8213,0.4212,54.895107,9.795788,108.3,5.845,1.85,2.94,54.895069,9.793790,54.895348,9.797490
1386787812,1,0,436.3,0,0,4,0,1,0,-0.0292,76.4244,6.8213,0.4212,54.895111,9.795818,108.3,5.845,1.85,2.94,54.895069,9.793790,54.895348,9.797490
1386787812,1,0,436.3,0,0,0,0,1,25,-0.0292,76.4244,6.8213,0.4212,54.895115,9.795849,108.3,5.845,1.85,2.94,54.895069,9.793790,54.895348,9.797490
1386787813,1,0,436.2,0,0,4,0,1,0,-0.0292,76.4244,6.8213,0.4212,54.895123,9.795878,108.3,5.845,1.85,2.94,54.895069,9.793790,54.895348,9.797490
1386787813,1,0,436.4,0,0,0,0,1,25,-0.0292,76.4244,6.8213,0.4212,54.895126,9.795909,108.3,5.845,1.85,2.94,54.895069,9.793790,54.895348,9.797490
1386787813,1,0,436.4,0,0,4,0,1,0,-0.0292,76.4244,6.8213,0.4212,54.895130,9.795939,108.3,5.845,1.85,2.94,54.895069,9.793790,54.895348,9.797490
1386787813,1,0,436.4,0,0,0,0,1,25,-0.0292,76.4244,6.8213,0.4212,54.895134,9.795969,108.3,5.845,1.85,2.94,54.895069,9.793790,54.895348,9.797490
1386787814,1,0,436.4,0,0,4,0,1,0,-0.0292,76.4244,6.8213,0.4212,54.895138,9.796000,108.3,5.845,1.85,2.94,54.895069,9.793790,54.895348,9.797490
1386787814,1,0,436.3,0,0,0,0,1,25,-0.0292,76.4244,6.8213,0.4212,54.895142,9.796030,108.3,5.845,1.85,2.94,54.895069,9.793790,54.895348,9.797490
1386787814,1,0,436.3,0,0,4,0,1,0,-0.0292,76.4244,6.8213,0.4212,54.895149,9.796061,108.3,5.845,1.85,2.94,54.895069,9.793790,54.895348,9.797490
1386787814,1,0,436.5,0,0,0,0,1,25,-0.0292,76.4244,6.8213,0.4212,54.895153,9.796090,108.3,5.845,1.85,2.94,54.895069,9.793790,54.895348,9.797490
1386787815,1,0,436.5,0,0,4,0,1,0,-0.0292,76.4244,6.8213,0.4212,54.895157,9.796121,108.3,5.845,1.85,2.94,54.895069,9.793790,54.895348,9.797490
1386787815,1,0,436.5,0,0,0,0,1,25,-0.0292,76.4244,6.8213,0.4212,54.895161,9.796151,108.3,5.845,1.85,2.94,54.895069,9.793790,54.895348,9.797490
1386787815,1,0,436.4,0,0,4,0,1,0,-0.0292,76.4244,6.8213,0.4212,54.895164,9.796181,108.3,5.845,1.85,2.94,54.895069,9.793790,54.895348,9.797490
1386787815,1,0,436.4,0,0,0,0,1,25,-0.0292,76.4244,6.8213,0.4212,54.895172,9.796211,108.3,5.845,1.85,2.94,54.895069,9.793790,54.895348,9.797490
1386787816,1,0,436.7,0,0,4,0,1,0,-0.0292,76.4244,6.8213,0.4212,54.895176,9.796242,108.3,5.845,1.85,2.94,54.895069,9.793790,54.895348,9.797490
1386787816,1,0,436.6,0,0,0,0,1,25,-0.0292,76.4244,6.8213,0.4212,54.895180,9.796272,108.3,5.845,1.85,2.94,54.895069,9.793790,54.895348,9.797490
1386787816,1,0,436.6,0,0,4,0,1,0,-0.0292,76.4244,6.8213,0.4212,54.895184,9.796303,108.3,5.845,1.85,2.94,54.895069,9.793790,54.895348,9.797490
1386787816,1,0,436.6,0,0,0,0,1,25,-0.0292,76.4244,6.8213,0.4212,54.895187,9.796333,108.3,5.845,1.85,2.94,54.895069,9.793790,54.895348,9.797490
1386787817,1,0,436.5,0,0,4,0,1,0,-0.0292,76.4244,6.8213,0.4212,54.895191,9.796364,108.3,5.845,1.85,2.94,54.895069,9.793790,54.895348,9.797490
1386787817,1,0,436.5,0,0,0,0,1,25,-0.0292,76.4244,6.8213,0.4212,54.895199,9.796393,108.3,5.845,1.85,2.94,54.895069,9.793790,54.895348,9.797490
1386787817,1,0,436.8,0,0,4,0,1,0,-0.0292,76.4244,6.8213,0.4212,54.895203,9.796424,108.3,5.845,1.85,2.94,54.895069,9.793790,54.895348,9.797490
1386787817,1,0,436.8,0,0,0,0,1,25,-0.0292,76.4244,6.8213,0.4212,54.895206,9.796454,108.3,5.845,1.85,2.94,54.895069,9.793790,54.895348,9.797490
1386787818,1,0,436.7,0,0,4,0,1,0,-0.0292,76.4244,6.8213,0.4212,54.895210,9.796484,108.3,5.845,1.85,2.94,54.895069,9.793790,54.895348,9.797490
1386787818,1,0,436.7,0,0,0,0,1,25,-0.0292,76.4244,6.8213,0.4212,54.895214,9.796515,108.3,5.845,1.85,2.94,54.895069,9.793790,54.895348,9.797490
1386787818,1,0,436.7,0,0,4,0,1,0,-0.0292,76.4244,6.8213,0.4212,54.895222,9.796545,108.3,5.845,1.85,2.94,54.895069,9.793790,54.895348,9.797490
1386787819,1,0,437.0,0,-1,0,0,1,25,-0.0292,76.6910,6.8213,0.4212,54.895226,9.796576,108.3,5.845,1.85,2.94,54.895069,9.793790,54.895348,9.797490
1386787819,1,0,437.0,0,0,4,0,1,0,-0.0292,76.6910,6.8213,0.4212,54.895229,9.796605,108.3,5.845,1.85,2.94,54.895069,9.793790,54.895348,9.797490
1386787819,1,0,437.0,0,0,0,0,1,25,-0.0292,76.6910,6.8213,0.4212,54.895233,9.796636,108.3,5.845,1.85,2.94,54.895069,9.793790,54.895348,9.797490
1386787819,1,0,437.0,0,0,4,0,1,0,-0.0292,76.6910,6.8213,0.4212,54.895237,9.796666,108.3,5.845,1.85,2.94,54.895069,9.793790,54.895348,9.797490
1386787820,1,0,436.9,0,0,0,0,1,25,-0.0292,76.6910,6.8213,0.4212,54.895241,9.796696,108.3,5.845,1.85,2.94,54.895069,9.793790,54.895348,9.797490
1386787820,1,0,436.9,0,0,4,0,1,0,-0.0292,76.6910,6.8213,0.4212,54.895248,9.796726,108.3,5.845,1.85,2.94,54.895069,9.793790,54.895348,9.797490
1386787820,1,0,437.4,0,-1,0,0,1,25,-0.0292,76.9577,6.8213,0.4212,54.895252,9.796757,108.3,5.845,1.85,2.94,54.895069,9.793790,54.895348,9.797490
1386787820,1,0,437.3,0,0,4,0,1,0,-0.0292,76.9577,6.8213,0.4212,54.895256,9.796787,108.3,5.845,1.85,2.94,54.895069,9.793790,54.895348,9.797490
1386787821,1,0,437.3,0,0,0,0,1,25,-0.0292,76.9577,6.8213,0.4212,54.895260,9.796818,108.3,5.845,1.85,2.94,54.895069,9.793790,54.895348,9.797490
1386787821,0,0,437.3,0,0,0,0,1,25,-0.0292,76.9577,6.8213,0.4212,54.895260,9.796818,108.3,5.845,1.85,335.95,54.895069,9.793790,54.895348,9.797490
1386787821,0,0,437.3,0,0,0,0,1,25,-0.0292,76.9577,6.8213,0.4212,54.895260,9.796818,108.3,5.845,1.85,335.95,54.895069,9.793790,54.895348,9.797490
1386787821,0,0,437.3,0,0,0,0,1,25,-0.0292,76.9577,6.8213,0.4212,54.895260,9.796818,108.3,5.845,1.85,335.95,54.895069,9.793790,54.895348,9.797490
1386787822,0,0,437.3,0,0,0,0,1,25,-0.0292,76.9577,6.8213,0.4212,54.895260,9.796818,108.3,5.845,1.85,335.95,54.895069,9.793790,54.895348,9.797490
1386787822,0,0,437.3,0,0,0,0,1,25,-0.0292,76.9577,6.8213,0.4212,54.895260,9.796818,108.3,5.845,1.85,335.95,54.895069,9.793790,54.895348,9.797490
1386787822,0,0,437.3,0,0,0,0,1,25,-0.0292,76.9577,6.8213,0.4212,54.895260,9.796818,108.3,5.845,1.85,335.95,54.895069,9.793790,54.895348,9.797490
1386787822,0,0,437.3,0,0,0,0,1,25,-0.0292,76.9577,6.8213,0.4212,54.895260,9.796818,108.3,5.845,1.85,335.95,54.895069,9.793790,54.895348,9.797490
1386787823,0,0,437.3,0,0,0,0,1,25,-0.0292,76.9577,6.8213,0.4212,54.895260,9.796818,108.3,5.845,1.85,335.95,54.895069,9.793790,54.895348,9.797490
1386787823,0,0,437.3,0,0,0,0,1,25,-0.0292,76.9577,6.8213,0.4212,54.895260,9.796818,108.3,5.845,1.85,335.95,54.895069,9.793790,54.895348,9.797490
1386787823,0,0,437.3,0,0,0,0,1,25,-0.0292,76.9577,6.8213,0.4212,54.895260,9.796818,108.3,5.845,1.85,335.95,54.895069,9.793790,54.895348,9.797490
1386787823,0,0,437.3,0,0,0,0,1,25,-0.0292,76.9577,6.8213,0.4212,54.895260,9.796818,108.3,5.845,1.85,335.95,54.895069,9.793790,54.895348,9.797490
1386787824,0,0,437.3,0,0,0,0,1,25,-0.0292,76.9577,6.8213,0.4212,54.895260,9.796818,108.3,5.845,1.85,335.95,54.895069,9.793790,54.895348,9.797490
1386787824,0,0,437.3,0,0,0,0,1,25,-0.0292,76.9577,6.8213,0.4212,54.895260,9.796818,108.3,5.845,1.85,335.95,54.895069,9.793790,54.895348,9.797490
1386787824,0,0,437.3,0,0,0,0,1,25,-0.0292,76.9577,6.8213,0.4212,54.895260,9.796818,108.3,5.845,1.85,335.95,54.895069,9.793790,54.895348,9.797490
1386787824,0,0,437.3,0,0,0,0,1,25,-0.0292,76.9577,6.8213,0.4212,54.895260,9.796818,108.3,5.845,1.85,335.95,54.895069,9.793790,54.895348,9.797490
1386787825,0,0,437.3,0,0,0,0,1,25,-0.0292,76.9577,6.8213,0.4212,54.895260,9.796818,108.3,5.845,1.85,335.95,54.895069,9.793790,54.895348,9.797490
1386787825,0,0,437.3,0,0,0,0,1,25,-0.0292,76.9577,6.8213,0.4212,54.895260,9.796818,108.3,5.845,1.85,335.95,54.895069,9.793790,54.895348,9.797490
1386787825,0,0,437.3,0,0,0,0,1,25,-0.0292,76.9577,6.8213,0.4212,54.895260,9.796818,108.3,5.845,1.85,335.95,54.895069,9.793790,54.895348,9.797490
1386787825,0,0,437.3,0,0,0,0,1,25,-0.0292,76.9577,6.8213,0.4212,54.895260,9.796818,108.3,5.845,1.85,335.95,54.895069,9.793790,54.895348,9.797490
1386787826,0,0,437.3,0,0,0,0,1,25,-0.0292,76.9577,6.8213,0.4212,54.895260,9.796818,108.3,5.845,1.85,335.95,54.895069,9.793790,54.895348,9.797490
