MCU_timestamp,Navigation_System,Manual_Control,Guidance_Heading,Manual_Ctrl_Rudder,Rudder_Desired_Angle,Rudder_Feedback,Manual_Ctrl_Sail,Sail_Desired_Pos,Sail_Feedback,Rate,Heading,Pitch,Roll,Latitude,Longitude,COG,SOG,Wind_Speed,Wind_Angle,Point_Start_Lat,Point_Start_Lon,Point_End_Lat,Point_End_Lon
1386876884,1,0,485.9,0,35,4,0,409,125,-0.0292,536.1594,6.8213,0.4212,54.896564,9.785795,108.3,5.845,1.85,335.95,54.896584,9.785793,0.000000,0.000000
1386876885,1,0,485.9,0,35,8,0,409,150,-0.0292,526.8260,6.8213,0.4212,54.896549,9.785802,108.3,5.845,1.85,335.95,54.896584,9.785793,0.000000,0.000000
1386876885,1,0,485.9,0,35,12,0,409,175,-0.0292,517.4927,6.8213,0.4212,54.896530,9.785814,108.3,5.845,1.85,335.95,54.896584,9.785793,0.000000,0.000000
1386876885,1,0,485.9,0,32,16,0,0,150,-0.0292,508.9594,6.8213,0.4212,54.896515,9.785830,108.3,5.845,1.85,335.95,54.896584,9.785793,0.000000,0.000000
1386876885,1,0,485.9,0,23,20,0,0,125,-0.0292,502.8261,6.8213,0.4212,54.896503,9.785850,108.3,5.845,1.85,335.95,54.896584,9.785793,0.000000,0.000000
1386876886,1,0,485.9,0,17,16,0,409,150,-0.0292,498.2928,6.8213,0.4212,54.896488,9.785871,108.3,5.845,1.85,335.95,54.896584,9.785793,0.000000,0.000000
1386876886,1,0,485.9,0,12,12,0,409,175,-0.0292,495.0927,6.8213,0.4212,54.896477,9.785892,108.3,5.845,1.85,335.95,54.896584,9.785793,0.000000,0.000000
1386876886,1,0,485.9,0,9,8,0,409,200,-0.0292,492.6927,6.8213,0.4212,54.896461,9.785915,108.3,5.845,1.85,335.95,54.896584,9.785793,0.000000,0.000000
1386876886,1,0,485.9,0,7,4,0,409,225,-0.0292,490.8261,6.8213,0.4212,54.896450,9.785939,108.3,5.845,1.85,335.95,54.896584,9.785793,0.000000,0.000000
1386876887,1,0,485.9,0,5,8,0,409,250,-0.0292,489.4927,6.8213,0.4212,54.896439,9.785964,108.3,5.845,1.85,335.95,54.896584,9.785793,0.000000,0.000000
1386876887,1,0,485.9,0,4,4,0,409,275,-0.0292,488.4261,6.8213,0.4212,54.896427,9.785989,108.3,5.845,1.85,335.95,54.896584,9.785793,0.000000,0.000000
1386876887,0,0,485.9,0,4,4,0,409,275,-0.0292,488.4261,6.8213,0.4212,54.896427,9.785989,108.3,5.845,1.85,335.95,54.896584,9.785793,0.000000,0.000000
1386876887,0,0,485.9,0,4,4,0,409,275,-0.0292,488.4261,6.8213,0.4212,54.896427,9.785989,108.3,5.845,1.85,335.95,54.896584,9.785793,0.000000,0.000000
1386876888,0,0,485.9,0,4,4,0,409,275,-0.0292,488.4261,6.8213,0.4212,54.896427,9.785989,108.3,5.845,1.85,335.95,54.896584,9.785793,0.000000,0.000000
1386876888,0,0,485.9,0,4,4,0,409,275,-0.0292,488.4261,6.8213,0.4212,54.896427,9.785989,108.3,5.845,1.85,335.95,54.896584,9.785793,0.000000,0.000000
1386876888,0,0,485.9,0,4,4,0,409,275,-0.0292,488.4261,6.8213,0.4212,54.896427,9.785989,108.3,5.845,1.85,335.95,54.896584,9.785793,0.000000,0.000000
1386876888,4,0,485.9,0,4,4,0,409,275,-0.0292,488.4261,6.8213,0.4212,54.896427,9.785989,108.3,5.845,1.85,335.95,54.896584,9.785793,0.000000,0.000000
1386876889,1,0,485.9,0,2,0,0,409,300,-0.0292,487.8927,6.8213,0.4212,54.896416,9.786013,108.3,5.845,1.85,335.95,54.896427,9.785989,54.895069,9.793790
1386876889,1,0,485.9,0,2,4,0,409,325,-0.0292,487.3594,6.8213,0.4212,54.896404,9.786037,108.3,5.845,1.85,335.95,54.896427,9.785989,54.895069,9.793790
1386876889,1,0,485.9,0,1,0,0,409,350,-0.0292,487.0927,6.8213,0.4212,54.896393,9.786062,108.3,5.845,1.85,335.95,54.896427,9.785989,54.895069,9.793790
1386876889,1,0,485.9,0,1,4,0,409,375,-0.0292,486.8261,6.8213,0.4212,54.896385,9.786087,108.3,5.845,1.85,335.95,54.896427,9.785989,54.895069,9.793790
1386876890,1,0,485.9,0,1,0,0,409,400,-0.0292,486.5594,6.8213,0.4212,54.896374,9.786112,108.3,5.845,1.85,335.95,54.896427,9.785989,54.895069,9.793790
1386876890,1,0,485.9,0,1,4,0,409,425,-0.0292,486.2928,6.8213,0.4212,54.896362,9.786138,108.3,5.845,1.85,335.95,54.896427,9.785989,54.895069,9.793790
1386876890,1,0,485.9,0,0,0,0,409,400,-0.0292,486.2928,6.8213,0.4212,54.896351,9.786162,108.3,5.845,1.85,335.95,54.896427,9.785989,54.895069,9.793790
1386876890,1,0,485.9,0,0,4,0,409,425,-0.0292,486.2928,6.8213,0.4212,54.896339,9.786187,108.3,5.845,1.85,335.95,54.896427,9.785989,54.895069,9.793790
1386876891,1,0,485.9,0,0,0,0,409,400,-0.0292,486.2928,6.8213,0.4212,54.896328,9.786213,108.3,5.845,1.85,335.95,54.896427,9.785989,54.895069,9.793790
1386876891,1,0,485.9,0,0,4,0,0,375,-0.0292,486.2928,6.8213,0.4212,54.896317,9.786238,108.3,5.845,1.85,335.95,54.896427,9.785989,54.895069,9.793790
1386876891,1,0,485.9,0,0,0,0,0,350,-0.0292,486.2928,6.8213,0.4212,54.896305,9.786263,108.3,5.845,1.85,335.95,54.896427,9.785989,54.895069,9.793790
1386876891,1,0,485.9,0,0,4,0,0,325,-0.0292,486.2928,6.8213,0.4212,54.896294,9.786288,108.3,5.845,1.85,335.95,54.896427,9.785989,54.895069,9.793790
1386876892,1,0,485.9,0,0,0,0,0,300,-0.0292,486.2928,6.8213,0.4212,54.896286,9.786313,108.3,5.845,1.85,335.95,54.896427,9.785989,54.895069,9.793790
1386876892,1,0,485.9,0,0,4,0,0,275,-0.0292,486.2928,6.8213,0.4212,54.896275,9.786338,108.3,5.845,1.85,335.95,54.896427,9.785989,54.895069,9.793790
1386876892,1,0,485.9,0,0,0,0,0,250,-0.0292,486.2928,6.8213,0.4212,54.896263,9.786363,108.3,5.845,1.85,335.95,54.896427,9.785989,54.895069,9.793790
1386876892,1,0,485.9,0,0,4,0,0,225,-0.0292,486.2928,6.8213,0.4212,54.896252,9.786388,108.3,5.845,1.85,335.95,54.896427,9.785989,54.895069,9.793790
1386876893,1,0,485.9,0,0,0,0,0,200,-0.0292,486.2928,6.8213,0.4212,54.896240,9.786413,108.3,5.845,1.85,335.95,54.896427,9.785989,54.895069,9.793790
1386876893,1,0,485.9,0,0,4,0,0,175,-0.0292,486.2928,6.8213,0.4212,54.896229,9.786439,108.3,5.845,1.85,335.95,54.896427,9.785989,54.895069,9.793790
1386876893,1,0,485.9,0,0,0,0,0,150,-0.0292,486.2928,6.8213,0.4212,54.896217,9.786464,108.3,5.845,1.85,335.95,54.896427,9.785989,54.895069,9.793790
1386876893,1,0,485.9,0,0,4,0,0,125,-0.0292,486.2928,6.8213,0.4212,54.896206,9.786489,108.3,5.845,1.85,335.95,54.896427,9.785989,54.895069,9.793790
1386876894,1,0,485.9,0,0,0,0,0,100,-0.0292,486.2928,6.8213,0.4212,54.896194,9.786514,108.3,5.845,1.85,335.95,54.896427,9.785989,54.895069,9.793790
1386876894,1,0,485.9,0,0,4,0,0,75,-0.0292,486.2928,6.8213,0.4212,54.896187,9.786539,108.3,5.845,1.85,335.95,54.896427,9.785989,54.895069,9.793790
1386876894,1,0,485.9,0,0,0,0,0,50,-0.0292,486.2928,6.8213,0.4212,54.896175,9.786565,108.3,5.845,1.85,335.95,54.896427,9.785989,54.895069,9.793790
1386876895,1,0,485.9,0,0,4,0,0,25,-0.0292,486.2928,6.8213,0.4212,54.896168,9.786590,108.3,5.845,1.85,335.95,54.896427,9.785989,54.895069,9.793790
1386876895,1,0,485.9,0,0,0,0,0,0,-0.0292,486.2928,6.8213,0.4212,54.896156,9.786614,108.3,5.845,1.85,335.95,54.896427,9.785989,54.895069,9.793790
1386876895,1,0,485.9,0,0,4,0,0,25,-0.0292,486.2928,6.8213,0.4212,54.896145,9.786640,108.3,5.845,1.85,335.95,54.896427,9.785989,54.895069,9.793790
1386876895,1,0,545.9,0,-35,0,0,0,0,-0.0292,495.6261,6.8213,0.4212,54.896133,9.786662,108.3,5.845,1.85,335.95,54.896427,9.785989,54.895069,9.793790
1386876896,1,0,545.9,0,-35,-4,0,0,25,-0.0292,504.9594,6.8213,0.4212,54.896118,9.786680,108.3,5.845,1.85,335.95,54.896427,9.785989,54.895069,9.793790
1386876896,1,0,545.9,0,-35,-8,0,0,0,-0.0292,514.2928,6.8213,0.4212,54.896103,9.786694,108.3,5.845,1.85,335.95,54.896427,9.785989,54.895069,9.793790
1386876896,1,0,545.9,0,-32,-12,0,0,25,-0.0292,522.8261,6.8213,0.4212,54.896084,9.786703,108.3,5.845,1.85,335.95,54.896427,9.785989,54.895069,9.793790
1386876896,1,0,545.9,0,-23,-16,0,0,0,-0.0292,528.9595,6.8213,0.4212,54.896065,9.786709,108.3,5.845,1.85,335.95,54.896427,9.785989,54.895069,9.793790
1386876897,1,0,545.9,0,-17,-20,0,0,25,-0.0292,533.4928,6.8213,0.4212,54.896046,9.786713,108.3,5.845,1.85,335.95,54.896427,9.785989,54.895069,9.793790
1386876897,1,0,545.9,0,-12,-16,0,0,0,-0.0292,536.6928,6.8213,0.4212,54.896030,9.786715,108.3,5.845,1.85,335.95,54.896427,9.785989,54.895069,9.793790
1386876897,1,0,545.9,0,-9,-12,0,0,25,-0.0292,539.0928,6.8213,0.4212,54.896011,9.786716,108.3,5.845,1.85,335.95,54.896427,9.785989,54.895069,9.793790
1386876897,1,0,545.9,0,-7,-8,0,409,50,-0.0292,540.9595,6.8213,0.4212,54.895992,9.786716,108.3,5.845,1.85,335.95,54.896427,9.785989,54.895069,9.793790
1386876898,1,0,545.9,0,-5,-4,0,409,75,-0.0292,542.2928,6.8213,0.4212,54.895973,9.786715,108.3,5.845,1.85,335.95,54.896427,9.785989,54.895069,9.793790
1386876898,1,0,545.9,0,-4,0,0,409,100,-0.0292,543.3594,6.8213,0.4212,54.895958,9.786714,108.3,5.845,1.85,335.95,54.896427,9.785989,54.895069,9.793790
1386876898,1,0,545.9,0,-3,-4,0,409,125,-0.0292,544.1594,6.8213,0.4212,54.895939,9.786712,108.3,5.845,1.85,335.95,54.896427,9.785989,54.895069,9.793790
1386876898,1,0,545.9,0,-2,0,0,409,150,-0.0292,544.6927,6.8213,0.4212,54.895920,9.786710,108.3,5.845,1.85,335.95,54.896427,9.785989,54.895069,9.793790
1386876899,1,0,545.9,0,-1,-4,0,409,175,-0.0292,544.9594,6.8213,0.4212,54.895901,9.786708,108.3,5.845,1.85,335.95,54.896427,9.785989,54.895069,9.793790
1386876899,1,0,545.9,0,-1,0,0,409,200,-0.0292,545.2261,6.8213,0.4212,54.895885,9.786705,108.3,5.845,1.85,335.95,54.896427,9.785989,54.895069,9.793790
1386876899,1,0,545.9,0,-1,-4,0,409,225,-0.0292,545.4927,6.8213,0.4212,54.895866,9.786702,108.3,5.845,1.85,335.95,54.896427,9.785989,54.895069,9.793790
1386876899,1,0,545.9,0,0,0,0,409,250,-0.0292,545.4927,6.8213,0.4212,54.895847,9.786699,108.3,5.845,1.85,335.95,54.896427,9.785989,54.895069,9.793790
1386876900,1,0,545.9,0,0,4,0,409,275,-0.0292,545.4927,6.8213,0.4212,54.895828,9.786696,108.3,5.845,1.85,335.95,54.896427,9.785989,54.895069,9.793790
1386876900,1,0,545.9,0,0,0,0,409,300,-0.0292,545.4927,6.8213,0.4212,54.895813,9.786694,108.3,5.845,1.85,335.95,54.896427,9.785989,54.895069,9.793790
1386876900,1,0,545.9,0,0,4,0,409,325,-0.0292,545.4927,6.8213,0.4212,54.895794,9.786691,108.3,5.845,1.85,335.95,54.896427,9.785989,54.895069,9.793790
1386876900,1,0,545.9,0,0,0,0,409,350,-0.0292,545.4927,6.8213,0.4212,54.895775,9.786688,108.3,5.845,1.85,335.95,54.896427,9.785989,54.895069,9.793790
1386876901,1,0,545.9,0,0,4,0,409,375,-0.0292,545.4927,6.8213,0.4212,54.895760,9.786685,108.3,5.845,1.85,335.95,54.896427,9.785989,54.895069,9.793790
1386876901,1,0,545.9,0,0,0,0,0,350,-0.0292,545.4927,6.8213,0.4212,54.895741,9.786682,108.3,5.845,1.85,335.95,54.896427,9.785989,54.895069,9.793790
1386876901,1,0,545.9,0,0,4,0,0,325,-0.0292,545.4927,6.8213,0.4212,54.895721,9.786679,108.3,5.845,1.85,335.95,54.896427,9.785989,54.895069,9.793790
1386876901,1,0,545.9,0,0,0,0,0,300,-0.0292,545.4927,6.8213,0.4212,54.895702,9.786676,108.3,5.845,1.85,335.95,54.896427,9.785989,54.895069,9.793790
1386876902,1,0,545.9,0,0,4,0,0,275,-0.0292,545.4927,6.8213,0.4212,54.895687,9.786673,108.3,5.845,1.85,335.95,54.896427,9.785989,54.895069,9.793790
1386876902,1,0,545.9,0,0,0,0,0,250,-0.0292,545.4927,6.8213,0.4212,54.895668,9.786670,108.3,5.845,1.85,335.95,54.896427,9.785989,54.895069,9.793790
1386876902,1,0,545.9,0,0,4,0,0,225,-0.0292,545.4927,6.8213,0.4212,54.895649,9.786667,108.3,5.845,1.85,335.95,54.896427,9.785989,54.895069,9.793790
1386876902,1,0,545.9,0,0,0,0,0,200,-0.0292,545.4927,6.8213,0.4212,54.895630,9.786664,108.3,5.845,1.85,335.95,54.896427,9.785989,54.895069,9.793790
1386876903,1,0,545.9,0,0,4,0,0,175,-0.0292,545.4927,6.8213,0.4212,54.895615,9.786661,108.3,5.845,1.85,335.95,54.896427,9.785989,54.895069,9.793790
1386876903,1,0,545.9,0,0,0,0,0,150,-0.0292,545.4927,6.8213,0.4212,54.895596,9.786658,108.3,5.845,1.85,335.95,54.896427,9.785989,54.895069,9.793790
1386876903,1,0,545.9,0,0,4,0,0,125,-0.0292,545.4927,6.8213,0.4212,54.895576,9.786655,108.3,5.845,1.85,335.95,54.896427,9.785989,54.895069,9.793790
1386876903,1,0,545.9,0,0,0,0,0,100,-0.0292,545.4927,6.8213,0.4212,54.895557,9.786653,108.3,5.845,1.85,335.95,54.896427,9.785989,54.895069,9.793790
1386876904,1,0,545.9,0,0,4,0,0,75,-0.0292,545.4927,6.8213,0.4212,54.895542,9.786650,108.3,5.845,1.85,335.95,54.896427,9.785989,54.895069,9.793790
1386876904,1,0,545.9,0,0,0,0,0,50,-0.0292,545.4927,6.8213,0.4212,54.895523,9.786647,108.3,5.845,1.85,335.95,54.896427,9.785989,54.895069,9.793790
1386876904,1,0,545.9,0,0,4,0,0,25,-0.0292,545.4927,6.8213,0.4212,54.895504,9.786644,108.3,5.845,1.85,335.95,54.896427,9.785989,54.895069,9.793790
1386876904,1,0,545.9,0,0,0,0,0,0,-0.0292,545.4927,6.8213,0.4212,54.895489,9.786641,108.3,5.845,1.85,335.95,54.896427,9.785989,54.895069,9.793790
1386876905,1,0,545.9,0,0,4,0,0,25,-0.0292,545.4927,6.8213,0.4212,54.895470,9.786638,108.3,5.845,1.85,335.95,54.896427,9.785989,54.895069,9.793790
1386876905,1,0,485.9,0,35,8,0,0,0,-0.0292,536.1594,6.8213,0.4212,54.895451,9.786640,108.3,5.845,1.85,335.95,54.896427,9.785989,54.895069,9.793790
1386876905,1,0,485.9,0,35,12,0,0,25,-0.0292,526.8261,6.8213,0.4212,54.895432,9.786647,108.3,5.845,1.85,335.95,54.896427,9.785989,54.895069,9.793790
1386876905,1,0,485.9,0,35,16,0,0,0,-0.0292,517.4928,6.8213,0.4212,54.895416,9.786658,108.3,5.845,1.85,335.95,54.896427,9.785989,54.895069,9.793790
1386876906,1,0,485.9,0,32,20,0,0,25,-0.0292,508.9595,6.8213,0.4212,54.895397,9.786674,108.3,5.845,1.85,335.95,54.896427,9.785989,54.895069,9.793790
1386876906,1,0,485.9,0,23,24,0,0,0,-0.0292,502.8261,6.8213,0.4212,54.895382,9.786693,108.3,5.845,1.85,335.95,54.896427,9.785989,54.895069,9.793790
1386876906,1,0,485.9,0,17,20,0,0,25,-0.0292,498.2928,6.8213,0.4212,54.895370,9.786714,108.3,5.845,1.85,335.95,54.896427,9.785989,54.895069,9.793790
1386876906,1,0,485.9,0,12,16,0,0,0,-0.0292,495.0928,6.8213,0.4212,54.895355,9.786736,108.3,5.845,1.85,335.95,54.896427,9.785989,54.895069,9.793790
1386876907,1,0,485.9,0,9,12,0,0,25,-0.0292,492.6928,6.8213,0.4212,54.895344,9.786759,108.3,5.845,1.85,335.95,54.896427,9.785989,54.895069,9.793790
1386876907,1,0,485.9,0,7,8,0,409,50,-0.0292,490.8261,6.8213,0.4212,54.895332,9.786782,108.3,5.845,1.85,335.95,54.896427,9.785989,54.895069,9.793790
1386876907,1,0,485.9,0,5,4,0,409,75,-0.0292,489.4928,6.8213,0.4212,54.895321,9.786806,108.3,5.845,1.85,335.95,54.896427,9.785989,54.895069,9.793790
1386876907,1,0,485.9,0,4,8,0,409,100,-0.0292,488.4261,6.8213,0.4212,54.895309,9.786830,108.3,5.845,1.85,335.95,54.896427,9.785989,54.895069,9.793790
1386876908,1,0,485.9,0,2,4,0,409,125,-0.0292,487.8928,6.8213,0.4212,54.895298,9.786855,108.3,5.845,1.85,335.95,54.896427,9.785989,54.895069,9.793790
1386876908,1,0,485.9,0,2,0,0,409,150,-0.0292,487.3595,6.8213,0.4212,54.895287,9.786880,108.3,5.845,1.85,335.95,54.896427,9.785989,54.895069,9.793790
1386876908,1,0,485.9,0,1,4,0,409,175,-0.0292,487.0928,6.8213,0.4212,54.895279,9.786904,108.3,5.845,1.85,335.95,54.896427,9.785989,54.895069,9.793790
1386876908,1,0,485.9,0,1,0,0,409,200,-0.0292,486.8261,6.8213,0.4212,54.895267,9.786929,108.3,5.845,1.85,335.95,54.896427,9.785989,54.895069,9.793790
1386876909,1,0,485.9,0,1,4,0,409,225,-0.0292,486.5595,6.8213,0.4212,54.895256,9.786955,108.3,5.845,1.85,335.95,54.896427,9.785989,54.895069,9.793790
1386876909,1,0,485.9,0,1,0,0,409,250,-0.0292,486.2928,6.8213,0.4212,54.895245,9.786980,108.3,5.845,1.85,335.95,54.896427,9.785989,54.895069,9.793790
1386876909,1,0,485.9,0,0,4,0,409,275,-0.0292,486.2928,6.8213,0.4212,54.895233,9.787004,108.3,5.845,1.85,335.95,54.896427,9.785989,54.895069,9.793790
1386876909,1,0,485.9,0,0,0,0,409,300,-0.0292,486.2928,6.8213,0.4212,54.895222,9.787030,108.3,5.845,1.85,335.95,54.896427,9.785989,54.895069,9.793790
1386876910,1,0,485.9,0,0,4,0,409,325,-0.0292,486.2928,6.8213,0.4212,54.895210,9.787055,108.3,5.845,1.85,335.95,54.896427,9.785989,54.895069,9.793790
1386876910,1,0,459.7,0,27,8,0,409,350,-0.0292,479.0928,6.8213,0.4212,54.895203,9.787083,108.3,5.845,1.85,335.95,54.896427,9.785989,54.895069,9.793790
1386876910,1,0,452.0,0,27,12,0,409,375,-0.0292,471.8928,6.8213,0.4212,54.895195,9.787111,108.3,5.845,1.85,335.95,54.896427,9.785989,54.895069,9.793790
1386876910,1,0,451.9,0,20,16,0,409,400,-0.0292,466.5594,6.8213,0.4212,54.895187,9.787141,108.3,5.845,1.85,335.95,54.896427,9.785989,54.895069,9.793790
1386876911,1,0,451.8,0,15,12,0,500,425,-0.0292,462.5594,6.8213,0.4212,54.895184,9.787171,108.3,5.845,1.85,335.95,54.896427,9.785989,54.895069,9.793790
1386876911,1,0,451.7,0,11,8,0,500,450,-0.0292,459.6261,6.8213,0.4212,54.895180,9.787202,108.3,5.845,1.85,335.95,54.896427,9.785989,54.895069,9.793790
1386876911,1,0,451.7,0,8,12,0,500,475,-0.0292,457.4928,6.8213,0.4212,54.895176,9.787232,108.3,5.845,1.85,335.95,54.896427,9.785989,54.895069,9.793790
1386876911,1,0,451.6,0,6,8,0,500,500,-0.0292,455.8928,6.8213,0.4212,54.895172,9.787263,108.3,5.845,1.85,335.95,54.896427,9.785989,54.895069,9.793790
1386876912,1,0,451.6,0,4,4,0,493,475,-0.0292,454.8261,6.8213,0.4212,54.895168,9.787294,108.3,5.845,1.85,335.95,54.896427,9.785989,54.895069,9.793790
1386876912,1,0,451.5,0,3,0,0,484,500,-0.0292,454.0261,6.8213,0.4212,54.895164,9.787326,108.3,5.845,1.85,335.95,54.896427,9.785989,54.895069,9.793790
1386876912,1,0,451.5,0,3,4,0,478,475,-0.0292,453.2261,6.8213,0.4212,54.895164,9.787356,108.3,5.845,1.85,335.95,54.896427,9.785989,54.895069,9.793790
1386876912,1,0,451.5,0,2,0,0,471,450,-0.0292,452.6928,6.8213,0.4212,54.895164,9.787388,108.3,5.845,1.85,335.95,54.896427,9.785989,54.895069,9.793790
1386876913,1,0,451.5,0,1,4,0,467,475,-0.0292,452.4261,6.8213,0.4212,54.895164,9.787419,108.3,5.845,1.85,335.95,54.896427,9.785989,54.895069,9.793790
1386876913,1,0,451.5,0,1,0,0,464,450,-0.0292,452.1595,6.8213,0.4212,54.895164,9.787451,108.3,5.845,1.85,335.95,54.896427,9.785989,54.895069,9.793790
1386876913,1,0,451.5,0,1,4,0,462,475,-0.0292,451.8928,6.8213,0.4212,54.895164,9.787481,108.3,5.845,1.85,335.95,54.896427,9.785989,54.895069,9.793790
1386876913,1,0,451.5,0,0,0,0,460,450,-0.0292,451.8928,6.8213,0.4212,54.895164,9.787513,108.3,5.845,1.85,335.95,54.896427,9.785989,54.895069,9.793790
1386876914,1,0,451.5,0,0,4,0,460,475,-0.0292,451.8928,6.8213,0.4212,54.895164,9.787544,108.3,5.845,1.85,335.95,54.896427,9.785989,54.895069,9.793790
1386876914,1,0,451.5,0,0,0,0,460,450,-0.0292,451.8928,6.8213,0.4212,54.895164,9.787576,108.3,5.845,1.85,335.95,54.896427,9.785989,54.895069,9.793790
1386876914,1,0,451.5,0,0,4,0,460,475,-0.0292,451.8928,6.8213,0.4212,54.895164,9.787606,108.3,5.845,1.85,335.95,54.896427,9.785989,54.895069,9.793790
1386876914,1,0,451.5,0,0,0,0,460,450,-0.0292,451.8928,6.8213,0.4212,54.895164,9.787638,108.3,5.845,1.85,335.95,54.896427,9.785989,54.895069,9.793790
1386876915,1,0,451.5,0,0,4,0,460,475,-0.0292,451.8928,6.8213,0.4212,54.895164,9.787669,108.3,5.845,1.85,335.95,54.896427,9.785989,54.895069,9.793790
1386876915,1,0,451.5,0,0,0,0,460,450,-0.0292,451.8928,6.8213,0.4212,54.895164,9.787700,108.3,5.845,1.85,335.95,54.896427,9.785989,54.895069,9.793790
1386876915,1,0,451.6,0,0,4,0,460,475,-0.0292,451.8928,6.8213,0.4212,54.895164,9.787731,108.3,5.845,1.85,335.95,54.896427,9.785989,54.895069,9.793790
1386876915,1,0,451.6,0,0,0,0,460,450,-0.0292,451.8928,6.8213,0.4212,54.895164,9.787763,108.3,5.845,1.85,335.95,54.896427,9.785989,54.895069,9.793790
1386876916,1,0,451.6,0,0,4,0,460,475,-0.0292,451.8928,6.8213,0.4212,54.895164,9.787794,108.3,5.845,1.85,335.95,54.896427,9.785989,54.895069,9.793790
1386876916,1,0,451.6,0,0,0,0,460,450,-0.0292,451.8928,6.8213,0.4212,54.895164,9.787825,108.3,5.845,1.85,335.95,54.896427,9.785989,54.895069,9.793790
1386876916,1,0,451.6,0,0,4,0,460,475,-0.0292,451.8928,6.8213,0.4212,54.895164,9.787856,108.3,5.845,1.85,335.95,54.896427,9.785989,54.895069,9.793790
1386876916,1,0,451.6,0,0,0,0,460,450,-0.0292,451.8928,6.8213,0.4212,54.895164,9.787888,108.3,5.845,1.85,335.95,54.896427,9.785989,54.895069,9.793790
1386876917,1,0,451.6,0,0,4,0,460,475,-0.0292,451.8928,6.8213,0.4212,54.895164,9.787919,108.3,5.845,1.85,335.95,54.896427,9.785989,54.895069,9.793790
1386876917,1,0,451.6,0,0,0,0,460,450,-0.0292,451.8928,6.8213,0.4212,54.895164,9.787950,108.3,5.845,1.85,335.95,54.896427,9.785989,54.895069,9.793790
1386876917,1,0,451.6,0,0,4,0,460,475,-0.0292,451.8928,6.8213,0.4212,54.895164,9.787981,108.3,5.845,1.85,335.95,54.896427,9.785989,54.895069,9.793790
1386876917,1,0,451.6,0,0,0,0,460,450,-0.0292,451.8928,6.8213,0.4212,54.895164,9.788013,108.3,5.845,1.85,335.95,54.896427,9.785989,54.895069,9.793790
1386876918,1,0,451.6,0,0,4,0,460,475,-0.0292,451.8928,6.8213,0.4212,54.895164,9.788043,108.3,5.845,1.85,335.95,54.896427,9.785989,54.895069,9.793790
1386876918,1,0,451.6,0,0,0,0,460,450,-0.0292,451.8928,6.8213,0.4212,54.895164,9.788074,108.3,5.845,1.85,335.95,54.896427,9.785989,54.895069,9.793790
1386876918,1,0,451.7,0,0,4,0,460,475,-0.0292,451.8928,6.8213,0.4212,54.895164,9.788106,108.3,5.845,1.85,335.95,54.896427,9.785989,54.895069,9.793790
1386876918,1,0,451.7,0,0,0,0,460,450,-0.0292,451.8928,6.8213,0.4212,54.895164,9.788137,108.3,5.845,1.85,335.95,54.896427,9.785989,54.895069,9.793790
1386876919,1,0,451.7,0,0,4,0,460,475,-0.0292,451.8928,6.8213,0.4212,54.895164,9.788168,108.3,5.845,1.85,335.95,54.896427,9.785989,54.895069,9.793790
1386876919,1,0,451.7,0,0,0,0,460,450,-0.0292,451.8928,6.8213,0.4212,54.895164,9.788199,108.3,5.845,1.85,335.95,54.896427,9.785989,54.895069,9.793790
1386876919,1,0,451.7,0,0,4,0,460,475,-0.0292,451.8928,6.8213,0.4212,54.895164,9.788231,108.3,5.845,1.85,335.95,54.896427,9.785989,54.895069,9.793790
1386876919,1,0,451.7,0,0,0,0,460,450,-0.0292,451.8928,6.8213,0.4212,54.895164,9.788262,108.3,5.845,1.85,335.95,54.896427,9.785989,54.895069,9.793790
1386876920,1,0,451.7,0,0,4,0,460,475,-0.0292,451.8928,6.8213,0.4212,54.895164,9.788293,108.3,5.845,1.85,335.95,54.896427,9.785989,54.895069,9.793790
1386876920,1,0,451.7,0,0,0,0,460,450,-0.0292,451.8928,6.8213,0.4212,54.895164,9.788324,108.3,5.845,1.85,335.95,54.896427,9.785989,54.895069,9.793790
1386876920,1,0,451.7,0,0,4,0,460,475,-0.0292,451.8928,6.8213,0.4212,54.895164,9.788356,108.3,5.845,1.85,335.95,54.896427,9.785989,54.895069,9.793790
1386876920,1,0,451.7,0,0,0,0,460,450,-0.0292,451.8928,6.8213,0.4212,54.895164,9.788386,108.3,5.845,1.85,335.95,54.896427,9.785989,54.895069,9.793790
1386876921,1,0,451.7,0,0,4,0,460,475,-0.0292,451.8928,6.8213,0.4212,54.895164,9.788418,108.3,5.845,1.85,335.95,54.896427,9.785989,54.895069,9.793790
1386876921,1,0,451.8,0,0,0,0,460,450,-0.0292,451.8928,6.8213,0.4212,54.895164,9.788449,108.3,5.845,1.85,335.95,54.896427,9.785989,54.895069,9.793790
1386876921,1,0,451.8,0,0,4,0,460,475,-0.0292,451.8928,6.8213,0.4212,54.895164,9.788481,108.3,5.845,1.85,335.95,54.896427,9.785989,54.895069,9.793790
1386876922,1,0,451.8,0,0,0,0,460,450,-0.0292,451.8928,6.8213,0.4212,54.895164,9.788511,108.3,5.845,1.85,335.95,54.896427,9.785989,54.895069,9.793790
1386876922,1,0,451.8,0,0,4,0,460,475,-0.0292,451.8928,6.8213,0.4212,54.895164,9.788543,108.3,5.845,1.85,335.95,54.896427,9.785989,54.895069,9.793790
1386876922,1,0,451.8,0,0,0,0,460,450,-0.0292,451.8928,6.8213,0.4212,54.895164,9.788574,108.3,5.845,1.85,335.95,54.896427,9.785989,54.895069,9.793790
1386876922,1,0,451.8,0,0,4,0,460,475,-0.0292,451.8928,6.8213,0.4212,54.895164,9.788606,108.3,5.845,1.85,335.95,54.896427,9.785989,54.895069,9.793790
1386876923,1,0,451.8,0,0,0,0,460,450,-0.0292,451.8928,6.8213,0.4212,54.895164,9.788636,108.3,5.845,1.85,335.95,54.896427,9.785989,54.895069,9.793790
1386876923,1,0,451.8,0,0,4,0,460,475,-0.0292,451.8928,6.8213,0.4212,54.895164,9.788668,108.3,5.845,1.85,335.95,54.896427,9.785989,54.895069,9.793790
1386876923,1,0,451.8,0,0,0,0,460,450,-0.0292,451.8928,6.8213,0.4212,54.895164,9.788699,108.3,5.845,1.85,335.95,54.896427,9.785989,54.895069,9.793790
1386876923,1,0,451.9,0,0,4,0,460,475,-0.0292,451.8928,6.8213,0.4212,54.895164,9.788730,108.3,5.845,1.85,335.95,54.896427,9.785989,54.895069,9.793790
1386876924,1,0,451.9,0,0,0,0,460,450,-0.0292,451.8928,6.8213,0.4212,54.895164,9.788761,108.3,5.845,1.85,335.95,54.896427,9.785989,54.895069,9.793790
1386876924,1,0,451.9,0,0,4,0,460,475,-0.0292,451.8928,6.8213,0.4212,54.895164,9.788793,108.3,5.845,1.85,335.95,54.896427,9.785989,54.895069,9.793790
1386876924,1,0,451.9,0,0,0,0,460,450,-0.0292,451.8928,6.8213,0.4212,54.895164,9.788824,108.3,5.845,1.85,335.95,54.896427,9.785989,54.895069,9.793790
1386876924,1,0,451.9,0,0,4,0,460,475,-0.0292,451.8928,6.8213,0.4212,54.895164,9.788855,108.3,5.845,1.85,335.95,54.896427,9.785989,54.895069,9.793790
1386876925,1,0,451.9,0,0,0,0,460,450,-0.0292,451.8928,6.8213,0.4212,54.895164,9.788886,108.3,5.845,1.85,335.95,54.896427,9.785989,54.895069,9.793790
1386876925,1,0,451.9,0,0,4,0,460,475,-0.0292,451.8928,6.8213,0.4212,54.895164,9.788918,108.3,5.845,1.85,335.95,54.896427,9.785989,54.895069,9.793790
1386876925,1,0,451.9,0,0,0,0,460,450,-0.0292,451.8928,6.8213,0.4212,54.895164,9.788949,108.3,5.845,1.85,335.95,54.896427,9.785989,54.895069,9.793790
1386876925,1,0,452.0,0,0,4,0,460,475,-0.0292,451.8928,6.8213,0.4212,54.895164,9.788980,108.3,5.845,1.85,335.95,54.896427,9.785989,54.895069,9.793790
1386876926,1,0,452.0,0,0,0,0,460,450,-0.0292,451.8928,6.8213,0.4212,54.895164,9.789011,108.3,5.845,1.85,335.95,54.896427,9.785989,54.895069,9.793790
1386876926,1,0,452.0,0,0,4,0,460,475,-0.0292,451.8928,6.8213,0.4212,54.895164,9.789042,108.3,5.845,1.85,335.95,54.896427,9.785989,54.895069,9.793790
1386876926,1,0,452.0,0,0,0,0,460,450,-0.0292,451.8928,6.8213,0.4212,54.895164,9.789073,108.3,5.845,1.85,335.95,54.896427,9.785989,54.895069,9.793790
1386876926,1,0,452.0,0,0,4,0,460,475,-0.0292,451.8928,6.8213,0.4212,54.895164,9.789104,108.3,5.845,1.85,335.95,54.896427,9.785989,54.895069,9.793790
1386876927,1,0,452.0,0,0,0,0,460,450,-0.0292,451.8928,6.8213,0.4212,54.895164,9.789136,108.3,5.845,1.85,335.95,54.896427,9.785989,54.895069,9.793790
1386876927,1,0,452.0,0,0,4,0,460,475,-0.0292,451.8928,6.8213,0.4212,54.895164,9.789167,108.3,5.845,1.85,335.95,54.896427,9.785989,54.895069,9.793790
1386876927,0,0,452.0,0,0,4,0,460,475,-0.0292,451.8928,6.8213,0.4212,54.895164,9.789167,108.3,5.845,1.85,335.95,54.896427,9.785989,54.895069,9.793790
1386876927,0,0,452.0,0,0,4,0,460,475,-0.0292,451.8928,6.8213,0.4212,54.895164,9.789167,108.3,5.845,1.85,335.95,54.896427,9.785989,54.895069,9.793790
1386876928,0,0,452.0,0,0,4,0,460,475,-0.0292,451.8928,6.8213,0.4212,54.895164,9.789167,108.3,5.845,1.85,335.95,54.896427,9.785989,54.895069,9.793790
1386876928,0,0,452.0,0,0,4,0,460,475,-0.0292,451.8928,6.8213,0.4212,54.895164,9.789167,108.3,5.845,1.85,335.95,54.896427,9.785989,54.895069,9.793790
1386876928,0,0,452.0,0,0,4,0,460,475,-0.0292,451.8928,6.8213,0.4212,54.895164,9.789167,108.3,5.845,1.85,335.95,54.896427,9.785989,54.895069,9.793790
1386876928,0,0,452.0,0,0,4,0,460,475,-0.0292,451.8928,6.8213,0.4212,54.895164,9.789167,108.3,5.845,1.85,335.95,54.896427,9.785989,54.895069,9.793790
1386876929,0,0,452.0,0,0,4,0,460,475,-0.0292,451.8928,6.8213,0.4212,54.895164,9.789167,108.3,5.845,1.85,335.95,54.896427,9.785989,54.895069,9.793790
1386876929,0,0,452.0,0,0,4,0,460,475,-0.0292,451.8928,6.8213,0.4212,54.895164,9.789167,108.3,5.845,1.85,335.95,54.896427,9.785989,54.895069,9.793790
1386876929,0,0,452.0,0,0,4,0,460,475,-0.0292,451.8928,6.8213,0.4212,54.895164,9.789167,108.3,5.845,1.85,335.95,54.896427,9.785989,54.895069,9.793790
1386876929,0,0,452.0,0,0,4,0,460,475,-0.0292,451.8928,6.8213,0.4212,54.895164,9.789167,108.3,5.845,1.85,335.95,54.896427,9.785989,54.895069,9.793790
1386876930,0,0,452.0,0,0,4,0,460,475,-0.0292,451.8928,6.8213,0.4212,54.889698,9.793561,108.3,5.845,1.85,335.95,54.896427,9.785989,54.895069,9.793790
1386876930,0,0,452.0,0,0,4,0,460,475,-0.0292,451.8928,6.8213,0.4212,54.889698,9.793561,108.3,5.845,1.85,335.95,54.896427,9.785989,54.895069,9.793790
1386876930,0,0,452.0,0,0,4,0,460,475,-0.0292,451.8928,6.8213,0.4212,54.889698,9.793561,108.3,5.845,1.85,335.95,54.896427,9.785989,54.895069,9.793790
1386876930,0,0,452.0,0,0,4,0,460,475,-0.0292,451.8928,6.8213,0.4212,54.889698,9.793561,108.3,5.845,1.85,335.95,54.896427,9.785989,54.895069,9.793790
1386876931,0,0,452.0,0,0,4,0,460,475,-0.0292,451.8928,6.8213,0.4212,54.889698,9.793561,108.3,5.845,1.85,335.95,54.896427,9.785989,54.895069,9.793790
1386876931,0,0,452.0,0,0,4,0,460,475,-0.0292,451.8928,6.8213,0.4212,54.889698,9.793561,108.3,5.845,1.85,335.95,54.896427,9.785989,54.895069,9.793790
1386876931,0,0,452.0,0,0,4,0,460,475,-0.0292,451.8928,6.8213,0.4212,54.889698,9.793561,108.3,5.845,1.85,335.95,54.896427,9.785989,54.895069,9.793790
1386876931,0,0,452.0,0,0,4,0,460,475,-0.0292,451.8928,6.8213,0.4212,54.889698,9.793561,108.3,5.845,1.85,335.95,54.896427,9.785989,54.895069,9.793790
1386876932,0,0,452.0,0,0,4,0,460,475,-0.0292,451.8928,6.8213,0.4212,54.889698,9.793561,108.3,5.845,1.85,335.95,54.896427,9.785989,54.895069,9.793790
1386876932,0,0,452.0,0,0,4,0,460,475,-0.0292,451.8928,6.8213,0.4212,54.889698,9.793561,108.3,5.845,1.85,335.95,54.896427,9.785989,54.895069,9.793790
1386876932,0,0,452.0,0,0,4,0,460,475,-0.0292,451.8928,6.8213,0.4212,54.889698,9.793561,108.3,5.845,1.85,335.95,54.896427,9.785989,54.895069,9.793790
1386876932,0,0,452.0,0,0,4,0,460,475,-0.0292,451.8928,6.8213,0.4212,54.889698,9.793561,108.3,5.845,1.85,335.95,54.896427,9.785989,54.895069,9.793790
1386876933,0,0,452.0,0,0,4,0,460,475,-0.0292,451.8928,6.8213,0.4212,54.889698,9.793561,108.3,5.845,1.85,335.95,54.896427,9.785989,54.895069,9.793790
1386876933,0,0,452.0,0,0,4,0,460,475,-0.0292,451.8928,6.8213,0.4212,54.889698,9.793561,108.3,5.845,1.85,335.95,54.896427,9.785989,54.895069,9.793790
1386876933,0,0,452.0,0,0,4,0,460,475,-0.0292,451.8928,6.8213,0.4212,54.889698,9.793561,108.3,5.845,1.85,335.95,54.896427,9.785989,54.895069,9.793790
1386876933,0,0,452.0,0,0,4,0,460,475,-0.0292,451.8928,6.8213,0.4212,54.889698,9.793561,108.3,5.845,1.85,335.95,54.896427,9.785989,54.895069,9.793790
1386876934,0,0,452.0,0,0,4,0,460,475,-0.0292,451.8928,6.8213,0.4212,54.889698,9.793561,108.3,5.845,1.85,335.95,54.896427,9.785989,54.895069,9.793790
1386876934,0,0,452.0,0,0,4,0,460,475,-0.0292,451.8928,6.8213,0.4212,54.889698,9.793561,108.3,5.845,1.85,335.95,54.896427,9.785989,54.895069,9.793790
1386876934,0,0,452.0,0,0,4,0,460,475,-0.0292,451.8928,6.8213,0.4212,54.889698,9.793561,108.3,5.845,1.85,335.95,54.896427,9.785989,54.895069,9.793790
1386876934,0,0,452.0,0,0,4,0,460,475,-0.0292,451.8928,6.8213,0.4212,54.889698,9.793561,108.3,5.845,1.85,335.95,54.896427,9.785989,54.895069,9.793790
1386876935,0,0,452.0,0,0,4,0,460,475,-0.0292,451.8928,6.8213,0.4212,54.889698,9.793561,108.3,5.845,1.85,335.95,54.896427,9.785989,54.895069,9.793790
1386876935,0,0,452.0,0,0,4,0,460,475,-0.0292,451.8928,6.8213,0.4212,54.889698,9.793561,108.3,5.845,1.85,335.95,54.896427,9.785989,54.895069,9.793790
1386876935,0,0,452.0,0,0,4,0,460,475,-0.0292,451.8928,6.8213,0.4212,54.889698,9.793561,108.3,5.845,1.85,335.95,54.896427,9.785989,54.895069,9.793790
1386876935,0,0,452.0,0,0,4,0,460,475,-0.0292,451.8928,6.8213,0.4212,54.889698,9.793561,108.3,5.845,1.85,335.95,54.896427,9.785989,54.895069,9.793790
1386876936,0,0,452.0,0,0,4,0,460,475,-0.0292,451.8928,6.8213,0.4212,54.889698,9.793561,108.3,5.845,1.85,335.95,54.896427,9.785989,54.895069,9.793790
1386876936,0,0,452.0,0,0,4,0,460,475,-0.0292,451.8928,6.8213,0.4212,54.889698,9.793561,108.3,5.845,1.85,335.95,54.896427,9.785989,54.895069,9.793790
1386876936,0,0,452.0,0,0,4,0,460,475,-0.0292,451.8928,6.8213,0.4212,54.889698,9.793561,108.3,5.845,1.85,335.95,54.896427,9.785989,54.895069,9.793790
1386876936,0,0,452.0,0,0,4,0,460,475,-0.0292,451.8928,6.8213,0.4212,54.889698,9.793561,108.3,5.845,1.85,335.95,54.896427,9.785989,54.895069,9.793790
1386876937,0,0,452.0,0,0,4,0,460,475,-0.0292,451.8928,6.8213,0.4212,54.889698,9.793561,108.3,5.845,1.85,335.95,54.896427,9.785989,54.895069,9.793790
1386876937,0,0,452.0,0,0,4,0,460,475,-0.0292,451.8928,6.8213,0.4212,54.889698,9.793561,108.3,5.845,1.85,335.95,54.896427,9.785989,54.895069,9.793790
1386876937,0,0,452.0,0,0,4,0,460,475,-0.0292,451.8928,6.8213,0.4212,54.889698,9.793561,108.3,5.845,1.85,335.95,54.896427,9.785989,54.895069,9.793790
1386876937,0,0,452.0,0,0,4,0,460,475,-0.0292,451.8928,6.8213,0.4212,54.889698,9.793561,108.3,5.845,1.85,335.95,54.896427,9.785989,54.895069,9.793790
1386876938,0,0,452.0,0,0,4,0,460,475,-0.0292,451.8928,6.8213,0.4212,54.889698,9.793561,108.3,5.845,1.85,335.95,54.896427,9.785989,54.895069,9.793790
1386876938,0,0,452.0,0,0,4,0,460,475,-0.0292,451.8928,6.8213,0.4212,54.889698,9.793561,108.3,5.845,1.85,335.95,54.896427,9.785989,54.895069,9.793790
1386876938,0,0,452.0,0,0,4,0,460,475,-0.0292,451.8928,6.8213,0.4212,54.889698,9.793561,108.3,5.845,1.85,335.95,54.896427,9.785989,54.895069,9.793790
1386876938,0,0,452.0,0,0,4,0,460,475,-0.0292,451.8928,6.8213,0.4212,54.889698,9.793561,108.3,5.845,1.85,335.95,54.896427,9.785989,54.895069,9.793790
1386876939,0,0,452.0,0,0,4,0,460,475,-0.0292,451.8928,6.8213,0.4212,54.889698,9.793561,108.3,5.845,1.85,335.95,54.896427,9.785989,54.895069,9.793790
1386876939,0,0,452.0,0,0,4,0,460,475,-0.0292,451.8928,6.8213,0.4212,54.889698,9.793561,108.3,5.845,1.85,335.95,54.896427,9.785989,54.895069,9.793790
1386876939,0,0,452.0,0,0,4,0,460,475,-0.0292,451.8928,6.8213,0.4212,54.889698,9.793561,108.3,5.845,1.85,335.95,54.896427,9.785989,54.895069,9.793790
1386876939,0,0,452.0,0,0,4,0,460,475,-0.0292,451.8928,6.8213,0.4212,54.889698,9.793561,108.3,5.845,1.85,335.95,54.896427,9.785989,54.895069,9.793790
1386876940,0,0,452.0,0,0,4,0,460,475,-0.0292,451.8928,6.8213,0.4212,54.889698,9.793561,108.3,5.845,1.85,335.95,54.896427,9.785989,54.895069,9.793790
1386876940,0,0,452.0,0,0,4,0,460,475,-0.0292,451.8928,6.8213,0.4212,54.889698,9.793561,108.3,5.845,1.85,335.95,54.896427,9.785989,54.895069,9.793790
1386876940,0,0,452.0,0,0,4,0,460,475,-0.0292,451.8928,6.8213,0.4212,54.889698,9.793561,108.3,5.845,1.85,335.95,54.896427,9.785989,54.895069,9.793790
1386876940,0,0,452.0,0,0,4,0,460,475,-0.0292,451.8928,6.8213,0.4212,54.889698,9.793561,108.3,5.845,1.85,335.95,54.896427,9.785989,54.895069,9.793790
1386876941,0,0,452.0,0,0,4,0,460,475,-0.0292,451.8928,6.8213,0.4212,54.889698,9.793561,108.3,5.845,1.85,335.95,54.896427,9.785989,54.895069,9.793790
1386876941,0,0,452.0,0,0,4,0,460,475,-0.0292,451.8928,6.8213,0.4212,54.889698,9.793561,108.3,5.845,1.85,335.95,54.896427,9.785989,54.895069,9.793790
1386876941,4,0,452.0,0,0,4,0,460,475,-0.0292,451.8928,6.8213,0.4212,54.889698,9.793561,108.3,5.845,1.85,335.95,54.896427,9.785989,54.895069,9.793790
1386876941,1,0,390.9,0,35,8,0,460,450,-0.0292,442.5595,6.8213,0.4212,54.889702,9.793592,108.3,5.845,1.85,335.95,54.889698,9.793561,54.895069,9.793790
1386876942,1,0,390.9,0,35,12,0,380,425,-0.0292,433.2261,6.8213,0.4212,54.889709,9.793622,108.3,5.845,1.85,335.95,54.889698,9.793561,54.895069,9.793790
1386876942,1,0,390.9,0,35,16,0,296,400,-0.0292,423.8928,6.8213,0.4212,54.889717,9.793650,108.3,5.845,1.85,335.95,54.889698,9.793561,54.895069,9.793790
1386876942,1,0,390.9,0,33,20,0,210,375,-0.0292,415.0928,6.8213,0.4212,54.889729,9.793675,108.3,5.845,1.85,335.95,54.889698,9.793561,54.895069,9.793790
1386876942,1,0,390.9,0,24,24,0,132,350,-0.0292,408.6928,6.8213,0.4212,54.889744,9.793698,108.3,5.845,1.85,335.95,54.889698,9.793561,54.895069,9.793790
1386876943,1,0,390.9,0,18,20,0,79,325,-0.0292,403.8928,6.8213,0.4212,54.889755,9.793720,108.3,5.845,1.85,335.95,54.889698,9.793561,54.895069,9.793790
1386876943,1,0,390.9,0,13,16,0,45,300,-0.0292,400.4261,6.8213,0.4212,54.889771,9.793740,108.3,5.845,1.85,335.95,54.889698,9.793561,54.895069,9.793790
1386876943,1,0,390.9,0,9,12,0,25,275,-0.0292,398.0262,6.8213,0.4212,54.889786,9.793760,108.3,5.845,1.85,335.95,54.889698,9.793561,54.895069,9.793790
1386876943,1,0,390.9,0,7,8,0,14,250,-0.0292,396.1595,6.8213,0.4212,54.889797,9.793778,108.3,5.845,1.85,335.95,54.889698,9.793561,54.895069,9.793790
1386876944,1,0,390.9,0,5,4,0,8,225,-0.0292,394.8261,6.8213,0.4212,54.889812,9.793797,108.3,5.845,1.85,335.95,54.889698,9.793561,54.895069,9.793790
1386876944,1,0,390.9,0,4,8,0,4,200,-0.0292,393.7595,6.8213,0.4212,54.889828,9.793814,108.3,5.845,1.85,335.95,54.889698,9.793561,54.895069,9.793790
1386876944,1,0,390.9,0,3,4,0,2,175,-0.0292,392.9595,6.8213,0.4212,54.889843,9.793831,108.3,5.845,1.85,335.95,54.889698,9.793561,54.895069,9.793790
1386876944,1,0,390.9,0,2,0,0,1,150,-0.0292,392.4261,6.8213,0.4212,54.889858,9.793848,108.3,5.845,1.85,335.95,54.889698,9.793561,54.895069,9.793790
1386876945,1,0,390.9,0,1,4,0,0,125,-0.0292,392.1595,6.8213,0.4212,54.889874,9.793864,108.3,5.845,1.85,335.95,54.889698,9.793561,54.895069,9.793790
1386876945,1,0,390.9,0,1,0,0,0,100,-0.0292,391.8928,6.8213,0.4212,54.889889,9.793881,108.3,5.845,1.85,335.95,54.889698,9.793561,54.895069,9.793790
1386876945,1,0,390.9,0,1,4,0,0,75,-0.0292,391.6262,6.8213,0.4212,54.889904,9.793898,108.3,5.845,1.85,335.95,54.889698,9.793561,54.895069,9.793790
1386876945,1,0,390.9,0,1,0,0,0,50,-0.0292,391.3595,6.8213,0.4212,54.889923,9.793914,108.3,5.845,1.85,335.95,54.889698,9.793561,54.895069,9.793790
1386876946,1,0,390.9,0,0,4,0,0,25,-0.0292,391.3595,6.8213,0.4212,54.889938,9.793930,108.3,5.845,1.85,335.95,54.889698,9.793561,54.895069,9.793790
1386876946,1,0,390.9,0,0,0,0,0,0,-0.0292,391.3595,6.8213,0.4212,54.889954,9.793946,108.3,5.845,1.85,335.95,54.889698,9.793561,54.895069,9.793790
1386876946,1,0,390.9,0,0,4,0,0,25,-0.0292,391.3595,6.8213,0.4212,54.889965,9.793962,108.3,5.845,1.85,335.95,54.889698,9.793561,54.895069,9.793790
1386876946,1,0,390.9,0,0,0,0,0,0,-0.0292,391.3595,6.8213,0.4212,54.889980,9.793979,108.3,5.845,1.85,335.95,54.889698,9.793561,54.895069,9.793790
1386876947,1,0,390.9,0,0,4,0,0,25,-0.0292,391.3595,6.8213,0.4212,54.889996,9.793995,108.3,5.845,1.85,335.95,54.889698,9.793561,54.895069,9.793790
1386876947,1,0,390.9,0,0,0,0,0,0,-0.0292,391.3595,6.8213,0.4212,54.890011,9.794011,108.3,5.845,1.85,335.95,54.889698,9.793561,54.895069,9.793790
1386876947,1,0,390.9,0,0,4,0,0,25,-0.0292,391.3595,6.8213,0.4212,54.890026,9.794027,108.3,5.845,1.85,335.95,54.889698,9.793561,54.895069,9.793790
1386876947,1,0,390.9,0,0,0,0,0,0,-0.0292,391.3595,6.8213,0.4212,54.890045,9.794044,108.3,5.845,1.85,335.95,54.889698,9.793561,54.895069,9.793790
1386876948,1,0,390.9,0,0,4,0,0,25,-0.0292,391.3595,6.8213,0.4212,54.890060,9.794060,108.3,5.845,1.85,335.95,54.889698,9.793561,54.895069,9.793790
1386876948,1,0,390.9,0,0,0,0,0,0,-0.0292,391.3595,6.8213,0.4212,54.890076,9.794076,108.3,5.845,1.85,335.95,54.889698,9.793561,54.895069,9.793790
1386876948,1,0,390.9,0,0,4,0,0,25,-0.0292,391.3595,6.8213,0.4212,54.890095,9.794092,108.3,5.845,1.85,335.95,54.889698,9.793561,54.895069,9.793790
1386876948,1,0,390.9,0,0,0,0,0,0,-0.0292,391.3595,6.8213,0.4212,54.890110,9.794108,108.3,5.845,1.85,335.95,54.889698,9.793561,54.895069,9.793790
1386876949,1,0,390.9,0,0,4,0,0,25,-0.0292,391.3595,6.8213,0.4212,54.890125,9.794125,108.3,5.845,1.85,335.95,54.889698,9.793561,54.895069,9.793790
1386876949,1,0,390.9,0,0,0,0,0,0,-0.0292,391.3595,6.8213,0.4212,54.890144,9.794141,108.3,5.845,1.85,335.95,54.889698,9.793561,54.895069,9.793790
1386876949,1,0,390.9,0,0,4,0,0,25,-0.0292,391.3595,6.8213,0.4212,54.890160,9.794157,108.3,5.845,1.85,335.95,54.889698,9.793561,54.895069,9.793790
1386876949,1,0,390.9,0,0,0,0,0,0,-0.0292,391.3595,6.8213,0.4212,54.890175,9.794173,108.3,5.845,1.85,335.95,54.889698,9.793561,54.895069,9.793790
1386876950,1,0,390.9,0,0,4,0,0,25,-0.0292,391.3595,6.8213,0.4212,54.890186,9.794190,108.3,5.845,1.85,335.95,54.889698,9.793561,54.895069,9.793790
1386876950,1,0,390.9,0,0,0,0,0,0,-0.0292,391.3595,6.8213,0.4212,54.890202,9.794207,108.3,5.845,1.85,335.95,54.889698,9.793561,54.895069,9.793790
1386876950,1,0,390.9,0,0,4,0,0,25,-0.0292,391.3595,6.8213,0.4212,54.890217,9.794223,108.3,5.845,1.85,335.95,54.889698,9.793561,54.895069,9.793790
1386876950,1,0,390.9,0,0,0,0,0,0,-0.0292,391.3595,6.8213,0.4212,54.890232,9.794239,108.3,5.845,1.85,335.95,54.889698,9.793561,54.895069,9.793790
1386876951,1,0,390.9,0,0,4,0,0,25,-0.0292,391.3595,6.8213,0.4212,54.890247,9.794255,108.3,5.845,1.85,335.95,54.889698,9.793561,54.895069,9.793790
1386876951,1,0,390.9,0,0,0,0,0,0,-0.0292,391.3595,6.8213,0.4212,54.890266,9.794271,108.3,5.845,1.85,335.95,54.889698,9.793561,54.895069,9.793790
1386876951,1,0,390.9,0,0,4,0,0,25,-0.0292,391.3595,6.8213,0.4212,54.890282,9.794288,108.3,5.845,1.85,335.95,54.889698,9.793561,54.895069,9.793790
1386876951,1,0,390.9,0,0,0,0,0,0,-0.0292,391.3595,6.8213,0.4212,54.890297,9.794304,108.3,5.845,1.85,335.95,54.889698,9.793561,54.895069,9.793790
1386876952,1,0,390.9,0,0,4,0,0,25,-0.0292,391.3595,6.8213,0.4212,54.890316,9.794320,108.3,5.845,1.85,335.95,54.889698,9.793561,54.895069,9.793790
1386876952,1,0,390.9,0,0,0,0,0,0,-0.0292,391.3595,6.8213,0.4212,54.890331,9.794336,108.3,5.845,1.85,335.95,54.889698,9.793561,54.895069,9.793790
1386876952,1,0,390.9,0,0,4,0,0,25,-0.0292,391.3595,6.8213,0.4212,54.890347,9.794353,108.3,5.845,1.85,335.95,54.889698,9.793561,54.895069,9.793790
1386876952,1,0,485.9,0,-35,0,0,0,0,-0.0292,400.6928,6.8213,0.4212,54.890362,9.794373,108.3,5.845,1.85,335.95,54.889698,9.793561,54.895069,9.793790
1386876953,1,0,485.9,0,-35,-4,0,27,25,-0.0292,410.0262,6.8213,0.4212,54.890373,9.794396,108.3,5.845,1.85,335.95,54.889698,9.793561,54.895069,9.793790
1386876953,1,0,485.9,0,-35,-8,0,90,50,-0.0292,419.3595,6.8213,0.4212,54.890381,9.794423,108.3,5.845,1.85,335.95,54.889698,9.793561,54.895069,9.793790
1386876953,1,0,485.9,0,-35,-12,0,169,75,-0.0292,428.6929,6.8213,0.4212,54.890388,9.794453,108.3,5.845,1.85,335.95,54.889698,9.793561,54.895069,9.793790
1386876953,1,0,485.9,0,-35,-16,0,254,100,-0.0292,438.0262,6.8213,0.4212,54.890392,9.794483,108.3,5.845,1.85,335.95,54.889698,9.793561,54.895069,9.793790
1386876954,1,0,485.9,0,-35,-20,0,339,125,-0.0292,447.3596,6.8213,0.4212,54.890396,9.794514,108.3,5.845,1.85,335.95,54.889698,9.793561,54.895069,9.793790
1386876954,1,0,485.9,0,-35,-24,0,422,150,-0.0292,456.6929,6.8213,0.4212,54.890392,9.794545,108.3,5.845,1.85,335.95,54.889698,9.793561,54.895069,9.793790
1386876954,1,0,485.9,0,-29,-28,0,499,175,-0.0292,464.4262,6.8213,0.4212,54.890388,9.794576,108.3,5.845,1.85,335.95,54.889698,9.793561,54.895069,9.793790
1386876954,1,0,485.9,0,-22,-24,0,500,200,-0.0292,470.2929,6.8213,0.4212,54.890385,9.794605,108.3,5.845,1.85,335.95,54.889698,9.793561,54.895069,9.793790
1386876955,1,0,485.9,0,-16,-20,0,500,225,-0.0292,474.5596,6.8213,0.4212,54.890377,9.794633,108.3,5.845,1.85,335.95,54.889698,9.793561,54.895069,9.793790
1386876955,1,0,485.9,0,-11,-16,0,409,250,-0.0292,477.4929,6.8213,0.4212,54.890366,9.794661,108.3,5.845,1.85,335.95,54.889698,9.793561,54.895069,9.793790
1386876955,1,0,485.9,0,-8,-12,0,409,275,-0.0292,479.6262,6.8213,0.4212,54.890358,9.794687,108.3,5.845,1.85,335.95,54.889698,9.793561,54.895069,9.793790
1386876955,1,0,485.9,0,-6,-8,0,0,250,-0.0292,481.2262,6.8213,0.4212,54.890347,9.794714,108.3,5.845,1.85,335.95,54.889698,9.793561,54.895069,9.793790
1386876956,1,0,485.9,0,-5,-4,0,0,225,-0.0292,482.5596,6.8213,0.4212,54.890339,9.794741,108.3,5.845,1.85,335.95,54.889698,9.793561,54.895069,9.793790
1386876956,1,0,485.9,0,-3,0,0,0,200,-0.0292,483.3596,6.8213,0.4212,54.890331,9.794766,108.3,5.845,1.85,335.95,54.889698,9.793561,54.895069,9.793790
1386876956,1,0,485.9,0,-3,-4,0,0,175,-0.0292,484.1595,6.8213,0.4212,54.890320,9.794792,108.3,5.845,1.85,335.95,54.889698,9.793561,54.895069,9.793790
1386876957,1,0,485.9,0,-2,0,0,0,150,-0.0292,484.6929,6.8213,0.4212,54.890312,9.794818,108.3,5.845,1.85,335.95,54.889698,9.793561,54.895069,9.793790
1386876957,1,0,485.9,0,-1,-4,0,0,125,-0.0292,484.9595,6.8213,0.4212,54.890301,9.794843,108.3,5.845,1.85,335.95,54.889698,9.793561,54.895069,9.793790
1386876957,1,0,485.9,0,-1,0,0,0,100,-0.0292,485.2262,6.8213,0.4212,54.890289,9.794868,108.3,5.845,1.85,335.95,54.889698,9.793561,54.895069,9.793790
1386876957,1,0,485.9,0,-1,-4,0,0,75,-0.0292,485.4929,6.8213,0.4212,54.890278,9.794893,108.3,5.845,1.85,335.95,54.889698,9.793561,54.895069,9.793790
1386876958,1,0,485.9,0,0,0,0,0,50,-0.0292,485.4929,6.8213,0.4212,54.890266,9.794919,108.3,5.845,1.85,335.95,54.889698,9.793561,54.895069,9.793790
1386876958,1,0,485.9,0,0,4,0,0,25,-0.0292,485.4929,6.8213,0.4212,54.890259,9.794945,108.3,5.845,1.85,335.95,54.889698,9.793561,54.895069,9.793790
1386876958,1,0,485.9,0,0,0,0,0,0,-0.0292,485.4929,6.8213,0.4212,54.890247,9.794971,108.3,5.845,1.85,335.95,54.889698,9.793561,54.895069,9.793790
1386876958,1,0,485.9,0,0,4,0,0,25,-0.0292,485.4929,6.8213,0.4212,54.890240,9.794996,108.3,5.845,1.85,335.95,54.889698,9.793561,54.895069,9.793790
1386876959,1,0,545.9,0,-35,0,0,0,0,-0.0292,494.8262,6.8213,0.4212,54.890228,9.795018,108.3,5.845,1.85,335.95,54.889698,9.793561,54.895069,9.793790
1386876959,1,0,545.9,0,-35,-4,0,0,25,-0.0292,504.1595,6.8213,0.4212,54.890213,9.795036,108.3,5.845,1.85,335.95,54.889698,9.793561,54.895069,9.793790
1386876959,1,0,545.9,0,-35,-8,0,0,0,-0.0292,513.4929,6.8213,0.4212,54.890198,9.795050,108.3,5.845,1.85,335.95,54.889698,9.793561,54.895069,9.793790
1386876959,1,0,545.9,0,-32,-12,0,0,25,-0.0292,522.0262,6.8213,0.4212,54.890182,9.795059,108.3,5.845,1.85,335.95,54.889698,9.793561,54.895069,9.793790
1386876960,1,0,545.9,0,-24,-16,0,0,0,-0.0292,528.4262,6.8213,0.4212,54.890163,9.795066,108.3,5.845,1.85,335.95,54.889698,9.793561,54.895069,9.793790
1386876960,1,0,545.9,0,-18,-20,0,0,25,-0.0292,533.2262,6.8213,0.4212,54.890144,9.795070,108.3,5.845,1.85,335.95,54.889698,9.793561,54.895069,9.793790
1386876960,1,0,545.9,0,-13,-16,0,0,0,-0.0292,536.6929,6.8213,0.4212,54.890129,9.795072,108.3,5.845,1.85,335.95,54.889698,9.793561,54.895069,9.793790
1386876960,1,0,545.9,0,-9,-12,0,0,25,-0.0292,539.0929,6.8213,0.4212,54.890110,9.795073,108.3,5.845,1.85,335.95,54.889698,9.793561,54.895069,9.793790
1386876961,1,0,545.9,0,-7,-8,0,409,50,-0.0292,540.9595,6.8213,0.4212,54.890091,9.795073,108.3,5.845,1.85,335.95,54.889698,9.793561,54.895069,9.793790
1386876961,1,0,545.9,0,-5,-4,0,409,75,-0.0292,542.2928,6.8213,0.4212,54.890072,9.795072,108.3,5.845,1.85,335.95,54.889698,9.793561,54.895069,9.793790
1386876961,1,0,545.9,0,-4,0,0,409,100,-0.0292,543.3595,6.8213,0.4212,54.890057,9.795071,108.3,5.845,1.85,335.95,54.889698,9.793561,54.895069,9.793790
1386876961,1,0,545.9,0,-3,-4,0,409,125,-0.0292,544.1595,6.8213,0.4212,54.890038,9.795069,108.3,5.845,1.85,335.95,54.889698,9.793561,54.895069,9.793790
1386876962,1,0,545.9,0,-2,0,0,409,150,-0.0292,544.6928,6.8213,0.4212,54.890018,9.795067,108.3,5.845,1.85,335.95,54.889698,9.793561,54.895069,9.793790
1386876962,1,0,545.9,0,-1,-4,0,409,175,-0.0292,544.9595,6.8213,0.4212,54.889999,9.795064,108.3,5.845,1.85,335.95,54.889698,9.793561,54.895069,9.793790
1386876962,1,0,545.9,0,-1,0,0,409,200,-0.0292,545.2261,6.8213,0.4212,54.889984,9.795061,108.3,5.845,1.85,335.95,54.889698,9.793561,54.895069,9.793790
1386876962,1,0,545.9,0,-1,-4,0,409,225,-0.0292,545.4928,6.8213,0.4212,54.889965,9.795058,108.3,5.845,1.85,335.95,54.889698,9.793561,54.895069,9.793790
1386876963,1,0,545.9,0,0,0,0,409,250,-0.0292,545.4928,6.8213,0.4212,54.889946,9.795055,108.3,5.845,1.85,335.95,54.889698,9.793561,54.895069,9.793790
1386876963,1,0,545.9,0,0,4,0,409,275,-0.0292,545.4928,6.8213,0.4212,54.889931,9.795053,108.3,5.845,1.85,335.95,54.889698,9.793561,54.895069,9.793790
1386876963,1,0,545.9,0,0,0,0,409,300,-0.0292,545.4928,6.8213,0.4212,54.889912,9.795050,108.3,5.845,1.85,335.95,54.889698,9.793561,54.895069,9.793790
1386876963,1,0,545.9,0,0,4,0,409,325,-0.0292,545.4928,6.8213,0.4212,54.889893,9.795047,108.3,5.845,1.85,335.95,54.889698,9.793561,54.895069,9.793790
1386876964,1,0,280.9,0,-35,0,0,409,350,-0.0292,554.8261,6.8213,0.4212,54.889874,9.795038,108.3,5.845,1.85,335.95,54.889698,9.793561,54.895069,9.793790
1386876964,1,0,280.9,0,-35,-4,0,409,375,-0.0292,564.1594,6.8213,0.4212,54.889858,9.795025,108.3,5.845,1.85,335.95,54.889698,9.793561,54.895069,9.793790
1386876964,1,0,280.9,0,-35,-8,0,500,400,-0.0292,573.4927,6.8213,0.4212,54.889843,9.795008,108.3,5.845,1.85,335.95,54.889698,9.793561,54.895069,9.793790
1386876964,1,0,280.9,0,-35,-12,0,500,425,-0.0292,582.8260,6.8213,0.4212,54.889832,9.794987,108.3,5.845,1.85,335.95,54.889698,9.793561,54.895069,9.793790
