MCU_timestamp,Navigation_System,Manual_Control,Guidance_Heading,Manual_Ctrl_Rudder,Rudder_Desired_Angle,Rudder_Feedback,Manual_Ctrl_Sail,Sail_Desired_Pos,Sail_Feedback,Rate,Heading,Pitch,Roll,Latitude,Longitude,COG,SOG,Wind_Speed,Wind_Angle,Point_Start_Lat,Point_Start_Lon,Point_End_Lat,Point_End_Lon
1386941992,1,0,185.9,0,35,4,0,0,0,-0.0292,345.2256,6.8213,0.4212,54.894909,9.795076,108.3,5.845,1.85,50.00,54.894890,9.795085,0.000000,0.000000
1386941992,1,0,185.9,0,35,8,0,47,50,-0.0292,335.8922,6.8213,0.4212,54.894924,9.795063,108.3,5.845,1.85,50.00,54.894890,9.795085,0.000000,0.000000
1386941992,1,0,185.9,0,35,12,0,157,100,-0.0292,326.5589,6.8213,0.4212,54.894936,9.795046,108.3,5.845,1.85,50.00,54.894890,9.795085,0.000000,0.000000
1386941992,1,0,185.9,0,35,16,0,295,150,-0.0292,317.2255,6.8213,0.4212,54.894951,9.795025,108.3,5.845,1.85,50.00,54.894890,9.795085,0.000000,0.000000
1386941993,1,0,185.9,0,35,20,0,443,200,-0.0292,307.8922,6.8213,0.4212,54.894962,9.795001,108.3,5.845,1.85,50.00,54.894890,9.795085,0.000000,0.000000
1386941993,1,0,185.9,0,35,24,0,591,250,-0.0292,298.5588,6.8213,0.4212,54.894970,9.794973,108.3,5.845,1.85,50.00,54.894890,9.795085,0.000000,0.000000
1386941993,1,0,185.9,0,35,28,0,734,300,-0.0292,289.2255,6.8213,0.4212,54.894978,9.794944,108.3,5.845,1.85,50.00,54.894890,9.795085,0.000000,0.000000
1386941993,1,0,185.9,0,35,32,0,869,350,-0.0292,279.8922,6.8213,0.4212,54.894981,9.794913,108.3,5.845,1.85,50.00,54.894890,9.795085,0.000000,0.000000
1386941994,1,0,185.9,0,35,36,0,870,400,-0.0292,270.5588,6.8213,0.4212,54.894981,9.794882,108.3,5.845,1.85,50.00,54.894890,9.795085,0.000000,0.000000
1386941994,1,0,185.9,0,35,32,0,713,450,-0.0292,261.2255,6.8213,0.4212,54.894978,9.794851,108.3,5.845,1.85,50.00,54.894890,9.795085,0.000000,0.000000
1386941994,1,0,185.9,0,35,36,0,713,500,-0.0292,251.8921,6.8213,0.4212,54.894970,9.794822,108.3,5.845,1.85,50.00,54.894890,9.795085,0.000000,0.000000
1386941994,1,0,185.9,0,35,32,0,713,550,-0.0292,242.5588,6.8213,0.4212,54.894962,9.794794,108.3,5.845,1.85,50.00,54.894890,9.795085,0.000000,0.000000
1386941995,1,0,185.9,0,35,36,0,713,600,-0.0292,233.2255,6.8213,0.4212,54.894951,9.794769,108.3,5.845,1.85,50.00,54.894890,9.795085,0.000000,0.000000
1386941995,1,0,185.9,0,35,32,0,0,550,-0.0292,223.8922,6.8213,0.4212,54.894936,9.794748,108.3,5.845,1.85,50.00,54.894890,9.795085,0.000000,0.000000
1386941995,1,0,185.9,0,35,36,0,0,500,-0.0292,214.5588,6.8213,0.4212,54.894920,9.794730,108.3,5.845,1.85,50.00,54.894890,9.795085,0.000000,0.000000
1386941995,1,0,185.9,0,29,32,0,713,550,-0.0292,206.8255,6.8213,0.4212,54.894905,9.794717,108.3,5.845,1.85,50.00,54.894890,9.795085,0.000000,0.000000
1386941996,1,0,185.9,0,21,28,0,713,600,-0.0292,201.2255,6.8213,0.4212,54.894886,9.794705,108.3,5.845,1.85,50.00,54.894890,9.795085,0.000000,0.000000
1386941996,1,0,185.9,0,15,24,0,713,650,-0.0292,197.2255,6.8213,0.4212,54.894871,9.794696,108.3,5.845,1.85,50.00,54.894890,9.795085,0.000000,0.000000
1386941996,1,0,185.9,0,11,20,0,713,700,-0.0292,194.2921,6.8213,0.4212,54.894855,9.794688,108.3,5.845,1.85,50.00,54.894890,9.795085,0.000000,0.000000
1386941996,1,0,185.9,0,8,16,0,713,750,-0.0292,192.1588,6.8213,0.4212,54.894836,9.794683,108.3,5.845,1.85,50.00,54.894890,9.795085,0.000000,0.000000
1386941997,1,0,185.9,0,6,12,0,713,700,-0.0292,190.5588,6.8213,0.4212,54.894817,9.794677,108.3,5.845,1.85,50.00,54.894890,9.795085,0.000000,0.000000
1386941997,1,0,185.9,0,5,8,0,713,750,-0.0292,189.2255,6.8213,0.4212,54.894802,9.794672,108.3,5.845,1.85,50.00,54.894890,9.795085,0.000000,0.000000
1386941997,1,0,185.9,0,3,4,0,713,700,-0.0292,188.4255,6.8213,0.4212,54.894783,9.794667,108.3,5.845,1.85,50.00,54.894890,9.795085,0.000000,0.000000
1386941997,1,0,185.9,0,3,0,0,713,750,-0.0292,187.6255,6.8213,0.4212,54.894764,9.794663,108.3,5.845,1.85,50.00,54.894890,9.795085,0.000000,0.000000
1386941998,1,0,185.9,0,2,4,0,713,700,-0.0292,187.0921,6.8213,0.4212,54.894745,9.794660,108.3,5.845,1.85,50.00,54.894890,9.795085,0.000000,0.000000
1386941998,1,0,185.9,0,1,0,0,713,750,-0.0292,186.8255,6.8213,0.4212,54.894730,9.794656,108.3,5.845,1.85,50.00,54.894890,9.795085,0.000000,0.000000
1386941998,1,0,185.9,0,1,4,0,713,700,-0.0292,186.5588,6.8213,0.4212,54.894711,9.794652,108.3,5.845,1.85,50.00,54.894890,9.795085,0.000000,0.000000
1386941998,1,0,185.9,0,1,0,0,713,750,-0.0292,186.2921,6.8213,0.4212,54.894691,9.794648,108.3,5.845,1.85,50.00,54.894890,9.795085,0.000000,0.000000
1386941999,1,0,185.9,0,0,4,0,713,700,-0.0292,186.2921,6.8213,0.4212,54.894672,9.794644,108.3,5.845,1.85,50.00,54.894890,9.795085,0.000000,0.000000
1386941999,1,0,185.9,0,0,0,0,713,750,-0.0292,186.2921,6.8213,0.4212,54.894657,9.794641,108.3,5.845,1.85,50.00,54.894890,9.795085,0.000000,0.000000
1386941999,1,0,185.9,0,0,4,0,713,700,-0.0292,186.2921,6.8213,0.4212,54.894638,9.794639,108.3,5.845,1.85,50.00,54.894890,9.795085,0.000000,0.000000
1386941999,1,0,185.9,0,0,0,0,713,750,-0.0292,186.2921,6.8213,0.4212,54.894619,9.794636,108.3,5.845,1.85,50.00,54.894890,9.795085,0.000000,0.000000
1386942000,1,0,185.9,0,0,4,0,713,700,-0.0292,186.2921,6.8213,0.4212,54.894604,9.794633,108.3,5.845,1.85,50.00,54.894890,9.795085,0.000000,0.000000
1386942000,1,0,185.9,0,0,0,0,713,750,-0.0292,186.2921,6.8213,0.4212,54.894585,9.794630,108.3,5.845,1.85,50.00,54.894890,9.795085,0.000000,0.000000
1386942000,1,0,185.9,0,0,4,0,713,700,-0.0292,186.2921,6.8213,0.4212,54.894566,9.794627,108.3,5.845,1.85,50.00,54.894890,9.795085,0.000000,0.000000
1386942000,1,0,185.9,0,0,0,0,713,750,-0.0292,186.2921,6.8213,0.4212,54.894547,9.794623,108.3,5.845,1.85,50.00,54.894890,9.795085,0.000000,0.000000
1386942001,1,0,185.9,0,0,4,0,713,700,-0.0292,186.2921,6.8213,0.4212,54.894531,9.794620,108.3,5.845,1.85,50.00,54.894890,9.795085,0.000000,0.000000
1386942001,1,0,185.9,0,0,0,0,713,750,-0.0292,186.2921,6.8213,0.4212,54.894512,9.794616,108.3,5.845,1.85,50.00,54.894890,9.795085,0.000000,0.000000
1386942001,1,0,185.9,0,0,4,0,713,700,-0.0292,186.2921,6.8213,0.4212,54.894493,9.794612,108.3,5.845,1.85,50.00,54.894890,9.795085,0.000000,0.000000
1386942001,1,0,185.9,0,0,0,0,713,750,-0.0292,186.2921,6.8213,0.4212,54.894474,9.794608,108.3,5.845,1.85,50.00,54.894890,9.795085,0.000000,0.000000
1386942002,1,0,185.9,0,0,4,0,713,700,-0.0292,186.2921,6.8213,0.4212,54.894459,9.794604,108.3,5.845,1.85,50.00,54.894890,9.795085,0.000000,0.000000
1386942002,1,0,185.9,0,0,0,0,713,750,-0.0292,186.2921,6.8213,0.4212,54.894440,9.794600,108.3,5.845,1.85,50.00,54.894890,9.795085,0.000000,0.000000
1386942002,1,0,185.9,0,0,4,0,713,700,-0.0292,186.2921,6.8213,0.4212,54.894421,9.794598,108.3,5.845,1.85,50.00,54.894890,9.795085,0.000000,0.000000
1386942002,1,0,185.9,0,0,0,0,713,750,-0.0292,186.2921,6.8213,0.4212,54.894402,9.794595,108.3,5.845,1.85,50.00,54.894890,9.795085,0.000000,0.000000
1386942003,1,0,185.9,0,0,4,0,713,700,-0.0292,186.2921,6.8213,0.4212,54.894386,9.794592,108.3,5.845,1.85,50.00,54.894890,9.795085,0.000000,0.000000
1386942003,1,0,185.9,0,0,0,0,713,750,-0.0292,186.2921,6.8213,0.4212,54.894367,9.794589,108.3,5.845,1.85,50.00,54.894890,9.795085,0.000000,0.000000
1386942003,1,0,185.9,0,0,4,0,713,700,-0.0292,186.2921,6.8213,0.4212,54.894348,9.794586,108.3,5.845,1.85,50.00,54.894890,9.795085,0.000000,0.000000
1386942003,1,0,185.9,0,0,0,0,713,750,-0.0292,186.2921,6.8213,0.4212,54.894333,9.794583,108.3,5.845,1.85,50.00,54.894890,9.795085,0.000000,0.000000
1386942004,0,0,185.9,0,0,0,0,713,750,-0.0292,186.2921,6.8213,0.4212,54.894333,9.794583,108.3,5.845,1.85,50.00,54.894890,9.795085,0.000000,0.000000
1386942004,0,0,185.9,0,0,0,0,713,750,-0.0292,186.2921,6.8213,0.4212,54.894333,9.794583,108.3,5.845,1.85,50.00,54.894890,9.795085,0.000000,0.000000
1386942004,0,0,185.9,0,0,0,0,713,750,-0.0292,186.2921,6.8213,0.4212,54.894333,9.794583,108.3,5.845,1.85,50.00,54.894890,9.795085,0.000000,0.000000
1386942004,0,0,185.9,0,0,0,0,713,750,-0.0292,186.2921,6.8213,0.4212,54.894333,9.794583,108.3,5.845,1.85,50.00,54.894890,9.795085,0.000000,0.000000
1386942005,0,0,185.9,0,0,0,0,713,750,-0.0292,186.2921,6.8213,0.4212,54.894333,9.794583,108.3,5.845,1.85,50.00,54.894890,9.795085,0.000000,0.000000
1386942005,0,0,185.9,0,0,0,0,713,750,-0.0292,186.2921,6.8213,0.4212,54.894333,9.794583,108.3,5.845,1.85,50.00,54.894890,9.795085,0.000000,0.000000
1386942005,0,0,185.9,0,0,0,0,713,750,-0.0292,186.2921,6.8213,0.4212,54.894333,9.794583,108.3,5.845,1.85,50.00,54.894890,9.795085,0.000000,0.000000
1386942005,0,0,185.9,0,0,0,0,713,750,-0.0292,186.2921,6.8213,0.4212,54.894333,9.794583,108.3,5.845,1.85,50.00,54.894890,9.795085,0.000000,0.000000
1386942006,0,0,185.9,0,0,0,0,713,750,-0.0292,186.2921,6.8213,0.4212,54.894333,9.794583,108.3,5.845,1.85,50.00,54.894890,9.795085,0.000000,0.000000
1386942006,0,0,185.9,0,0,0,0,713,750,-0.0292,186.2921,6.8213,0.4212,54.894333,9.794583,108.3,5.845,1.85,50.00,54.894890,9.795085,0.000000,0.000000
1386942006,0,0,185.9,0,0,0,0,713,750,-0.0292,186.2921,6.8213,0.4212,54.894333,9.794583,108.3,5.845,1.85,50.00,54.894890,9.795085,0.000000,0.000000
1386942006,0,0,185.9,0,0,0,0,713,750,-0.0292,186.2921,6.8213,0.4212,54.894333,9.794583,108.3,5.845,1.85,50.00,54.894890,9.795085,0.000000,0.000000
1386942007,0,0,185.9,0,0,0,0,713,750,-0.0292,186.2921,6.8213,0.4212,54.894333,9.794583,108.3,5.845,1.85,50.00,54.894890,9.795085,0.000000,0.000000
1386942007,0,0,185.9,0,0,0,0,713,750,-0.0292,186.2921,6.8213,0.4212,54.894333,9.794583,108.3,5.845,1.85,50.00,54.894890,9.795085,0.000000,0.000000
1386942007,0,0,185.9,0,0,0,0,713,750,-0.0292,186.2921,6.8213,0.4212,54.894333,9.794583,108.3,5.845,1.85,50.00,54.894890,9.795085,0.000000,0.000000
1386942007,0,0,185.9,0,0,0,0,713,750,-0.0292,186.2921,6.8213,0.4212,54.894333,9.794583,108.3,5.845,1.85,50.00,54.894890,9.795085,0.000000,0.000000
1386942008,0,0,185.9,0,0,0,0,713,750,-0.0292,186.2921,6.8213,0.4212,54.894333,9.794583,108.3,5.845,1.85,50.00,54.894890,9.795085,0.000000,0.000000
1386942008,0,0,185.9,0,0,0,0,713,750,-0.0292,186.2921,6.8213,0.4212,54.894333,9.794583,108.3,5.845,1.85,50.00,54.894890,9.795085,0.000000,0.000000
1386942008,0,0,185.9,0,0,0,0,713,750,-0.0292,186.2921,6.8213,0.4212,54.894333,9.794583,108.3,5.845,1.85,50.00,54.894890,9.795085,0.000000,0.000000
1386942008,0,0,185.9,0,0,0,0,713,750,-0.0292,186.2921,6.8213,0.4212,54.894333,9.794583,108.3,5.845,1.85,50.00,54.894890,9.795085,0.000000,0.000000
1386942009,0,0,185.9,0,0,0,0,713,750,-0.0292,186.2921,6.8213,0.4212,54.894333,9.794583,108.3,5.845,1.85,50.00,54.894890,9.795085,0.000000,0.000000
1386942009,0,0,185.9,0,0,0,0,713,750,-0.0292,186.2921,6.8213,0.4212,54.894333,9.794583,108.3,5.845,1.85,50.00,54.894890,9.795085,0.000000,0.000000
1386942009,0,0,185.9,0,0,0,0,713,750,-0.0292,186.2921,6.8213,0.4212,54.894333,9.794583,108.3,5.845,1.85,50.00,54.894890,9.795085,0.000000,0.000000
1386942009,0,0,185.9,0,0,0,0,713,750,-0.0292,186.2921,6.8213,0.4212,54.894333,9.794583,108.3,5.845,1.85,50.00,54.894890,9.795085,0.000000,0.000000
1386942010,0,0,185.9,0,0,0,0,713,750,-0.0292,186.2921,6.8213,0.4212,54.894333,9.794583,108.3,5.845,1.85,50.00,54.894890,9.795085,0.000000,0.000000
1386942010,0,0,185.9,0,0,0,0,713,750,-0.0292,186.2921,6.8213,0.4212,54.894333,9.794583,108.3,5.845,1.85,50.00,54.894890,9.795085,0.000000,0.000000
1386942010,0,0,185.9,0,0,0,0,713,750,-0.0292,186.2921,6.8213,0.4212,54.894333,9.794583,108.3,5.845,1.85,50.00,54.894890,9.795085,0.000000,0.000000
1386942010,0,0,185.9,0,0,0,0,713,750,-0.0292,186.2921,6.8213,0.4212,54.894333,9.794583,108.3,5.845,1.85,50.00,54.894890,9.795085,0.000000,0.000000
1386942011,0,0,185.9,0,0,0,0,713,750,-0.0292,186.2921,6.8213,0.4212,54.894333,9.794583,108.3,5.845,1.85,50.00,54.894890,9.795085,0.000000,0.000000
1386942011,0,0,185.9,0,0,0,0,713,750,-0.0292,186.2921,6.8213,0.4212,54.894333,9.794583,108.3,5.845,1.85,50.00,54.894890,9.795085,0.000000,0.000000
1386942011,0,0,185.9,0,0,0,0,713,750,-0.0292,186.2921,6.8213,0.4212,54.894333,9.794583,108.3,5.845,1.85,50.00,54.894890,9.795085,0.000000,0.000000
1386942011,0,0,185.9,0,0,0,0,713,750,-0.0292,186.2921,6.8213,0.4212,54.894333,9.794583,108.3,5.845,1.85,50.00,54.894890,9.795085,0.000000,0.000000
1386942012,0,0,185.9,0,0,0,0,713,750,-0.0292,186.2921,6.8213,0.4212,54.894333,9.794583,108.3,5.845,1.85,50.00,54.894890,9.795085,0.000000,0.000000
1386942012,0,0,185.9,0,0,0,0,713,750,-0.0292,186.2921,6.8213,0.4212,54.894333,9.794583,108.3,5.845,1.85,50.00,54.894890,9.795085,0.000000,0.000000
1386942012,0,0,185.9,0,0,0,0,713,750,-0.0292,186.2921,6.8213,0.4212,54.894333,9.794583,108.3,5.845,1.85,50.00,54.894890,9.795085,0.000000,0.000000
