MCU_timestamp,Navigation_System,Manual_Control,Guidance_Heading,Manual_Ctrl_Rudder,Rudder_Desired_Angle,Rudder_Feedback,Manual_Ctrl_Sail,Sail_Desired_Pos,Sail_Feedback,Rate,Heading,Pitch,Roll,Latitude,Longitude,COG,SOG,Wind_Speed,Wind_Angle,Point_Start_Lat,Point_Start_Lon,Point_End_Lat,Point_End_Lon
1386958433,1,0,150.0,0,-34,-4,0,808,850,-0.0292,5165.4946,6.8213,0.4212,54.893154,9.804277,108.3,5.845,1.85,0.00,54.893166,9.804253,0.000000,0.000000
1386958433,1,0,150.0,0,-25,-8,0,870,900,-0.0292,5172.1611,6.8213,0.4212,54.893139,9.804300,108.3,5.845,1.85,0.00,54.893166,9.804253,0.000000,0.000000
1386958433,1,0,150.0,0,-18,-12,0,870,850,-0.0292,5176.9609,6.8213,0.4212,54.893127,9.804321,108.3,5.845,1.85,0.00,54.893166,9.804253,0.000000,0.000000
1386958433,1,0,150.0,0,-13,-16,0,713,800,-0.0292,5180.4277,6.8213,0.4212,54.893112,9.804341,108.3,5.845,1.85,0.00,54.893166,9.804253,0.000000,0.000000
1386958434,1,0,150.0,0,-10,-12,0,713,750,-0.0292,5183.0942,6.8213,0.4212,54.893097,9.804359,108.3,5.845,1.85,0.00,54.893166,9.804253,0.000000,0.000000
1386958434,1,0,150.0,0,-7,-8,0,713,700,-0.0292,5184.9609,6.8213,0.4212,54.893085,9.804378,108.3,5.845,1.85,0.00,54.893166,9.804253,0.000000,0.000000
1386958434,1,0,150.0,0,-5,-4,0,713,750,-0.0292,5186.2944,6.8213,0.4212,54.893070,9.804395,108.3,5.845,1.85,0.00,54.893166,9.804253,0.000000,0.000000
1386958434,1,0,150.0,0,-4,0,0,713,700,-0.0292,5187.3613,6.8213,0.4212,54.893055,9.804412,108.3,5.845,1.85,0.00,54.893166,9.804253,0.000000,0.000000
1386958435,1,0,150.0,0,-3,-4,0,0,650,-0.0292,5188.1611,6.8213,0.4212,54.893040,9.804429,108.3,5.845,1.85,0.00,54.893166,9.804253,0.000000,0.000000
1386958435,1,0,150.0,0,-2,0,0,0,600,-0.0292,5188.6943,6.8213,0.4212,54.893024,9.804445,108.3,5.845,1.85,0.00,54.893166,9.804253,0.000000,0.000000
1386958435,1,0,150.0,0,-1,-4,0,0,550,-0.0292,5188.9609,6.8213,0.4212,54.893009,9.804461,108.3,5.845,1.85,0.00,54.893166,9.804253,0.000000,0.000000
1386958435,1,0,150.0,0,-1,0,0,0,500,-0.0292,5189.2275,6.8213,0.4212,54.892994,9.804478,108.3,5.845,1.85,0.00,54.893166,9.804253,0.000000,0.000000
1386958436,1,0,150.0,0,-1,-4,0,0,450,-0.0292,5189.4941,6.8213,0.4212,54.892979,9.804493,108.3,5.845,1.85,0.00,54.893166,9.804253,0.000000,0.000000
1386958436,1,0,150.0,0,-1,0,0,0,400,-0.0292,5189.7607,6.8213,0.4212,54.892960,9.804509,108.3,5.845,1.85,0.00,54.893166,9.804253,0.000000,0.000000
1386958436,1,0,150.0,0,0,4,0,0,350,-0.0292,5189.7607,6.8213,0.4212,54.892944,9.804524,108.3,5.845,1.85,0.00,54.893166,9.804253,0.000000,0.000000
1386958436,1,0,150.0,0,0,0,0,0,300,-0.0292,5189.7607,6.8213,0.4212,54.892929,9.804540,108.3,5.845,1.85,0.00,54.893166,9.804253,0.000000,0.000000
1386958437,1,0,150.0,0,0,4,0,0,250,-0.0292,5189.7607,6.8213,0.4212,54.892914,9.804556,108.3,5.845,1.85,0.00,54.893166,9.804253,0.000000,0.000000
1386958437,1,0,150.0,0,0,0,0,0,200,-0.0292,5189.7607,6.8213,0.4212,54.892899,9.804571,108.3,5.845,1.85,0.00,54.893166,9.804253,0.000000,0.000000
1386958437,1,0,150.0,0,0,4,0,0,150,-0.0292,5189.7607,6.8213,0.4212,54.892883,9.804587,108.3,5.845,1.85,0.00,54.893166,9.804253,0.000000,0.000000
1386958437,1,0,150.0,0,0,0,0,0,100,-0.0292,5189.7607,6.8213,0.4212,54.892864,9.804604,108.3,5.845,1.85,0.00,54.893166,9.804253,0.000000,0.000000
1386958438,1,0,150.0,0,0,4,0,0,50,-0.0292,5189.7607,6.8213,0.4212,54.892849,9.804619,108.3,5.845,1.85,0.00,54.893166,9.804253,0.000000,0.000000
1386958438,1,0,150.0,0,0,0,0,0,0,-0.0292,5189.7607,6.8213,0.4212,54.892834,9.804635,108.3,5.845,1.85,0.00,54.893166,9.804253,0.000000,0.000000
1386958438,1,0,150.0,0,0,4,0,0,0,-0.0292,5189.7607,6.8213,0.4212,54.892815,9.804650,108.3,5.845,1.85,0.00,54.893166,9.804253,0.000000,0.000000
1386958438,1,0,210.0,0,-35,0,0,0,0,-0.0292,5199.0942,6.8213,0.4212,54.892796,9.804662,108.3,5.845,1.85,0.00,54.893166,9.804253,0.000000,0.000000
1386958439,1,0,210.0,0,-35,-4,0,0,0,-0.0292,5208.4277,6.8213,0.4212,54.892776,9.804668,108.3,5.845,1.85,0.00,54.893166,9.804253,0.000000,0.000000
1386958439,1,0,210.0,0,-35,-8,0,0,0,-0.0292,5217.7612,6.8213,0.4212,54.892761,9.804670,108.3,5.845,1.85,0.00,54.893166,9.804253,0.000000,0.000000
1386958439,1,0,210.0,0,-32,-12,0,0,0,-0.0292,5226.2944,6.8213,0.4212,54.892742,9.804667,108.3,5.845,1.85,0.00,54.893166,9.804253,0.000000,0.000000
1386958440,1,0,210.0,0,-24,-16,0,0,0,-0.0292,5232.6943,6.8213,0.4212,54.892723,9.804661,108.3,5.845,1.85,0.00,54.893166,9.804253,0.000000,0.000000
1386958440,1,0,210.0,0,-17,-20,0,0,0,-0.0292,5237.2275,6.8213,0.4212,54.892708,9.804651,108.3,5.845,1.85,0.00,54.893166,9.804253,0.000000,0.000000
1386958440,1,0,210.0,0,-13,-16,0,0,0,-0.0292,5240.6943,6.8213,0.4212,54.892689,9.804640,108.3,5.845,1.85,0.00,54.893166,9.804253,0.000000,0.000000
1386958440,1,0,210.0,0,-9,-12,0,0,0,-0.0292,5243.0942,6.8213,0.4212,54.892670,9.804627,108.3,5.845,1.85,0.00,54.893166,9.804253,0.000000,0.000000
1386958441,1,0,210.0,0,-7,-8,0,0,0,-0.0292,5244.9609,6.8213,0.4212,54.892654,9.804615,108.3,5.845,1.85,0.00,54.893166,9.804253,0.000000,0.000000
1386958441,1,0,210.0,0,-5,-4,0,0,0,-0.0292,5246.2944,6.8213,0.4212,54.892639,9.804602,108.3,5.845,1.85,0.00,54.893166,9.804253,0.000000,0.000000
1386958441,1,0,210.0,0,-4,0,0,0,0,-0.0292,5247.3613,6.8213,0.4212,54.892620,9.804587,108.3,5.845,1.85,0.00,54.893166,9.804253,0.000000,0.000000
1386958441,1,0,210.0,0,-3,-4,0,713,50,-0.0292,5248.1611,6.8213,0.4212,54.892605,9.804573,108.3,5.845,1.85,0.00,54.893166,9.804253,0.000000,0.000000
1386958442,1,0,210.0,0,-2,0,0,713,100,-0.0292,5248.6943,6.8213,0.4212,54.892590,9.804558,108.3,5.845,1.85,0.00,54.893166,9.804253,0.000000,0.000000
1386958442,1,0,210.0,0,-1,-4,0,713,150,-0.0292,5248.9609,6.8213,0.4212,54.892570,9.804543,108.3,5.845,1.85,0.00,54.893166,9.804253,0.000000,0.000000
1386958442,1,0,210.0,0,-1,0,0,713,200,-0.0292,5249.2275,6.8213,0.4212,54.892555,9.804527,108.3,5.845,1.85,0.00,54.893166,9.804253,0.000000,0.000000
1386958442,1,0,210.0,0,-1,-4,0,713,250,-0.0292,5249.4941,6.8213,0.4212,54.892540,9.804512,108.3,5.845,1.85,0.00,54.893166,9.804253,0.000000,0.000000
1386958443,1,0,210.0,0,-1,0,0,713,300,-0.0292,5249.7607,6.8213,0.4212,54.892525,9.804496,108.3,5.845,1.85,0.00,54.893166,9.804253,0.000000,0.000000
1386958443,1,0,210.0,0,0,4,0,713,350,-0.0292,5249.7607,6.8213,0.4212,54.892509,9.804481,108.3,5.845,1.85,0.00,54.893166,9.804253,0.000000,0.000000
1386958443,1,0,210.0,0,0,0,0,713,400,-0.0292,5249.7607,6.8213,0.4212,54.892494,9.804465,108.3,5.845,1.85,0.00,54.893166,9.804253,0.000000,0.000000
1386958443,1,0,210.0,0,0,4,0,713,450,-0.0292,5249.7607,6.8213,0.4212,54.892479,9.804449,108.3,5.845,1.85,0.00,54.893166,9.804253,0.000000,0.000000
1386958444,1,0,210.0,0,0,0,0,713,500,-0.0292,5249.7607,6.8213,0.4212,54.892464,9.804434,108.3,5.845,1.85,0.00,54.893166,9.804253,0.000000,0.000000
1386958444,1,0,210.0,0,0,4,0,713,550,-0.0292,5249.7607,6.8213,0.4212,54.892445,9.804419,108.3,5.845,1.85,0.00,54.893166,9.804253,0.000000,0.000000
1386958444,1,0,210.0,0,0,0,0,713,600,-0.0292,5249.7607,6.8213,0.4212,54.892429,9.804403,108.3,5.845,1.85,0.00,54.893166,9.804253,0.000000,0.000000
1386958444,1,0,210.0,0,0,4,0,713,650,-0.0292,5249.7607,6.8213,0.4212,54.892414,9.804388,108.3,5.845,1.85,0.00,54.893166,9.804253,0.000000,0.000000
1386958445,1,0,210.0,0,0,0,0,713,700,-0.0292,5249.7607,6.8213,0.4212,54.892395,9.804373,108.3,5.845,1.85,0.00,54.893166,9.804253,0.000000,0.000000
1386958445,1,0,210.0,0,0,4,0,713,750,-0.0292,5249.7607,6.8213,0.4212,54.892380,9.804358,108.3,5.845,1.85,0.00,54.893166,9.804253,0.000000,0.000000
1386958445,1,0,210.0,0,0,0,0,713,700,-0.0292,5249.7607,6.8213,0.4212,54.892365,9.804342,108.3,5.845,1.85,0.00,54.893166,9.804253,0.000000,0.000000
1386958445,1,0,210.0,0,0,4,0,713,750,-0.0292,5249.7607,6.8213,0.4212,54.892345,9.804326,108.3,5.845,1.85,0.00,54.893166,9.804253,0.000000,0.000000
1386958446,1,0,210.0,0,0,0,0,713,700,-0.0292,5249.7607,6.8213,0.4212,54.892330,9.804311,108.3,5.845,1.85,0.00,54.893166,9.804253,0.000000,0.000000
1386958446,1,0,210.0,0,0,4,0,713,750,-0.0292,5249.7607,6.8213,0.4212,54.892315,9.804296,108.3,5.845,1.85,0.00,54.893166,9.804253,0.000000,0.000000
1386958446,1,0,210.0,0,0,0,0,713,700,-0.0292,5249.7607,6.8213,0.4212,54.892296,9.804279,108.3,5.845,1.85,0.00,54.893166,9.804253,0.000000,0.000000
1386958446,1,0,210.0,0,0,4,0,713,750,-0.0292,5249.7607,6.8213,0.4212,54.892281,9.804264,108.3,5.845,1.85,0.00,54.893166,9.804253,0.000000,0.000000
1386958447,0,0,210.0,0,0,4,0,713,750,-0.0292,5249.7607,6.8213,0.4212,54.892281,9.804264,108.3,5.845,1.85,0.00,54.893166,9.804253,0.000000,0.000000
1386958447,0,0,210.0,0,0,4,0,713,750,-0.0292,5249.7607,6.8213,0.4212,54.892281,9.804264,108.3,5.845,1.85,0.00,54.893166,9.804253,0.000000,0.000000
1386958447,0,0,210.0,0,0,4,0,713,750,-0.0292,5249.7607,6.8213,0.4212,54.892281,9.804264,108.3,5.845,1.85,0.00,54.893166,9.804253,0.000000,0.000000
1386958447,0,0,210.0,0,0,4,0,713,750,-0.0292,5249.7607,6.8213,0.4212,54.892281,9.804264,108.3,5.845,1.85,0.00,54.893166,9.804253,0.000000,0.000000
1386958448,0,0,210.0,0,0,4,0,713,750,-0.0292,5249.7607,6.8213,0.4212,54.892281,9.804264,108.3,5.845,1.85,0.00,54.893166,9.804253,0.000000,0.000000
1386958448,0,0,210.0,0,0,4,0,713,750,-0.0292,5249.7607,6.8213,0.4212,54.892281,9.804264,108.3,5.845,1.85,0.00,54.893166,9.804253,0.000000,0.000000
1386958448,0,0,210.0,0,0,4,0,713,750,-0.0292,5249.7607,6.8213,0.4212,54.892281,9.804264,108.3,5.845,1.85,0.00,54.893166,9.804253,0.000000,0.000000
1386958448,4,0,210.0,0,0,4,0,713,750,-0.0292,5249.7607,6.8213,0.4212,54.892281,9.804264,108.3,5.845,1.85,0.00,54.893166,9.804253,0.000000,0.000000
1386958449,1,0,-55.0,0,-35,0,0,713,700,-0.0292,5259.0942,6.8213,0.4212,54.892265,9.804244,108.3,5.845,1.85,0.00,54.892281,9.804264,54.895069,9.793790
1386958449,1,0,-55.0,0,-35,-4,0,713,750,-0.0292,5268.4277,6.8213,0.4212,54.892250,9.804221,108.3,5.845,1.85,0.00,54.892281,9.804264,54.895069,9.793790
1386958449,1,0,-55.0,0,-35,-8,0,870,800,-0.0292,5277.7612,6.8213,0.4212,54.892239,9.804194,108.3,5.845,1.85,0.00,54.892281,9.804264,54.895069,9.793790
1386958449,1,0,-55.0,0,-35,-12,0,870,850,-0.0292,5287.0947,6.8213,0.4212,54.892235,9.804166,108.3,5.845,1.85,0.00,54.892281,9.804264,54.895069,9.793790
1386958450,1,0,-55.0,0,-35,-16,0,757,800,-0.0292,5296.4282,6.8213,0.4212,54.892231,9.804135,108.3,5.845,1.85,0.00,54.892281,9.804264,54.895069,9.793790
1386958450,1,0,-55.0,0,-35,-20,0,615,750,-0.0292,5305.7617,6.8213,0.4212,54.892231,9.804104,108.3,5.845,1.85,0.00,54.892281,9.804264,54.895069,9.793790
1386958450,1,0,-55.0,0,-35,-24,0,467,700,-0.0292,5315.0952,6.8213,0.4212,54.892235,9.804073,108.3,5.845,1.85,0.00,54.892281,9.804264,54.895069,9.793790
1386958450,1,0,-55.0,0,-30,-28,0,318,650,-0.0292,5323.0952,6.8213,0.4212,54.892239,9.804044,108.3,5.845,1.85,0.00,54.892281,9.804264,54.895069,9.793790
1386958451,1,0,-55.0,0,-22,-24,0,197,600,-0.0292,5328.9619,6.8213,0.4212,54.892246,9.804014,108.3,5.845,1.85,0.00,54.892281,9.804264,54.895069,9.793790
1386958451,1,0,-55.0,0,-16,-20,0,117,550,-0.0292,5333.2285,6.8213,0.4212,54.892254,9.803986,108.3,5.845,1.85,0.00,54.892281,9.804264,54.895069,9.793790
1386958451,1,0,-55.0,0,-12,-16,0,67,500,-0.0292,5336.4287,6.8213,0.4212,54.892262,9.803958,108.3,5.845,1.85,0.00,54.892281,9.804264,54.895069,9.793790
1386958451,1,0,-55.0,0,-9,-12,0,37,450,-0.0292,5338.8286,6.8213,0.4212,54.892273,9.803930,108.3,5.845,1.85,0.00,54.892281,9.804264,54.895069,9.793790
1386958452,1,0,-55.0,0,-6,-8,0,20,400,-0.0292,5340.4287,6.8213,0.4212,54.892281,9.803904,108.3,5.845,1.85,0.00,54.892281,9.804264,54.895069,9.793790
1386958452,1,0,-55.0,0,-5,-4,0,11,350,-0.0292,5341.7622,6.8213,0.4212,54.892292,9.803878,108.3,5.845,1.85,0.00,54.892281,9.804264,54.895069,9.793790
1386958452,1,0,-55.0,0,-3,0,0,6,300,-0.0292,5342.5620,6.8213,0.4212,54.892300,9.803851,108.3,5.845,1.85,0.00,54.892281,9.804264,54.895069,9.793790
1386958452,1,0,-55.0,0,-2,-4,0,3,250,-0.0292,5343.0952,6.8213,0.4212,54.892307,9.803825,108.3,5.845,1.85,0.00,54.892281,9.804264,54.895069,9.793790
1386958453,1,0,-55.0,0,-2,0,0,2,200,-0.0292,5343.6284,6.8213,0.4212,54.892319,9.803799,108.3,5.845,1.85,0.00,54.892281,9.804264,54.895069,9.793790
1386958453,1,0,-55.0,0,-1,-4,0,1,150,-0.0292,5343.8950,6.8213,0.4212,54.892326,9.803773,108.3,5.845,1.85,0.00,54.892281,9.804264,54.895069,9.793790
1386958453,1,0,-55.0,0,-1,0,0,1,100,-0.0292,5344.1616,6.8213,0.4212,54.892338,9.803747,108.3,5.845,1.85,0.00,54.892281,9.804264,54.895069,9.793790
1386958453,1,0,-55.0,0,-1,-4,0,0,50,-0.0292,5344.4282,6.8213,0.4212,54.892349,9.803721,108.3,5.845,1.85,0.00,54.892281,9.804264,54.895069,9.793790
1386958454,1,0,-55.0,0,-1,0,0,0,0,-0.0292,5344.6948,6.8213,0.4212,54.892361,9.803696,108.3,5.845,1.85,0.00,54.892281,9.804264,54.895069,9.793790
1386958454,1,0,-55.0,0,0,4,0,0,0,-0.0292,5344.6948,6.8213,0.4212,54.892372,9.803670,108.3,5.845,1.85,0.00,54.892281,9.804264,54.895069,9.793790
1386958454,1,0,-55.0,0,0,0,0,0,0,-0.0292,5344.6948,6.8213,0.4212,54.892384,9.803644,108.3,5.845,1.85,0.00,54.892281,9.804264,54.895069,9.793790
1386958454,1,0,-55.0,0,0,4,0,0,0,-0.0292,5344.6948,6.8213,0.4212,54.892395,9.803619,108.3,5.845,1.85,0.00,54.892281,9.804264,54.895069,9.793790
1386958455,1,0,-55.0,0,0,0,0,0,0,-0.0292,5344.6948,6.8213,0.4212,54.892403,9.803594,108.3,5.845,1.85,0.00,54.892281,9.804264,54.895069,9.793790
1386958455,1,0,-55.0,0,0,4,0,0,0,-0.0292,5344.6948,6.8213,0.4212,54.892414,9.803568,108.3,5.845,1.85,0.00,54.892281,9.804264,54.895069,9.793790
1386958455,1,0,-55.0,0,0,0,0,0,0,-0.0292,5344.6948,6.8213,0.4212,54.892422,9.803542,108.3,5.845,1.85,0.00,54.892281,9.804264,54.895069,9.793790
1386958455,1,0,-55.0,0,0,4,0,0,0,-0.0292,5344.6948,6.8213,0.4212,54.892433,9.803516,108.3,5.845,1.85,0.00,54.892281,9.804264,54.895069,9.793790
1386958456,1,0,-55.0,0,0,0,0,0,0,-0.0292,5344.6948,6.8213,0.4212,54.892445,9.803492,108.3,5.845,1.85,0.00,54.892281,9.804264,54.895069,9.793790
1386958456,1,0,-55.0,0,0,4,0,0,0,-0.0292,5344.6948,6.8213,0.4212,54.892452,9.803466,108.3,5.845,1.85,0.00,54.892281,9.804264,54.895069,9.793790
1386958456,1,0,-55.0,0,0,0,0,0,0,-0.0292,5344.6948,6.8213,0.4212,54.892464,9.803440,108.3,5.845,1.85,0.00,54.892281,9.804264,54.895069,9.793790
1386958456,1,0,-55.0,0,0,4,0,0,0,-0.0292,5344.6948,6.8213,0.4212,54.892471,9.803414,108.3,5.845,1.85,0.00,54.892281,9.804264,54.895069,9.793790
1386958457,1,0,-55.0,0,0,0,0,0,0,-0.0292,5344.6948,6.8213,0.4212,54.892483,9.803389,108.3,5.845,1.85,0.00,54.892281,9.804264,54.895069,9.793790
1386958457,1,0,-55.0,0,0,4,0,0,0,-0.0292,5344.6948,6.8213,0.4212,54.892494,9.803364,108.3,5.845,1.85,0.00,54.892281,9.804264,54.895069,9.793790
1386958457,1,0,-55.0,0,0,0,0,0,0,-0.0292,5344.6948,6.8213,0.4212,54.892502,9.803338,108.3,5.845,1.85,0.00,54.892281,9.804264,54.895069,9.793790
1386958457,1,0,-55.0,0,0,4,0,0,0,-0.0292,5344.6948,6.8213,0.4212,54.892513,9.803312,108.3,5.845,1.85,0.00,54.892281,9.804264,54.895069,9.793790
1386958458,1,0,-55.0,0,0,0,0,0,0,-0.0292,5344.6948,6.8213,0.4212,54.892521,9.803287,108.3,5.845,1.85,0.00,54.892281,9.804264,54.895069,9.793790
1386958458,1,0,-55.0,0,0,4,0,0,0,-0.0292,5344.6948,6.8213,0.4212,54.892532,9.803261,108.3,5.845,1.85,0.00,54.892281,9.804264,54.895069,9.793790
