MCU_timestamp,Navigation_System,Manual_Control,Guidance_Heading,Manual_Ctrl_Rudder,Rudder_Desired_Angle,Rudder_Feedback,Manual_Ctrl_Sail,Sail_Desired_Pos,Sail_Feedback,Rate,Heading,Pitch,Roll,Latitude,Longitude,COG,SOG,Wind_Speed,Wind_Angle,Point_Start_Lat,Point_Start_Lon,Point_End_Lat,Point_End_Lon
1389977586,0,0,0.0,0,0,4,0,0,0,-0.0292,189.6255,6.8213,0.4212,54.885983,9.783319,108.3,5.845,1.85,335.95,0.000000,0.000000,0.000000,0.000000
1389977586,0,0,0.0,0,0,4,0,0,0,-0.0292,189.6255,6.8213,0.4212,54.885983,9.783319,108.3,5.845,1.85,335.95,0.000000,0.000000,0.000000,0.000000
1389977587,0,0,0.0,0,0,4,0,0,0,-0.0292,189.6255,6.8213,0.4212,54.885983,9.783319,108.3,5.845,1.85,335.95,0.000000,0.000000,0.000000,0.000000
1389977587,0,0,0.0,0,0,4,0,0,0,-0.0292,189.6255,6.8213,0.4212,54.885983,9.783319,108.3,5.845,1.85,335.95,0.000000,0.000000,0.000000,0.000000
1389977587,0,0,0.0,0,0,4,0,0,0,-0.0292,189.6255,6.8213,0.4212,54.885983,9.783319,108.3,5.845,1.85,335.95,0.000000,0.000000,0.000000,0.000000
1389977587,0,0,0.0,0,0,4,0,0,0,-0.0292,189.6255,6.8213,0.4212,54.885983,9.783319,108.3,5.845,1.85,335.95,0.000000,0.000000,0.000000,0.000000
1389977588,0,0,0.0,0,0,4,0,0,0,-0.0292,189.6255,6.8213,0.4212,54.885983,9.783319,108.3,5.845,1.85,335.95,0.000000,0.000000,0.000000,0.000000
1389977588,0,0,0.0,0,0,4,0,0,0,-0.0292,189.6255,6.8213,0.4212,54.885983,9.783319,108.3,5.845,1.85,335.95,0.000000,0.000000,0.000000,0.000000
1389977588,0,0,0.0,0,0,4,0,0,0,-0.0292,189.6255,6.8213,0.4212,54.885983,9.783319,108.3,5.845,1.85,335.95,0.000000,0.000000,0.000000,0.000000
1389977588,4,0,0.0,0,0,4,0,0,0,-0.0292,189.6255,6.8213,0.4212,54.885983,9.783319,108.3,5.845,1.85,335.95,0.000000,0.000000,0.000000,0.000000
1389977589,1,0,0.0,0,-35,0,0,713,750,-0.0292,201.2922,6.8213,0.4212,54.885967,9.783308,108.3,5.845,1.85,335.95,54.895069,9.793790,54.895348,9.797490
1389977589,1,0,0.0,0,31,4,0,870,800,-0.0292,190.9589,6.8213,0.4212,54.885952,9.783302,108.3,5.845,1.85,335.95,54.895348,9.797490,54.894039,9.801540
1389977589,1,0,0.0,0,21,8,0,713,750,-0.0292,183.9589,6.8213,0.4212,54.885933,9.783300,108.3,5.845,1.85,335.95,54.894039,9.801540,54.893795,9.802299
1389977589,1,0,0.0,0,14,12,0,713,700,-0.0292,179.2922,6.8213,0.4212,54.885914,9.783300,108.3,5.845,1.85,335.95,54.893795,9.802299,54.893364,9.803688
1389977590,1,0,0.0,0,9,8,0,713,750,-0.0292,176.2922,6.8213,0.4212,54.885899,9.783302,108.3,5.845,1.85,335.95,54.893364,9.803688,54.892704,9.801139
1389977590,1,0,0.0,0,6,4,0,713,700,-0.0292,174.2922,6.8213,0.4212,54.885880,9.783305,108.3,5.845,1.85,335.95,54.892704,9.801139,54.891663,9.800174
1389977590,1,0,0.0,0,4,8,0,713,750,-0.0292,172.9589,6.8213,0.4212,54.885860,9.783309,108.3,5.845,1.85,335.95,54.891663,9.800174,54.892929,9.805077
1389977590,1,0,0.0,0,3,4,0,713,700,-0.0292,171.9589,6.8213,0.4212,54.885841,9.783314,108.3,5.845,1.85,335.95,54.892929,9.805077,54.892498,9.806466
1389977591,1,0,0.0,0,2,0,0,713,750,-0.0292,171.2922,6.8213,0.4212,54.885826,9.783319,108.3,5.845,1.85,335.95,54.892498,9.806466,54.891232,9.801563
1389977591,1,0,0.0,0,1,4,0,713,700,-0.0292,170.9589,6.8213,0.4212,54.885807,9.783323,108.3,5.845,1.85,335.95,54.891232,9.801563,54.890800,9.802953
1389977591,1,0,0.0,0,1,0,0,713,750,-0.0292,170.6256,6.8213,0.4212,54.885788,9.783329,108.3,5.845,1.85,335.95,54.890800,9.802953,54.891651,9.806246
1389977591,1,0,0.0,0,1,4,0,713,700,-0.0292,170.2922,6.8213,0.4212,54.885769,9.783335,108.3,5.845,1.85,335.95,54.891651,9.806246,54.890560,9.805087
1389977592,1,0,0.0,0,0,0,0,713,750,-0.0292,170.2922,6.8213,0.4212,54.885754,9.783340,108.3,5.845,1.85,335.95,54.890560,9.805087,54.890366,9.804342
1389977592,1,0,0.0,0,0,4,0,713,700,-0.0292,170.2922,6.8213,0.4212,54.885735,9.783344,108.3,5.845,1.85,335.95,54.890366,9.804342,54.890846,9.801930
1389977592,1,0,0.0,0,0,0,0,713,750,-0.0292,170.2922,6.8213,0.4212,54.885715,9.783349,108.3,5.845,1.85,335.95,54.890846,9.801930,54.889477,9.798280
1389977592,1,0,0.0,0,0,4,0,713,700,-0.0292,170.2922,6.8213,0.4212,54.885700,9.783354,108.3,5.845,1.85,335.95,54.889477,9.798280,54.891819,9.794550
1389977593,1,0,0.0,0,0,0,0,713,750,-0.0292,170.2922,6.8213,0.4212,54.885681,9.783360,108.3,5.845,1.85,335.95,54.891819,9.794550,54.895348,9.797490
1389977593,1,0,0.0,0,0,4,0,713,700,-0.0292,170.2922,6.8213,0.4212,54.885662,9.783365,108.3,5.845,1.85,335.95,54.895348,9.797490,54.895069,9.793790
1389977593,1,0,0.0,0,0,0,0,713,750,-0.0292,170.2922,6.8213,0.4212,54.885643,9.783371,108.3,5.845,1.85,335.95,54.895348,9.797490,54.895069,9.793790
1389977593,3,0,0.0,0,0,4,0,713,700,-0.0292,170.2922,6.8213,0.4212,54.885628,9.783377,108.3,5.845,1.85,335.95,54.895348,9.797490,54.885643,9.783371
1389977594,3,0,0.0,0,0,0,0,713,750,-0.0292,170.2922,6.8213,0.4212,54.885609,9.783381,108.3,5.845,1.85,335.95,54.895348,9.797490,54.885643,9.783371
1389977594,3,0,0.0,0,0,4,0,713,700,-0.0292,170.2922,6.8213,0.4212,54.885590,9.783386,108.3,5.845,1.85,335.95,54.895348,9.797490,54.885643,9.783371
1389977594,3,0,0.0,0,0,0,0,713,750,-0.0292,170.2922,6.8213,0.4212,54.885571,9.783391,108.3,5.845,1.85,335.95,54.895348,9.797490,54.885643,9.783371
1389977594,3,0,0.0,0,0,4,0,713,700,-0.0292,170.2922,6.8213,0.4212,54.885555,9.783396,108.3,5.845,1.85,335.95,54.895348,9.797490,54.885643,9.783371
1389977595,3,0,0.0,0,0,0,0,713,750,-0.0292,170.2922,6.8213,0.4212,54.885536,9.783401,108.3,5.845,1.85,335.95,54.895348,9.797490,54.885643,9.783371
1389977595,3,0,0.0,0,0,4,0,713,700,-0.0292,170.2922,6.8213,0.4212,54.885517,9.783407,108.3,5.845,1.85,335.95,54.895348,9.797490,54.885643,9.783371
1389977595,3,0,0.0,0,0,0,0,713,750,-0.0292,170.2922,6.8213,0.4212,54.885498,9.783413,108.3,5.845,1.85,335.95,54.895348,9.797490,54.885643,9.783371
1389977595,3,0,0.0,0,0,4,0,713,700,-0.0292,170.2922,6.8213,0.4212,54.885483,9.783419,108.3,5.845,1.85,335.95,54.895348,9.797490,54.885643,9.783371
1389977596,3,0,0.0,0,0,0,0,713,750,-0.0292,170.2922,6.8213,0.4212,54.885464,9.783423,108.3,5.845,1.85,335.95,54.895348,9.797490,54.885643,9.783371
1389977596,3,0,0.0,0,0,4,0,713,700,-0.0292,170.2922,6.8213,0.4212,54.885445,9.783428,108.3,5.845,1.85,335.95,54.895348,9.797490,54.885643,9.783371
1389977596,3,0,0.0,0,0,0,0,713,750,-0.0292,170.2922,6.8213,0.4212,54.885429,9.783433,108.3,5.845,1.85,335.95,54.895348,9.797490,54.885643,9.783371
1389977596,3,0,0.0,0,0,4,0,713,700,-0.0292,170.2922,6.8213,0.4212,54.885410,9.783438,108.3,5.845,1.85,335.95,54.895348,9.797490,54.885643,9.783371
1389977597,3,0,0.0,0,0,0,0,713,750,-0.0292,170.2922,6.8213,0.4212,54.885391,9.783443,108.3,5.845,1.85,335.95,54.895348,9.797490,54.885643,9.783371
1389977597,3,0,0.0,0,0,4,0,713,700,-0.0292,170.2922,6.8213,0.4212,54.885372,9.783449,108.3,5.845,1.85,335.95,54.895348,9.797490,54.885643,9.783371
1389977597,3,0,0.0,0,0,0,0,713,750,-0.0292,170.2922,6.8213,0.4212,54.885357,9.783455,108.3,5.845,1.85,335.95,54.895348,9.797490,54.885643,9.783371
1389977598,3,0,0.0,0,0,4,0,713,700,-0.0292,170.2922,6.8213,0.4212,54.885338,9.783461,108.3,5.845,1.85,335.95,54.895348,9.797490,54.885643,9.783371
1389977598,3,0,0.0,0,0,0,0,713,750,-0.0292,170.2922,6.8213,0.4212,54.885319,9.783465,108.3,5.845,1.85,335.95,54.895348,9.797490,54.885643,9.783371
1389977598,3,0,0.0,0,0,4,0,713,700,-0.0292,170.2922,6.8213,0.4212,54.885300,9.783470,108.3,5.845,1.85,335.95,54.895348,9.797490,54.885643,9.783371
1389977598,3,0,0.0,0,0,0,0,713,750,-0.0292,170.2922,6.8213,0.4212,54.885284,9.783475,108.3,5.845,1.85,335.95,54.895348,9.797490,54.885643,9.783371
1389977599,3,0,0.0,0,0,4,0,713,700,-0.0292,170.2922,6.8213,0.4212,54.885265,9.783480,108.3,5.845,1.85,335.95,54.895348,9.797490,54.885643,9.783371
1389977599,3,0,0.0,0,0,0,0,713,750,-0.0292,170.2922,6.8213,0.4212,54.885246,9.783485,108.3,5.845,1.85,335.95,54.895348,9.797490,54.885643,9.783371
1389977599,3,0,0.0,0,-20,-4,0,713,700,-0.0292,176.9589,6.8213,0.4212,54.885227,9.783487,108.3,5.845,1.85,335.95,54.895348,9.797490,54.885643,9.783371
1389977599,3,0,0.0,0,-13,-8,0,713,750,-0.0292,181.2922,6.8213,0.4212,54.885212,9.783486,108.3,5.845,1.85,335.95,54.895348,9.797490,54.885643,9.783371
1389977600,3,0,0.0,0,-9,-12,0,713,700,-0.0292,184.2922,6.8213,0.4212,54.885193,9.783484,108.3,5.845,1.85,335.95,54.895348,9.797490,54.885643,9.783371
1389977600,3,0,0.0,0,-6,-8,0,713,750,-0.0292,186.2922,6.8213,0.4212,54.885174,9.783482,108.3,5.845,1.85,335.95,54.895348,9.797490,54.885643,9.783371
1389977600,3,0,0.0,0,-4,-4,0,713,700,-0.0292,187.6256,6.8213,0.4212,54.885159,9.783478,108.3,5.845,1.85,335.95,54.895348,9.797490,54.885643,9.783371
1389977600,3,0,0.0,0,-2,0,0,713,750,-0.0292,188.2922,6.8213,0.4212,54.885139,9.783473,108.3,5.845,1.85,335.95,54.895348,9.797490,54.885643,9.783371
1389977601,3,0,0.0,0,-2,-4,0,713,700,-0.0292,188.9589,6.8213,0.4212,54.885120,9.783468,108.3,5.845,1.85,335.95,54.895348,9.797490,54.885643,9.783371
1389977601,3,0,0.0,0,-1,0,0,713,750,-0.0292,189.2922,6.8213,0.4212,54.885101,9.783463,108.3,5.845,1.85,335.95,54.895348,9.797490,54.885643,9.783371
1389977601,3,0,0.0,0,-1,-4,0,713,700,-0.0292,189.6256,6.8213,0.4212,54.885086,9.783457,108.3,5.845,1.85,335.95,54.895348,9.797490,54.885643,9.783371
1389977601,3,0,0.0,0,0,0,0,713,750,-0.0292,189.6256,6.8213,0.4212,54.885067,9.783452,108.3,5.845,1.85,335.95,54.895348,9.797490,54.885643,9.783371
1389977602,3,0,0.0,0,0,4,0,713,700,-0.0292,189.6256,6.8213,0.4212,54.885048,9.783447,108.3,5.845,1.85,335.95,54.895348,9.797490,54.885643,9.783371
1389977602,3,0,0.0,0,0,0,0,713,750,-0.0292,189.6256,6.8213,0.4212,54.885029,9.783442,108.3,5.845,1.85,335.95,54.895348,9.797490,54.885643,9.783371
1389977602,3,0,0.0,0,0,4,0,713,700,-0.0292,189.6256,6.8213,0.4212,54.885014,9.783438,108.3,5.845,1.85,335.95,54.895348,9.797490,54.885643,9.783371
1389977602,3,0,0.0,0,0,0,0,713,750,-0.0292,189.6256,6.8213,0.4212,54.884995,9.783433,108.3,5.845,1.85,335.95,54.895348,9.797490,54.885643,9.783371
1389977603,3,0,0.0,0,0,4,0,713,700,-0.0292,189.6256,6.8213,0.4212,54.884975,9.783427,108.3,5.845,1.85,335.95,54.895348,9.797490,54.885643,9.783371
1389977603,3,0,0.0,0,0,0,0,713,750,-0.0292,189.6256,6.8213,0.4212,54.884956,9.783422,108.3,5.845,1.85,335.95,54.895348,9.797490,54.885643,9.783371
1389977603,3,0,0.0,0,0,4,0,713,700,-0.0292,189.6256,6.8213,0.4212,54.884941,9.783416,108.3,5.845,1.85,335.95,54.895348,9.797490,54.885643,9.783371
1389977603,3,0,0.0,0,0,0,0,713,750,-0.0292,189.6256,6.8213,0.4212,54.884922,9.783410,108.3,5.845,1.85,335.95,54.895348,9.797490,54.885643,9.783371
1389977604,3,0,0.0,0,0,4,0,713,700,-0.0292,189.6256,6.8213,0.4212,54.884903,9.783405,108.3,5.845,1.85,335.95,54.895348,9.797490,54.885643,9.783371
1389977604,3,0,0.0,0,0,0,0,713,750,-0.0292,189.6256,6.8213,0.4212,54.884888,9.783401,108.3,5.845,1.85,335.95,54.895348,9.797490,54.885643,9.783371
1389977604,3,0,0.0,0,0,4,0,713,700,-0.0292,189.6256,6.8213,0.4212,54.884869,9.783396,108.3,5.845,1.85,335.95,54.895348,9.797490,54.885643,9.783371
1389977604,3,0,0.0,0,0,0,0,713,750,-0.0292,189.6256,6.8213,0.4212,54.884850,9.783391,108.3,5.845,1.85,335.95,54.895348,9.797490,54.885643,9.783371
1389977605,3,0,0.0,0,0,4,0,713,700,-0.0292,189.6256,6.8213,0.4212,54.884830,9.783385,108.3,5.845,1.85,335.95,54.895348,9.797490,54.885643,9.783371
1389977605,3,0,0.0,0,0,0,0,713,750,-0.0292,189.6256,6.8213,0.4212,54.884815,9.783380,108.3,5.845,1.85,335.95,54.895348,9.797490,54.885643,9.783371
1389977605,3,0,0.0,0,0,4,0,713,700,-0.0292,189.6256,6.8213,0.4212,54.884796,9.783374,108.3,5.845,1.85,335.95,54.895348,9.797490,54.885643,9.783371
1389977605,3,0,0.0,0,0,0,0,713,750,-0.0292,189.6256,6.8213,0.4212,54.884777,9.783368,108.3,5.845,1.85,335.95,54.895348,9.797490,54.885643,9.783371
1389977606,3,0,0.0,0,0,4,0,713,700,-0.0292,189.6256,6.8213,0.4212,54.884758,9.783363,108.3,5.845,1.85,335.95,54.895348,9.797490,54.885643,9.783371
1389977606,3,0,0.0,0,0,0,0,713,750,-0.0292,189.6256,6.8213,0.4212,54.884743,9.783359,108.3,5.845,1.85,335.95,54.895348,9.797490,54.885643,9.783371
1389977606,3,0,0.0,0,0,4,0,713,700,-0.0292,189.6256,6.8213,0.4212,54.884724,9.783354,108.3,5.845,1.85,335.95,54.895348,9.797490,54.885643,9.783371
1389977606,3,0,0.0,0,0,0,0,713,750,-0.0292,189.6256,6.8213,0.4212,54.884705,9.783349,108.3,5.845,1.85,335.95,54.895348,9.797490,54.885643,9.783371
1389977607,3,0,0.0,0,0,4,0,713,700,-0.0292,189.6256,6.8213,0.4212,54.884686,9.783343,108.3,5.845,1.85,335.95,54.895348,9.797490,54.885643,9.783371
1389977607,3,0,0.0,0,0,0,0,713,750,-0.0292,189.6256,6.8213,0.4212,54.884670,9.783338,108.3,5.845,1.85,335.95,54.895348,9.797490,54.885643,9.783371
1389977607,3,0,0.0,0,0,4,0,713,700,-0.0292,189.6256,6.8213,0.4212,54.884651,9.783332,108.3,5.845,1.85,335.95,54.895348,9.797490,54.885643,9.783371
1389977607,3,0,0.0,0,0,0,0,713,750,-0.0292,189.6256,6.8213,0.4212,54.884632,9.783326,108.3,5.845,1.85,335.95,54.895348,9.797490,54.885643,9.783371
1389977608,3,0,0.0,0,0,4,0,713,700,-0.0292,189.6256,6.8213,0.4212,54.884613,9.783321,108.3,5.845,1.85,335.95,54.895348,9.797490,54.885643,9.783371
1389977608,3,0,0.0,0,0,0,0,713,750,-0.0292,189.6256,6.8213,0.4212,54.884598,9.783317,108.3,5.845,1.85,335.95,54.895348,9.797490,54.885643,9.783371
1389977608,3,0,0.0,0,0,4,0,713,700,-0.0292,189.6256,6.8213,0.4212,54.884579,9.783312,108.3,5.845,1.85,335.95,54.895348,9.797490,54.885643,9.783371
1389977608,3,0,0.0,0,0,0,0,713,750,-0.0292,189.6256,6.8213,0.4212,54.884560,9.783307,108.3,5.845,1.85,335.95,54.895348,9.797490,54.885643,9.783371
1389977609,3,0,0.0,0,0,4,0,713,700,-0.0292,189.6256,6.8213,0.4212,54.884544,9.783302,108.3,5.845,1.85,335.95,54.895348,9.797490,54.885643,9.783371
1389977609,3,0,0.0,0,0,0,0,713,750,-0.0292,189.6256,6.8213,0.4212,54.884525,9.783297,108.3,5.845,1.85,335.95,54.895348,9.797490,54.885643,9.783371
1389977609,3,0,0.0,0,0,4,0,713,700,-0.0292,189.6256,6.8213,0.4212,54.884506,9.783291,108.3,5.845,1.85,335.95,54.895348,9.797490,54.885643,9.783371
1389977609,3,0,0.0,0,0,0,0,713,750,-0.0292,189.6256,6.8213,0.4212,54.884487,9.783285,108.3,5.845,1.85,335.95,54.895348,9.797490,54.885643,9.783371
1389977610,3,0,0.0,0,0,4,0,713,700,-0.0292,189.6256,6.8213,0.4212,54.884472,9.783280,108.3,5.845,1.85,335.95,54.895348,9.797490,54.885643,9.783371
1389977610,3,0,0.0,0,0,0,0,713,750,-0.0292,189.6256,6.8213,0.4212,54.884453,9.783276,108.3,5.845,1.85,335.95,54.895348,9.797490,54.885643,9.783371
1389977610,3,0,0.0,0,0,4,0,713,700,-0.0292,189.6256,6.8213,0.4212,54.884434,9.783271,108.3,5.845,1.85,335.95,54.895348,9.797490,54.885643,9.783371
1389977610,3,0,0.0,0,0,0,0,713,750,-0.0292,189.6256,6.8213,0.4212,54.884415,9.783266,108.3,5.845,1.85,335.95,54.895348,9.797490,54.885643,9.783371
1389977611,3,0,0.0,0,0,4,0,713,700,-0.0292,189.6256,6.8213,0.4212,54.884399,9.783261,108.3,5.845,1.85,335.95,54.895348,9.797490,54.885643,9.783371
1389977611,3,0,0.0,0,0,0,0,713,750,-0.0292,189.6256,6.8213,0.4212,54.884380,9.783256,108.3,5.845,1.85,335.95,54.895348,9.797490,54.885643,9.783371
1389977611,3,0,0.0,0,0,4,0,713,700,-0.0292,189.6256,6.8213,0.4212,54.884361,9.783250,108.3,5.845,1.85,335.95,54.895348,9.797490,54.885643,9.783371
1389977611,3,0,0.0,0,0,0,0,713,750,-0.0292,189.6256,6.8213,0.4212,54.884342,9.783244,108.3,5.845,1.85,335.95,54.895348,9.797490,54.885643,9.783371
1389977612,3,0,0.0,0,0,4,0,713,700,-0.0292,189.6256,6.8213,0.4212,54.884327,9.783238,108.3,5.845,1.85,335.95,54.895348,9.797490,54.885643,9.783371
1389977612,3,0,0.0,0,0,0,0,713,750,-0.0292,189.6256,6.8213,0.4212,54.884308,9.783234,108.3,5.845,1.85,335.95,54.895348,9.797490,54.885643,9.783371
1389977612,3,0,0.0,0,0,4,0,713,700,-0.0292,189.6256,6.8213,0.4212,54.884289,9.783229,108.3,5.845,1.85,335.95,54.895348,9.797490,54.885643,9.783371
1389977612,3,0,0.0,0,0,0,0,713,750,-0.0292,189.6256,6.8213,0.4212,54.884274,9.783224,108.3,5.845,1.85,335.95,54.895348,9.797490,54.885643,9.783371
1389977613,3,0,0.0,0,0,4,0,713,700,-0.0292,189.6256,6.8213,0.4212,54.884254,9.783219,108.3,5.845,1.85,335.95,54.895348,9.797490,54.885643,9.783371
1389977613,3,0,0.0,0,0,0,0,713,750,-0.0292,189.6256,6.8213,0.4212,54.884235,9.783214,108.3,5.845,1.85,335.95,54.895348,9.797490,54.885643,9.783371
1389977613,3,0,0.0,0,0,4,0,713,700,-0.0292,189.6256,6.8213,0.4212,54.884216,9.783208,108.3,5.845,1.85,335.95,54.895348,9.797490,54.885643,9.783371
1389977613,3,0,0.0,0,0,0,0,713,750,-0.0292,189.6256,6.8213,0.4212,54.884201,9.783202,108.3,5.845,1.85,335.95,54.895348,9.797490,54.885643,9.783371
1389977614,3,0,0.0,0,0,4,0,713,700,-0.0292,189.6256,6.8213,0.4212,54.884182,9.783196,108.3,5.845,1.85,335.95,54.895348,9.797490,54.885643,9.783371
1389977614,3,0,0.0,0,0,0,0,713,750,-0.0292,189.6256,6.8213,0.4212,54.884163,9.783192,108.3,5.845,1.85,335.95,54.895348,9.797490,54.885643,9.783371
1389977614,3,0,0.0,0,0,4,0,713,700,-0.0292,189.6256,6.8213,0.4212,54.884144,9.783187,108.3,5.845,1.85,335.95,54.895348,9.797490,54.885643,9.783371
1389977614,3,0,0.0,0,0,0,0,713,750,-0.0292,189.6256,6.8213,0.4212,54.884129,9.783182,108.3,5.845,1.85,335.95,54.895348,9.797490,54.885643,9.783371
1389977615,3,0,0.0,0,0,4,0,713,700,-0.0292,189.6256,6.8213,0.4212,54.884109,9.783177,108.3,5.845,1.85,335.95,54.895348,9.797490,54.885643,9.783371
1389977615,3,0,0.0,0,0,0,0,713,750,-0.0292,189.6256,6.8213,0.4212,54.884090,9.783172,108.3,5.845,1.85,335.95,54.895348,9.797490,54.885643,9.783371
1389977615,3,0,0.0,0,0,4,0,713,700,-0.0292,189.6256,6.8213,0.4212,54.884071,9.783166,108.3,5.845,1.85,335.95,54.895348,9.797490,54.885643,9.783371
1389977615,3,0,0.0,0,0,0,0,713,750,-0.0292,189.6256,6.8213,0.4212,54.884056,9.783160,108.3,5.845,1.85,335.95,54.895348,9.797490,54.885643,9.783371
1389977616,3,0,0.0,0,0,4,0,713,700,-0.0292,189.6256,6.8213,0.4212,54.884037,9.783154,108.3,5.845,1.85,335.95,54.895348,9.797490,54.885643,9.783371
1389977616,3,0,0.0,0,0,0,0,713,750,-0.0292,189.6256,6.8213,0.4212,54.884018,9.783150,108.3,5.845,1.85,335.95,54.895348,9.797490,54.885643,9.783371
1389977616,3,0,0.0,0,0,4,0,713,700,-0.0292,189.6256,6.8213,0.4212,54.884003,9.783145,108.3,5.845,1.85,335.95,54.895348,9.797490,54.885643,9.783371
1389977616,3,0,0.0,0,0,0,0,713,750,-0.0292,189.6256,6.8213,0.4212,54.883984,9.783140,108.3,5.845,1.85,335.95,54.895348,9.797490,54.885643,9.783371
