MCU_timestamp,Navigation_System,Manual_Control,Guidance_Heading,Manual_Ctrl_Rudder,Rudder_Desired_Angle,Rudder_Feedback,Manual_Ctrl_Sail,Sail_Desired_Pos,Sail_Feedback,Rate,Heading,Pitch,Roll,Latitude,Longitude,COG,SOG,Wind_Speed,Wind_Angle,Point_Start_Lat,Point_Start_Lon,Point_End_Lat,Point_End_Lon
1386959301,0,0,0.0,0,0,4,0,0,0,-0.0292,5249.7598,6.8213,0.4212,54.894657,9.788668,108.3,5.845,1.85,0.00,0.000000,0.000000,0.000000,0.000000
1386959301,0,0,0.0,0,0,4,0,0,0,-0.0292,5249.7598,6.8213,0.4212,54.894657,9.788668,108.3,5.845,1.85,0.00,0.000000,0.000000,0.000000,0.000000
1386959301,0,0,0.0,0,0,4,0,0,0,-0.0292,5249.7598,6.8213,0.4212,54.894657,9.788668,108.3,5.845,1.85,0.00,0.000000,0.000000,0.000000,0.000000
1386959301,0,0,0.0,0,0,4,0,0,0,-0.0292,5249.7598,6.8213,0.4212,54.894657,9.788668,108.3,5.845,1.85,0.00,0.000000,0.000000,0.000000,0.000000
1386959302,0,0,0.0,0,0,4,0,0,0,-0.0292,5249.7598,6.8213,0.4212,54.894657,9.788668,108.3,5.845,1.85,0.00,0.000000,0.000000,0.000000,0.000000
1386959302,0,0,0.0,0,0,4,0,0,0,-0.0292,5249.7598,6.8213,0.4212,54.894657,9.788668,108.3,5.845,1.85,0.00,0.000000,0.000000,0.000000,0.000000
1386959302,0,0,0.0,0,0,4,0,0,0,-0.0292,5249.7598,6.8213,0.4212,54.894657,9.788668,108.3,5.845,1.85,0.00,0.000000,0.000000,0.000000,0.000000
1386959302,0,0,0.0,0,0,4,0,0,0,-0.0292,5249.7598,6.8213,0.4212,54.894657,9.788668,108.3,5.845,1.85,0.00,0.000000,0.000000,0.000000,0.000000
1386959303,0,0,0.0,0,0,4,0,0,0,-0.0292,5249.7598,6.8213,0.4212,54.894657,9.788668,108.3,5.845,1.85,0.00,0.000000,0.000000,0.000000,0.000000
1386959303,0,0,0.0,0,0,4,0,0,0,-0.0292,5249.7598,6.8213,0.4212,54.894657,9.788668,108.3,5.845,1.85,0.00,0.000000,0.000000,0.000000,0.000000
1386959303,0,0,0.0,0,0,4,0,0,0,-0.0292,5249.7598,6.8213,0.4212,54.894657,9.788668,108.3,5.845,1.85,0.00,0.000000,0.000000,0.000000,0.000000
1386959303,0,0,0.0,0,0,4,0,0,0,-0.0292,5249.7598,6.8213,0.4212,54.894657,9.788668,108.3,5.845,1.85,0.00,0.000000,0.000000,0.000000,0.000000
1386959304,0,0,0.0,0,0,4,0,0,0,-0.0292,5249.7598,6.8213,0.4212,54.894657,9.788668,108.3,5.845,1.85,0.00,0.000000,0.000000,0.000000,0.000000
1386959304,4,0,0.0,0,0,4,0,0,0,-0.0292,5249.7598,6.8213,0.4212,54.894657,9.788668,108.3,5.845,1.85,0.00,0.000000,0.000000,0.000000,0.000000
1386959304,1,0,82.1,0,35,8,0,713,750,-0.0292,5240.4263,6.8213,0.4212,54.894638,9.788657,108.3,5.845,1.85,0.00,54.894657,9.788668,54.895069,9.793790
1386959304,1,0,81.7,0,35,12,0,713,700,-0.0292,5231.0928,6.8213,0.4212,54.894619,9.788651,108.3,5.845,1.85,0.00,54.894657,9.788668,54.895069,9.793790
1386959305,1,0,81.4,0,35,16,0,713,750,-0.0292,5221.7593,6.8213,0.4212,54.894604,9.788650,108.3,5.845,1.85,0.00,54.894657,9.788668,54.895069,9.793790
1386959305,1,0,81.1,0,35,20,0,0,700,-0.0292,5212.4258,6.8213,0.4212,54.894585,9.788653,108.3,5.845,1.85,0.00,54.894657,9.788668,54.895069,9.793790
1386959305,1,0,80.7,0,35,24,0,0,650,-0.0292,5203.0923,6.8213,0.4212,54.894566,9.788662,108.3,5.845,1.85,0.00,54.894657,9.788668,54.895069,9.793790
1386959305,1,0,80.4,0,35,28,0,713,700,-0.0292,5193.7588,6.8213,0.4212,54.894550,9.788675,108.3,5.845,1.85,0.00,54.894657,9.788668,54.895069,9.793790
1386959306,1,0,80.1,0,35,32,0,713,750,-0.0292,5184.4253,6.8213,0.4212,54.894539,9.788693,108.3,5.845,1.85,0.00,54.894657,9.788668,54.895069,9.793790
1386959306,1,0,79.8,0,35,36,0,713,700,-0.0292,5175.0918,6.8213,0.4212,54.894527,9.788715,108.3,5.845,1.85,0.00,54.894657,9.788668,54.895069,9.793790
1386959306,1,0,79.5,0,35,32,0,713,750,-0.0292,5165.7583,6.8213,0.4212,54.894520,9.788741,108.3,5.845,1.85,0.00,54.894657,9.788668,54.895069,9.793790
1386959306,1,0,79.4,0,35,36,0,870,800,-0.0292,5156.4248,6.8213,0.4212,54.894512,9.788769,108.3,5.845,1.85,0.00,54.894657,9.788668,54.895069,9.793790
1386959307,1,0,79.1,0,35,32,0,808,850,-0.0292,5147.0913,6.8213,0.4212,54.894505,9.788799,108.3,5.845,1.85,0.00,54.894657,9.788668,54.895069,9.793790
1386959307,1,0,78.9,0,28,28,0,669,800,-0.0292,5139.6245,6.8213,0.4212,54.894501,9.788830,108.3,5.845,1.85,0.00,54.894657,9.788668,54.895069,9.793790
1386959307,1,0,78.8,0,21,24,0,553,750,-0.0292,5134.0244,6.8213,0.4212,54.894501,9.788860,108.3,5.845,1.85,0.00,54.894657,9.788668,54.895069,9.793790
1386959307,1,0,78.7,0,15,20,0,463,700,-0.0292,5130.0244,6.8213,0.4212,54.894501,9.788891,108.3,5.845,1.85,0.00,54.894657,9.788668,54.895069,9.793790
1386959308,1,0,78.7,0,11,16,0,399,650,-0.0292,5127.0913,6.8213,0.4212,54.894505,9.788922,108.3,5.845,1.85,0.00,54.894657,9.788668,54.895069,9.793790
1386959308,1,0,78.7,0,8,12,0,353,600,-0.0292,5124.9580,6.8213,0.4212,54.894505,9.788954,108.3,5.845,1.85,0.00,54.894657,9.788668,54.895069,9.793790
1386959308,1,0,78.6,0,6,8,0,319,550,-0.0292,5123.3579,6.8213,0.4212,54.894505,9.788984,108.3,5.845,1.85,0.00,54.894657,9.788668,54.895069,9.793790
1386959308,1,0,78.5,0,5,4,0,294,500,-0.0292,5122.0244,6.8213,0.4212,54.894505,9.789016,108.3,5.845,1.85,0.00,54.894657,9.788668,54.895069,9.793790
1386959309,1,0,78.4,0,4,8,0,274,450,-0.0292,5120.9575,6.8213,0.4212,54.894505,9.789046,108.3,5.845,1.85,0.00,54.894657,9.788668,54.895069,9.793790
1386959309,1,0,78.4,0,3,4,0,257,400,-0.0292,5120.1577,6.8213,0.4212,54.894505,9.789077,108.3,5.845,1.85,0.00,54.894657,9.788668,54.895069,9.793790
1386959309,1,0,78.3,0,2,0,0,245,350,-0.0292,5119.6245,6.8213,0.4212,54.894505,9.789107,108.3,5.845,1.85,0.00,54.894657,9.788668,54.895069,9.793790
1386959309,1,0,78.2,0,1,4,0,237,300,-0.0292,5119.3579,6.8213,0.4212,54.894505,9.789138,108.3,5.845,1.85,0.00,54.894657,9.788668,54.895069,9.793790
1386959310,1,0,78.2,0,1,0,0,233,250,-0.0292,5119.0913,6.8213,0.4212,54.894505,9.789168,108.3,5.845,1.85,0.00,54.894657,9.788668,54.895069,9.793790
1386959310,1,0,78.1,0,1,4,0,229,200,-0.0292,5118.8247,6.8213,0.4212,54.894505,9.789199,108.3,5.845,1.85,0.00,54.894657,9.788668,54.895069,9.793790
1386959310,1,0,78.0,0,1,0,0,225,250,-0.0292,5118.5581,6.8213,0.4212,54.894505,9.789230,108.3,5.845,1.85,0.00,54.894657,9.788668,54.895069,9.793790
1386959310,1,0,77.9,0,1,4,0,221,200,-0.0292,5118.2915,6.8213,0.4212,54.894505,9.789261,108.3,5.845,1.85,0.00,54.894657,9.788668,54.895069,9.793790
1386959311,1,0,77.8,0,0,0,0,217,250,-0.0292,5118.2915,6.8213,0.4212,54.894505,9.789291,108.3,5.845,1.85,0.00,54.894657,9.788668,54.895069,9.793790
1386959311,1,0,77.8,0,1,4,0,217,200,-0.0292,5118.0249,6.8213,0.4212,54.894505,9.789322,108.3,5.845,1.85,0.00,54.894657,9.788668,54.895069,9.793790
1386959311,1,0,77.7,0,0,0,0,213,250,-0.0292,5118.0249,6.8213,0.4212,54.894505,9.789352,108.3,5.845,1.85,0.00,54.894657,9.788668,54.895069,9.793790
1386959311,1,0,77.6,0,0,4,0,213,200,-0.0292,5118.0249,6.8213,0.4212,54.894505,9.789383,108.3,5.845,1.85,0.00,54.894657,9.788668,54.895069,9.793790
1386959312,1,0,77.5,0,1,0,0,213,250,-0.0292,5117.7583,6.8213,0.4212,54.894505,9.789413,108.3,5.845,1.85,0.00,54.894657,9.788668,54.895069,9.793790
1386959312,1,0,77.4,0,0,4,0,209,200,-0.0292,5117.7583,6.8213,0.4212,54.894505,9.789444,108.3,5.845,1.85,0.00,54.894657,9.788668,54.895069,9.793790
1386959312,1,0,77.3,0,0,0,0,209,250,-0.0292,5117.7583,6.8213,0.4212,54.894505,9.789474,108.3,5.845,1.85,0.00,54.894657,9.788668,54.895069,9.793790
1386959312,1,0,77.3,0,0,4,0,209,200,-0.0292,5117.7583,6.8213,0.4212,54.894505,9.789505,108.3,5.845,1.85,0.00,54.894657,9.788668,54.895069,9.793790
1386959313,1,0,77.2,0,1,0,0,209,250,-0.0292,5117.4917,6.8213,0.4212,54.894505,9.789536,108.3,5.845,1.85,0.00,54.894657,9.788668,54.895069,9.793790
1386959313,1,0,77.1,0,0,4,0,205,200,-0.0292,5117.4917,6.8213,0.4212,54.894505,9.789566,108.3,5.845,1.85,0.00,54.894657,9.788668,54.895069,9.793790
1386959313,1,0,77.0,0,0,0,0,205,250,-0.0292,5117.4917,6.8213,0.4212,54.894505,9.789597,108.3,5.845,1.85,0.00,54.894657,9.788668,54.895069,9.793790
1386959313,1,0,76.9,0,1,4,0,205,200,-0.0292,5117.2251,6.8213,0.4212,54.894508,9.789627,108.3,5.845,1.85,0.00,54.894657,9.788668,54.895069,9.793790
1386959314,1,0,76.9,0,0,0,0,201,250,-0.0292,5117.2251,6.8213,0.4212,54.894512,9.789658,108.3,5.845,1.85,0.00,54.894657,9.788668,54.895069,9.793790
1386959314,1,0,76.9,0,0,4,0,201,200,-0.0292,5117.2251,6.8213,0.4212,54.894516,9.789688,108.3,5.845,1.85,0.00,54.894657,9.788668,54.895069,9.793790
1386959314,1,0,76.9,0,0,0,0,201,250,-0.0292,5117.2251,6.8213,0.4212,54.894520,9.789719,108.3,5.845,1.85,0.00,54.894657,9.788668,54.895069,9.793790
1386959314,1,0,76.9,0,0,4,0,201,200,-0.0292,5117.2251,6.8213,0.4212,54.894524,9.789748,108.3,5.845,1.85,0.00,54.894657,9.788668,54.895069,9.793790
1386959315,1,0,76.9,0,0,0,0,201,250,-0.0292,5117.2251,6.8213,0.4212,54.894527,9.789779,108.3,5.845,1.85,0.00,54.894657,9.788668,54.895069,9.793790
1386959315,1,0,76.9,0,0,4,0,201,200,-0.0292,5117.2251,6.8213,0.4212,54.894535,9.789809,108.3,5.845,1.85,0.00,54.894657,9.788668,54.895069,9.793790
1386959315,1,0,76.9,0,0,0,0,201,250,-0.0292,5117.2251,6.8213,0.4212,54.894539,9.789840,108.3,5.845,1.85,0.00,54.894657,9.788668,54.895069,9.793790
1386959315,1,0,76.9,0,0,4,0,201,200,-0.0292,5117.2251,6.8213,0.4212,54.894543,9.789870,108.3,5.845,1.85,0.00,54.894657,9.788668,54.895069,9.793790
1386959316,1,0,76.9,0,0,0,0,201,250,-0.0292,5117.2251,6.8213,0.4212,54.894547,9.789901,108.3,5.845,1.85,0.00,54.894657,9.788668,54.895069,9.793790
1386959316,1,0,76.9,0,0,4,0,201,200,-0.0292,5117.2251,6.8213,0.4212,54.894550,9.789931,108.3,5.845,1.85,0.00,54.894657,9.788668,54.895069,9.793790
1386959316,1,0,76.9,0,0,0,0,201,250,-0.0292,5117.2251,6.8213,0.4212,54.894558,9.789961,108.3,5.845,1.85,0.00,54.894657,9.788668,54.895069,9.793790
1386959316,1,0,77.0,0,0,4,0,201,200,-0.0292,5117.2251,6.8213,0.4212,54.894562,9.789991,108.3,5.845,1.85,0.00,54.894657,9.788668,54.895069,9.793790
1386959317,1,0,77.0,0,0,0,0,201,250,-0.0292,5117.2251,6.8213,0.4212,54.894566,9.790022,108.3,5.845,1.85,0.00,54.894657,9.788668,54.895069,9.793790
1386959317,1,0,77.0,0,0,4,0,201,200,-0.0292,5117.2251,6.8213,0.4212,54.894569,9.790052,108.3,5.845,1.85,0.00,54.894657,9.788668,54.895069,9.793790
1386959317,1,0,77.0,0,0,0,0,201,250,-0.0292,5117.2251,6.8213,0.4212,54.894573,9.790083,108.3,5.845,1.85,0.00,54.894657,9.788668,54.895069,9.793790
1386959317,1,0,77.0,0,0,4,0,201,200,-0.0292,5117.2251,6.8213,0.4212,54.894577,9.790113,108.3,5.845,1.85,0.00,54.894657,9.788668,54.895069,9.793790
1386959318,1,0,77.0,0,0,0,0,201,250,-0.0292,5117.2251,6.8213,0.4212,54.894577,9.790144,108.3,5.845,1.85,0.00,54.894657,9.788668,54.895069,9.793790
1386959318,1,0,76.9,0,0,4,0,201,200,-0.0292,5117.2251,6.8213,0.4212,54.894577,9.790174,108.3,5.845,1.85,0.00,54.894657,9.788668,54.895069,9.793790
1386959318,1,0,76.8,0,0,0,0,201,250,-0.0292,5117.2251,6.8213,0.4212,54.894577,9.790205,108.3,5.845,1.85,0.00,54.894657,9.788668,54.895069,9.793790
1386959318,1,0,76.7,0,1,4,0,201,200,-0.0292,5116.9585,6.8213,0.4212,54.894577,9.790236,108.3,5.845,1.85,0.00,54.894657,9.788668,54.895069,9.793790
1386959319,1,0,76.5,0,0,0,0,198,150,-0.0292,5116.9585,6.8213,0.4212,54.894577,9.790265,108.3,5.845,1.85,0.00,54.894657,9.788668,54.895069,9.793790
