MCU_timestamp,Navigation_System,Manual_Control,Guidance_Heading,Manual_Ctrl_Rudder,Rudder_Desired_Angle,Rudder_Feedback,Manual_Ctrl_Sail,Sail_Desired_Pos,Sail_Feedback,Rate,Heading,Pitch,Roll,Latitude,Longitude,COG,SOG,Wind_Speed,Wind_Angle,Point_Start_Lat,Point_Start_Lon,Point_End_Lat,Point_End_Lon
1386941780,0,0,0.0,0,0,20,0,0,0,-0.0292,95.6255,6.8213,0.4212,54.896885,9.784269,108.3,5.845,1.85,335.95,0.000000,0.000000,0.000000,0.000000
1386941780,0,0,0.0,0,0,20,0,0,0,-0.0292,95.6255,6.8213,0.4212,54.896885,9.784269,108.3,5.845,1.85,335.95,0.000000,0.000000,0.000000,0.000000
1386941780,0,0,0.0,0,0,20,0,0,0,-0.0292,95.6255,6.8213,0.4212,54.896885,9.784269,108.3,5.845,1.85,335.95,0.000000,0.000000,0.000000,0.000000
1386941781,0,0,0.0,0,0,20,0,0,0,-0.0292,95.6255,6.8213,0.4212,54.896885,9.784269,108.3,5.845,1.85,335.95,0.000000,0.000000,0.000000,0.000000
1386941781,0,0,0.0,0,0,20,0,0,0,-0.0292,95.6255,6.8213,0.4212,54.896885,9.784269,108.3,5.845,1.85,335.95,0.000000,0.000000,0.000000,0.000000
1386941781,0,0,0.0,0,0,20,0,0,0,-0.0292,95.6255,6.8213,0.4212,54.896885,9.784269,108.3,5.845,1.85,335.95,0.000000,0.000000,0.000000,0.000000
1386941781,0,0,0.0,0,0,20,0,0,0,-0.0292,95.6255,6.8213,0.4212,54.896885,9.784269,108.3,5.845,1.85,335.95,0.000000,0.000000,0.000000,0.000000
1386941782,0,0,0.0,0,0,20,0,0,0,-0.0292,95.6255,6.8213,0.4212,54.896885,9.784269,108.3,5.845,1.85,335.95,0.000000,0.000000,0.000000,0.000000
1386941782,0,0,0.0,0,0,20,0,0,0,-0.0292,95.6255,6.8213,0.4212,54.896885,9.784269,108.3,5.845,1.85,335.95,0.000000,0.000000,0.000000,0.000000
1386941782,0,0,0.0,0,0,20,0,0,0,-0.0292,95.6255,6.8213,0.4212,54.896885,9.784269,108.3,5.845,1.85,335.95,0.000000,0.000000,0.000000,0.000000
1386941782,0,0,0.0,0,0,20,0,0,0,-0.0292,95.6255,6.8213,0.4212,54.896885,9.784269,108.3,5.845,1.85,335.95,0.000000,0.000000,0.000000,0.000000
1386941783,0,0,0.0,0,0,20,0,0,0,-0.0292,95.6255,6.8213,0.4212,54.896885,9.784269,108.3,5.845,1.85,335.95,0.000000,0.000000,0.000000,0.000000
1386941783,0,0,0.0,0,0,20,0,0,0,-0.0292,95.6255,6.8213,0.4212,54.896885,9.784269,108.3,5.845,1.85,335.95,0.000000,0.000000,0.000000,0.000000
1386941783,0,0,0.0,0,0,20,0,0,0,-0.0292,95.6255,6.8213,0.4212,54.896885,9.784269,108.3,5.845,1.85,335.95,0.000000,0.000000,0.000000,0.000000
1386941783,0,0,0.0,0,0,20,0,0,0,-0.0292,95.6255,6.8213,0.4212,54.896885,9.784269,108.3,5.845,1.85,335.95,0.000000,0.000000,0.000000,0.000000
1386941784,0,0,0.0,0,0,20,0,0,0,-0.0292,95.6255,6.8213,0.4212,54.896885,9.784269,108.3,5.845,1.85,335.95,0.000000,0.000000,0.000000,0.000000
1386941784,0,0,0.0,0,0,20,0,0,0,-0.0292,95.6255,6.8213,0.4212,54.896885,9.784269,108.3,5.845,1.85,335.95,0.000000,0.000000,0.000000,0.000000
1386941784,0,0,0.0,0,0,20,0,0,0,-0.0292,95.6255,6.8213,0.4212,54.896885,9.784269,108.3,5.845,1.85,335.95,0.000000,0.000000,0.000000,0.000000
1386941784,0,0,0.0,0,0,20,0,0,0,-0.0292,95.6255,6.8213,0.4212,54.896885,9.784269,108.3,5.845,1.85,335.95,0.000000,0.000000,0.000000,0.000000
1386941785,0,0,0.0,0,0,20,0,0,0,-0.0292,95.6255,6.8213,0.4212,54.896885,9.784269,108.3,5.845,1.85,335.95,0.000000,0.000000,0.000000,0.000000
1386941785,0,0,0.0,0,0,20,0,0,0,-0.0292,95.6255,6.8213,0.4212,54.896885,9.784269,108.3,5.845,1.85,335.95,0.000000,0.000000,0.000000,0.000000
1386941785,0,0,0.0,0,0,20,0,0,0,-0.0292,95.6255,6.8213,0.4212,54.896885,9.784269,108.3,5.845,1.85,335.95,0.000000,0.000000,0.000000,0.000000
1386941785,0,0,0.0,0,0,20,0,0,0,-0.0292,95.6255,6.8213,0.4212,54.896885,9.784269,108.3,5.845,1.85,335.95,0.000000,0.000000,0.000000,0.000000
1386941786,0,0,0.0,0,0,20,0,0,0,-0.0292,95.6255,6.8213,0.4212,54.896885,9.784269,108.3,5.845,1.85,335.95,0.000000,0.000000,0.000000,0.000000
1386941786,0,0,0.0,0,0,20,0,0,0,-0.0292,95.6255,6.8213,0.4212,54.896885,9.784269,108.3,5.845,1.85,335.95,0.000000,0.000000,0.000000,0.000000
1386941786,0,0,0.0,0,0,20,0,0,0,-0.0292,95.6255,6.8213,0.4212,54.896885,9.784269,108.3,5.845,1.85,335.95,0.000000,0.000000,0.000000,0.000000
1386941786,0,0,0.0,0,0,20,0,0,0,-0.0292,95.6255,6.8213,0.4212,54.896885,9.784269,108.3,5.845,1.85,335.95,0.000000,0.000000,0.000000,0.000000
1386941787,0,0,0.0,0,0,20,0,0,0,-0.0292,95.6255,6.8213,0.4212,54.896885,9.784269,108.3,5.845,1.85,335.95,0.000000,0.000000,0.000000,0.000000
1386941787,0,0,0.0,0,0,20,0,0,0,-0.0292,95.6255,6.8213,0.4212,54.896885,9.784269,108.3,5.845,1.85,335.95,0.000000,0.000000,0.000000,0.000000
1386941787,0,0,0.0,0,0,20,0,0,0,-0.0292,95.6255,6.8213,0.4212,54.896885,9.784269,108.3,5.845,1.85,335.95,0.000000,0.000000,0.000000,0.000000
1386941787,0,0,0.0,0,0,20,0,0,0,-0.0292,95.6255,6.8213,0.4212,54.896885,9.784269,108.3,5.845,1.85,335.95,0.000000,0.000000,0.000000,0.000000
1386941788,0,0,0.0,0,0,20,0,0,0,-0.0292,95.6255,6.8213,0.4212,54.896885,9.784269,108.3,5.845,1.85,335.95,0.000000,0.000000,0.000000,0.000000
1386941788,0,0,0.0,0,0,20,0,0,0,-0.0292,95.6255,6.8213,0.4212,54.896885,9.784269,108.3,5.845,1.85,335.95,0.000000,0.000000,0.000000,0.000000
1386941788,0,0,0.0,0,0,20,0,0,0,-0.0292,95.6255,6.8213,0.4212,54.896885,9.784269,108.3,5.845,1.85,335.95,0.000000,0.000000,0.000000,0.000000
1386941788,0,0,0.0,0,0,20,0,0,0,-0.0292,95.6255,6.8213,0.4212,54.896885,9.784269,108.3,5.845,1.85,335.95,0.000000,0.000000,0.000000,0.000000
1386941789,0,0,0.0,0,0,20,0,0,0,-0.0292,95.6255,6.8213,0.4212,54.896885,9.784269,108.3,5.845,1.85,335.95,0.000000,0.000000,0.000000,0.000000
1386941789,0,0,0.0,0,0,20,0,0,0,-0.0292,95.6255,6.8213,0.4212,54.896885,9.784269,108.3,5.845,1.85,335.95,0.000000,0.000000,0.000000,0.000000
1386941789,0,0,0.0,0,0,20,0,0,0,-0.0292,95.6255,6.8213,0.4212,54.896885,9.784269,108.3,5.845,1.85,335.95,0.000000,0.000000,0.000000,0.000000
1386941789,0,0,0.0,0,0,20,0,0,0,-0.0292,95.6255,6.8213,0.4212,54.896885,9.784269,108.3,5.845,1.85,335.95,0.000000,0.000000,0.000000,0.000000
1386941790,0,0,0.0,0,0,20,0,0,0,-0.0292,95.6255,6.8213,0.4212,54.896885,9.784269,108.3,5.845,1.85,335.95,0.000000,0.000000,0.000000,0.000000
1386941790,0,0,0.0,0,0,20,0,0,0,-0.0292,95.6255,6.8213,0.4212,54.896885,9.784269,108.3,5.845,1.85,335.95,0.000000,0.000000,0.000000,0.000000
1386941790,0,0,0.0,0,0,20,0,0,0,-0.0292,95.6255,6.8213,0.4212,54.896885,9.784269,108.3,5.845,1.85,335.95,0.000000,0.000000,0.000000,0.000000
1386941790,0,0,0.0,0,0,20,0,0,0,-0.0292,95.6255,6.8213,0.4212,54.896885,9.784269,108.3,5.845,1.85,335.95,0.000000,0.000000,0.000000,0.000000
1386941791,0,0,0.0,0,0,20,0,0,0,-0.0292,95.6255,6.8213,0.4212,54.896885,9.784269,108.3,5.845,1.85,335.95,0.000000,0.000000,0.000000,0.000000
1386941791,0,0,0.0,0,0,20,0,0,0,-0.0292,95.6255,6.8213,0.4212,54.896885,9.784269,108.3,5.845,1.85,335.95,0.000000,0.000000,0.000000,0.000000
1386941791,0,0,0.0,0,0,20,0,0,0,-0.0292,95.6255,6.8213,0.4212,54.896885,9.784269,108.3,5.845,1.85,335.95,0.000000,0.000000,0.000000,0.000000
1386941791,0,0,0.0,0,0,20,0,0,0,-0.0292,95.6255,6.8213,0.4212,54.896885,9.784269,108.3,5.845,1.85,335.95,0.000000,0.000000,0.000000,0.000000
1386941792,0,0,0.0,0,0,20,0,0,0,-0.0292,95.6255,6.8213,0.4212,54.896885,9.784269,108.3,5.845,1.85,335.95,0.000000,0.000000,0.000000,0.000000
1386941792,0,0,0.0,0,0,20,0,0,0,-0.0292,95.6255,6.8213,0.4212,54.896885,9.784269,108.3,5.845,1.85,335.95,0.000000,0.000000,0.000000,0.000000
1386941792,0,0,0.0,0,0,20,0,0,0,-0.0292,95.6255,6.8213,0.4212,54.896885,9.784269,108.3,5.845,1.85,335.95,0.000000,0.000000,0.000000,0.000000
1386941792,0,0,0.0,0,0,20,0,0,0,-0.0292,95.6255,6.8213,0.4212,54.896885,9.784269,108.3,5.845,1.85,335.95,0.000000,0.000000,0.000000,0.000000
1386941793,0,0,0.0,0,0,20,0,0,0,-0.0292,95.6255,6.8213,0.4212,54.896885,9.784269,108.3,5.845,1.85,335.95,0.000000,0.000000,0.000000,0.000000
1386941793,0,0,0.0,0,0,20,0,0,0,-0.0292,95.6255,6.8213,0.4212,54.896885,9.784269,108.3,5.845,1.85,335.95,0.000000,0.000000,0.000000,0.000000
1386941793,0,0,0.0,0,0,20,0,0,0,-0.0292,95.6255,6.8213,0.4212,54.896885,9.784269,108.3,5.845,1.85,335.95,0.000000,0.000000,0.000000,0.000000
1386941793,0,0,0.0,0,0,20,0,0,0,-0.0292,95.6255,6.8213,0.4212,54.896885,9.784269,108.3,5.845,1.85,335.95,0.000000,0.000000,0.000000,0.000000
1386941794,0,0,0.0,0,0,20,0,0,0,-0.0292,95.6255,6.8213,0.4212,54.896885,9.784269,108.3,5.845,1.85,335.95,0.000000,0.000000,0.000000,0.000000
1386941794,0,0,0.0,0,0,20,0,0,0,-0.0292,95.6255,6.8213,0.4212,54.896885,9.784269,108.3,5.845,1.85,335.95,0.000000,0.000000,0.000000,0.000000
1386941794,0,0,0.0,0,0,20,0,0,0,-0.0292,95.6255,6.8213,0.4212,54.896885,9.784269,108.3,5.845,1.85,335.95,0.000000,0.000000,0.000000,0.000000
1386941794,0,0,0.0,0,0,20,0,0,0,-0.0292,95.6255,6.8213,0.4212,54.896885,9.784269,108.3,5.845,1.85,335.95,0.000000,0.000000,0.000000,0.000000
1386941795,0,0,0.0,0,0,20,0,0,0,-0.0292,95.6255,6.8213,0.4212,54.896885,9.784269,108.3,5.845,1.85,335.95,0.000000,0.000000,0.000000,0.000000
1386941795,0,0,0.0,0,0,20,0,0,0,-0.0292,95.6255,6.8213,0.4212,54.896885,9.784269,108.3,5.845,1.85,335.95,0.000000,0.000000,0.000000,0.000000
1386941795,0,0,0.0,0,0,20,0,0,0,-0.0292,95.6255,6.8213,0.4212,54.896885,9.784269,108.3,5.845,1.85,335.95,0.000000,0.000000,0.000000,0.000000
1386941795,0,0,0.0,0,0,20,0,0,0,-0.0292,95.6255,6.8213,0.4212,54.896885,9.784269,108.3,5.845,1.85,335.95,0.000000,0.000000,0.000000,0.000000
1386941796,0,0,0.0,0,0,20,0,0,0,-0.0292,95.6255,6.8213,0.4212,54.896885,9.784269,108.3,5.845,1.85,335.95,0.000000,0.000000,0.000000,0.000000
1386941796,0,0,0.0,0,0,20,0,0,0,-0.0292,95.6255,6.8213,0.4212,54.896885,9.784269,108.3,5.845,1.85,335.95,0.000000,0.000000,0.000000,0.000000
1386941796,0,0,0.0,0,0,20,0,0,0,-0.0292,95.6255,6.8213,0.4212,54.896885,9.784269,108.3,5.845,1.85,335.95,0.000000,0.000000,0.000000,0.000000
1386941796,0,0,0.0,0,0,20,0,0,0,-0.0292,95.6255,6.8213,0.4212,54.896885,9.784269,108.3,5.845,1.85,335.95,0.000000,0.000000,0.000000,0.000000
1386941797,0,0,0.0,0,0,20,0,0,0,-0.0292,95.6255,6.8213,0.4212,54.896885,9.784269,108.3,5.845,1.85,335.95,0.000000,0.000000,0.000000,0.000000
1386941797,0,0,0.0,0,0,20,0,0,0,-0.0292,95.6255,6.8213,0.4212,54.896885,9.784269,108.3,5.845,1.85,335.95,0.000000,0.000000,0.000000,0.000000
1386941797,0,0,0.0,0,0,20,0,0,0,-0.0292,95.6255,6.8213,0.4212,54.896885,9.784269,108.3,5.845,1.85,335.95,0.000000,0.000000,0.000000,0.000000
1386941797,0,0,0.0,0,0,20,0,0,0,-0.0292,95.6255,6.8213,0.4212,54.896885,9.784269,108.3,5.845,1.85,335.95,0.000000,0.000000,0.000000,0.000000
1386941798,0,0,0.0,0,0,20,0,0,0,-0.0292,95.6255,6.8213,0.4212,54.896885,9.784269,108.3,5.845,1.85,335.95,0.000000,0.000000,0.000000,0.000000
1386941798,0,0,0.0,0,0,20,0,0,0,-0.0292,95.6255,6.8213,0.4212,54.896885,9.784269,108.3,5.845,1.85,335.95,0.000000,0.000000,0.000000,0.000000
1386941798,0,0,0.0,0,0,20,0,0,0,-0.0292,95.6255,6.8213,0.4212,54.896885,9.784269,108.3,5.845,1.85,335.95,0.000000,0.000000,0.000000,0.000000
1386941799,0,0,0.0,0,0,20,0,0,0,-0.0292,95.6255,6.8213,0.4212,54.896885,9.784269,108.3,5.845,1.85,335.95,0.000000,0.000000,0.000000,0.000000
1386941799,0,0,0.0,0,0,20,0,0,0,-0.0292,95.6255,6.8213,0.4212,54.896885,9.784269,108.3,5.845,1.85,335.95,0.000000,0.000000,0.000000,0.000000
1386941799,0,0,0.0,0,0,20,0,0,0,-0.0292,95.6255,6.8213,0.4212,54.896885,9.784269,108.3,5.845,1.85,335.95,0.000000,0.000000,0.000000,0.000000
1386941799,0,0,0.0,0,0,20,0,0,0,-0.0292,95.6255,6.8213,0.4212,54.896885,9.784269,108.3,5.845,1.85,335.95,0.000000,0.000000,0.000000,0.000000
1386941800,0,0,0.0,0,0,20,0,0,0,-0.0292,95.6255,6.8213,0.4212,54.896885,9.784269,108.3,5.845,1.85,335.95,0.000000,0.000000,0.000000,0.000000
1386941800,0,0,0.0,0,0,20,0,0,0,-0.0292,95.6255,6.8213,0.4212,54.896885,9.784269,108.3,5.845,1.85,335.95,0.000000,0.000000,0.000000,0.000000
1386941800,0,0,0.0,0,0,20,0,0,0,-0.0292,95.6255,6.8213,0.4212,54.896885,9.784269,108.3,5.845,1.85,335.95,0.000000,0.000000,0.000000,0.000000
1386941800,0,0,0.0,0,0,20,0,0,0,-0.0292,95.6255,6.8213,0.4212,54.896885,9.784269,108.3,5.845,1.85,335.95,0.000000,0.000000,0.000000,0.000000
1386941801,0,0,0.0,0,0,20,0,0,0,-0.0292,95.6255,6.8213,0.4212,54.896885,9.784269,108.3,5.845,1.85,335.95,0.000000,0.000000,0.000000,0.000000
1386941801,0,0,0.0,0,0,20,0,0,0,-0.0292,95.6255,6.8213,0.4212,54.896885,9.784269,108.3,5.845,1.85,335.95,0.000000,0.000000,0.000000,0.000000
1386941801,0,0,0.0,0,0,20,0,0,0,-0.0292,95.6255,6.8213,0.4212,54.896885,9.784269,108.3,5.845,1.85,335.95,0.000000,0.000000,0.000000,0.000000
1386941801,0,0,0.0,0,0,20,0,0,0,-0.0292,95.6255,6.8213,0.4212,54.896885,9.784269,108.3,5.845,1.85,335.95,0.000000,0.000000,0.000000,0.000000
1386941802,0,0,0.0,0,0,20,0,0,0,-0.0292,95.6255,6.8213,0.4212,54.896885,9.784269,108.3,5.845,1.85,335.95,0.000000,0.000000,0.000000,0.000000
1386941802,0,0,0.0,0,0,20,0,0,0,-0.0292,95.6255,6.8213,0.4212,54.896885,9.784269,108.3,5.845,1.85,335.95,0.000000,0.000000,0.000000,0.000000
1386941802,0,0,0.0,0,0,20,0,0,0,-0.0292,95.6255,6.8213,0.4212,54.896885,9.784269,108.3,5.845,1.85,335.95,0.000000,0.000000,0.000000,0.000000
1386941802,0,0,0.0,0,0,20,0,0,0,-0.0292,95.6255,6.8213,0.4212,54.896885,9.784269,108.3,5.845,1.85,335.95,0.000000,0.000000,0.000000,0.000000
1386941803,0,0,0.0,0,0,20,0,0,0,-0.0292,95.6255,6.8213,0.4212,54.896885,9.784269,108.3,5.845,1.85,335.95,0.000000,0.000000,0.000000,0.000000
1386941803,0,0,0.0,0,0,20,0,0,0,-0.0292,95.6255,6.8213,0.4212,54.896885,9.784269,108.3,5.845,1.85,335.95,0.000000,0.000000,0.000000,0.000000
1386941803,0,0,0.0,0,0,20,0,0,0,-0.0292,95.6255,6.8213,0.4212,54.896885,9.784269,108.3,5.845,1.85,335.95,0.000000,0.000000,0.000000,0.000000
1386941803,0,0,0.0,0,0,20,0,0,0,-0.0292,95.6255,6.8213,0.4212,54.896885,9.784269,108.3,5.845,1.85,335.95,0.000000,0.000000,0.000000,0.000000
1386941804,0,0,0.0,0,0,20,0,0,0,-0.0292,95.6255,6.8213,0.4212,54.896885,9.784269,108.3,5.845,1.85,335.95,0.000000,0.000000,0.000000,0.000000
1386941804,0,0,0.0,0,0,20,0,0,0,-0.0292,95.6255,6.8213,0.4212,54.896885,9.784269,108.3,5.845,1.85,335.95,0.000000,0.000000,0.000000,0.000000
1386941804,0,0,0.0,0,0,20,0,0,0,-0.0292,95.6255,6.8213,0.4212,54.896885,9.784269,108.3,5.845,1.85,335.95,0.000000,0.000000,0.000000,0.000000
1386941804,0,0,0.0,0,0,20,0,0,0,-0.0292,95.6255,6.8213,0.4212,54.896885,9.784269,108.3,5.845,1.85,335.95,0.000000,0.000000,0.000000,0.000000
1386941805,0,0,0.0,0,0,20,0,0,0,-0.0292,95.6255,6.8213,0.4212,54.896885,9.784269,108.3,5.845,1.85,335.95,0.000000,0.000000,0.000000,0.000000
1386941805,0,0,0.0,0,0,20,0,0,0,-0.0292,95.6255,6.8213,0.4212,54.896885,9.784269,108.3,5.845,1.85,335.95,0.000000,0.000000,0.000000,0.000000
1386941805,0,0,0.0,0,0,20,0,0,0,-0.0292,95.6255,6.8213,0.4212,54.896885,9.784269,108.3,5.845,1.85,335.95,0.000000,0.000000,0.000000,0.000000
1386941805,0,0,0.0,0,0,20,0,0,0,-0.0292,95.6255,6.8213,0.4212,54.896885,9.784269,108.3,5.845,1.85,335.95,0.000000,0.000000,0.000000,0.000000
1386941806,0,0,0.0,0,0,20,0,0,0,-0.0292,95.6255,6.8213,0.4212,54.896885,9.784269,108.3,5.845,1.85,335.95,0.000000,0.000000,0.000000,0.000000
1386941806,0,0,0.0,0,0,20,0,0,0,-0.0292,95.6255,6.8213,0.4212,54.896885,9.784269,108.3,5.845,1.85,335.95,0.000000,0.000000,0.000000,0.000000
1386941806,0,0,0.0,0,0,20,0,0,0,-0.0292,95.6255,6.8213,0.4212,54.896885,9.784269,108.3,5.845,1.85,335.95,0.000000,0.000000,0.000000,0.000000
1386941806,0,0,0.0,0,0,20,0,0,0,-0.0292,95.6255,6.8213,0.4212,54.896885,9.784269,108.3,5.845,1.85,335.95,0.000000,0.000000,0.000000,0.000000
1386941807,0,0,0.0,0,0,20,0,0,0,-0.0292,95.6255,6.8213,0.4212,54.896885,9.784269,108.3,5.845,1.85,335.95,0.000000,0.000000,0.000000,0.000000
1386941807,0,0,0.0,0,0,20,0,0,0,-0.0292,95.6255,6.8213,0.4212,54.896885,9.784269,108.3,5.845,1.85,335.95,0.000000,0.000000,0.000000,0.000000
1386941807,0,0,0.0,0,0,20,0,0,0,-0.0292,95.6255,6.8213,0.4212,54.896885,9.784269,108.3,5.845,1.85,335.95,0.000000,0.000000,0.000000,0.000000
1386941807,0,0,0.0,0,0,20,0,0,0,-0.0292,95.6255,6.8213,0.4212,54.896885,9.784269,108.3,5.845,1.85,335.95,0.000000,0.000000,0.000000,0.000000
1386941808,0,0,0.0,0,0,20,0,0,0,-0.0292,95.6255,6.8213,0.4212,54.896885,9.784269,108.3,5.845,1.85,335.95,0.000000,0.000000,0.000000,0.000000
1386941808,0,0,0.0,0,0,20,0,0,0,-0.0292,95.6255,6.8213,0.4212,54.896885,9.784269,108.3,5.845,1.85,335.95,0.000000,0.000000,0.000000,0.000000
1386941808,0,0,0.0,0,0,20,0,0,0,-0.0292,95.6255,6.8213,0.4212,54.896885,9.784269,108.3,5.845,1.85,335.95,0.000000,0.000000,0.000000,0.000000
1386941808,0,0,0.0,0,0,20,0,0,0,-0.0292,95.6255,6.8213,0.4212,54.896885,9.784269,108.3,5.845,1.85,335.95,0.000000,0.000000,0.000000,0.000000
1386941809,0,0,0.0,0,0,20,0,0,0,-0.0292,95.6255,6.8213,0.4212,54.896885,9.784269,108.3,5.845,1.85,335.95,0.000000,0.000000,0.000000,0.000000
1386941809,0,0,0.0,0,0,20,0,0,0,-0.0292,95.6255,6.8213,0.4212,54.896885,9.784269,108.3,5.845,1.85,335.95,0.000000,0.000000,0.000000,0.000000
1386941809,0,0,0.0,0,0,20,0,0,0,-0.0292,95.6255,6.8213,0.4212,54.896885,9.784269,108.3,5.845,1.85,335.95,0.000000,0.000000,0.000000,0.000000
1386941809,0,0,0.0,0,0,20,0,0,0,-0.0292,95.6255,6.8213,0.4212,54.896885,9.784269,108.3,5.845,1.85,335.95,0.000000,0.000000,0.000000,0.000000
1386941810,0,0,0.0,0,0,20,0,0,0,-0.0292,95.6255,6.8213,0.4212,54.896885,9.784269,108.3,5.845,1.85,335.95,0.000000,0.000000,0.000000,0.000000
1386941810,0,0,0.0,0,0,20,0,0,0,-0.0292,95.6255,6.8213,0.4212,54.896885,9.784269,108.3,5.845,1.85,335.95,0.000000,0.000000,0.000000,0.000000
1386941810,0,0,0.0,0,0,20,0,0,0,-0.0292,95.6255,6.8213,0.4212,54.896885,9.784269,108.3,5.845,1.85,335.95,0.000000,0.000000,0.000000,0.000000
1386941810,0,0,0.0,0,0,20,0,0,0,-0.0292,95.6255,6.8213,0.4212,54.896885,9.784269,108.3,5.845,1.85,335.95,0.000000,0.000000,0.000000,0.000000
1386941811,0,0,0.0,0,0,20,0,0,0,-0.0292,95.6255,6.8213,0.4212,54.896885,9.784269,108.3,5.845,1.85,335.95,0.000000,0.000000,0.000000,0.000000
1386941811,0,0,0.0,0,0,20,0,0,0,-0.0292,95.6255,6.8213,0.4212,54.896885,9.784269,108.3,5.845,1.85,335.95,0.000000,0.000000,0.000000,0.000000
1386941811,0,0,0.0,0,0,20,0,0,0,-0.0292,95.6255,6.8213,0.4212,54.896885,9.784269,108.3,5.845,1.85,335.95,0.000000,0.000000,0.000000,0.000000
1386941811,0,0,0.0,0,0,20,0,0,0,-0.0292,95.6255,6.8213,0.4212,54.896885,9.784269,108.3,5.845,1.85,335.95,0.000000,0.000000,0.000000,0.000000
1386941812,0,0,0.0,0,0,20,0,0,0,-0.0292,95.6255,6.8213,0.4212,54.896885,9.784269,108.3,5.845,1.85,335.95,0.000000,0.000000,0.000000,0.000000
1386941812,0,0,0.0,0,0,20,0,0,0,-0.0292,95.6255,6.8213,0.4212,54.896885,9.784269,108.3,5.845,1.85,335.95,0.000000,0.000000,0.000000,0.000000
1386941812,0,0,0.0,0,0,20,0,0,0,-0.0292,95.6255,6.8213,0.4212,54.896885,9.784269,108.3,5.845,1.85,335.95,0.000000,0.000000,0.000000,0.000000
1386941812,0,0,0.0,0,0,20,0,0,0,-0.0292,95.6255,6.8213,0.4212,54.896885,9.784269,108.3,5.845,1.85,335.95,0.000000,0.000000,0.000000,0.000000
1386941813,0,0,0.0,0,0,20,0,0,0,-0.0292,95.6255,6.8213,0.4212,54.896885,9.784269,108.3,5.845,1.85,335.95,0.000000,0.000000,0.000000,0.000000
1386941813,0,0,0.0,0,0,20,0,0,0,-0.0292,95.6255,6.8213,0.4212,54.896885,9.784269,108.3,5.845,1.85,335.95,0.000000,0.000000,0.000000,0.000000
1386941813,0,0,0.0,0,0,20,0,0,0,-0.0292,95.6255,6.8213,0.4212,54.896885,9.784269,108.3,5.845,1.85,335.95,0.000000,0.000000,0.000000,0.000000
1386941813,0,0,0.0,0,0,20,0,0,0,-0.0292,95.6255,6.8213,0.4212,54.896885,9.784269,108.3,5.845,1.85,335.95,0.000000,0.000000,0.000000,0.000000
1386941814,0,0,0.0,0,0,20,0,0,0,-0.0292,95.6255,6.8213,0.4212,54.896885,9.784269,108.3,5.845,1.85,335.95,0.000000,0.000000,0.000000,0.000000
1386941814,0,0,0.0,0,0,20,0,0,0,-0.0292,95.6255,6.8213,0.4212,54.896885,9.784269,108.3,5.845,1.85,335.95,0.000000,0.000000,0.000000,0.000000
1386941814,0,0,0.0,0,0,20,0,0,0,-0.0292,95.6255,6.8213,0.4212,54.896885,9.784269,108.3,5.845,1.85,335.95,0.000000,0.000000,0.000000,0.000000
1386941814,0,0,0.0,0,0,20,0,0,0,-0.0292,95.6255,6.8213,0.4212,54.896885,9.784269,108.3,5.845,1.85,335.95,0.000000,0.000000,0.000000,0.000000
1386941815,0,0,0.0,0,0,20,0,0,0,-0.0292,95.6255,6.8213,0.4212,54.896885,9.784269,108.3,5.845,1.85,335.95,0.000000,0.000000,0.000000,0.000000
1386941815,0,0,0.0,0,0,20,0,0,0,-0.0292,95.6255,6.8213,0.4212,54.896885,9.784269,108.3,5.845,1.85,335.95,0.000000,0.000000,0.000000,0.000000
1386941815,0,0,0.0,0,0,20,0,0,0,-0.0292,95.6255,6.8213,0.4212,54.896885,9.784269,108.3,5.845,1.85,335.95,0.000000,0.000000,0.000000,0.000000
1386941815,0,0,0.0,0,0,20,0,0,0,-0.0292,95.6255,6.8213,0.4212,54.896885,9.784269,108.3,5.845,1.85,335.95,0.000000,0.000000,0.000000,0.000000
1386941816,0,0,0.0,0,0,20,0,0,0,-0.0292,95.6255,6.8213,0.4212,54.896885,9.784269,108.3,5.845,1.85,335.95,0.000000,0.000000,0.000000,0.000000
1386941816,0,0,0.0,0,0,20,0,0,0,-0.0292,95.6255,6.8213,0.4212,54.896885,9.784269,108.3,5.845,1.85,335.95,0.000000,0.000000,0.000000,0.000000
1386941816,0,0,0.0,0,0,20,0,0,0,-0.0292,95.6255,6.8213,0.4212,54.896885,9.784269,108.3,5.845,1.85,335.95,0.000000,0.000000,0.000000,0.000000
1386941816,0,0,0.0,0,0,20,0,0,0,-0.0292,95.6255,6.8213,0.4212,54.896885,9.784269,108.3,5.845,1.85,335.95,0.000000,0.000000,0.000000,0.000000
1386941817,0,0,0.0,0,0,20,0,0,0,-0.0292,95.6255,6.8213,0.4212,54.896885,9.784269,108.3,5.845,1.85,335.95,0.000000,0.000000,0.000000,0.000000
1386941817,0,0,0.0,0,0,20,0,0,0,-0.0292,95.6255,6.8213,0.4212,54.896885,9.784269,108.3,5.845,1.85,335.95,0.000000,0.000000,0.000000,0.000000
1386941817,0,0,0.0,0,0,20,0,0,0,-0.0292,95.6255,6.8213,0.4212,54.896885,9.784269,108.3,5.845,1.85,335.95,0.000000,0.000000,0.000000,0.000000
1386941817,0,0,0.0,0,0,20,0,0,0,-0.0292,95.6255,6.8213,0.4212,54.896885,9.784269,108.3,5.845,1.85,335.95,0.000000,0.000000,0.000000,0.000000
1386941818,0,0,0.0,0,0,20,0,0,0,-0.0292,95.6255,6.8213,0.4212,54.896885,9.784269,108.3,5.845,1.85,335.95,0.000000,0.000000,0.000000,0.000000
1386941818,0,0,0.0,0,0,20,0,0,0,-0.0292,95.6255,6.8213,0.4212,54.896885,9.784269,108.3,5.845,1.85,335.95,0.000000,0.000000,0.000000,0.000000
1386941818,0,0,0.0,0,0,20,0,0,0,-0.0292,95.6255,6.8213,0.4212,54.896885,9.784269,108.3,5.845,1.85,335.95,0.000000,0.000000,0.000000,0.000000
1386941818,0,0,0.0,0,0,20,0,0,0,-0.0292,95.6255,6.8213,0.4212,54.896885,9.784269,108.3,5.845,1.85,335.95,0.000000,0.000000,0.000000,0.000000
1386941819,0,0,0.0,0,0,20,0,0,0,-0.0292,95.6255,6.8213,0.4212,54.896885,9.784269,108.3,5.845,1.85,335.95,0.000000,0.000000,0.000000,0.000000
1386941819,0,0,0.0,0,0,20,0,0,0,-0.0292,95.6255,6.8213,0.4212,54.896885,9.784269,108.3,5.845,1.85,335.95,0.000000,0.000000,0.000000,0.000000
1386941819,0,0,0.0,0,0,20,0,0,0,-0.0292,95.6255,6.8213,0.4212,54.896885,9.784269,108.3,5.845,1.85,335.95,0.000000,0.000000,0.000000,0.000000
1386941819,0,0,0.0,0,0,20,0,0,0,-0.0292,95.6255,6.8213,0.4212,54.896885,9.784269,108.3,5.845,1.85,335.95,0.000000,0.000000,0.000000,0.000000
1386941820,0,0,0.0,0,0,20,0,0,0,-0.0292,95.6255,6.8213,0.4212,54.896885,9.784269,108.3,5.845,1.85,335.95,0.000000,0.000000,0.000000,0.000000
1386941820,0,0,0.0,0,0,20,0,0,0,-0.0292,95.6255,6.8213,0.4212,54.896885,9.784269,108.3,5.845,1.85,335.95,0.000000,0.000000,0.000000,0.000000
1386941820,0,0,0.0,0,0,20,0,0,0,-0.0292,95.6255,6.8213,0.4212,54.896885,9.784269,108.3,5.845,1.85,335.95,0.000000,0.000000,0.000000,0.000000
1386941820,0,0,0.0,0,0,20,0,0,0,-0.0292,95.6255,6.8213,0.4212,54.896885,9.784269,108.3,5.845,1.85,335.95,0.000000,0.000000,0.000000,0.000000
1386941821,0,0,0.0,0,0,20,0,0,0,-0.0292,95.6255,6.8213,0.4212,54.896885,9.784269,108.3,5.845,1.85,335.95,0.000000,0.000000,0.000000,0.000000
1386941821,0,0,0.0,0,0,20,0,0,0,-0.0292,95.6255,6.8213,0.4212,54.896885,9.784269,108.3,5.845,1.85,335.95,0.000000,0.000000,0.000000,0.000000
1386941821,0,0,0.0,0,0,20,0,0,0,-0.0292,95.6255,6.8213,0.4212,54.896885,9.784269,108.3,5.845,1.85,335.95,0.000000,0.000000,0.000000,0.000000
1386941821,0,0,0.0,0,0,20,0,0,0,-0.0292,95.6255,6.8213,0.4212,54.896885,9.784269,108.3,5.845,1.85,335.95,0.000000,0.000000,0.000000,0.000000
1386941822,0,0,0.0,0,0,20,0,0,0,-0.0292,95.6255,6.8213,0.4212,54.896885,9.784269,108.3,5.845,1.85,335.95,0.000000,0.000000,0.000000,0.000000
1386941822,0,0,0.0,0,0,20,0,0,0,-0.0292,95.6255,6.8213,0.4212,54.896885,9.784269,108.3,5.845,1.85,335.95,0.000000,0.000000,0.000000,0.000000
1386941822,0,0,0.0,0,0,20,0,0,0,-0.0292,95.6255,6.8213,0.4212,54.896885,9.784269,108.3,5.845,1.85,335.95,0.000000,0.000000,0.000000,0.000000
1386941822,0,0,0.0,0,0,20,0,0,0,-0.0292,95.6255,6.8213,0.4212,54.896885,9.784269,108.3,5.845,1.85,335.95,0.000000,0.000000,0.000000,0.000000
1386941823,0,0,0.0,0,0,20,0,0,0,-0.0292,95.6255,6.8213,0.4212,54.896885,9.784269,108.3,5.845,1.85,335.95,0.000000,0.000000,0.000000,0.000000
1386941823,0,0,0.0,0,0,20,0,0,0,-0.0292,95.6255,6.8213,0.4212,54.896885,9.784269,108.3,5.845,1.85,335.95,0.000000,0.000000,0.000000,0.000000
1386941823,0,0,0.0,0,0,20,0,0,0,-0.0292,95.6255,6.8213,0.4212,54.896885,9.784269,108.3,5.845,1.85,335.95,0.000000,0.000000,0.000000,0.000000
1386941823,0,0,0.0,0,0,20,0,0,0,-0.0292,95.6255,6.8213,0.4212,54.896885,9.784269,108.3,5.845,1.85,335.95,0.000000,0.000000,0.000000,0.000000
1386941824,0,0,0.0,0,0,20,0,0,0,-0.0292,95.6255,6.8213,0.4212,54.896885,9.784269,108.3,5.845,1.85,335.95,0.000000,0.000000,0.000000,0.000000
1386941824,0,0,0.0,0,0,20,0,0,0,-0.0292,95.6255,6.8213,0.4212,54.896885,9.784269,108.3,5.845,1.85,335.95,0.000000,0.000000,0.000000,0.000000
1386941824,0,0,0.0,0,0,20,0,0,0,-0.0292,95.6255,6.8213,0.4212,54.896885,9.784269,108.3,5.845,1.85,335.95,0.000000,0.000000,0.000000,0.000000
1386941824,0,0,0.0,0,0,20,0,0,0,-0.0292,95.6255,6.8213,0.4212,54.896885,9.784269,108.3,5.845,1.85,335.95,0.000000,0.000000,0.000000,0.000000
1386941825,0,0,0.0,0,0,20,0,0,0,-0.0292,95.6255,6.8213,0.4212,54.896885,9.784269,108.3,5.845,1.85,335.95,0.000000,0.000000,0.000000,0.000000
1386941825,0,0,0.0,0,0,20,0,0,0,-0.0292,95.6255,6.8213,0.4212,54.896885,9.784269,108.3,5.845,1.85,335.95,0.000000,0.000000,0.000000,0.000000
1386941825,0,0,0.0,0,0,20,0,0,0,-0.0292,95.6255,6.8213,0.4212,54.896885,9.784269,108.3,5.845,1.85,335.95,0.000000,0.000000,0.000000,0.000000
1386941825,0,0,0.0,0,0,20,0,0,0,-0.0292,95.6255,6.8213,0.4212,54.896885,9.784269,108.3,5.845,1.85,335.95,0.000000,0.000000,0.000000,0.000000
1386941826,0,0,0.0,0,0,20,0,0,0,-0.0292,95.6255,6.8213,0.4212,54.896885,9.784269,108.3,5.845,1.85,335.95,0.000000,0.000000,0.000000,0.000000
1386941826,0,0,0.0,0,0,20,0,0,0,-0.0292,95.6255,6.8213,0.4212,54.896885,9.784269,108.3,5.845,1.85,335.95,0.000000,0.000000,0.000000,0.000000
1386941826,0,0,0.0,0,0,20,0,0,0,-0.0292,95.6255,6.8213,0.4212,54.896885,9.784269,108.3,5.845,1.85,335.95,0.000000,0.000000,0.000000,0.000000
1386941826,0,0,0.0,0,0,20,0,0,0,-0.0292,95.6255,6.8213,0.4212,54.896885,9.784269,108.3,5.845,1.85,335.95,0.000000,0.000000,0.000000,0.000000
1386941827,0,0,0.0,0,0,20,0,0,0,-0.0292,95.6255,6.8213,0.4212,54.896885,9.784269,108.3,5.845,1.85,335.95,0.000000,0.000000,0.000000,0.000000
1386941827,0,0,0.0,0,0,20,0,0,0,-0.0292,95.6255,6.8213,0.4212,54.896885,9.784269,108.3,5.845,1.85,335.95,0.000000,0.000000,0.000000,0.000000
1386941827,0,0,0.0,0,0,20,0,0,0,-0.0292,95.6255,6.8213,0.4212,54.896885,9.784269,108.3,5.845,1.85,335.95,0.000000,0.000000,0.000000,0.000000
1386941827,0,0,0.0,0,0,20,0,0,0,-0.0292,95.6255,6.8213,0.4212,54.896885,9.784269,108.3,5.845,1.85,335.95,0.000000,0.000000,0.000000,0.000000
1386941828,0,0,0.0,0,0,20,0,0,0,-0.0292,95.6255,6.8213,0.4212,54.896885,9.784269,108.3,5.845,1.85,335.95,0.000000,0.000000,0.000000,0.000000
1386941828,0,0,0.0,0,0,20,0,0,0,-0.0292,95.6255,6.8213,0.4212,54.896885,9.784269,108.3,5.845,1.85,335.95,0.000000,0.000000,0.000000,0.000000
1386941828,0,0,0.0,0,0,20,0,0,0,-0.0292,95.6255,6.8213,0.4212,54.896885,9.784269,108.3,5.845,1.85,335.95,0.000000,0.000000,0.000000,0.000000
1386941828,0,0,0.0,0,0,20,0,0,0,-0.0292,95.6255,6.8213,0.4212,54.896885,9.784269,108.3,5.845,1.85,335.95,0.000000,0.000000,0.000000,0.000000
1386941829,0,0,0.0,0,0,20,0,0,0,-0.0292,95.6255,6.8213,0.4212,54.896885,9.784269,108.3,5.845,1.85,335.95,0.000000,0.000000,0.000000,0.000000
1386941829,0,0,0.0,0,0,20,0,0,0,-0.0292,95.6255,6.8213,0.4212,54.896885,9.784269,108.3,5.845,1.85,335.95,0.000000,0.000000,0.000000,0.000000
1386941829,0,0,0.0,0,0,20,0,0,0,-0.0292,95.6255,6.8213,0.4212,54.896885,9.784269,108.3,5.845,1.85,335.95,0.000000,0.000000,0.000000,0.000000
1386941829,0,0,0.0,0,0,20,0,0,0,-0.0292,95.6255,6.8213,0.4212,54.896885,9.784269,108.3,5.845,1.85,335.95,0.000000,0.000000,0.000000,0.000000
1386941830,0,0,0.0,0,0,20,0,0,0,-0.0292,95.6255,6.8213,0.4212,54.896885,9.784269,108.3,5.845,1.85,335.95,0.000000,0.000000,0.000000,0.000000
1386941830,0,0,0.0,0,0,20,0,0,0,-0.0292,95.6255,6.8213,0.4212,54.896885,9.784269,108.3,5.845,1.85,335.95,0.000000,0.000000,0.000000,0.000000
1386941830,0,0,0.0,0,0,20,0,0,0,-0.0292,95.6255,6.8213,0.4212,54.896885,9.784269,108.3,5.845,1.85,335.95,0.000000,0.000000,0.000000,0.000000
1386941830,0,0,0.0,0,0,20,0,0,0,-0.0292,95.6255,6.8213,0.4212,54.896885,9.784269,108.3,5.845,1.85,335.95,0.000000,0.000000,0.000000,0.000000
1386941831,0,0,0.0,0,0,20,0,0,0,-0.0292,95.6255,6.8213,0.4212,54.896885,9.784269,108.3,5.845,1.85,335.95,0.000000,0.000000,0.000000,0.000000
1386941831,4,0,0.0,0,0,20,0,0,0,-0.0292,95.6255,6.8213,0.4212,54.896885,9.784269,108.3,5.845,1.85,335.95,0.000000,0.000000,0.000000,0.000000
1386941831,1,0,468.2,0,-13,16,0,854,50,-0.0292,99.0922,6.8213,0.4212,54.896885,9.784301,108.3,5.845,1.85,335.95,54.896885,9.784269,54.895069,9.793790
1386941831,1,0,468.3,0,-9,12,0,870,100,-0.0292,101.4922,6.8213,0.4212,54.896881,9.784331,108.3,5.845,1.85,335.95,54.896885,9.784269,54.895069,9.793790
1386941832,1,0,468.3,0,-7,8,0,870,150,-0.0292,103.3588,6.8213,0.4212,54.896877,9.784362,108.3,5.845,1.85,335.95,54.896885,9.784269,54.895069,9.793790
1386941832,1,0,468.3,0,-5,4,0,870,200,-0.0292,104.6922,6.8213,0.4212,54.896873,9.784391,108.3,5.845,1.85,335.95,54.896885,9.784269,54.895069,9.793790
1386941832,1,0,468.4,0,-4,0,0,870,250,-0.0292,105.7588,6.8213,0.4212,54.896870,9.784422,108.3,5.845,1.85,335.95,54.896885,9.784269,54.895069,9.793790
1386941832,1,0,468.4,0,-3,-4,0,870,300,-0.0292,106.5588,6.8213,0.4212,54.896862,9.784451,108.3,5.845,1.85,335.95,54.896885,9.784269,54.895069,9.793790
1386941833,1,0,468.4,0,-2,0,0,870,350,-0.0292,107.0922,6.8213,0.4212,54.896858,9.784481,108.3,5.845,1.85,335.95,54.896885,9.784269,54.895069,9.793790
1386941833,1,0,468.4,0,-1,-4,0,870,400,-0.0292,107.3588,6.8213,0.4212,54.896854,9.784512,108.3,5.845,1.85,335.95,54.896885,9.784269,54.895069,9.793790
1386941833,1,0,468.4,0,-1,0,0,870,450,-0.0292,107.6255,6.8213,0.4212,54.896851,9.784541,108.3,5.845,1.85,335.95,54.896885,9.784269,54.895069,9.793790
1386941833,1,0,468.4,0,-1,-4,0,870,500,-0.0292,107.8922,6.8213,0.4212,54.896843,9.784571,108.3,5.845,1.85,335.95,54.896885,9.784269,54.895069,9.793790
1386941834,1,0,468.4,0,-1,0,0,870,550,-0.0292,108.1588,6.8213,0.4212,54.896835,9.784601,108.3,5.845,1.85,335.95,54.896885,9.784269,54.895069,9.793790
1386941834,1,0,468.4,0,0,4,0,870,600,-0.0292,108.1588,6.8213,0.4212,54.896832,9.784631,108.3,5.845,1.85,335.95,54.896885,9.784269,54.895069,9.793790
1386941834,1,0,468.4,0,0,0,0,870,650,-0.0292,108.1588,6.8213,0.4212,54.896828,9.784660,108.3,5.845,1.85,335.95,54.896885,9.784269,54.895069,9.793790
1386941834,1,0,468.4,0,0,4,0,870,700,-0.0292,108.1588,6.8213,0.4212,54.896824,9.784690,108.3,5.845,1.85,335.95,54.896885,9.784269,54.895069,9.793790
1386941835,1,0,468.4,0,0,0,0,870,750,-0.0292,108.1588,6.8213,0.4212,54.896816,9.784719,108.3,5.845,1.85,335.95,54.896885,9.784269,54.895069,9.793790
1386941835,1,0,468.4,0,0,4,0,870,800,-0.0292,108.1588,6.8213,0.4212,54.896809,9.784749,108.3,5.845,1.85,335.95,54.896885,9.784269,54.895069,9.793790
1386941835,1,0,468.4,0,0,0,0,870,850,-0.0292,108.1588,6.8213,0.4212,54.896805,9.784779,108.3,5.845,1.85,335.95,54.896885,9.784269,54.895069,9.793790
1386941835,1,0,468.4,0,0,4,0,870,900,-0.0292,108.1588,6.8213,0.4212,54.896801,9.784808,108.3,5.845,1.85,335.95,54.896885,9.784269,54.895069,9.793790
1386941836,1,0,468.4,0,0,0,0,870,850,-0.0292,108.1588,6.8213,0.4212,54.896793,9.784838,108.3,5.845,1.85,335.95,54.896885,9.784269,54.895069,9.793790
1386941836,1,0,468.4,0,0,4,0,870,900,-0.0292,108.1588,6.8213,0.4212,54.896786,9.784867,108.3,5.845,1.85,335.95,54.896885,9.784269,54.895069,9.793790
1386941836,1,0,468.4,0,0,0,0,870,850,-0.0292,108.1588,6.8213,0.4212,54.896782,9.784897,108.3,5.845,1.85,335.95,54.896885,9.784269,54.895069,9.793790
1386941836,1,0,468.4,0,0,4,0,870,900,-0.0292,108.1588,6.8213,0.4212,54.896778,9.784926,108.3,5.845,1.85,335.95,54.896885,9.784269,54.895069,9.793790
1386941837,1,0,468.4,0,0,0,0,870,850,-0.0292,108.1588,6.8213,0.4212,54.896774,9.784956,108.3,5.845,1.85,335.95,54.896885,9.784269,54.895069,9.793790
1386941837,1,0,468.4,0,0,4,0,870,900,-0.0292,108.1588,6.8213,0.4212,54.896767,9.784986,108.3,5.845,1.85,335.95,54.896885,9.784269,54.895069,9.793790
1386941837,1,0,468.4,0,0,0,0,870,850,-0.0292,108.1588,6.8213,0.4212,54.896759,9.785016,108.3,5.845,1.85,335.95,54.896885,9.784269,54.895069,9.793790
1386941837,1,0,468.4,0,0,4,0,870,900,-0.0292,108.1588,6.8213,0.4212,54.896755,9.785046,108.3,5.845,1.85,335.95,54.896885,9.784269,54.895069,9.793790
1386941838,1,0,468.4,0,0,0,0,870,850,-0.0292,108.1588,6.8213,0.4212,54.896751,9.785075,108.3,5.845,1.85,335.95,54.896885,9.784269,54.895069,9.793790
1386941838,1,0,468.4,0,0,4,0,870,900,-0.0292,108.1588,6.8213,0.4212,54.896744,9.785105,108.3,5.845,1.85,335.95,54.896885,9.784269,54.895069,9.793790
1386941838,1,0,468.4,0,0,0,0,870,850,-0.0292,108.1588,6.8213,0.4212,54.896736,9.785134,108.3,5.845,1.85,335.95,54.896885,9.784269,54.895069,9.793790
1386941838,1,0,468.4,0,0,4,0,870,900,-0.0292,108.1588,6.8213,0.4212,54.896732,9.785164,108.3,5.845,1.85,335.95,54.896885,9.784269,54.895069,9.793790
1386941839,1,0,468.4,0,0,0,0,870,850,-0.0292,108.1588,6.8213,0.4212,54.896729,9.785193,108.3,5.845,1.85,335.95,54.896885,9.784269,54.895069,9.793790
1386941839,1,0,468.4,0,0,4,0,870,900,-0.0292,108.1588,6.8213,0.4212,54.896725,9.785223,108.3,5.845,1.85,335.95,54.896885,9.784269,54.895069,9.793790
1386941839,1,0,468.5,0,0,0,0,870,850,-0.0292,108.1588,6.8213,0.4212,54.896717,9.785253,108.3,5.845,1.85,335.95,54.896885,9.784269,54.895069,9.793790
1386941839,1,0,468.4,0,0,4,0,870,900,-0.0292,108.1588,6.8213,0.4212,54.896709,9.785282,108.3,5.845,1.85,335.95,54.896885,9.784269,54.895069,9.793790
1386941840,1,0,468.4,0,0,0,0,870,850,-0.0292,108.1588,6.8213,0.4212,54.896706,9.785312,108.3,5.845,1.85,335.95,54.896885,9.784269,54.895069,9.793790
1386941840,1,0,468.4,0,0,4,0,870,900,-0.0292,108.1588,6.8213,0.4212,54.896702,9.785341,108.3,5.845,1.85,335.95,54.896885,9.784269,54.895069,9.793790
1386941840,1,0,468.5,0,0,0,0,870,850,-0.0292,108.1588,6.8213,0.4212,54.896694,9.785372,108.3,5.845,1.85,335.95,54.896885,9.784269,54.895069,9.793790
1386941840,1,0,468.5,0,0,4,0,870,900,-0.0292,108.1588,6.8213,0.4212,54.896687,9.785401,108.3,5.845,1.85,335.95,54.896885,9.784269,54.895069,9.793790
1386941841,1,0,468.4,0,0,0,0,870,850,-0.0292,108.1588,6.8213,0.4212,54.896683,9.785431,108.3,5.845,1.85,335.95,54.896885,9.784269,54.895069,9.793790
1386941841,1,0,468.4,0,0,4,0,870,900,-0.0292,108.1588,6.8213,0.4212,54.896679,9.785460,108.3,5.845,1.85,335.95,54.896885,9.784269,54.895069,9.793790
1386941841,1,0,468.5,0,0,0,0,870,850,-0.0292,108.1588,6.8213,0.4212,54.896671,9.785490,108.3,5.845,1.85,335.95,54.896885,9.784269,54.895069,9.793790
1386941841,1,0,468.4,0,0,4,0,870,900,-0.0292,108.1588,6.8213,0.4212,54.896664,9.785520,108.3,5.845,1.85,335.95,54.896885,9.784269,54.895069,9.793790
1386941842,1,0,468.4,0,0,0,0,870,850,-0.0292,108.1588,6.8213,0.4212,54.896660,9.785549,108.3,5.845,1.85,335.95,54.896885,9.784269,54.895069,9.793790
1386941842,1,0,468.4,0,0,4,0,870,900,-0.0292,108.1588,6.8213,0.4212,54.896656,9.785579,108.3,5.845,1.85,335.95,54.896885,9.784269,54.895069,9.793790
1386941842,1,0,468.5,0,0,0,0,870,850,-0.0292,108.1588,6.8213,0.4212,54.896652,9.785608,108.3,5.845,1.85,335.95,54.896885,9.784269,54.895069,9.793790
1386941843,1,0,468.5,0,0,4,0,870,900,-0.0292,108.1588,6.8213,0.4212,54.896645,9.785638,108.3,5.845,1.85,335.95,54.896885,9.784269,54.895069,9.793790
1386941843,1,0,468.5,0,0,0,0,870,850,-0.0292,108.1588,6.8213,0.4212,54.896637,9.785667,108.3,5.845,1.85,335.95,54.896885,9.784269,54.895069,9.793790
1386941843,1,0,468.4,0,0,4,0,870,900,-0.0292,108.1588,6.8213,0.4212,54.896633,9.785697,108.3,5.845,1.85,335.95,54.896885,9.784269,54.895069,9.793790
1386941843,1,0,468.5,0,0,0,0,870,850,-0.0292,108.1588,6.8213,0.4212,54.896629,9.785727,108.3,5.845,1.85,335.95,54.896885,9.784269,54.895069,9.793790
1386941844,1,0,468.5,0,0,4,0,870,900,-0.0292,108.1588,6.8213,0.4212,54.896622,9.785757,108.3,5.845,1.85,335.95,54.896885,9.784269,54.895069,9.793790
1386941844,1,0,468.5,0,0,0,0,870,850,-0.0292,108.1588,6.8213,0.4212,54.896614,9.785787,108.3,5.845,1.85,335.95,54.896885,9.784269,54.895069,9.793790
1386941844,1,0,468.4,0,0,4,0,870,900,-0.0292,108.1588,6.8213,0.4212,54.896610,9.785816,108.3,5.845,1.85,335.95,54.896885,9.784269,54.895069,9.793790
1386941844,1,0,468.5,0,0,0,0,870,850,-0.0292,108.1588,6.8213,0.4212,54.896606,9.785846,108.3,5.845,1.85,335.95,54.896885,9.784269,54.895069,9.793790
1386941845,1,0,468.5,0,0,4,0,870,900,-0.0292,108.1588,6.8213,0.4212,54.896603,9.785875,108.3,5.845,1.85,335.95,54.896885,9.784269,54.895069,9.793790
1386941845,1,0,468.5,0,0,0,0,870,850,-0.0292,108.1588,6.8213,0.4212,54.896595,9.785905,108.3,5.845,1.85,335.95,54.896885,9.784269,54.895069,9.793790
1386941845,1,0,468.5,0,0,4,0,870,900,-0.0292,108.1588,6.8213,0.4212,54.896587,9.785934,108.3,5.845,1.85,335.95,54.896885,9.784269,54.895069,9.793790
1386941845,1,0,468.5,0,0,0,0,870,850,-0.0292,108.1588,6.8213,0.4212,54.896584,9.785964,108.3,5.845,1.85,335.95,54.896885,9.784269,54.895069,9.793790
1386941846,1,0,468.5,0,0,4,0,870,900,-0.0292,108.1588,6.8213,0.4212,54.896580,9.785994,108.3,5.845,1.85,335.95,54.896885,9.784269,54.895069,9.793790
1386941846,1,0,468.5,0,0,0,0,870,850,-0.0292,108.1588,6.8213,0.4212,54.896572,9.786023,108.3,5.845,1.85,335.95,54.896885,9.784269,54.895069,9.793790
1386941846,1,0,468.5,0,0,4,0,870,900,-0.0292,108.1588,6.8213,0.4212,54.896564,9.786053,108.3,5.845,1.85,335.95,54.896885,9.784269,54.895069,9.793790
1386941846,1,0,468.5,0,0,0,0,870,850,-0.0292,108.1588,6.8213,0.4212,54.896561,9.786082,108.3,5.845,1.85,335.95,54.896885,9.784269,54.895069,9.793790
1386941847,1,0,468.5,0,0,4,0,870,900,-0.0292,108.1588,6.8213,0.4212,54.896557,9.786112,108.3,5.845,1.85,335.95,54.896885,9.784269,54.895069,9.793790
1386941847,1,0,468.5,0,0,0,0,870,850,-0.0292,108.1588,6.8213,0.4212,54.896553,9.786142,108.3,5.845,1.85,335.95,54.896885,9.784269,54.895069,9.793790
1386941847,1,0,468.5,0,0,4,0,870,900,-0.0292,108.1588,6.8213,0.4212,54.896545,9.786172,108.3,5.845,1.85,335.95,54.896885,9.784269,54.895069,9.793790
1386941847,1,0,468.5,0,0,0,0,870,850,-0.0292,108.1588,6.8213,0.4212,54.896538,9.786201,108.3,5.845,1.85,335.95,54.896885,9.784269,54.895069,9.793790
1386941848,1,0,468.5,0,0,4,0,870,900,-0.0292,108.1588,6.8213,0.4212,54.896534,9.786231,108.3,5.845,1.85,335.95,54.896885,9.784269,54.895069,9.793790
1386941848,1,0,468.5,0,0,0,0,870,850,-0.0292,108.1588,6.8213,0.4212,54.896530,9.786261,108.3,5.845,1.85,335.95,54.896885,9.784269,54.895069,9.793790
1386941848,1,0,468.5,0,0,4,0,870,900,-0.0292,108.1588,6.8213,0.4212,54.896523,9.786290,108.3,5.845,1.85,335.95,54.896885,9.784269,54.895069,9.793790
1386941848,1,0,468.5,0,0,0,0,870,850,-0.0292,108.1588,6.8213,0.4212,54.896515,9.786320,108.3,5.845,1.85,335.95,54.896885,9.784269,54.895069,9.793790
1386941849,1,0,468.5,0,0,4,0,870,900,-0.0292,108.1588,6.8213,0.4212,54.896511,9.786349,108.3,5.845,1.85,335.95,54.896885,9.784269,54.895069,9.793790
1386941849,1,0,468.5,0,0,0,0,870,850,-0.0292,108.1588,6.8213,0.4212,54.896507,9.786379,108.3,5.845,1.85,335.95,54.896885,9.784269,54.895069,9.793790
1386941849,1,0,468.5,0,0,4,0,870,900,-0.0292,108.1588,6.8213,0.4212,54.896503,9.786408,108.3,5.845,1.85,335.95,54.896885,9.784269,54.895069,9.793790
1386941849,1,0,468.6,0,0,0,0,870,850,-0.0292,108.1588,6.8213,0.4212,54.896496,9.786438,108.3,5.845,1.85,335.95,54.896885,9.784269,54.895069,9.793790
1386941850,1,0,468.5,0,0,4,0,870,900,-0.0292,108.1588,6.8213,0.4212,54.896488,9.786468,108.3,5.845,1.85,335.95,54.896885,9.784269,54.895069,9.793790
1386941850,1,0,468.5,0,0,0,0,870,850,-0.0292,108.1588,6.8213,0.4212,54.896484,9.786497,108.3,5.845,1.85,335.95,54.896885,9.784269,54.895069,9.793790
1386941850,1,0,468.5,0,0,4,0,870,900,-0.0292,108.1588,6.8213,0.4212,54.896481,9.786528,108.3,5.845,1.85,335.95,54.896885,9.784269,54.895069,9.793790
1386941850,1,0,468.6,0,0,0,0,870,850,-0.0292,108.1588,6.8213,0.4212,54.896473,9.786557,108.3,5.845,1.85,335.95,54.896885,9.784269,54.895069,9.793790
1386941851,1,0,468.5,0,0,4,0,870,900,-0.0292,108.1588,6.8213,0.4212,54.896465,9.786587,108.3,5.845,1.85,335.95,54.896885,9.784269,54.895069,9.793790
1386941851,1,0,468.5,0,0,0,0,870,850,-0.0292,108.1588,6.8213,0.4212,54.896461,9.786617,108.3,5.845,1.85,335.95,54.896885,9.784269,54.895069,9.793790
1386941851,1,0,468.5,0,0,4,0,870,900,-0.0292,108.1588,6.8213,0.4212,54.896458,9.786647,108.3,5.845,1.85,335.95,54.896885,9.784269,54.895069,9.793790
1386941851,1,0,468.6,0,0,0,0,870,850,-0.0292,108.1588,6.8213,0.4212,54.896450,9.786676,108.3,5.845,1.85,335.95,54.896885,9.784269,54.895069,9.793790
1386941852,1,0,468.5,0,0,4,0,870,900,-0.0292,108.1588,6.8213,0.4212,54.896442,9.786706,108.3,5.845,1.85,335.95,54.896885,9.784269,54.895069,9.793790
1386941852,1,0,468.5,0,0,0,0,870,850,-0.0292,108.1588,6.8213,0.4212,54.896439,9.786736,108.3,5.845,1.85,335.95,54.896885,9.784269,54.895069,9.793790
1386941852,1,0,468.5,0,0,4,0,870,900,-0.0292,108.1588,6.8213,0.4212,54.896435,9.786765,108.3,5.845,1.85,335.95,54.896885,9.784269,54.895069,9.793790
1386941852,1,0,468.6,0,0,0,0,870,850,-0.0292,108.1588,6.8213,0.4212,54.896431,9.786795,108.3,5.845,1.85,335.95,54.896885,9.784269,54.895069,9.793790
1386941853,1,0,468.6,0,0,4,0,870,900,-0.0292,108.1588,6.8213,0.4212,54.896423,9.786824,108.3,5.845,1.85,335.95,54.896885,9.784269,54.895069,9.793790
1386941853,1,0,468.6,0,0,0,0,870,850,-0.0292,108.1588,6.8213,0.4212,54.896416,9.786854,108.3,5.845,1.85,335.95,54.896885,9.784269,54.895069,9.793790
1386941853,1,0,468.5,0,0,4,0,870,900,-0.0292,108.1588,6.8213,0.4212,54.896412,9.786883,108.3,5.845,1.85,335.95,54.896885,9.784269,54.895069,9.793790
1386941853,1,0,468.6,0,0,0,0,870,850,-0.0292,108.1588,6.8213,0.4212,54.896408,9.786914,108.3,5.845,1.85,335.95,54.896885,9.784269,54.895069,9.793790
1386941854,1,0,468.6,0,0,4,0,870,900,-0.0292,108.1588,6.8213,0.4212,54.896400,9.786943,108.3,5.845,1.85,335.95,54.896885,9.784269,54.895069,9.793790
1386941854,1,0,468.6,0,0,0,0,870,850,-0.0292,108.1588,6.8213,0.4212,54.896393,9.786973,108.3,5.845,1.85,335.95,54.896885,9.784269,54.895069,9.793790
1386941854,1,0,468.6,0,0,4,0,870,900,-0.0292,108.1588,6.8213,0.4212,54.896389,9.787003,108.3,5.845,1.85,335.95,54.896885,9.784269,54.895069,9.793790
1386941854,1,0,468.6,0,0,0,0,870,850,-0.0292,108.1588,6.8213,0.4212,54.896385,9.787032,108.3,5.845,1.85,335.95,54.896885,9.784269,54.895069,9.793790
1386941855,1,0,468.6,0,0,4,0,870,900,-0.0292,108.1588,6.8213,0.4212,54.896381,9.787062,108.3,5.845,1.85,335.95,54.896885,9.784269,54.895069,9.793790
1386941855,1,0,468.6,0,0,0,0,870,850,-0.0292,108.1588,6.8213,0.4212,54.896374,9.787091,108.3,5.845,1.85,335.95,54.896885,9.784269,54.895069,9.793790
1386941855,1,0,468.6,0,0,4,0,870,900,-0.0292,108.1588,6.8213,0.4212,54.896366,9.787121,108.3,5.845,1.85,335.95,54.896885,9.784269,54.895069,9.793790
1386941855,1,0,468.6,0,0,0,0,870,850,-0.0292,108.1588,6.8213,0.4212,54.896362,9.787150,108.3,5.845,1.85,335.95,54.896885,9.784269,54.895069,9.793790
1386941856,1,0,468.6,0,0,4,0,870,900,-0.0292,108.1588,6.8213,0.4212,54.896358,9.787180,108.3,5.845,1.85,335.95,54.896885,9.784269,54.895069,9.793790
1386941856,1,0,468.6,0,0,0,0,870,850,-0.0292,108.1588,6.8213,0.4212,54.896351,9.787210,108.3,5.845,1.85,335.95,54.896885,9.784269,54.895069,9.793790
1386941856,1,0,468.6,0,0,4,0,870,900,-0.0292,108.1588,6.8213,0.4212,54.896343,9.787239,108.3,5.845,1.85,335.95,54.896885,9.784269,54.895069,9.793790
1386941856,1,0,468.6,0,0,0,0,870,850,-0.0292,108.1588,6.8213,0.4212,54.896339,9.787269,108.3,5.845,1.85,335.95,54.896885,9.784269,54.895069,9.793790
1386941857,1,0,468.6,0,0,4,0,870,900,-0.0292,108.1588,6.8213,0.4212,54.896336,9.787299,108.3,5.845,1.85,335.95,54.896885,9.784269,54.895069,9.793790
1386941857,1,0,468.6,0,0,0,0,870,850,-0.0292,108.1588,6.8213,0.4212,54.896332,9.787329,108.3,5.845,1.85,335.95,54.896885,9.784269,54.895069,9.793790
1386941857,1,0,468.7,0,-1,-4,0,870,900,-0.0292,108.4255,6.8213,0.4212,54.896324,9.787358,108.3,5.845,1.85,335.95,54.896885,9.784269,54.895069,9.793790
1386941857,1,0,468.6,0,0,0,0,870,850,-0.0292,108.4255,6.8213,0.4212,54.896317,9.787389,108.3,5.845,1.85,335.95,54.896885,9.784269,54.895069,9.793790
1386941858,1,0,468.6,0,0,4,0,870,900,-0.0292,108.4255,6.8213,0.4212,54.896313,9.787418,108.3,5.845,1.85,335.95,54.896885,9.784269,54.895069,9.793790
1386941858,1,0,468.6,0,0,0,0,870,850,-0.0292,108.4255,6.8213,0.4212,54.896309,9.787448,108.3,5.845,1.85,335.95,54.896885,9.784269,54.895069,9.793790
1386941858,1,0,468.7,0,0,4,0,870,900,-0.0292,108.4255,6.8213,0.4212,54.896301,9.787477,108.3,5.845,1.85,335.95,54.896885,9.784269,54.895069,9.793790
1386941858,1,0,468.6,0,0,0,0,870,850,-0.0292,108.4255,6.8213,0.4212,54.896294,9.787507,108.3,5.845,1.85,335.95,54.896885,9.784269,54.895069,9.793790
1386941859,1,0,468.6,0,0,4,0,870,900,-0.0292,108.4255,6.8213,0.4212,54.896290,9.787537,108.3,5.845,1.85,335.95,54.896885,9.784269,54.895069,9.793790
1386941859,1,0,468.6,0,0,0,0,870,850,-0.0292,108.4255,6.8213,0.4212,54.896286,9.787566,108.3,5.845,1.85,335.95,54.896885,9.784269,54.895069,9.793790
1386941859,1,0,468.7,0,0,4,0,870,900,-0.0292,108.4255,6.8213,0.4212,54.896278,9.787596,108.3,5.845,1.85,335.95,54.896885,9.784269,54.895069,9.793790
1386941859,1,0,468.6,0,0,0,0,870,850,-0.0292,108.4255,6.8213,0.4212,54.896271,9.787625,108.3,5.845,1.85,335.95,54.896885,9.784269,54.895069,9.793790
1386941860,1,0,468.6,0,0,4,0,870,900,-0.0292,108.4255,6.8213,0.4212,54.896267,9.787655,108.3,5.845,1.85,335.95,54.896885,9.784269,54.895069,9.793790
1386941860,1,0,468.6,0,0,0,0,870,850,-0.0292,108.4255,6.8213,0.4212,54.896263,9.787684,108.3,5.845,1.85,335.95,54.896885,9.784269,54.895069,9.793790
1386941860,1,0,468.7,0,0,4,0,870,900,-0.0292,108.4255,6.8213,0.4212,54.896259,9.787714,108.3,5.845,1.85,335.95,54.896885,9.784269,54.895069,9.793790
1386941860,1,0,468.7,0,0,0,0,870,850,-0.0292,108.4255,6.8213,0.4212,54.896252,9.787744,108.3,5.845,1.85,335.95,54.896885,9.784269,54.895069,9.793790
1386941861,1,0,468.7,0,0,4,0,870,900,-0.0292,108.4255,6.8213,0.4212,54.896244,9.787774,108.3,5.845,1.85,335.95,54.896885,9.784269,54.895069,9.793790
1386941861,1,0,468.7,0,0,0,0,870,850,-0.0292,108.4255,6.8213,0.4212,54.896240,9.787804,108.3,5.845,1.85,335.95,54.896885,9.784269,54.895069,9.793790
1386941861,1,0,468.7,0,0,4,0,870,900,-0.0292,108.4255,6.8213,0.4212,54.896236,9.787833,108.3,5.845,1.85,335.95,54.896885,9.784269,54.895069,9.793790
1386941861,1,0,468.7,0,0,0,0,870,850,-0.0292,108.4255,6.8213,0.4212,54.896229,9.787863,108.3,5.845,1.85,335.95,54.896885,9.784269,54.895069,9.793790
1386941862,1,0,468.7,0,0,4,0,870,900,-0.0292,108.4255,6.8213,0.4212,54.896221,9.787892,108.3,5.845,1.85,335.95,54.896885,9.784269,54.895069,9.793790
1386941862,1,0,468.7,0,0,0,0,870,850,-0.0292,108.4255,6.8213,0.4212,54.896217,9.787922,108.3,5.845,1.85,335.95,54.896885,9.784269,54.895069,9.793790
1386941862,1,0,468.7,0,0,4,0,870,900,-0.0292,108.4255,6.8213,0.4212,54.896214,9.787951,108.3,5.845,1.85,335.95,54.896885,9.784269,54.895069,9.793790
1386941862,1,0,468.7,0,0,0,0,870,850,-0.0292,108.4255,6.8213,0.4212,54.896210,9.787981,108.3,5.845,1.85,335.95,54.896885,9.784269,54.895069,9.793790
1386941863,1,0,468.7,0,0,4,0,870,900,-0.0292,108.4255,6.8213,0.4212,54.896202,9.788011,108.3,5.845,1.85,335.95,54.896885,9.784269,54.895069,9.793790
1386941863,1,0,468.7,0,0,0,0,870,850,-0.0292,108.4255,6.8213,0.4212,54.896194,9.788040,108.3,5.845,1.85,335.95,54.896885,9.784269,54.895069,9.793790
1386941863,1,0,468.7,0,0,4,0,870,900,-0.0292,108.4255,6.8213,0.4212,54.896191,9.788070,108.3,5.845,1.85,335.95,54.896885,9.784269,54.895069,9.793790
1386941863,1,0,468.7,0,0,0,0,870,850,-0.0292,108.4255,6.8213,0.4212,54.896187,9.788099,108.3,5.845,1.85,335.95,54.896885,9.784269,54.895069,9.793790
1386941864,1,0,468.7,0,0,4,0,870,900,-0.0292,108.4255,6.8213,0.4212,54.896179,9.788129,108.3,5.845,1.85,335.95,54.896885,9.784269,54.895069,9.793790
1386941864,1,0,468.7,0,0,0,0,870,850,-0.0292,108.4255,6.8213,0.4212,54.896172,9.788159,108.3,5.845,1.85,335.95,54.896885,9.784269,54.895069,9.793790
1386941864,1,0,468.7,0,0,4,0,870,900,-0.0292,108.4255,6.8213,0.4212,54.896168,9.788189,108.3,5.845,1.85,335.95,54.896885,9.784269,54.895069,9.793790
1386941864,1,0,468.7,0,0,0,0,870,850,-0.0292,108.4255,6.8213,0.4212,54.896164,9.788218,108.3,5.845,1.85,335.95,54.896885,9.784269,54.895069,9.793790
1386941865,1,0,468.8,0,0,4,0,870,900,-0.0292,108.4255,6.8213,0.4212,54.896160,9.788248,108.3,5.845,1.85,335.95,54.896885,9.784269,54.895069,9.793790
1386941865,1,0,468.8,0,0,0,0,870,850,-0.0292,108.4255,6.8213,0.4212,54.896152,9.788278,108.3,5.845,1.85,335.95,54.896885,9.784269,54.895069,9.793790
1386941865,1,0,468.8,0,0,4,0,870,900,-0.0292,108.4255,6.8213,0.4212,54.896145,9.788307,108.3,5.845,1.85,335.95,54.896885,9.784269,54.895069,9.793790
1386941865,1,0,468.7,0,0,0,0,870,850,-0.0292,108.4255,6.8213,0.4212,54.896141,9.788337,108.3,5.845,1.85,335.95,54.896885,9.784269,54.895069,9.793790
1386941866,1,0,468.8,0,0,4,0,870,900,-0.0292,108.4255,6.8213,0.4212,54.896137,9.788366,108.3,5.845,1.85,335.95,54.896885,9.784269,54.895069,9.793790
1386941866,1,0,468.8,0,0,0,0,870,850,-0.0292,108.4255,6.8213,0.4212,54.896130,9.788396,108.3,5.845,1.85,335.95,54.896885,9.784269,54.895069,9.793790
1386941866,1,0,468.8,0,0,4,0,870,900,-0.0292,108.4255,6.8213,0.4212,54.896122,9.788425,108.3,5.845,1.85,335.95,54.896885,9.784269,54.895069,9.793790
1386941866,1,0,468.7,0,0,0,0,870,850,-0.0292,108.4255,6.8213,0.4212,54.896118,9.788455,108.3,5.845,1.85,335.95,54.896885,9.784269,54.895069,9.793790
1386941867,1,0,468.8,0,0,4,0,870,900,-0.0292,108.4255,6.8213,0.4212,54.896114,9.788485,108.3,5.845,1.85,335.95,54.896885,9.784269,54.895069,9.793790
1386941867,1,0,468.8,0,0,0,0,870,850,-0.0292,108.4255,6.8213,0.4212,54.896111,9.788514,108.3,5.845,1.85,335.95,54.896885,9.784269,54.895069,9.793790
1386941867,1,0,468.8,0,0,4,0,870,900,-0.0292,108.4255,6.8213,0.4212,54.896103,9.788545,108.3,5.845,1.85,335.95,54.896885,9.784269,54.895069,9.793790
1386941867,1,0,468.8,0,0,0,0,870,850,-0.0292,108.4255,6.8213,0.4212,54.896095,9.788574,108.3,5.845,1.85,335.95,54.896885,9.784269,54.895069,9.793790
1386941868,1,0,468.8,0,0,4,0,870,900,-0.0292,108.4255,6.8213,0.4212,54.896091,9.788604,108.3,5.845,1.85,335.95,54.896885,9.784269,54.895069,9.793790
1386941868,1,0,468.8,0,0,0,0,870,850,-0.0292,108.4255,6.8213,0.4212,54.896088,9.788633,108.3,5.845,1.85,335.95,54.896885,9.784269,54.895069,9.793790
1386941868,1,0,468.8,0,0,4,0,870,900,-0.0292,108.4255,6.8213,0.4212,54.896080,9.788663,108.3,5.845,1.85,335.95,54.896885,9.784269,54.895069,9.793790
1386941869,1,0,468.8,0,0,0,0,870,850,-0.0292,108.4255,6.8213,0.4212,54.896072,9.788692,108.3,5.845,1.85,335.95,54.896885,9.784269,54.895069,9.793790
1386941869,1,0,468.8,0,0,4,0,870,900,-0.0292,108.4255,6.8213,0.4212,54.896069,9.788722,108.3,5.845,1.85,335.95,54.896885,9.784269,54.895069,9.793790
1386941869,1,0,468.8,0,0,0,0,870,850,-0.0292,108.4255,6.8213,0.4212,54.896065,9.788752,108.3,5.845,1.85,335.95,54.896885,9.784269,54.895069,9.793790
1386941869,1,0,468.9,0,0,4,0,870,900,-0.0292,108.4255,6.8213,0.4212,54.896057,9.788781,108.3,5.845,1.85,335.95,54.896885,9.784269,54.895069,9.793790
1386941870,1,0,468.8,0,0,0,0,870,850,-0.0292,108.4255,6.8213,0.4212,54.896049,9.788811,108.3,5.845,1.85,335.95,54.896885,9.784269,54.895069,9.793790
1386941870,1,0,468.8,0,0,4,0,870,900,-0.0292,108.4255,6.8213,0.4212,54.896046,9.788840,108.3,5.845,1.85,335.95,54.896885,9.784269,54.895069,9.793790
1386941870,1,0,468.8,0,0,0,0,870,850,-0.0292,108.4255,6.8213,0.4212,54.896042,9.788870,108.3,5.845,1.85,335.95,54.896885,9.784269,54.895069,9.793790
1386941870,1,0,468.9,0,0,4,0,870,900,-0.0292,108.4255,6.8213,0.4212,54.896038,9.788899,108.3,5.845,1.85,335.95,54.896885,9.784269,54.895069,9.793790
1386941871,1,0,468.9,0,0,0,0,870,850,-0.0292,108.4255,6.8213,0.4212,54.896030,9.788930,108.3,5.845,1.85,335.95,54.896885,9.784269,54.895069,9.793790
1386941871,1,0,468.9,0,0,4,0,870,900,-0.0292,108.4255,6.8213,0.4212,54.896023,9.788960,108.3,5.845,1.85,335.95,54.896885,9.784269,54.895069,9.793790
1386941871,1,0,468.8,0,0,0,0,870,850,-0.0292,108.4255,6.8213,0.4212,54.896019,9.788989,108.3,5.845,1.85,335.95,54.896885,9.784269,54.895069,9.793790
1386941871,1,0,468.9,0,0,4,0,870,900,-0.0292,108.4255,6.8213,0.4212,54.896015,9.789019,108.3,5.845,1.85,335.95,54.896885,9.784269,54.895069,9.793790
1386941872,1,0,468.9,0,0,0,0,870,850,-0.0292,108.4255,6.8213,0.4212,54.896008,9.789048,108.3,5.845,1.85,335.95,54.896885,9.784269,54.895069,9.793790
1386941872,1,0,468.9,0,0,4,0,870,900,-0.0292,108.4255,6.8213,0.4212,54.896000,9.789078,108.3,5.845,1.85,335.95,54.896885,9.784269,54.895069,9.793790
1386941872,1,0,468.8,0,0,0,0,870,850,-0.0292,108.4255,6.8213,0.4212,54.895996,9.789107,108.3,5.845,1.85,335.95,54.896885,9.784269,54.895069,9.793790
1386941872,1,0,468.9,0,0,4,0,870,900,-0.0292,108.4255,6.8213,0.4212,54.895992,9.789137,108.3,5.845,1.85,335.95,54.896885,9.784269,54.895069,9.793790
1386941873,1,0,468.9,0,-1,0,0,870,850,-0.0292,108.6922,6.8213,0.4212,54.895988,9.789166,108.3,5.845,1.85,335.95,54.896885,9.784269,54.895069,9.793790
1386941873,1,0,469.0,0,0,4,0,870,900,-0.0292,108.6922,6.8213,0.4212,54.895981,9.789196,108.3,5.845,1.85,335.95,54.896885,9.784269,54.895069,9.793790
1386941873,1,0,468.9,0,0,0,0,870,850,-0.0292,108.6922,6.8213,0.4212,54.895973,9.789226,108.3,5.845,1.85,335.95,54.896885,9.784269,54.895069,9.793790
1386941873,1,0,468.9,0,0,4,0,870,900,-0.0292,108.6922,6.8213,0.4212,54.895969,9.789255,108.3,5.845,1.85,335.95,54.896885,9.784269,54.895069,9.793790
1386941874,1,0,468.9,0,0,0,0,870,850,-0.0292,108.6922,6.8213,0.4212,54.895966,9.789285,108.3,5.845,1.85,335.95,54.896885,9.784269,54.895069,9.793790
1386941874,1,0,469.0,0,0,4,0,870,900,-0.0292,108.6922,6.8213,0.4212,54.895958,9.789314,108.3,5.845,1.85,335.95,54.896885,9.784269,54.895069,9.793790
1386941874,1,0,468.9,0,0,0,0,870,850,-0.0292,108.6922,6.8213,0.4212,54.895950,9.789344,108.3,5.845,1.85,335.95,54.896885,9.784269,54.895069,9.793790
1386941874,1,0,468.9,0,0,4,0,870,900,-0.0292,108.6922,6.8213,0.4212,54.895947,9.789373,108.3,5.845,1.85,335.95,54.896885,9.784269,54.895069,9.793790
1386941875,1,0,468.9,0,0,0,0,870,850,-0.0292,108.6922,6.8213,0.4212,54.895943,9.789402,108.3,5.845,1.85,335.95,54.896885,9.784269,54.895069,9.793790
1386941875,1,0,469.0,0,0,4,0,870,900,-0.0292,108.6922,6.8213,0.4212,54.895939,9.789432,108.3,5.845,1.85,335.95,54.896885,9.784269,54.895069,9.793790
1386941875,1,0,469.0,0,0,0,0,870,850,-0.0292,108.6922,6.8213,0.4212,54.895931,9.789461,108.3,5.845,1.85,335.95,54.896885,9.784269,54.895069,9.793790
1386941875,1,0,469.0,0,0,4,0,870,900,-0.0292,108.6922,6.8213,0.4212,54.895924,9.789491,108.3,5.845,1.85,335.95,54.896885,9.784269,54.895069,9.793790
1386941876,1,0,469.0,0,0,0,0,870,850,-0.0292,108.6922,6.8213,0.4212,54.895920,9.789520,108.3,5.845,1.85,335.95,54.896885,9.784269,54.895069,9.793790
1386941876,1,0,469.0,0,0,4,0,870,900,-0.0292,108.6922,6.8213,0.4212,54.895916,9.789550,108.3,5.845,1.85,335.95,54.896885,9.784269,54.895069,9.793790
1386941876,1,0,469.0,0,0,0,0,870,850,-0.0292,108.6922,6.8213,0.4212,54.895908,9.789579,108.3,5.845,1.85,335.95,54.896885,9.784269,54.895069,9.793790
1386941876,1,0,469.0,0,0,4,0,870,900,-0.0292,108.6922,6.8213,0.4212,54.895901,9.789609,108.3,5.845,1.85,335.95,54.896885,9.784269,54.895069,9.793790
1386941877,1,0,469.0,0,0,0,0,870,850,-0.0292,108.6922,6.8213,0.4212,54.895897,9.789639,108.3,5.845,1.85,335.95,54.896885,9.784269,54.895069,9.793790
1386941877,1,0,469.0,0,0,4,0,870,900,-0.0292,108.6922,6.8213,0.4212,54.895893,9.789668,108.3,5.845,1.85,335.95,54.896885,9.784269,54.895069,9.793790
1386941877,1,0,469.1,0,0,0,0,870,850,-0.0292,108.6922,6.8213,0.4212,54.895885,9.789698,108.3,5.845,1.85,335.95,54.896885,9.784269,54.895069,9.793790
1386941877,1,0,469.0,0,0,4,0,870,900,-0.0292,108.6922,6.8213,0.4212,54.895878,9.789727,108.3,5.845,1.85,335.95,54.896885,9.784269,54.895069,9.793790
1386941878,1,0,469.0,0,0,0,0,870,850,-0.0292,108.6922,6.8213,0.4212,54.895874,9.789757,108.3,5.845,1.85,335.95,54.896885,9.784269,54.895069,9.793790
1386941878,1,0,469.0,0,0,4,0,870,900,-0.0292,108.6922,6.8213,0.4212,54.895870,9.789786,108.3,5.845,1.85,335.95,54.896885,9.784269,54.895069,9.793790
1386941878,1,0,469.1,0,0,0,0,870,850,-0.0292,108.6922,6.8213,0.4212,54.895866,9.789816,108.3,5.845,1.85,335.95,54.896885,9.784269,54.895069,9.793790
1386941878,1,0,469.1,0,0,4,0,870,900,-0.0292,108.6922,6.8213,0.4212,54.895859,9.789845,108.3,5.845,1.85,335.95,54.896885,9.784269,54.895069,9.793790
1386941879,1,0,469.1,0,0,0,0,870,850,-0.0292,108.6922,6.8213,0.4212,54.895851,9.789875,108.3,5.845,1.85,335.95,54.896885,9.784269,54.895069,9.793790
1386941879,1,0,469.0,0,0,4,0,870,900,-0.0292,108.6922,6.8213,0.4212,54.895847,9.789905,108.3,5.845,1.85,335.95,54.896885,9.784269,54.895069,9.793790
1386941879,1,0,469.1,0,0,0,0,870,850,-0.0292,108.6922,6.8213,0.4212,54.895844,9.789934,108.3,5.845,1.85,335.95,54.896885,9.784269,54.895069,9.793790
1386941879,1,0,469.1,0,0,4,0,870,900,-0.0292,108.6922,6.8213,0.4212,54.895836,9.789964,108.3,5.845,1.85,335.95,54.896885,9.784269,54.895069,9.793790
1386941880,1,0,469.1,0,0,0,0,870,850,-0.0292,108.6922,6.8213,0.4212,54.895828,9.789993,108.3,5.845,1.85,335.95,54.896885,9.784269,54.895069,9.793790
1386941880,1,0,469.1,0,0,4,0,870,900,-0.0292,108.6922,6.8213,0.4212,54.895824,9.790023,108.3,5.845,1.85,335.95,54.896885,9.784269,54.895069,9.793790
1386941880,1,0,469.1,0,0,0,0,870,850,-0.0292,108.6922,6.8213,0.4212,54.895821,9.790052,108.3,5.845,1.85,335.95,54.896885,9.784269,54.895069,9.793790
1386941880,1,0,469.2,0,0,4,0,870,900,-0.0292,108.6922,6.8213,0.4212,54.895817,9.790082,108.3,5.845,1.85,335.95,54.896885,9.784269,54.895069,9.793790
1386941881,1,0,469.2,0,-1,0,0,870,850,-0.0292,108.9589,6.8213,0.4212,54.895809,9.790112,108.3,5.845,1.85,335.95,54.896885,9.784269,54.895069,9.793790
1386941881,1,0,469.2,0,0,4,0,870,900,-0.0292,108.9589,6.8213,0.4212,54.895802,9.790141,108.3,5.845,1.85,335.95,54.896885,9.784269,54.895069,9.793790
1386941881,1,0,469.1,0,0,0,0,870,850,-0.0292,108.9589,6.8213,0.4212,54.895798,9.790171,108.3,5.845,1.85,335.95,54.896885,9.784269,54.895069,9.793790
1386941881,1,0,469.2,0,0,4,0,870,900,-0.0292,108.9589,6.8213,0.4212,54.895794,9.790200,108.3,5.845,1.85,335.95,54.896885,9.784269,54.895069,9.793790
1386941882,1,0,469.2,0,0,0,0,870,850,-0.0292,108.9589,6.8213,0.4212,54.895786,9.790230,108.3,5.845,1.85,335.95,54.896885,9.784269,54.895069,9.793790
1386941882,1,0,469.2,0,0,4,0,870,900,-0.0292,108.9589,6.8213,0.4212,54.895779,9.790259,108.3,5.845,1.85,335.95,54.896885,9.784269,54.895069,9.793790
1386941882,1,0,469.2,0,0,0,0,870,850,-0.0292,108.9589,6.8213,0.4212,54.895775,9.790289,108.3,5.845,1.85,335.95,54.896885,9.784269,54.895069,9.793790
1386941882,1,0,469.2,0,0,4,0,870,900,-0.0292,108.9589,6.8213,0.4212,54.895771,9.790318,108.3,5.845,1.85,335.95,54.896885,9.784269,54.895069,9.793790
1386941883,1,0,469.3,0,0,0,0,870,850,-0.0292,108.9589,6.8213,0.4212,54.895767,9.790347,108.3,5.845,1.85,335.95,54.896885,9.784269,54.895069,9.793790
1386941883,1,0,469.3,0,0,4,0,870,900,-0.0292,108.9589,6.8213,0.4212,54.895760,9.790377,108.3,5.845,1.85,335.95,54.896885,9.784269,54.895069,9.793790
1386941883,1,0,469.3,0,0,0,0,870,850,-0.0292,108.9589,6.8213,0.4212,54.895752,9.790406,108.3,5.845,1.85,335.95,54.896885,9.784269,54.895069,9.793790
