MCU_timestamp,Navigation_System,Manual_Control,Guidance_Heading,Manual_Ctrl_Rudder,Rudder_Desired_Angle,Rudder_Feedback,Manual_Ctrl_Sail,Sail_Desired_Pos,Sail_Feedback,Rate,Heading,Pitch,Roll,Latitude,Longitude,COG,SOG,Wind_Speed,Wind_Angle,Point_Start_Lat,Point_Start_Lon,Point_End_Lat,Point_End_Lon
1389977408,3,0,0.0,0,-35,-4,0,713,700,-0.0292,201.2922,6.8213,0.4212,54.891293,9.784046,108.3,5.845,1.85,335.95,0.000000,0.000000,54.891312,9.784057
1389977408,3,0,0.0,0,31,0,0,870,750,-0.0292,190.9589,6.8213,0.4212,54.891273,9.784040,108.3,5.845,1.85,335.95,0.000000,0.000000,54.891312,9.784057
1389977409,3,0,0.0,0,21,4,0,713,700,-0.0292,183.9589,6.8213,0.4212,54.891254,9.784039,108.3,5.845,1.85,335.95,0.000000,0.000000,54.891312,9.784057
1389977409,3,0,0.0,0,14,8,0,713,750,-0.0292,179.2922,6.8213,0.4212,54.891239,9.784039,108.3,5.845,1.85,335.95,0.000000,0.000000,54.891312,9.784057
1389977409,3,0,0.0,0,9,12,0,713,700,-0.0292,176.2922,6.8213,0.4212,54.891220,9.784040,108.3,5.845,1.85,335.95,0.000000,0.000000,54.891312,9.784057
1389977409,3,0,0.0,0,6,8,0,713,750,-0.0292,174.2922,6.8213,0.4212,54.891201,9.784043,108.3,5.845,1.85,335.95,0.000000,0.000000,54.891312,9.784057
1389977410,3,0,0.0,0,4,4,0,713,700,-0.0292,172.9589,6.8213,0.4212,54.891186,9.784047,108.3,5.845,1.85,335.95,0.000000,0.000000,54.891312,9.784057
1389977410,3,0,0.0,0,3,0,0,713,750,-0.0292,171.9589,6.8213,0.4212,54.891167,9.784052,108.3,5.845,1.85,335.95,0.000000,0.000000,54.891312,9.784057
1389977410,3,0,0.0,0,2,4,0,713,700,-0.0292,171.2922,6.8213,0.4212,54.891148,9.784057,108.3,5.845,1.85,335.95,0.000000,0.000000,54.891312,9.784057
1389977410,3,0,0.0,0,1,0,0,713,750,-0.0292,170.9589,6.8213,0.4212,54.891129,9.784062,108.3,5.845,1.85,335.95,0.000000,0.000000,54.891312,9.784057
1389977411,3,0,0.0,0,1,4,0,713,700,-0.0292,170.6255,6.8213,0.4212,54.891113,9.784067,108.3,5.845,1.85,335.95,0.000000,0.000000,54.891312,9.784057
1389977411,3,0,0.0,0,1,0,0,713,750,-0.0292,170.2922,6.8213,0.4212,54.891094,9.784072,108.3,5.845,1.85,335.95,0.000000,0.000000,54.891312,9.784057
1389977411,3,0,0.0,0,0,4,0,713,700,-0.0292,170.2922,6.8213,0.4212,54.891075,9.784077,108.3,5.845,1.85,335.95,0.000000,0.000000,54.891312,9.784057
1389977411,3,0,0.0,0,0,0,0,713,750,-0.0292,170.2922,6.8213,0.4212,54.891056,9.784081,108.3,5.845,1.85,335.95,0.000000,0.000000,54.891312,9.784057
1389977412,3,0,0.0,0,0,4,0,713,700,-0.0292,170.2922,6.8213,0.4212,54.891041,9.784087,108.3,5.845,1.85,335.95,0.000000,0.000000,54.891312,9.784057
1389977412,3,0,0.0,0,0,0,0,713,750,-0.0292,170.2922,6.8213,0.4212,54.891022,9.784093,108.3,5.845,1.85,335.95,0.000000,0.000000,54.891312,9.784057
1389977412,3,0,0.0,0,0,4,0,713,700,-0.0292,170.2922,6.8213,0.4212,54.891003,9.784099,108.3,5.845,1.85,335.95,0.000000,0.000000,54.891312,9.784057
1389977412,3,0,0.0,0,0,0,0,713,750,-0.0292,170.2922,6.8213,0.4212,54.890987,9.784104,108.3,5.845,1.85,335.95,0.000000,0.000000,54.891312,9.784057
1389977413,3,0,0.0,0,0,4,0,713,700,-0.0292,170.2922,6.8213,0.4212,54.890968,9.784109,108.3,5.845,1.85,335.95,0.000000,0.000000,54.891312,9.784057
1389977413,3,0,0.0,0,0,0,0,713,750,-0.0292,170.2922,6.8213,0.4212,54.890949,9.784114,108.3,5.845,1.85,335.95,0.000000,0.000000,54.891312,9.784057
1389977413,3,0,0.0,0,0,4,0,713,700,-0.0292,170.2922,6.8213,0.4212,54.890930,9.784119,108.3,5.845,1.85,335.95,0.000000,0.000000,54.891312,9.784057
1389977413,3,0,0.0,0,0,0,0,713,750,-0.0292,170.2922,6.8213,0.4212,54.890915,9.784123,108.3,5.845,1.85,335.95,0.000000,0.000000,54.891312,9.784057
1389977414,3,0,0.0,0,0,4,0,713,700,-0.0292,170.2922,6.8213,0.4212,54.890896,9.784129,108.3,5.845,1.85,335.95,0.000000,0.000000,54.891312,9.784057
1389977414,3,0,0.0,0,0,0,0,713,750,-0.0292,170.2922,6.8213,0.4212,54.890877,9.784135,108.3,5.845,1.85,335.95,0.000000,0.000000,54.891312,9.784057
1389977414,3,0,0.0,0,0,4,0,713,700,-0.0292,170.2922,6.8213,0.4212,54.890858,9.784141,108.3,5.845,1.85,335.95,0.000000,0.000000,54.891312,9.784057
1389977414,3,0,0.0,0,0,0,0,713,750,-0.0292,170.2922,6.8213,0.4212,54.890842,9.784146,108.3,5.845,1.85,335.95,0.000000,0.000000,54.891312,9.784057
1389977415,3,0,0.0,0,0,4,0,713,700,-0.0292,170.2922,6.8213,0.4212,54.890823,9.784151,108.3,5.845,1.85,335.95,0.000000,0.000000,54.891312,9.784057
1389977415,3,0,0.0,0,0,0,0,713,750,-0.0292,170.2922,6.8213,0.4212,54.890804,9.784156,108.3,5.845,1.85,335.95,0.000000,0.000000,54.891312,9.784057
1389977415,3,0,0.0,0,0,4,0,713,700,-0.0292,170.2922,6.8213,0.4212,54.890785,9.784161,108.3,5.845,1.85,335.95,0.000000,0.000000,54.891312,9.784057
1389977415,3,0,0.0,0,0,0,0,713,750,-0.0292,170.2922,6.8213,0.4212,54.890770,9.784165,108.3,5.845,1.85,335.95,0.000000,0.000000,54.891312,9.784057
1389977416,3,0,0.0,0,0,4,0,713,700,-0.0292,170.2922,6.8213,0.4212,54.890751,9.784171,108.3,5.845,1.85,335.95,0.000000,0.000000,54.891312,9.784057
1389977416,3,0,0.0,0,0,0,0,713,750,-0.0292,170.2922,6.8213,0.4212,54.890732,9.784177,108.3,5.845,1.85,335.95,0.000000,0.000000,54.891312,9.784057
1389977416,3,0,0.0,0,0,4,0,713,700,-0.0292,170.2922,6.8213,0.4212,54.890717,9.784183,108.3,5.845,1.85,335.95,0.000000,0.000000,54.891312,9.784057
1389977416,3,0,0.0,0,0,0,0,713,750,-0.0292,170.2922,6.8213,0.4212,54.890697,9.784188,108.3,5.845,1.85,335.95,0.000000,0.000000,54.891312,9.784057
1389977417,3,0,0.0,0,0,4,0,713,700,-0.0292,170.2922,6.8213,0.4212,54.890678,9.784193,108.3,5.845,1.85,335.95,0.000000,0.000000,54.891312,9.784057
1389977417,3,0,0.0,0,0,0,0,713,750,-0.0292,170.2922,6.8213,0.4212,54.890659,9.784198,108.3,5.845,1.85,335.95,0.000000,0.000000,54.891312,9.784057
1389977417,3,0,0.0,0,0,4,0,713,700,-0.0292,170.2922,6.8213,0.4212,54.890644,9.784203,108.3,5.845,1.85,335.95,0.000000,0.000000,54.891312,9.784057
1389977417,3,0,0.0,0,0,0,0,713,750,-0.0292,170.2922,6.8213,0.4212,54.890625,9.784207,108.3,5.845,1.85,335.95,0.000000,0.000000,54.891312,9.784057
1389977418,3,0,0.0,0,0,4,0,713,700,-0.0292,170.2922,6.8213,0.4212,54.890606,9.784213,108.3,5.845,1.85,335.95,0.000000,0.000000,54.891312,9.784057
1389977418,3,0,0.0,0,0,0,0,713,750,-0.0292,170.2922,6.8213,0.4212,54.890587,9.784219,108.3,5.845,1.85,335.95,0.000000,0.000000,54.891312,9.784057
1389977418,3,0,0.0,0,0,4,0,713,700,-0.0292,170.2922,6.8213,0.4212,54.890572,9.784225,108.3,5.845,1.85,335.95,0.000000,0.000000,54.891312,9.784057
1389977418,3,0,0.0,0,-20,0,0,713,750,-0.0292,176.9589,6.8213,0.4212,54.890553,9.784226,108.3,5.845,1.85,335.95,0.000000,0.000000,54.891312,9.784057
1389977419,3,0,0.0,0,-13,-4,0,713,700,-0.0292,181.2922,6.8213,0.4212,54.890533,9.784226,108.3,5.845,1.85,335.95,0.000000,0.000000,54.891312,9.784057
1389977419,3,0,0.0,0,-9,-8,0,713,750,-0.0292,184.2922,6.8213,0.4212,54.890514,9.784225,108.3,5.845,1.85,335.95,0.000000,0.000000,54.891312,9.784057
1389977419,3,0,0.0,0,-6,-4,0,713,700,-0.0292,186.2922,6.8213,0.4212,54.890499,9.784222,108.3,5.845,1.85,335.95,0.000000,0.000000,54.891312,9.784057
1389977419,3,0,0.0,0,-4,0,0,713,750,-0.0292,187.6255,6.8213,0.4212,54.890480,9.784218,108.3,5.845,1.85,335.95,0.000000,0.000000,54.891312,9.784057
1389977420,3,0,0.0,0,-2,-4,0,713,700,-0.0292,188.2922,6.8213,0.4212,54.890461,9.784214,108.3,5.845,1.85,335.95,0.000000,0.000000,54.891312,9.784057
1389977420,3,0,0.0,0,-2,0,0,713,750,-0.0292,188.9589,6.8213,0.4212,54.890442,9.784209,108.3,5.845,1.85,335.95,0.000000,0.000000,54.891312,9.784057
1389977420,3,0,0.0,0,-1,-4,0,713,700,-0.0292,189.2922,6.8213,0.4212,54.890427,9.784204,108.3,5.845,1.85,335.95,0.000000,0.000000,54.891312,9.784057
1389977420,3,0,0.0,0,-1,0,0,713,750,-0.0292,189.6255,6.8213,0.4212,54.890408,9.784199,108.3,5.845,1.85,335.95,0.000000,0.000000,54.891312,9.784057
1389977421,3,0,0.0,0,0,4,0,713,700,-0.0292,189.6255,6.8213,0.4212,54.890388,9.784193,108.3,5.845,1.85,335.95,0.000000,0.000000,54.891312,9.784057
1389977421,3,0,0.0,0,0,0,0,713,750,-0.0292,189.6255,6.8213,0.4212,54.890373,9.784187,108.3,5.845,1.85,335.95,0.000000,0.000000,54.891312,9.784057
1389977421,3,0,0.0,0,0,4,0,713,700,-0.0292,189.6255,6.8213,0.4212,54.890354,9.784182,108.3,5.845,1.85,335.95,0.000000,0.000000,54.891312,9.784057
1389977422,3,0,0.0,0,0,0,0,713,750,-0.0292,189.6255,6.8213,0.4212,54.890335,9.784177,108.3,5.845,1.85,335.95,0.000000,0.000000,54.891312,9.784057
1389977422,3,0,0.0,0,0,4,0,713,700,-0.0292,189.6255,6.8213,0.4212,54.890316,9.784172,108.3,5.845,1.85,335.95,0.000000,0.000000,54.891312,9.784057
1389977422,3,0,0.0,0,0,0,0,713,750,-0.0292,189.6255,6.8213,0.4212,54.890301,9.784167,108.3,5.845,1.85,335.95,0.000000,0.000000,54.891312,9.784057
1389977422,3,0,0.0,0,0,4,0,713,700,-0.0292,189.6255,6.8213,0.4212,54.890282,9.784163,108.3,5.845,1.85,335.95,0.000000,0.000000,54.891312,9.784057
1389977423,3,0,0.0,0,0,0,0,713,750,-0.0292,189.6255,6.8213,0.4212,54.890263,9.784157,108.3,5.845,1.85,335.95,0.000000,0.000000,54.891312,9.784057
1389977423,3,0,0.0,0,0,4,0,713,700,-0.0292,189.6255,6.8213,0.4212,54.890244,9.784151,108.3,5.845,1.85,335.95,0.000000,0.000000,54.891312,9.784057
1389977423,3,0,0.0,0,0,0,0,713,750,-0.0292,189.6255,6.8213,0.4212,54.890228,9.784145,108.3,5.845,1.85,335.95,0.000000,0.000000,54.891312,9.784057
1389977423,3,0,0.0,0,0,4,0,713,700,-0.0292,189.6255,6.8213,0.4212,54.890209,9.784140,108.3,5.845,1.85,335.95,0.000000,0.000000,54.891312,9.784057
1389977424,3,0,0.0,0,0,0,0,713,750,-0.0292,189.6255,6.8213,0.4212,54.890190,9.784135,108.3,5.845,1.85,335.95,0.000000,0.000000,54.891312,9.784057
1389977424,3,0,0.0,0,0,4,0,713,700,-0.0292,189.6255,6.8213,0.4212,54.890171,9.784130,108.3,5.845,1.85,335.95,0.000000,0.000000,54.891312,9.784057
1389977424,3,0,0.0,0,0,0,0,713,750,-0.0292,189.6255,6.8213,0.4212,54.890156,9.784125,108.3,5.845,1.85,335.95,0.000000,0.000000,54.891312,9.784057
1389977424,3,0,0.0,0,0,4,0,713,700,-0.0292,189.6255,6.8213,0.4212,54.890137,9.784121,108.3,5.845,1.85,335.95,0.000000,0.000000,54.891312,9.784057
1389977425,3,0,0.0,0,0,0,0,713,750,-0.0292,189.6255,6.8213,0.4212,54.890118,9.784115,108.3,5.845,1.85,335.95,0.000000,0.000000,54.891312,9.784057
1389977425,3,0,0.0,0,0,4,0,713,700,-0.0292,189.6255,6.8213,0.4212,54.890102,9.784109,108.3,5.845,1.85,335.95,0.000000,0.000000,54.891312,9.784057
1389977425,3,0,0.0,0,0,0,0,713,750,-0.0292,189.6255,6.8213,0.4212,54.890083,9.784103,108.3,5.845,1.85,335.95,0.000000,0.000000,54.891312,9.784057
1389977425,3,0,0.0,0,0,4,0,713,700,-0.0292,189.6255,6.8213,0.4212,54.890064,9.784098,108.3,5.845,1.85,335.95,0.000000,0.000000,54.891312,9.784057
1389977426,3,0,0.0,0,0,0,0,713,750,-0.0292,189.6255,6.8213,0.4212,54.890045,9.784093,108.3,5.845,1.85,335.95,0.000000,0.000000,54.891312,9.784057
1389977426,3,0,0.0,0,0,4,0,713,700,-0.0292,189.6255,6.8213,0.4212,54.890030,9.784088,108.3,5.845,1.85,335.95,0.000000,0.000000,54.891312,9.784057
1389977426,3,0,0.0,0,0,0,0,713,750,-0.0292,189.6255,6.8213,0.4212,54.890011,9.784083,108.3,5.845,1.85,335.95,0.000000,0.000000,54.891312,9.784057
1389977426,3,0,0.0,0,0,4,0,713,700,-0.0292,189.6255,6.8213,0.4212,54.889992,9.784079,108.3,5.845,1.85,335.95,0.000000,0.000000,54.891312,9.784057
1389977427,3,0,0.0,0,0,0,0,713,750,-0.0292,189.6255,6.8213,0.4212,54.889973,9.784074,108.3,5.845,1.85,335.95,0.000000,0.000000,54.891312,9.784057
1389977427,3,0,0.0,0,0,4,0,713,700,-0.0292,189.6255,6.8213,0.4212,54.889957,9.784068,108.3,5.845,1.85,335.95,0.000000,0.000000,54.891312,9.784057
1389977427,3,0,0.0,0,0,0,0,713,750,-0.0292,189.6255,6.8213,0.4212,54.889938,9.784062,108.3,5.845,1.85,335.95,0.000000,0.000000,54.891312,9.784057
1389977427,3,0,0.0,0,0,4,0,713,700,-0.0292,189.6255,6.8213,0.4212,54.889919,9.784057,108.3,5.845,1.85,335.95,0.000000,0.000000,54.891312,9.784057
1389977428,3,0,0.0,0,0,0,0,713,750,-0.0292,189.6255,6.8213,0.4212,54.889900,9.784052,108.3,5.845,1.85,335.95,0.000000,0.000000,54.891312,9.784057
1389977428,3,0,0.0,0,0,4,0,713,700,-0.0292,189.6255,6.8213,0.4212,54.889885,9.784047,108.3,5.845,1.85,335.95,0.000000,0.000000,54.891312,9.784057
1389977428,3,0,0.0,0,0,0,0,713,750,-0.0292,189.6255,6.8213,0.4212,54.889866,9.784042,108.3,5.845,1.85,335.95,0.000000,0.000000,54.891312,9.784057
1389977428,3,0,0.0,0,0,4,0,713,700,-0.0292,189.6255,6.8213,0.4212,54.889847,9.784038,108.3,5.845,1.85,335.95,0.000000,0.000000,54.891312,9.784057
1389977429,3,0,0.0,0,0,0,0,713,750,-0.0292,189.6255,6.8213,0.4212,54.889832,9.784033,108.3,5.845,1.85,335.95,0.000000,0.000000,54.891312,9.784057
1389977429,3,0,0.0,0,0,4,0,713,700,-0.0292,189.6255,6.8213,0.4212,54.889812,9.784027,108.3,5.845,1.85,335.95,0.000000,0.000000,54.891312,9.784057
1389977429,3,0,0.0,0,0,0,0,713,750,-0.0292,189.6255,6.8213,0.4212,54.889793,9.784021,108.3,5.845,1.85,335.95,0.000000,0.000000,54.891312,9.784057
1389977429,3,0,0.0,0,0,4,0,713,700,-0.0292,189.6255,6.8213,0.4212,54.889774,9.784016,108.3,5.845,1.85,335.95,0.000000,0.000000,54.891312,9.784057
1389977430,3,0,0.0,0,0,0,0,713,750,-0.0292,189.6255,6.8213,0.4212,54.889759,9.784010,108.3,5.845,1.85,335.95,0.000000,0.000000,54.891312,9.784057
1389977430,3,0,0.0,0,0,4,0,713,700,-0.0292,189.6255,6.8213,0.4212,54.889740,9.784005,108.3,5.845,1.85,335.95,0.000000,0.000000,54.891312,9.784057
1389977430,3,0,0.0,0,0,0,0,713,750,-0.0292,189.6255,6.8213,0.4212,54.889721,9.784000,108.3,5.845,1.85,335.95,0.000000,0.000000,54.891312,9.784057
1389977430,3,0,0.0,0,0,4,0,713,700,-0.0292,189.6255,6.8213,0.4212,54.889702,9.783996,108.3,5.845,1.85,335.95,0.000000,0.000000,54.891312,9.784057
1389977431,3,0,0.0,0,0,0,0,713,750,-0.0292,189.6255,6.8213,0.4212,54.889687,9.783991,108.3,5.845,1.85,335.95,0.000000,0.000000,54.891312,9.784057
1389977431,3,0,0.0,0,0,4,0,713,700,-0.0292,189.6255,6.8213,0.4212,54.889668,9.783985,108.3,5.845,1.85,335.95,0.000000,0.000000,54.891312,9.784057
1389977431,3,0,0.0,0,0,0,0,713,750,-0.0292,189.6255,6.8213,0.4212,54.889648,9.783979,108.3,5.845,1.85,335.95,0.000000,0.000000,54.891312,9.784057
1389977431,3,0,0.0,0,0,4,0,713,700,-0.0292,189.6255,6.8213,0.4212,54.889629,9.783974,108.3,5.845,1.85,335.95,0.000000,0.000000,54.891312,9.784057
1389977432,3,0,0.0,0,0,0,0,713,750,-0.0292,189.6255,6.8213,0.4212,54.889614,9.783968,108.3,5.845,1.85,335.95,0.000000,0.000000,54.891312,9.784057
1389977432,3,0,0.0,0,0,4,0,713,700,-0.0292,189.6255,6.8213,0.4212,54.889595,9.783963,108.3,5.845,1.85,335.95,0.000000,0.000000,54.891312,9.784057
1389977432,3,0,0.0,0,0,0,0,713,750,-0.0292,189.6255,6.8213,0.4212,54.889576,9.783958,108.3,5.845,1.85,335.95,0.000000,0.000000,54.891312,9.784057
1389977432,3,0,0.0,0,0,4,0,713,700,-0.0292,189.6255,6.8213,0.4212,54.889561,9.783954,108.3,5.845,1.85,335.95,0.000000,0.000000,54.891312,9.784057
1389977433,3,0,0.0,0,0,0,0,713,750,-0.0292,189.6255,6.8213,0.4212,54.889542,9.783949,108.3,5.845,1.85,335.95,0.000000,0.000000,54.891312,9.784057
1389977433,3,0,0.0,0,0,4,0,713,700,-0.0292,189.6255,6.8213,0.4212,54.889523,9.783943,108.3,5.845,1.85,335.95,0.000000,0.000000,54.891312,9.784057
1389977433,3,0,0.0,0,0,0,0,713,750,-0.0292,189.6255,6.8213,0.4212,54.889503,9.783937,108.3,5.845,1.85,335.95,0.000000,0.000000,54.891312,9.784057
1389977433,3,0,0.0,0,0,4,0,713,700,-0.0292,189.6255,6.8213,0.4212,54.889488,9.783932,108.3,5.845,1.85,335.95,0.000000,0.000000,54.891312,9.784057
1389977434,3,0,0.0,0,0,0,0,713,750,-0.0292,189.6255,6.8213,0.4212,54.889469,9.783926,108.3,5.845,1.85,335.95,0.000000,0.000000,54.891312,9.784057
1389977434,3,0,0.0,0,0,4,0,713,700,-0.0292,189.6255,6.8213,0.4212,54.889450,9.783921,108.3,5.845,1.85,335.95,0.000000,0.000000,54.891312,9.784057
1389977434,3,0,0.0,0,0,0,0,713,750,-0.0292,189.6255,6.8213,0.4212,54.889431,9.783916,108.3,5.845,1.85,335.95,0.000000,0.000000,54.891312,9.784057
1389977434,3,0,0.0,0,0,4,0,713,700,-0.0292,189.6255,6.8213,0.4212,54.889416,9.783912,108.3,5.845,1.85,335.95,0.000000,0.000000,54.891312,9.784057
1389977435,3,0,0.0,0,0,0,0,713,750,-0.0292,189.6255,6.8213,0.4212,54.889397,9.783907,108.3,5.845,1.85,335.95,0.000000,0.000000,54.891312,9.784057
1389977435,3,0,0.0,0,0,4,0,713,700,-0.0292,189.6255,6.8213,0.4212,54.889378,9.783902,108.3,5.845,1.85,335.95,0.000000,0.000000,54.891312,9.784057
1389977435,3,0,0.0,0,0,0,0,713,750,-0.0292,189.6255,6.8213,0.4212,54.889359,9.783896,108.3,5.845,1.85,335.95,0.000000,0.000000,54.891312,9.784057
1389977435,3,0,0.0,0,0,4,0,713,700,-0.0292,189.6255,6.8213,0.4212,54.889343,9.783891,108.3,5.845,1.85,335.95,0.000000,0.000000,54.891312,9.784057
1389977436,3,0,0.0,0,0,0,0,713,750,-0.0292,189.6255,6.8213,0.4212,54.889324,9.783885,108.3,5.845,1.85,335.95,0.000000,0.000000,54.891312,9.784057
1389977436,3,0,0.0,0,0,4,0,713,700,-0.0292,189.6255,6.8213,0.4212,54.889305,9.783880,108.3,5.845,1.85,335.95,0.000000,0.000000,54.891312,9.784057
1389977436,3,0,0.0,0,0,0,0,713,750,-0.0292,189.6255,6.8213,0.4212,54.889290,9.783875,108.3,5.845,1.85,335.95,0.000000,0.000000,54.891312,9.784057
1389977436,3,0,0.0,0,0,4,0,713,700,-0.0292,189.6255,6.8213,0.4212,54.889271,9.783871,108.3,5.845,1.85,335.95,0.000000,0.000000,54.891312,9.784057
1389977437,3,0,0.0,0,0,0,0,713,750,-0.0292,189.6255,6.8213,0.4212,54.889252,9.783866,108.3,5.845,1.85,335.95,0.000000,0.000000,54.891312,9.784057
1389977437,0,0,0.0,0,0,0,0,713,750,-0.0292,189.6255,6.8213,0.4212,54.889252,9.783866,108.3,5.845,1.85,335.95,0.000000,0.000000,54.891312,9.784057
1389977437,0,0,0.0,0,0,0,0,713,750,-0.0292,189.6255,6.8213,0.4212,54.889252,9.783866,108.3,5.845,1.85,335.95,0.000000,0.000000,54.891312,9.784057
1389977437,0,0,0.0,0,0,0,0,713,750,-0.0292,189.6255,6.8213,0.4212,54.889252,9.783866,108.3,5.845,1.85,335.95,0.000000,0.000000,54.891312,9.784057
1389977438,4,0,0.0,0,0,0,0,713,750,-0.0292,189.6255,6.8213,0.4212,54.889252,9.783866,108.3,5.845,1.85,335.95,0.000000,0.000000,54.891312,9.784057
1389977438,1,0,0.0,0,0,4,0,713,700,-0.0292,189.6255,6.8213,0.4212,54.889233,9.783861,108.3,5.845,1.85,335.95,54.895069,9.793790,54.895348,9.797490
1389977438,1,0,0.0,0,0,0,0,713,750,-0.0292,189.6255,6.8213,0.4212,54.889217,9.783855,108.3,5.845,1.85,335.95,54.895348,9.797490,54.894039,9.801540
1389977438,1,0,0.0,0,0,4,0,713,700,-0.0292,189.6255,6.8213,0.4212,54.889198,9.783850,108.3,5.845,1.85,335.95,54.894039,9.801540,54.893795,9.802299
1389977439,1,0,0.0,0,0,0,0,713,750,-0.0292,189.6255,6.8213,0.4212,54.889179,9.783844,108.3,5.845,1.85,335.95,54.893795,9.802299,54.893364,9.803688
1389977439,1,0,0.0,0,0,4,0,713,700,-0.0292,189.6255,6.8213,0.4212,54.889160,9.783838,108.3,5.845,1.85,335.95,54.893364,9.803688,54.892704,9.801139
1389977439,1,0,0.0,0,0,0,0,713,750,-0.0292,189.6255,6.8213,0.4212,54.889145,9.783834,108.3,5.845,1.85,335.95,54.892704,9.801139,54.891663,9.800174
1389977439,1,0,0.0,0,0,4,0,713,700,-0.0292,189.6255,6.8213,0.4212,54.889126,9.783829,108.3,5.845,1.85,335.95,54.891663,9.800174,54.892929,9.805077
1389977440,1,0,0.0,0,0,0,0,713,750,-0.0292,189.6255,6.8213,0.4212,54.889107,9.783824,108.3,5.845,1.85,335.95,54.892929,9.805077,54.892498,9.806466
1389977440,1,0,0.0,0,0,4,0,713,700,-0.0292,189.6255,6.8213,0.4212,54.889088,9.783819,108.3,5.845,1.85,335.95,54.892498,9.806466,54.891232,9.801563
