MCU_timestamp,Navigation_System,Manual_Control,Guidance_Heading,Manual_Ctrl_Rudder,Rudder_Desired_Angle,Rudder_Feedback,Manual_Ctrl_Sail,Sail_Desired_Pos,Sail_Feedback,Rate,Heading,Pitch,Roll,Latitude,Longitude,COG,SOG,Wind_Speed,Wind_Angle,Point_Start_Lat,Point_Start_Lon,Point_End_Lat,Point_End_Lon
1386921668,0,0,0.0,0,0,4,0,0,0,-0.0292,-1254.5085,6.8213,0.4212,54.896526,9.792960,108.3,5.845,1.85,335.95,0.000000,0.000000,0.000000,0.000000
1386921668,0,0,0.0,0,0,4,0,0,0,-0.0292,-1254.5085,6.8213,0.4212,54.896526,9.792960,108.3,5.845,1.85,335.95,0.000000,0.000000,0.000000,0.000000
1386921668,0,0,0.0,0,0,4,0,0,0,-0.0292,-1254.5085,6.8213,0.4212,54.896526,9.792960,108.3,5.845,1.85,335.95,0.000000,0.000000,0.000000,0.000000
1386921669,0,0,0.0,0,0,4,0,0,0,-0.0292,-1254.5085,6.8213,0.4212,54.896526,9.792960,108.3,5.845,1.85,335.95,0.000000,0.000000,0.000000,0.000000
1386921669,0,0,0.0,0,0,4,0,0,0,-0.0292,-1254.5085,6.8213,0.4212,54.896526,9.792960,108.3,5.845,1.85,335.95,0.000000,0.000000,0.000000,0.000000
1386921669,0,0,0.0,0,0,4,0,0,0,-0.0292,-1254.5085,6.8213,0.4212,54.896526,9.792960,108.3,5.845,1.85,335.95,0.000000,0.000000,0.000000,0.000000
1386921669,0,0,0.0,0,0,4,0,0,0,-0.0292,-1254.5085,6.8213,0.4212,54.896526,9.792960,108.3,5.845,1.85,335.95,0.000000,0.000000,0.000000,0.000000
1386921670,0,0,0.0,0,0,4,0,0,0,-0.0292,-1254.5085,6.8213,0.4212,54.896526,9.792960,108.3,5.845,1.85,335.95,0.000000,0.000000,0.000000,0.000000
1386921670,0,0,0.0,0,0,4,0,0,0,-0.0292,-1254.5085,6.8213,0.4212,54.896526,9.792960,108.3,5.845,1.85,335.95,0.000000,0.000000,0.000000,0.000000
1386921670,0,0,0.0,0,0,4,0,0,0,-0.0292,-1254.5085,6.8213,0.4212,54.896526,9.792960,108.3,5.845,1.85,335.95,0.000000,0.000000,0.000000,0.000000
1386921670,0,0,0.0,0,0,4,0,0,0,-0.0292,-1254.5085,6.8213,0.4212,54.896526,9.792960,108.3,5.845,1.85,335.95,0.000000,0.000000,0.000000,0.000000
1386921671,0,0,0.0,0,0,4,0,0,0,-0.0292,-1254.5085,6.8213,0.4212,54.896526,9.792960,108.3,5.845,1.85,335.95,0.000000,0.000000,0.000000,0.000000
1386921671,0,0,0.0,0,0,4,0,0,0,-0.0292,-1254.5085,6.8213,0.4212,54.896526,9.792960,108.3,5.845,1.85,335.95,0.000000,0.000000,0.000000,0.000000
1386921671,0,0,0.0,0,0,4,0,0,0,-0.0292,-1254.5085,6.8213,0.4212,54.896526,9.792960,108.3,5.845,1.85,335.95,0.000000,0.000000,0.000000,0.000000
1386921671,0,0,0.0,0,0,4,0,0,0,-0.0292,-1254.5085,6.8213,0.4212,54.896526,9.792960,108.3,5.845,1.85,335.95,0.000000,0.000000,0.000000,0.000000
1386921672,0,0,0.0,0,0,4,0,0,0,-0.0292,-1254.5085,6.8213,0.4212,54.896526,9.792960,108.3,5.845,1.85,335.95,0.000000,0.000000,0.000000,0.000000
1386921672,4,0,0.0,0,0,4,0,0,0,-0.0292,-1254.5085,6.8213,0.4212,54.896526,9.792960,108.3,5.845,1.85,335.95,0.000000,0.000000,0.000000,0.000000
1386921672,1,0,485.9,0,35,8,0,713,750,-0.0292,-1263.8419,6.8213,0.4212,54.896507,9.792962,108.3,5.845,1.85,335.95,54.896526,9.792960,54.895069,9.793790
1386921672,1,0,485.9,0,35,12,0,713,700,-0.0292,-1273.1753,6.8213,0.4212,54.896488,9.792970,108.3,5.845,1.85,335.95,54.896526,9.792960,54.895069,9.793790
1386921673,1,0,485.9,0,35,16,0,713,750,-0.0292,-1282.5087,6.8213,0.4212,54.896473,9.792982,108.3,5.845,1.85,335.95,54.896526,9.792960,54.895069,9.793790
1386921673,1,0,485.9,0,32,20,0,0,700,-0.0292,-1291.0420,6.8213,0.4212,54.896454,9.792998,108.3,5.845,1.85,335.95,54.896526,9.792960,54.895069,9.793790
1386921673,1,0,485.9,0,23,24,0,0,650,-0.0292,-1297.1753,6.8213,0.4212,54.896439,9.793017,108.3,5.845,1.85,335.95,54.896526,9.792960,54.895069,9.793790
1386921673,1,0,485.9,0,17,20,0,713,700,-0.0292,-1301.7086,6.8213,0.4212,54.896427,9.793037,108.3,5.845,1.85,335.95,54.896526,9.792960,54.895069,9.793790
1386921674,1,0,485.9,0,12,16,0,713,750,-0.0292,-1304.9086,6.8213,0.4212,54.896412,9.793059,108.3,5.845,1.85,335.95,54.896526,9.792960,54.895069,9.793790
1386921674,1,0,485.9,0,9,12,0,713,700,-0.0292,-1307.3086,6.8213,0.4212,54.896400,9.793083,108.3,5.845,1.85,335.95,54.896526,9.792960,54.895069,9.793790
1386921674,1,0,485.9,0,7,8,0,713,750,-0.0292,-1309.1753,6.8213,0.4212,54.896385,9.793107,108.3,5.845,1.85,335.95,54.896526,9.792960,54.895069,9.793790
1386921674,1,0,485.9,0,5,4,0,713,700,-0.0292,-1310.5087,6.8213,0.4212,54.896374,9.793131,108.3,5.845,1.85,335.95,54.896526,9.792960,54.895069,9.793790
1386921675,1,0,485.9,0,4,8,0,0,650,-0.0292,-1311.5753,6.8213,0.4212,54.896362,9.793156,108.3,5.845,1.85,335.95,54.896526,9.792960,54.895069,9.793790
1386921675,1,0,485.9,0,2,4,0,0,600,-0.0292,-1312.1086,6.8213,0.4212,54.896351,9.793180,108.3,5.845,1.85,335.95,54.896526,9.792960,54.895069,9.793790
1386921675,1,0,485.9,0,2,0,0,0,550,-0.0292,-1312.6420,6.8213,0.4212,54.896339,9.793205,108.3,5.845,1.85,335.95,54.896526,9.792960,54.895069,9.793790
1386921675,1,0,485.9,0,1,4,0,0,500,-0.0292,-1312.9087,6.8213,0.4212,54.896328,9.793230,108.3,5.845,1.85,335.95,54.896526,9.792960,54.895069,9.793790
1386921676,1,0,485.9,0,1,0,0,0,450,-0.0292,-1313.1754,6.8213,0.4212,54.896317,9.793256,108.3,5.845,1.85,335.95,54.896526,9.792960,54.895069,9.793790
1386921676,1,0,485.9,0,1,4,0,0,400,-0.0292,-1313.4421,6.8213,0.4212,54.896305,9.793281,108.3,5.845,1.85,335.95,54.896526,9.792960,54.895069,9.793790
1386921676,1,0,485.9,0,1,0,0,0,350,-0.0292,-1313.7089,6.8213,0.4212,54.896294,9.793305,108.3,5.845,1.85,335.95,54.896526,9.792960,54.895069,9.793790
1386921676,1,0,485.9,0,0,4,0,0,300,-0.0292,-1313.7089,6.8213,0.4212,54.896286,9.793331,108.3,5.845,1.85,335.95,54.896526,9.792960,54.895069,9.793790
1386921677,1,0,485.9,0,0,0,0,0,250,-0.0292,-1313.7089,6.8213,0.4212,54.896275,9.793356,108.3,5.845,1.85,335.95,54.896526,9.792960,54.895069,9.793790
1386921677,1,0,485.9,0,0,4,0,0,200,-0.0292,-1313.7089,6.8213,0.4212,54.896263,9.793382,108.3,5.845,1.85,335.95,54.896526,9.792960,54.895069,9.793790
1386921677,1,0,485.9,0,0,0,0,0,150,-0.0292,-1313.7089,6.8213,0.4212,54.896252,9.793406,108.3,5.845,1.85,335.95,54.896526,9.792960,54.895069,9.793790
1386921677,1,0,485.9,0,0,4,0,0,100,-0.0292,-1313.7089,6.8213,0.4212,54.896240,9.793431,108.3,5.845,1.85,335.95,54.896526,9.792960,54.895069,9.793790
1386921678,1,0,485.9,0,0,0,0,0,50,-0.0292,-1313.7089,6.8213,0.4212,54.896229,9.793457,108.3,5.845,1.85,335.95,54.896526,9.792960,54.895069,9.793790
1386921678,1,0,485.9,0,0,4,0,0,0,-0.0292,-1313.7089,6.8213,0.4212,54.896217,9.793482,108.3,5.845,1.85,335.95,54.896526,9.792960,54.895069,9.793790
1386921678,1,0,485.9,0,0,0,0,0,0,-0.0292,-1313.7089,6.8213,0.4212,54.896206,9.793508,108.3,5.845,1.85,335.95,54.896526,9.792960,54.895069,9.793790
1386921678,1,0,545.9,0,-35,-4,0,0,0,-0.0292,-1304.3755,6.8213,0.4212,54.896191,9.793530,108.3,5.845,1.85,335.95,54.896526,9.792960,54.895069,9.793790
1386921679,1,0,545.9,0,-35,-8,0,0,0,-0.0292,-1295.0421,6.8213,0.4212,54.896175,9.793548,108.3,5.845,1.85,335.95,54.896526,9.792960,54.895069,9.793790
1386921679,1,0,545.9,0,-35,-12,0,0,0,-0.0292,-1285.7087,6.8213,0.4212,54.896160,9.793561,108.3,5.845,1.85,335.95,54.896526,9.792960,54.895069,9.793790
1386921679,1,0,545.9,0,-32,-16,0,0,0,-0.0292,-1277.1754,6.8213,0.4212,54.896141,9.793571,108.3,5.845,1.85,335.95,54.896526,9.792960,54.895069,9.793790
1386921679,1,0,545.9,0,-23,-20,0,0,0,-0.0292,-1271.0421,6.8213,0.4212,54.896122,9.793577,108.3,5.845,1.85,335.95,54.896526,9.792960,54.895069,9.793790
1386921680,1,0,545.9,0,-17,-16,0,0,0,-0.0292,-1266.5088,6.8213,0.4212,54.896107,9.793580,108.3,5.845,1.85,335.95,54.896526,9.792960,54.895069,9.793790
1386921680,1,0,545.9,0,-12,-12,0,0,0,-0.0292,-1263.3088,6.8213,0.4212,54.896088,9.793582,108.3,5.845,1.85,335.95,54.896526,9.792960,54.895069,9.793790
1386921680,1,0,545.9,0,-9,-8,0,0,0,-0.0292,-1260.9088,6.8213,0.4212,54.896069,9.793582,108.3,5.845,1.85,335.95,54.896526,9.792960,54.895069,9.793790
1386921680,1,0,545.9,0,-7,-4,0,0,0,-0.0292,-1259.0421,6.8213,0.4212,54.896049,9.793581,108.3,5.845,1.85,335.95,54.896526,9.792960,54.895069,9.793790
1386921681,1,0,545.9,0,-5,-8,0,0,0,-0.0292,-1257.7087,6.8213,0.4212,54.896034,9.793579,108.3,5.845,1.85,335.95,54.896526,9.792960,54.895069,9.793790
1386921681,1,0,545.9,0,-4,-4,0,713,50,-0.0292,-1256.6421,6.8213,0.4212,54.896015,9.793577,108.3,5.845,1.85,335.95,54.896526,9.792960,54.895069,9.793790
1386921681,1,0,545.9,0,-3,0,0,713,100,-0.0292,-1255.8420,6.8213,0.4212,54.895996,9.793574,108.3,5.845,1.85,335.95,54.896526,9.792960,54.895069,9.793790
1386921681,1,0,545.9,0,-2,-4,0,713,150,-0.0292,-1255.3087,6.8213,0.4212,54.895981,9.793571,108.3,5.845,1.85,335.95,54.896526,9.792960,54.895069,9.793790
1386921682,1,0,545.9,0,-1,0,0,713,200,-0.0292,-1255.0420,6.8213,0.4212,54.895962,9.793570,108.3,5.845,1.85,335.95,54.896526,9.792960,54.895069,9.793790
1386921682,1,0,545.9,0,-1,-4,0,713,250,-0.0292,-1254.7753,6.8213,0.4212,54.895943,9.793567,108.3,5.845,1.85,335.95,54.896526,9.792960,54.895069,9.793790
1386921682,1,0,545.9,0,-1,0,0,713,300,-0.0292,-1254.5085,6.8213,0.4212,54.895924,9.793564,108.3,5.845,1.85,335.95,54.896526,9.792960,54.895069,9.793790
1386921682,1,0,545.9,0,0,4,0,713,350,-0.0292,-1254.5085,6.8213,0.4212,54.895908,9.793561,108.3,5.845,1.85,335.95,54.896526,9.792960,54.895069,9.793790
1386921683,1,0,545.9,0,0,0,0,713,400,-0.0292,-1254.5085,6.8213,0.4212,54.895889,9.793558,108.3,5.845,1.85,335.95,54.896526,9.792960,54.895069,9.793790
1386921683,1,0,545.9,0,0,4,0,713,450,-0.0292,-1254.5085,6.8213,0.4212,54.895870,9.793555,108.3,5.845,1.85,335.95,54.896526,9.792960,54.895069,9.793790
1386921683,1,0,545.9,0,0,0,0,713,500,-0.0292,-1254.5085,6.8213,0.4212,54.895851,9.793552,108.3,5.845,1.85,335.95,54.896526,9.792960,54.895069,9.793790
1386921683,1,0,545.9,0,0,4,0,713,550,-0.0292,-1254.5085,6.8213,0.4212,54.895836,9.793550,108.3,5.845,1.85,335.95,54.896526,9.792960,54.895069,9.793790
1386921684,1,0,545.9,0,0,0,0,713,600,-0.0292,-1254.5085,6.8213,0.4212,54.895817,9.793547,108.3,5.845,1.85,335.95,54.896526,9.792960,54.895069,9.793790
1386921684,1,0,545.9,0,0,4,0,713,650,-0.0292,-1254.5085,6.8213,0.4212,54.895798,9.793544,108.3,5.845,1.85,335.95,54.896526,9.792960,54.895069,9.793790
1386921684,1,0,545.9,0,0,0,0,713,700,-0.0292,-1254.5085,6.8213,0.4212,54.895779,9.793541,108.3,5.845,1.85,335.95,54.896526,9.792960,54.895069,9.793790
1386921684,1,0,545.9,0,0,4,0,713,750,-0.0292,-1254.5085,6.8213,0.4212,54.895763,9.793538,108.3,5.845,1.85,335.95,54.896526,9.792960,54.895069,9.793790
1386921685,1,0,545.9,0,0,0,0,713,700,-0.0292,-1254.5085,6.8213,0.4212,54.895744,9.793535,108.3,5.845,1.85,335.95,54.896526,9.792960,54.895069,9.793790
1386921685,1,0,545.9,0,0,4,0,713,750,-0.0292,-1254.5085,6.8213,0.4212,54.895725,9.793531,108.3,5.845,1.85,335.95,54.896526,9.792960,54.895069,9.793790
1386921685,1,0,545.9,0,0,0,0,713,700,-0.0292,-1254.5085,6.8213,0.4212,54.895710,9.793528,108.3,5.845,1.85,335.95,54.896526,9.792960,54.895069,9.793790
1386921685,1,0,545.9,0,0,4,0,713,750,-0.0292,-1254.5085,6.8213,0.4212,54.895691,9.793525,108.3,5.845,1.85,335.95,54.896526,9.792960,54.895069,9.793790
1386921686,1,0,545.9,0,0,0,0,713,700,-0.0292,-1254.5085,6.8213,0.4212,54.895672,9.793522,108.3,5.845,1.85,335.95,54.896526,9.792960,54.895069,9.793790
1386921686,1,0,545.9,0,0,4,0,713,750,-0.0292,-1254.5085,6.8213,0.4212,54.895653,9.793519,108.3,5.845,1.85,335.95,54.896526,9.792960,54.895069,9.793790
1386921686,1,0,545.9,0,0,0,0,713,700,-0.0292,-1254.5085,6.8213,0.4212,54.895638,9.793516,108.3,5.845,1.85,335.95,54.896526,9.792960,54.895069,9.793790
1386921686,1,0,545.9,0,0,4,0,713,750,-0.0292,-1254.5085,6.8213,0.4212,54.895618,9.793513,108.3,5.845,1.85,335.95,54.896526,9.792960,54.895069,9.793790
1386921687,1,0,545.9,0,0,0,0,713,700,-0.0292,-1254.5085,6.8213,0.4212,54.895599,9.793510,108.3,5.845,1.85,335.95,54.896526,9.792960,54.895069,9.793790
1386921687,1,0,545.9,0,0,4,0,713,750,-0.0292,-1254.5085,6.8213,0.4212,54.895580,9.793508,108.3,5.845,1.85,335.95,54.896526,9.792960,54.895069,9.793790
1386921687,1,0,545.9,0,0,0,0,713,700,-0.0292,-1254.5085,6.8213,0.4212,54.895565,9.793505,108.3,5.845,1.85,335.95,54.896526,9.792960,54.895069,9.793790
1386921687,1,0,545.9,0,0,4,0,713,750,-0.0292,-1254.5085,6.8213,0.4212,54.895546,9.793502,108.3,5.845,1.85,335.95,54.896526,9.792960,54.895069,9.793790
1386921688,1,0,545.9,0,0,0,0,713,700,-0.0292,-1254.5085,6.8213,0.4212,54.895527,9.793499,108.3,5.845,1.85,335.95,54.896526,9.792960,54.895069,9.793790
1386921688,1,0,545.9,0,0,4,0,713,750,-0.0292,-1254.5085,6.8213,0.4212,54.895508,9.793496,108.3,5.845,1.85,335.95,54.896526,9.792960,54.895069,9.793790
1386921688,1,0,545.9,0,0,0,0,713,700,-0.0292,-1254.5085,6.8213,0.4212,54.895493,9.793493,108.3,5.845,1.85,335.95,54.896526,9.792960,54.895069,9.793790
1386921688,1,0,545.9,0,0,4,0,713,750,-0.0292,-1254.5085,6.8213,0.4212,54.895473,9.793489,108.3,5.845,1.85,335.95,54.896526,9.792960,54.895069,9.793790
1386921689,1,0,545.9,0,0,0,0,713,700,-0.0292,-1254.5085,6.8213,0.4212,54.895454,9.793486,108.3,5.845,1.85,335.95,54.896526,9.792960,54.895069,9.793790
1386921689,1,0,545.9,0,0,4,0,713,750,-0.0292,-1254.5085,6.8213,0.4212,54.895435,9.793483,108.3,5.845,1.85,335.95,54.896526,9.792960,54.895069,9.793790
1386921689,1,0,545.9,0,0,0,0,713,700,-0.0292,-1254.5085,6.8213,0.4212,54.895420,9.793480,108.3,5.845,1.85,335.95,54.896526,9.792960,54.895069,9.793790
1386921689,1,0,545.9,0,0,4,0,713,750,-0.0292,-1254.5085,6.8213,0.4212,54.895401,9.793477,108.3,5.845,1.85,335.95,54.896526,9.792960,54.895069,9.793790
1386921690,1,0,545.9,0,0,0,0,713,700,-0.0292,-1254.5085,6.8213,0.4212,54.895382,9.793474,108.3,5.845,1.85,335.95,54.896526,9.792960,54.895069,9.793790
1386921690,1,0,545.9,0,0,4,0,713,750,-0.0292,-1254.5085,6.8213,0.4212,54.895367,9.793471,108.3,5.845,1.85,335.95,54.896526,9.792960,54.895069,9.793790
1386921690,1,0,545.9,0,0,0,0,713,700,-0.0292,-1254.5085,6.8213,0.4212,54.895348,9.793468,108.3,5.845,1.85,335.95,54.896526,9.792960,54.895069,9.793790
1386921690,1,0,545.9,0,0,4,0,713,750,-0.0292,-1254.5085,6.8213,0.4212,54.895329,9.793466,108.3,5.845,1.85,335.95,54.896526,9.792960,54.895069,9.793790
1386921691,1,0,545.9,0,0,0,0,713,700,-0.0292,-1254.5085,6.8213,0.4212,54.895309,9.793463,108.3,5.845,1.85,335.95,54.896526,9.792960,54.895069,9.793790
1386921691,1,0,545.9,0,0,4,0,713,750,-0.0292,-1254.5085,6.8213,0.4212,54.895294,9.793460,108.3,5.845,1.85,335.95,54.896526,9.792960,54.895069,9.793790
1386921691,1,0,545.9,0,0,0,0,713,700,-0.0292,-1254.5085,6.8213,0.4212,54.895275,9.793457,108.3,5.845,1.85,335.95,54.896526,9.792960,54.895069,9.793790
1386921691,1,0,545.9,0,0,4,0,713,750,-0.0292,-1254.5085,6.8213,0.4212,54.895256,9.793454,108.3,5.845,1.85,335.95,54.896526,9.792960,54.895069,9.793790
1386921692,1,0,545.9,0,0,0,0,713,700,-0.0292,-1254.5085,6.8213,0.4212,54.895237,9.793451,108.3,5.845,1.85,335.95,54.896526,9.792960,54.895069,9.793790
1386921692,1,0,545.9,0,0,4,0,713,750,-0.0292,-1254.5085,6.8213,0.4212,54.895222,9.793447,108.3,5.845,1.85,335.95,54.896526,9.792960,54.895069,9.793790
1386921692,1,0,545.9,0,0,0,0,713,700,-0.0292,-1254.5085,6.8213,0.4212,54.895203,9.793444,108.3,5.845,1.85,335.95,54.896526,9.792960,54.895069,9.793790
1386921693,1,0,545.9,0,0,4,0,713,750,-0.0292,-1254.5085,6.8213,0.4212,54.895184,9.793441,108.3,5.845,1.85,335.95,54.896526,9.792960,54.895069,9.793790
1386921693,1,0,545.9,0,0,0,0,0,700,-0.0292,-1254.5085,6.8213,0.4212,54.895164,9.793438,108.3,5.845,1.85,335.95,54.896526,9.792960,54.895069,9.793790
1386921693,1,0,545.9,0,0,4,0,0,650,-0.0292,-1254.5085,6.8213,0.4212,54.895149,9.793435,108.3,5.845,1.85,335.95,54.896526,9.792960,54.895069,9.793790
1386921693,1,0,545.9,0,0,0,0,0,600,-0.0292,-1254.5085,6.8213,0.4212,54.895130,9.793432,108.3,5.845,1.85,335.95,54.896526,9.792960,54.895069,9.793790
1386921694,1,0,545.9,0,0,4,0,0,550,-0.0292,-1254.5085,6.8213,0.4212,54.895111,9.793429,108.3,5.845,1.85,335.95,54.896526,9.792960,54.895069,9.793790
1386921694,1,0,545.9,0,0,0,0,0,500,-0.0292,-1254.5085,6.8213,0.4212,54.895096,9.793427,108.3,5.845,1.85,335.95,54.896526,9.792960,54.895069,9.793790
1386921694,1,0,545.9,0,0,4,0,0,450,-0.0292,-1254.5085,6.8213,0.4212,54.895077,9.793424,108.3,5.845,1.85,335.95,54.896526,9.792960,54.895069,9.793790
1386921694,1,0,545.9,0,0,0,0,0,400,-0.0292,-1254.5085,6.8213,0.4212,54.895058,9.793421,108.3,5.845,1.85,335.95,54.896526,9.792960,54.895069,9.793790
1386921695,1,0,545.9,0,0,4,0,0,350,-0.0292,-1254.5085,6.8213,0.4212,54.895039,9.793418,108.3,5.845,1.85,335.95,54.896526,9.792960,54.895069,9.793790
1386921695,1,0,545.9,0,0,0,0,0,300,-0.0292,-1254.5085,6.8213,0.4212,54.895023,9.793415,108.3,5.845,1.85,335.95,54.896526,9.792960,54.895069,9.793790
1386921695,1,0,545.9,0,0,4,0,0,250,-0.0292,-1254.5085,6.8213,0.4212,54.895004,9.793412,108.3,5.845,1.85,335.95,54.896526,9.792960,54.895069,9.793790
1386921695,1,0,545.9,0,0,0,0,0,200,-0.0292,-1254.5085,6.8213,0.4212,54.894985,9.793409,108.3,5.845,1.85,335.95,54.896526,9.792960,54.895069,9.793790
1386921696,1,0,545.9,0,0,4,0,0,150,-0.0292,-1254.5085,6.8213,0.4212,54.894966,9.793406,108.3,5.845,1.85,335.95,54.896526,9.792960,54.895069,9.793790
1386921696,1,0,545.9,0,0,0,0,0,100,-0.0292,-1254.5085,6.8213,0.4212,54.894951,9.793403,108.3,5.845,1.85,335.95,54.896526,9.792960,54.895069,9.793790
1386921696,1,0,545.9,0,0,4,0,0,50,-0.0292,-1254.5085,6.8213,0.4212,54.894932,9.793400,108.3,5.845,1.85,335.95,54.896526,9.792960,54.895069,9.793790
1386921696,1,0,545.9,0,0,0,0,0,0,-0.0292,-1254.5085,6.8213,0.4212,54.894913,9.793397,108.3,5.845,1.85,335.95,54.896526,9.792960,54.895069,9.793790
1386921697,1,0,545.9,0,0,4,0,0,0,-0.0292,-1254.5085,6.8213,0.4212,54.894894,9.793394,108.3,5.845,1.85,335.95,54.896526,9.792960,54.895069,9.793790
1386921697,1,0,485.9,0,35,8,0,0,0,-0.0292,-1263.8419,6.8213,0.4212,54.894878,9.793396,108.3,5.845,1.85,335.95,54.896526,9.792960,54.895069,9.793790
1386921697,1,0,485.9,0,35,12,0,0,0,-0.0292,-1273.1753,6.8213,0.4212,54.894859,9.793404,108.3,5.845,1.85,335.95,54.896526,9.792960,54.895069,9.793790
1386921697,1,0,485.9,0,35,16,0,0,0,-0.0292,-1282.5087,6.8213,0.4212,54.894844,9.793415,108.3,5.845,1.85,335.95,54.896526,9.792960,54.895069,9.793790
1386921698,1,0,485.9,0,32,20,0,0,0,-0.0292,-1291.0420,6.8213,0.4212,54.894829,9.793431,108.3,5.845,1.85,335.95,54.896526,9.792960,54.895069,9.793790
1386921698,1,0,485.9,0,23,24,0,0,0,-0.0292,-1297.1753,6.8213,0.4212,54.894814,9.793450,108.3,5.845,1.85,335.95,54.896526,9.792960,54.895069,9.793790
1386921698,1,0,485.9,0,17,20,0,0,0,-0.0292,-1301.7086,6.8213,0.4212,54.894802,9.793470,108.3,5.845,1.85,335.95,54.896526,9.792960,54.895069,9.793790
1386921698,1,0,485.9,0,12,16,0,0,0,-0.0292,-1304.9086,6.8213,0.4212,54.894787,9.793492,108.3,5.845,1.85,335.95,54.896526,9.792960,54.895069,9.793790
1386921699,1,0,485.9,0,9,12,0,0,0,-0.0292,-1307.3086,6.8213,0.4212,54.894775,9.793515,108.3,5.845,1.85,335.95,54.896526,9.792960,54.895069,9.793790
1386921699,1,0,485.9,0,7,8,0,0,0,-0.0292,-1309.1753,6.8213,0.4212,54.894760,9.793539,108.3,5.845,1.85,335.95,54.896526,9.792960,54.895069,9.793790
1386921699,1,0,485.9,0,5,4,0,0,0,-0.0292,-1310.5087,6.8213,0.4212,54.894749,9.793563,108.3,5.845,1.85,335.95,54.896526,9.792960,54.895069,9.793790
1386921699,1,0,485.9,0,4,8,0,713,50,-0.0292,-1311.5753,6.8213,0.4212,54.894741,9.793588,108.3,5.845,1.85,335.95,54.896526,9.792960,54.895069,9.793790
1386921700,1,0,485.9,0,2,4,0,713,100,-0.0292,-1312.1086,6.8213,0.4212,54.894730,9.793612,108.3,5.845,1.85,335.95,54.896526,9.792960,54.895069,9.793790
1386921700,1,0,485.9,0,2,0,0,713,150,-0.0292,-1312.6420,6.8213,0.4212,54.894718,9.793637,108.3,5.845,1.85,335.95,54.896526,9.792960,54.895069,9.793790
1386921700,1,0,485.9,0,1,4,0,713,200,-0.0292,-1312.9087,6.8213,0.4212,54.894707,9.793662,108.3,5.845,1.85,335.95,54.896526,9.792960,54.895069,9.793790
1386921700,1,0,485.9,0,1,0,0,713,250,-0.0292,-1313.1754,6.8213,0.4212,54.894695,9.793687,108.3,5.845,1.85,335.95,54.896526,9.792960,54.895069,9.793790
1386921701,1,0,485.9,0,1,4,0,713,300,-0.0292,-1313.4421,6.8213,0.4212,54.894688,9.793712,108.3,5.845,1.85,335.95,54.896526,9.792960,54.895069,9.793790
1386921701,1,0,485.9,0,1,0,0,713,350,-0.0292,-1313.7089,6.8213,0.4212,54.894676,9.793736,108.3,5.845,1.85,335.95,54.896526,9.792960,54.895069,9.793790
1386921701,1,0,483.7,0,3,4,0,713,400,-0.0292,-1314.5089,6.8213,0.4212,54.894665,9.793762,108.3,5.845,1.85,335.95,54.896526,9.792960,54.895069,9.793790
1386921701,1,0,390.9,0,35,8,0,713,450,-0.0292,-1323.8423,6.8213,0.4212,54.894657,9.793790,108.3,5.845,1.85,335.95,54.896526,9.792960,54.895069,9.793790
1386921702,1,0,390.9,0,35,12,0,713,500,-0.0292,-1333.1757,6.8213,0.4212,54.894650,9.793819,108.3,5.845,1.85,335.95,54.896526,9.792960,54.895069,9.793790
1386921702,1,0,390.9,0,35,16,0,870,550,-0.0292,-1342.5090,6.8213,0.4212,54.894650,9.793851,108.3,5.845,1.85,335.95,54.896526,9.792960,54.895069,9.793790
1386921702,1,0,390.9,0,35,20,0,870,600,-0.0292,-1351.8424,6.8213,0.4212,54.894653,9.793882,108.3,5.845,1.85,335.95,54.896526,9.792960,54.895069,9.793790
1386921702,1,0,390.9,0,35,24,0,746,650,-0.0292,-1361.1758,6.8213,0.4212,54.894653,9.793913,108.3,5.845,1.85,335.95,54.896526,9.792960,54.895069,9.793790
1386921703,1,0,390.9,0,35,28,0,603,600,-0.0292,-1370.5092,6.8213,0.4212,54.894657,9.793942,108.3,5.845,1.85,335.95,54.896526,9.792960,54.895069,9.793790
1386921703,1,0,390.9,0,35,32,0,455,550,-0.0292,-1379.8425,6.8213,0.4212,54.894665,9.793969,108.3,5.845,1.85,335.95,54.896526,9.792960,54.895069,9.793790
1386921703,1,0,390.9,0,29,28,0,307,500,-0.0292,-1387.5758,6.8213,0.4212,54.894676,9.793994,108.3,5.845,1.85,335.95,54.896526,9.792960,54.895069,9.793790
1386921703,1,0,390.9,0,21,24,0,190,450,-0.0292,-1393.1758,6.8213,0.4212,54.894688,9.794017,108.3,5.845,1.85,335.95,54.896526,9.792960,54.895069,9.793790
1386921704,1,0,390.9,0,16,20,0,114,400,-0.0292,-1397.4425,6.8213,0.4212,54.894699,9.794038,108.3,5.845,1.85,335.95,54.896526,9.792960,54.895069,9.793790
1386921704,1,0,390.9,0,12,16,0,65,350,-0.0292,-1400.6425,6.8213,0.4212,54.894714,9.794058,108.3,5.845,1.85,335.95,54.896526,9.792960,54.895069,9.793790
1386921704,1,0,390.9,0,8,12,0,35,300,-0.0292,-1402.7758,6.8213,0.4212,54.894730,9.794077,108.3,5.845,1.85,335.95,54.896526,9.792960,54.895069,9.793790
1386921704,1,0,390.9,0,6,8,0,20,250,-0.0292,-1404.3757,6.8213,0.4212,54.894745,9.794095,108.3,5.845,1.85,335.95,54.896526,9.792960,54.895069,9.793790
1386921705,1,0,390.9,0,5,4,0,11,200,-0.0292,-1405.7091,6.8213,0.4212,54.894760,9.794112,108.3,5.845,1.85,335.95,54.896526,9.792960,54.895069,9.793790
1386921705,1,0,390.9,0,3,0,0,5,150,-0.0292,-1406.5092,6.8213,0.4212,54.894775,9.794129,108.3,5.845,1.85,335.95,54.896526,9.792960,54.895069,9.793790
1386921705,1,0,390.9,0,3,4,0,3,100,-0.0292,-1407.3092,6.8213,0.4212,54.894787,9.794147,108.3,5.845,1.85,335.95,54.896526,9.792960,54.895069,9.793790
1386921705,1,0,390.9,0,2,0,0,1,50,-0.0292,-1407.8425,6.8213,0.4212,54.894802,9.794163,108.3,5.845,1.85,335.95,54.896526,9.792960,54.895069,9.793790
1386921706,1,0,390.9,0,1,4,0,0,0,-0.0292,-1408.1093,6.8213,0.4212,54.894817,9.794180,108.3,5.845,1.85,335.95,54.896526,9.792960,54.895069,9.793790
1386921706,1,0,390.9,0,1,0,0,0,0,-0.0292,-1408.3760,6.8213,0.4212,54.894833,9.794196,108.3,5.845,1.85,335.95,54.896526,9.792960,54.895069,9.793790
1386921706,1,0,390.9,0,1,4,0,0,0,-0.0292,-1408.6427,6.8213,0.4212,54.894848,9.794212,108.3,5.845,1.85,335.95,54.896526,9.792960,54.895069,9.793790
1386921706,1,0,390.9,0,0,0,0,0,0,-0.0292,-1408.6427,6.8213,0.4212,54.894859,9.794229,108.3,5.845,1.85,335.95,54.896526,9.792960,54.895069,9.793790
1386921707,1,0,390.9,0,0,4,0,0,0,-0.0292,-1408.6427,6.8213,0.4212,54.894875,9.794245,108.3,5.845,1.85,335.95,54.896526,9.792960,54.895069,9.793790
1386921707,1,0,390.9,0,0,0,0,0,0,-0.0292,-1408.6427,6.8213,0.4212,54.894890,9.794261,108.3,5.845,1.85,335.95,54.896526,9.792960,54.895069,9.793790
1386921707,1,0,390.9,0,0,4,0,0,0,-0.0292,-1408.6427,6.8213,0.4212,54.894905,9.794277,108.3,5.845,1.85,335.95,54.896526,9.792960,54.895069,9.793790
1386921707,1,0,390.9,0,0,0,0,0,0,-0.0292,-1408.6427,6.8213,0.4212,54.894920,9.794293,108.3,5.845,1.85,335.95,54.896526,9.792960,54.895069,9.793790
1386921708,1,0,390.9,0,0,4,0,0,0,-0.0292,-1408.6427,6.8213,0.4212,54.894939,9.794310,108.3,5.845,1.85,335.95,54.896526,9.792960,54.895069,9.793790
1386921708,1,0,390.9,0,0,0,0,0,0,-0.0292,-1408.6427,6.8213,0.4212,54.894955,9.794326,108.3,5.845,1.85,335.95,54.896526,9.792960,54.895069,9.793790
1386921708,1,0,390.9,0,0,4,0,0,0,-0.0292,-1408.6427,6.8213,0.4212,54.894970,9.794342,108.3,5.845,1.85,335.95,54.896526,9.792960,54.895069,9.793790
1386921708,1,0,390.9,0,0,0,0,0,0,-0.0292,-1408.6427,6.8213,0.4212,54.894989,9.794358,108.3,5.845,1.85,335.95,54.896526,9.792960,54.895069,9.793790
1386921709,1,0,390.9,0,0,4,0,0,0,-0.0292,-1408.6427,6.8213,0.4212,54.895004,9.794374,108.3,5.845,1.85,335.95,54.896526,9.792960,54.895069,9.793790
1386921709,1,0,390.9,0,0,0,0,0,0,-0.0292,-1408.6427,6.8213,0.4212,54.895020,9.794391,108.3,5.845,1.85,335.95,54.896526,9.792960,54.895069,9.793790
1386921709,1,0,390.9,0,0,4,0,0,0,-0.0292,-1408.6427,6.8213,0.4212,54.895039,9.794407,108.3,5.845,1.85,335.95,54.896526,9.792960,54.895069,9.793790
1386921709,1,0,390.9,0,0,0,0,0,0,-0.0292,-1408.6427,6.8213,0.4212,54.895054,9.794423,108.3,5.845,1.85,335.95,54.896526,9.792960,54.895069,9.793790
1386921710,1,0,390.9,0,0,4,0,0,0,-0.0292,-1408.6427,6.8213,0.4212,54.895069,9.794439,108.3,5.845,1.85,335.95,54.896526,9.792960,54.895069,9.793790
1386921710,1,0,390.9,0,0,0,0,0,0,-0.0292,-1408.6427,6.8213,0.4212,54.895081,9.794456,108.3,5.845,1.85,335.95,54.896526,9.792960,54.895069,9.793790
1386921710,1,0,390.9,0,0,4,0,0,0,-0.0292,-1408.6427,6.8213,0.4212,54.895096,9.794472,108.3,5.845,1.85,335.95,54.896526,9.792960,54.895069,9.793790
1386921710,1,0,390.9,0,0,0,0,0,0,-0.0292,-1408.6427,6.8213,0.4212,54.895111,9.794488,108.3,5.845,1.85,335.95,54.896526,9.792960,54.895069,9.793790
1386921711,1,0,390.9,0,0,4,0,0,0,-0.0292,-1408.6427,6.8213,0.4212,54.895126,9.794504,108.3,5.845,1.85,335.95,54.896526,9.792960,54.895069,9.793790
1386921711,1,0,390.9,0,0,0,0,0,0,-0.0292,-1408.6427,6.8213,0.4212,54.895142,9.794520,108.3,5.845,1.85,335.95,54.896526,9.792960,54.895069,9.793790
1386921711,1,0,260.3,0,35,4,0,0,0,-0.0292,-1417.9761,6.8213,0.4212,54.895161,9.794532,108.3,5.845,1.85,335.95,54.896526,9.792960,54.895069,9.793790
1386921711,1,0,258.0,0,35,8,0,0,0,-0.0292,-1427.3094,6.8213,0.4212,54.895180,9.794538,108.3,5.845,1.85,335.95,54.896526,9.792960,54.895069,9.793790
1386921712,1,0,255.7,0,35,12,0,0,0,-0.0292,-1436.6428,6.8213,0.4212,54.895199,9.794540,108.3,5.845,1.85,335.95,54.896526,9.792960,54.895069,9.793790
1386921712,1,0,253.4,0,35,16,0,0,0,-0.0292,-1445.9762,6.8213,0.4212,54.895214,9.794538,108.3,5.845,1.85,335.95,54.896526,9.792960,54.895069,9.793790
1386921712,1,0,251.5,0,35,20,0,0,0,-0.0292,-1455.3096,6.8213,0.4212,54.895233,9.794529,108.3,5.845,1.85,335.95,54.896526,9.792960,54.895069,9.793790
1386921712,1,0,249.0,0,35,24,0,0,0,-0.0292,-1464.6429,6.8213,0.4212,54.895252,9.794516,108.3,5.845,1.85,335.95,54.896526,9.792960,54.895069,9.793790
1386921713,1,0,246.4,0,35,28,0,0,0,-0.0292,-1473.9763,6.8213,0.4212,54.895267,9.794498,108.3,5.845,1.85,335.95,54.896526,9.792960,54.895069,9.793790
1386921713,1,0,604.2,0,35,32,0,0,0,-0.0292,-1483.3097,6.8213,0.4212,54.895279,9.794477,108.3,5.845,1.85,335.95,54.896526,9.792960,54.895069,9.793790
1386921713,1,0,602.2,0,35,36,0,0,0,-0.0292,-1492.6431,6.8213,0.4212,54.895290,9.794453,108.3,5.845,1.85,335.95,54.896526,9.792960,54.895069,9.793790
1386921713,1,0,600.0,0,35,32,0,0,0,-0.0292,-1501.9764,6.8213,0.4212,54.895298,9.794425,108.3,5.845,1.85,335.95,54.896526,9.792960,54.895069,9.793790
1386921714,1,0,598.1,0,35,36,0,0,0,-0.0292,-1511.3098,6.8213,0.4212,54.895302,9.794395,108.3,5.845,1.85,335.95,54.896526,9.792960,54.895069,9.793790
1386921714,1,0,596.4,0,35,32,0,0,0,-0.0292,-1520.6432,6.8213,0.4212,54.895306,9.794364,108.3,5.845,1.85,335.95,54.896526,9.792960,54.895069,9.793790
1386921714,1,0,594.6,0,35,36,0,1,50,-0.0292,-1529.9766,6.8213,0.4212,54.895306,9.794333,108.3,5.845,1.85,335.95,54.896526,9.792960,54.895069,9.793790
1386921714,1,0,593.0,0,35,32,0,58,100,-0.0292,-1539.3099,6.8213,0.4212,54.895302,9.794302,108.3,5.845,1.85,335.95,54.896526,9.792960,54.895069,9.793790
1386921715,1,0,591.9,0,29,28,0,173,150,-0.0292,-1547.0432,6.8213,0.4212,54.895298,9.794272,108.3,5.845,1.85,335.95,54.896526,9.792960,54.895069,9.793790
1386921715,1,0,590.7,0,22,24,0,288,200,-0.0292,-1552.9099,6.8213,0.4212,54.895290,9.794244,108.3,5.845,1.85,335.95,54.896526,9.792960,54.895069,9.793790
1386921715,1,0,589.9,0,17,20,0,380,250,-0.0292,-1557.4432,6.8213,0.4212,54.895279,9.794216,108.3,5.845,1.85,335.95,54.896526,9.792960,54.895069,9.793790
1386921715,1,0,589.6,0,13,16,0,453,300,-0.0292,-1560.9099,6.8213,0.4212,54.895271,9.794189,108.3,5.845,1.85,335.95,54.896526,9.792960,54.895069,9.793790
1386921716,1,0,588.8,0,10,12,0,508,350,-0.0292,-1563.5765,6.8213,0.4212,54.895260,9.794164,108.3,5.845,1.85,335.95,54.896526,9.792960,54.895069,9.793790
1386921716,1,0,588.6,0,8,8,0,550,400,-0.0292,-1565.7098,6.8213,0.4212,54.895252,9.794139,108.3,5.845,1.85,335.95,54.896526,9.792960,54.895069,9.793790
1386921716,1,0,587.8,0,6,4,0,584,450,-0.0292,-1567.3098,6.8213,0.4212,54.895241,9.794114,108.3,5.845,1.85,335.95,54.896526,9.792960,54.895069,9.793790
1386921716,1,0,587.5,0,5,8,0,609,500,-0.0292,-1568.6432,6.8213,0.4212,54.895233,9.794090,108.3,5.845,1.85,335.95,54.896526,9.792960,54.895069,9.793790
1386921717,1,0,586.7,0,5,4,0,630,550,-0.0292,-1569.9766,6.8213,0.4212,54.895222,9.794065,108.3,5.845,1.85,335.95,54.896526,9.792960,54.895069,9.793790
1386921717,1,0,586.3,0,4,8,0,651,600,-0.0292,-1571.0432,6.8213,0.4212,54.895210,9.794042,108.3,5.845,1.85,335.95,54.896526,9.792960,54.895069,9.793790
1386921717,1,0,585.9,0,3,4,0,667,650,-0.0292,-1571.8433,6.8213,0.4212,54.895199,9.794019,108.3,5.845,1.85,335.95,54.896526,9.792960,54.895069,9.793790
1386921717,1,0,585.6,0,3,0,0,679,700,-0.0292,-1572.6433,6.8213,0.4212,54.895187,9.793996,108.3,5.845,1.85,335.95,54.896526,9.792960,54.895069,9.793790
1386921718,1,0,585.2,0,2,4,0,691,650,-0.0292,-1573.1766,6.8213,0.4212,54.895176,9.793973,108.3,5.845,1.85,335.95,54.896526,9.792960,54.895069,9.793790
1386921718,1,0,584.8,0,2,0,0,700,700,-0.0292,-1573.7100,6.8213,0.4212,54.895164,9.793950,108.3,5.845,1.85,335.95,54.896526,9.792960,54.895069,9.793790
1386921718,1,0,584.2,0,2,4,0,708,750,-0.0292,-1574.2433,6.8213,0.4212,54.895153,9.793928,108.3,5.845,1.85,335.95,54.896526,9.792960,54.895069,9.793790
1386921718,1,0,583.6,0,2,0,0,716,700,-0.0292,-1574.7766,6.8213,0.4212,54.895142,9.793906,108.3,5.845,1.85,335.95,54.896526,9.792960,54.895069,9.793790
1386921719,1,0,582.9,0,2,4,0,724,750,-0.0292,-1575.3099,6.8213,0.4212,54.895130,9.793884,108.3,5.845,1.85,335.95,54.896526,9.792960,54.895069,9.793790
1386921719,1,0,581.8,0,3,0,0,732,700,-0.0292,-1576.1100,6.8213,0.4212,54.895119,9.793862,108.3,5.845,1.85,335.95,54.896526,9.792960,54.895069,9.793790
1386921719,1,0,580.2,0,4,4,0,744,750,-0.0292,-1577.1766,6.8213,0.4212,54.895103,9.793841,108.3,5.845,1.85,335.95,54.896526,9.792960,54.895069,9.793790
1386921719,1,0,581.0,0,2,0,0,759,800,-0.0292,-1577.7100,6.8213,0.4212,54.895088,9.793820,108.3,5.845,1.85,335.95,54.896526,9.792960,54.895069,9.793790
1386921720,1,0,582.8,0,-1,-4,0,767,750,-0.0292,-1577.4432,6.8213,0.4212,54.895077,9.793799,108.3,5.845,1.85,335.95,54.895069,9.793790,54.895348,9.797490
1386921720,1,0,545.9,0,35,0,0,763,800,-0.0292,-1586.7766,6.8213,0.4212,54.895061,9.793782,108.3,5.845,1.85,335.95,54.895069,9.793790,54.895348,9.797490
1386921720,1,0,545.9,0,27,4,0,870,850,-0.0292,-1593.9766,6.8213,0.4212,54.895046,9.793769,108.3,5.845,1.85,335.95,54.895069,9.793790,54.895348,9.797490
1386921720,1,0,545.9,0,20,8,0,870,900,-0.0292,-1599.3099,6.8213,0.4212,54.895027,9.793757,108.3,5.845,1.85,335.95,54.895069,9.793790,54.895348,9.797490
1386921721,1,0,545.9,0,15,12,0,713,850,-0.0292,-1603.3099,6.8213,0.4212,54.895008,9.793748,108.3,5.845,1.85,335.95,54.895069,9.793790,54.895348,9.797490
1386921721,1,0,545.9,0,11,8,0,713,800,-0.0292,-1606.2433,6.8213,0.4212,54.894989,9.793740,108.3,5.845,1.85,335.95,54.895069,9.793790,54.895348,9.797490
1386921721,1,0,545.9,0,8,12,0,713,750,-0.0292,-1608.3766,6.8213,0.4212,54.894974,9.793735,108.3,5.845,1.85,335.95,54.895069,9.793790,54.895348,9.797490
1386921721,1,0,545.9,0,6,8,0,713,700,-0.0292,-1609.9766,6.8213,0.4212,54.894955,9.793730,108.3,5.845,1.85,335.95,54.895069,9.793790,54.895348,9.797490
1386921722,1,0,545.9,0,4,4,0,713,750,-0.0292,-1611.0432,6.8213,0.4212,54.894936,9.793725,108.3,5.845,1.85,335.95,54.895069,9.793790,54.895348,9.797490
1386921722,1,0,545.9,0,3,0,0,0,700,-0.0292,-1611.8433,6.8213,0.4212,54.894917,9.793720,108.3,5.845,1.85,335.95,54.895069,9.793790,54.895348,9.797490
1386921722,1,0,545.9,0,2,4,0,0,650,-0.0292,-1612.3766,6.8213,0.4212,54.894901,9.793716,108.3,5.845,1.85,335.95,54.895069,9.793790,54.895348,9.797490
1386921722,1,0,545.9,0,2,0,0,0,600,-0.0292,-1612.9099,6.8213,0.4212,54.894882,9.793713,108.3,5.845,1.85,335.95,54.895069,9.793790,54.895348,9.797490
1386921723,1,0,545.9,0,1,4,0,0,550,-0.0292,-1613.1766,6.8213,0.4212,54.894863,9.793709,108.3,5.845,1.85,335.95,54.895069,9.793790,54.895348,9.797490
1386921723,1,0,545.9,0,1,0,0,0,500,-0.0292,-1613.4434,6.8213,0.4212,54.894844,9.793705,108.3,5.845,1.85,335.95,54.895069,9.793790,54.895348,9.797490
1386921723,1,0,545.9,0,1,4,0,0,450,-0.0292,-1613.7101,6.8213,0.4212,54.894829,9.793701,108.3,5.845,1.85,335.95,54.895069,9.793790,54.895348,9.797490
1386921723,1,0,545.9,0,0,0,0,0,400,-0.0292,-1613.7101,6.8213,0.4212,54.894810,9.793698,108.3,5.845,1.85,335.95,54.895069,9.793790,54.895348,9.797490
1386921724,1,0,545.9,0,0,4,0,0,350,-0.0292,-1613.7101,6.8213,0.4212,54.894791,9.793695,108.3,5.845,1.85,335.95,54.895069,9.793790,54.895348,9.797490
1386921724,1,0,545.9,0,0,0,0,0,300,-0.0292,-1613.7101,6.8213,0.4212,54.894775,9.793693,108.3,5.845,1.85,335.95,54.895069,9.793790,54.895348,9.797490
1386921724,1,0,545.9,0,0,4,0,0,250,-0.0292,-1613.7101,6.8213,0.4212,54.894756,9.793690,108.3,5.845,1.85,335.95,54.895069,9.793790,54.895348,9.797490
1386921724,1,0,545.9,0,0,0,0,0,200,-0.0292,-1613.7101,6.8213,0.4212,54.894737,9.793687,108.3,5.845,1.85,335.95,54.895069,9.793790,54.895348,9.797490
1386921725,1,0,545.9,0,0,4,0,0,150,-0.0292,-1613.7101,6.8213,0.4212,54.894718,9.793684,108.3,5.845,1.85,335.95,54.895069,9.793790,54.895348,9.797490
1386921725,1,0,545.9,0,0,0,0,0,100,-0.0292,-1613.7101,6.8213,0.4212,54.894703,9.793680,108.3,5.845,1.85,335.95,54.895069,9.793790,54.895348,9.797490
1386921725,1,0,545.9,0,0,4,0,0,50,-0.0292,-1613.7101,6.8213,0.4212,54.894684,9.793676,108.3,5.845,1.85,335.95,54.895069,9.793790,54.895348,9.797490
1386921725,1,0,545.9,0,0,0,0,0,0,-0.0292,-1613.7101,6.8213,0.4212,54.894665,9.793673,108.3,5.845,1.85,335.95,54.895069,9.793790,54.895348,9.797490
1386921726,1,0,545.9,0,0,4,0,0,0,-0.0292,-1613.7101,6.8213,0.4212,54.894646,9.793669,108.3,5.845,1.85,335.95,54.895069,9.793790,54.895348,9.797490
1386921726,1,0,485.9,0,35,8,0,0,0,-0.0292,-1623.0435,6.8213,0.4212,54.894630,9.793670,108.3,5.845,1.85,335.95,54.895069,9.793790,54.895348,9.797490
1386921726,1,0,485.9,0,35,12,0,0,0,-0.0292,-1632.3768,6.8213,0.4212,54.894611,9.793676,108.3,5.845,1.85,335.95,54.895069,9.793790,54.895348,9.797490
1386921726,1,0,485.9,0,35,16,0,0,0,-0.0292,-1641.7102,6.8213,0.4212,54.894592,9.793688,108.3,5.845,1.85,335.95,54.895069,9.793790,54.895348,9.797490
1386921727,1,0,485.9,0,32,20,0,0,0,-0.0292,-1650.2435,6.8213,0.4212,54.894577,9.793704,108.3,5.845,1.85,335.95,54.895069,9.793790,54.895348,9.797490
1386921727,1,0,485.9,0,24,24,0,0,0,-0.0292,-1656.6436,6.8213,0.4212,54.894562,9.793722,108.3,5.845,1.85,335.95,54.895069,9.793790,54.895348,9.797490
1386921727,1,0,485.9,0,17,20,0,0,0,-0.0292,-1661.1769,6.8213,0.4212,54.894547,9.793742,108.3,5.845,1.85,335.95,54.895069,9.793790,54.895348,9.797490
1386921727,1,0,485.9,0,13,16,0,0,0,-0.0292,-1664.6436,6.8213,0.4212,54.894535,9.793764,108.3,5.845,1.85,335.95,54.895069,9.793790,54.895348,9.797490
1386921728,1,0,485.9,0,9,12,0,0,0,-0.0292,-1667.0436,6.8213,0.4212,54.894524,9.793787,108.3,5.845,1.85,335.95,54.895069,9.793790,54.895348,9.797490
1386921728,1,0,485.9,0,7,8,0,0,0,-0.0292,-1668.9103,6.8213,0.4212,54.894512,9.793811,108.3,5.845,1.85,335.95,54.895069,9.793790,54.895348,9.797490
1386921728,1,0,485.9,0,5,4,0,0,0,-0.0292,-1670.2437,6.8213,0.4212,54.894501,9.793835,108.3,5.845,1.85,335.95,54.895069,9.793790,54.895348,9.797490
1386921728,1,0,485.9,0,4,8,0,0,0,-0.0292,-1671.3103,6.8213,0.4212,54.894493,9.793859,108.3,5.845,1.85,335.95,54.895069,9.793790,54.895348,9.797490
1386921729,1,0,485.9,0,3,4,0,713,50,-0.0292,-1672.1104,6.8213,0.4212,54.894482,9.793883,108.3,5.845,1.85,335.95,54.895069,9.793790,54.895348,9.797490
1386921729,1,0,485.9,0,2,0,0,713,100,-0.0292,-1672.6437,6.8213,0.4212,54.894470,9.793908,108.3,5.845,1.85,335.95,54.895069,9.793790,54.895348,9.797490
1386921729,1,0,485.9,0,1,4,0,713,150,-0.0292,-1672.9104,6.8213,0.4212,54.894459,9.793933,108.3,5.845,1.85,335.95,54.895069,9.793790,54.895348,9.797490
1386921729,1,0,485.9,0,1,0,0,713,200,-0.0292,-1673.1771,6.8213,0.4212,54.894447,9.793958,108.3,5.845,1.85,335.95,54.895069,9.793790,54.895348,9.797490
1386921730,1,0,485.9,0,1,4,0,713,250,-0.0292,-1673.4438,6.8213,0.4212,54.894436,9.793983,108.3,5.845,1.85,335.95,54.895069,9.793790,54.895348,9.797490
1386921730,1,0,485.9,0,1,0,0,713,300,-0.0292,-1673.7106,6.8213,0.4212,54.894424,9.794008,108.3,5.845,1.85,335.95,54.895069,9.793790,54.895348,9.797490
1386921730,1,0,485.9,0,0,4,0,713,350,-0.0292,-1673.7106,6.8213,0.4212,54.894417,9.794033,108.3,5.845,1.85,335.95,54.895069,9.793790,54.895348,9.797490
1386921730,1,0,442.8,0,35,8,0,713,400,-0.0292,-1683.0439,6.8213,0.4212,54.894409,9.794061,108.3,5.845,1.85,335.95,54.895069,9.793790,54.895348,9.797490
1386921731,1,0,424.7,0,35,12,0,713,450,-0.0292,-1692.3773,6.8213,0.4212,54.894402,9.794090,108.3,5.845,1.85,335.95,54.895069,9.793790,54.895348,9.797490
1386921731,1,0,424.3,0,35,16,0,870,500,-0.0292,-1701.7107,6.8213,0.4212,54.894402,9.794121,108.3,5.845,1.85,335.95,54.895069,9.793790,54.895348,9.797490
1386921731,1,0,424.1,0,34,20,0,870,550,-0.0292,-1710.7773,6.8213,0.4212,54.894402,9.794152,108.3,5.845,1.85,335.95,54.895069,9.793790,54.895348,9.797490
1386921731,1,0,423.9,0,25,24,0,762,600,-0.0292,-1717.4440,6.8213,0.4212,54.894405,9.794183,108.3,5.845,1.85,335.95,54.895069,9.793790,54.895348,9.797490
1386921732,1,0,423.8,0,19,20,0,661,650,-0.0292,-1722.5106,6.8213,0.4212,54.894405,9.794213,108.3,5.845,1.85,335.95,54.895069,9.793790,54.895348,9.797490
1386921732,1,0,423.6,0,14,16,0,582,600,-0.0292,-1726.2439,6.8213,0.4212,54.894409,9.794244,108.3,5.845,1.85,335.95,54.895069,9.793790,54.895348,9.797490
1386921732,1,0,423.5,0,10,12,0,523,550,-0.0292,-1728.9105,6.8213,0.4212,54.894413,9.794273,108.3,5.845,1.85,335.95,54.895069,9.793790,54.895348,9.797490
1386921732,1,0,423.3,0,8,8,0,481,500,-0.0292,-1731.0438,6.8213,0.4212,54.894421,9.794302,108.3,5.845,1.85,335.95,54.895069,9.793790,54.895348,9.797490
1386921733,1,0,423.3,0,6,4,0,447,450,-0.0292,-1732.6438,6.8213,0.4212,54.894428,9.794332,108.3,5.845,1.85,335.95,54.895069,9.793790,54.895348,9.797490
1386921733,1,0,423.3,0,4,8,0,421,400,-0.0292,-1733.7104,6.8213,0.4212,54.894436,9.794360,108.3,5.845,1.85,335.95,54.895069,9.793790,54.895348,9.797490
1386921733,1,0,423.3,0,3,4,0,404,450,-0.0292,-1734.5105,6.8213,0.4212,54.894444,9.794389,108.3,5.845,1.85,335.95,54.895069,9.793790,54.895348,9.797490
1386921733,1,0,423.3,0,2,0,0,391,400,-0.0292,-1735.0438,6.8213,0.4212,54.894451,9.794416,108.3,5.845,1.85,335.95,54.895069,9.793790,54.895348,9.797490
1386921734,1,0,423.2,0,2,4,0,383,350,-0.0292,-1735.5771,6.8213,0.4212,54.894459,9.794445,108.3,5.845,1.85,335.95,54.895069,9.793790,54.895348,9.797490
1386921734,1,0,423.2,0,1,0,0,374,400,-0.0292,-1735.8439,6.8213,0.4212,54.894466,9.794473,108.3,5.845,1.85,335.95,54.895069,9.793790,54.895348,9.797490
1386921734,1,0,423.2,0,1,4,0,370,350,-0.0292,-1736.1106,6.8213,0.4212,54.894474,9.794501,108.3,5.845,1.85,335.95,54.895069,9.793790,54.895348,9.797490
1386921734,1,0,423.2,0,1,0,0,366,400,-0.0292,-1736.3773,6.8213,0.4212,54.894482,9.794529,108.3,5.845,1.85,335.95,54.895069,9.793790,54.895348,9.797490
1386921735,1,0,423.2,0,0,4,0,362,350,-0.0292,-1736.3773,6.8213,0.4212,54.894489,9.794557,108.3,5.845,1.85,335.95,54.895069,9.793790,54.895348,9.797490
1386921735,1,0,423.2,0,0,0,0,362,400,-0.0292,-1736.3773,6.8213,0.4212,54.894497,9.794585,108.3,5.845,1.85,335.95,54.895069,9.793790,54.895348,9.797490
1386921735,1,0,423.2,0,0,4,0,362,350,-0.0292,-1736.3773,6.8213,0.4212,54.894505,9.794613,108.3,5.845,1.85,335.95,54.895069,9.793790,54.895348,9.797490
1386921735,1,0,423.1,0,0,0,0,362,400,-0.0292,-1736.3773,6.8213,0.4212,54.894512,9.794641,108.3,5.845,1.85,335.95,54.895069,9.793790,54.895348,9.797490
1386921736,1,0,423.1,0,0,4,0,362,350,-0.0292,-1736.3773,6.8213,0.4212,54.894520,9.794669,108.3,5.845,1.85,335.95,54.895069,9.793790,54.895348,9.797490
1386921736,1,0,423.1,0,1,0,0,362,400,-0.0292,-1736.6440,6.8213,0.4212,54.894527,9.794697,108.3,5.845,1.85,335.95,54.895069,9.793790,54.895348,9.797490
1386921736,1,0,423.1,0,0,4,0,357,350,-0.0292,-1736.6440,6.8213,0.4212,54.894539,9.794724,108.3,5.845,1.85,335.95,54.895069,9.793790,54.895348,9.797490
1386921737,1,0,423.2,0,0,0,0,357,400,-0.0292,-1736.6440,6.8213,0.4212,54.894547,9.794753,108.3,5.845,1.85,335.95,54.895069,9.793790,54.895348,9.797490
1386921737,1,0,423.2,0,0,4,0,357,350,-0.0292,-1736.6440,6.8213,0.4212,54.894554,9.794781,108.3,5.845,1.85,335.95,54.895069,9.793790,54.895348,9.797490
1386921737,1,0,423.2,0,0,0,0,357,400,-0.0292,-1736.6440,6.8213,0.4212,54.894562,9.794808,108.3,5.845,1.85,335.95,54.895069,9.793790,54.895348,9.797490
1386921737,1,0,423.1,0,0,4,0,357,350,-0.0292,-1736.6440,6.8213,0.4212,54.894569,9.794837,108.3,5.845,1.85,335.95,54.895069,9.793790,54.895348,9.797490
1386921738,1,0,423.1,0,0,0,0,357,400,-0.0292,-1736.6440,6.8213,0.4212,54.894577,9.794865,108.3,5.845,1.85,335.95,54.895069,9.793790,54.895348,9.797490
1386921738,1,0,423.1,0,0,4,0,357,350,-0.0292,-1736.6440,6.8213,0.4212,54.894585,9.794892,108.3,5.845,1.85,335.95,54.895069,9.793790,54.895348,9.797490
1386921738,1,0,423.1,0,0,0,0,357,400,-0.0292,-1736.6440,6.8213,0.4212,54.894592,9.794921,108.3,5.845,1.85,335.95,54.895069,9.793790,54.895348,9.797490
1386921738,1,0,423.1,0,0,4,0,357,350,-0.0292,-1736.6440,6.8213,0.4212,54.894600,9.794949,108.3,5.845,1.85,335.95,54.895069,9.793790,54.895348,9.797490
1386921739,1,0,423.1,0,0,0,0,357,400,-0.0292,-1736.6440,6.8213,0.4212,54.894611,9.794976,108.3,5.845,1.85,335.95,54.895069,9.793790,54.895348,9.797490
1386921739,1,0,423.2,0,0,4,0,357,350,-0.0292,-1736.6440,6.8213,0.4212,54.894619,9.795004,108.3,5.845,1.85,335.95,54.895069,9.793790,54.895348,9.797490
1386921739,1,0,423.1,0,0,0,0,357,400,-0.0292,-1736.6440,6.8213,0.4212,54.894627,9.795032,108.3,5.845,1.85,335.95,54.895069,9.793790,54.895348,9.797490
1386921739,1,0,423.1,0,0,4,0,357,350,-0.0292,-1736.6440,6.8213,0.4212,54.894634,9.795060,108.3,5.845,1.85,335.95,54.895069,9.793790,54.895348,9.797490
1386921740,1,0,423.1,0,0,0,0,357,400,-0.0292,-1736.6440,6.8213,0.4212,54.894642,9.795088,108.3,5.845,1.85,335.95,54.895069,9.793790,54.895348,9.797490
1386921740,1,0,423.1,0,0,4,0,357,350,-0.0292,-1736.6440,6.8213,0.4212,54.894650,9.795115,108.3,5.845,1.85,335.95,54.895069,9.793790,54.895348,9.797490
1386921740,1,0,423.1,0,0,0,0,357,400,-0.0292,-1736.6440,6.8213,0.4212,54.894661,9.795144,108.3,5.845,1.85,335.95,54.895069,9.793790,54.895348,9.797490
1386921740,1,0,423.2,0,0,4,0,357,350,-0.0292,-1736.6440,6.8213,0.4212,54.894669,9.795172,108.3,5.845,1.85,335.95,54.895069,9.793790,54.895348,9.797490
1386921741,1,0,423.2,0,0,0,0,357,400,-0.0292,-1736.6440,6.8213,0.4212,54.894676,9.795199,108.3,5.845,1.85,335.95,54.895069,9.793790,54.895348,9.797490
1386921741,1,0,423.1,0,0,4,0,357,350,-0.0292,-1736.6440,6.8213,0.4212,54.894684,9.795228,108.3,5.845,1.85,335.95,54.895069,9.793790,54.895348,9.797490
1386921741,1,0,423.1,0,0,0,0,357,400,-0.0292,-1736.6440,6.8213,0.4212,54.894691,9.795256,108.3,5.845,1.85,335.95,54.895069,9.793790,54.895348,9.797490
1386921741,1,0,423.1,0,0,4,0,357,350,-0.0292,-1736.6440,6.8213,0.4212,54.894699,9.795283,108.3,5.845,1.85,335.95,54.895069,9.793790,54.895348,9.797490
1386921742,1,0,423.1,0,0,0,0,357,400,-0.0292,-1736.6440,6.8213,0.4212,54.894711,9.795312,108.3,5.845,1.85,335.95,54.895069,9.793790,54.895348,9.797490
1386921742,1,0,423.2,0,0,4,0,357,350,-0.0292,-1736.6440,6.8213,0.4212,54.894718,9.795340,108.3,5.845,1.85,335.95,54.895069,9.793790,54.895348,9.797490
1386921742,1,0,423.2,0,0,0,0,357,400,-0.0292,-1736.6440,6.8213,0.4212,54.894726,9.795367,108.3,5.845,1.85,335.95,54.895069,9.793790,54.895348,9.797490
1386921742,1,0,423.2,0,0,4,0,357,350,-0.0292,-1736.6440,6.8213,0.4212,54.894733,9.795396,108.3,5.845,1.85,335.95,54.895069,9.793790,54.895348,9.797490
1386921743,1,0,423.1,0,0,0,0,357,400,-0.0292,-1736.6440,6.8213,0.4212,54.894741,9.795424,108.3,5.845,1.85,335.95,54.895069,9.793790,54.895348,9.797490
1386921743,1,0,423.1,0,0,4,0,357,350,-0.0292,-1736.6440,6.8213,0.4212,54.894749,9.795451,108.3,5.845,1.85,335.95,54.895069,9.793790,54.895348,9.797490
1386921743,1,0,423.1,0,0,0,0,357,400,-0.0292,-1736.6440,6.8213,0.4212,54.894760,9.795480,108.3,5.845,1.85,335.95,54.895069,9.793790,54.895348,9.797490
1386921743,1,0,423.2,0,0,4,0,357,350,-0.0292,-1736.6440,6.8213,0.4212,54.894768,9.795507,108.3,5.845,1.85,335.95,54.895069,9.793790,54.895348,9.797490
1386921744,1,0,423.2,0,0,0,0,357,400,-0.0292,-1736.6440,6.8213,0.4212,54.894775,9.795535,108.3,5.845,1.85,335.95,54.895069,9.793790,54.895348,9.797490
1386921744,1,0,423.2,0,0,4,0,357,350,-0.0292,-1736.6440,6.8213,0.4212,54.894783,9.795564,108.3,5.845,1.85,335.95,54.895069,9.793790,54.895348,9.797490
1386921744,1,0,423.1,0,0,0,0,357,400,-0.0292,-1736.6440,6.8213,0.4212,54.894791,9.795591,108.3,5.845,1.85,335.95,54.895069,9.793790,54.895348,9.797490
1386921744,1,0,423.1,0,0,4,0,357,350,-0.0292,-1736.6440,6.8213,0.4212,54.894798,9.795619,108.3,5.845,1.85,335.95,54.895069,9.793790,54.895348,9.797490
1386921745,1,0,423.1,0,0,0,0,357,400,-0.0292,-1736.6440,6.8213,0.4212,54.894810,9.795647,108.3,5.845,1.85,335.95,54.895069,9.793790,54.895348,9.797490
1386921745,1,0,423.2,0,0,4,0,357,350,-0.0292,-1736.6440,6.8213,0.4212,54.894817,9.795674,108.3,5.845,1.85,335.95,54.895069,9.793790,54.895348,9.797490
1386921745,1,0,423.2,0,0,0,0,357,400,-0.0292,-1736.6440,6.8213,0.4212,54.894825,9.795703,108.3,5.845,1.85,335.95,54.895069,9.793790,54.895348,9.797490
1386921745,1,0,423.2,0,0,4,0,357,350,-0.0292,-1736.6440,6.8213,0.4212,54.894833,9.795731,108.3,5.845,1.85,335.95,54.895069,9.793790,54.895348,9.797490
1386921746,1,0,423.2,0,0,0,0,357,400,-0.0292,-1736.6440,6.8213,0.4212,54.894840,9.795758,108.3,5.845,1.85,335.95,54.895069,9.793790,54.895348,9.797490
1386921746,1,0,423.1,0,0,4,0,357,350,-0.0292,-1736.6440,6.8213,0.4212,54.894848,9.795787,108.3,5.845,1.85,335.95,54.895069,9.793790,54.895348,9.797490
1386921746,1,0,423.1,0,0,0,0,357,400,-0.0292,-1736.6440,6.8213,0.4212,54.894855,9.795815,108.3,5.845,1.85,335.95,54.895069,9.793790,54.895348,9.797490
1386921746,1,0,423.1,0,0,4,0,357,350,-0.0292,-1736.6440,6.8213,0.4212,54.894863,9.795842,108.3,5.845,1.85,335.95,54.895069,9.793790,54.895348,9.797490
1386921747,1,0,423.1,0,0,0,0,357,400,-0.0292,-1736.6440,6.8213,0.4212,54.894871,9.795871,108.3,5.845,1.85,335.95,54.895069,9.793790,54.895348,9.797490
1386921747,1,0,423.0,0,0,4,0,357,350,-0.0292,-1736.6440,6.8213,0.4212,54.894882,9.795898,108.3,5.845,1.85,335.95,54.895069,9.793790,54.895348,9.797490
1386921747,1,0,423.2,0,0,0,0,357,400,-0.0292,-1736.6440,6.8213,0.4212,54.894890,9.795926,108.3,5.845,1.85,335.95,54.895069,9.793790,54.895348,9.797490
1386921747,1,0,423.2,0,0,4,0,357,350,-0.0292,-1736.6440,6.8213,0.4212,54.894897,9.795955,108.3,5.845,1.85,335.95,54.895069,9.793790,54.895348,9.797490
1386921748,1,0,423.1,0,0,0,0,357,400,-0.0292,-1736.6440,6.8213,0.4212,54.894905,9.795982,108.3,5.845,1.85,335.95,54.895069,9.793790,54.895348,9.797490
1386921748,1,0,423.1,0,0,4,0,357,350,-0.0292,-1736.6440,6.8213,0.4212,54.894913,9.796010,108.3,5.845,1.85,335.95,54.895069,9.793790,54.895348,9.797490
1386921748,1,0,423.1,0,0,0,0,357,400,-0.0292,-1736.6440,6.8213,0.4212,54.894920,9.796039,108.3,5.845,1.85,335.95,54.895069,9.793790,54.895348,9.797490
1386921748,1,0,423.0,0,0,4,0,357,350,-0.0292,-1736.6440,6.8213,0.4212,54.894932,9.796066,108.3,5.845,1.85,335.95,54.895069,9.793790,54.895348,9.797490
1386921749,1,0,423.2,0,0,0,0,357,400,-0.0292,-1736.6440,6.8213,0.4212,54.894939,9.796094,108.3,5.845,1.85,335.95,54.895069,9.793790,54.895348,9.797490
1386921749,1,0,423.2,0,0,4,0,357,350,-0.0292,-1736.6440,6.8213,0.4212,54.894947,9.796123,108.3,5.845,1.85,335.95,54.895069,9.793790,54.895348,9.797490
1386921749,1,0,423.2,0,0,0,0,357,400,-0.0292,-1736.6440,6.8213,0.4212,54.894955,9.796150,108.3,5.845,1.85,335.95,54.895069,9.793790,54.895348,9.797490
1386921749,1,0,423.1,0,0,4,0,357,350,-0.0292,-1736.6440,6.8213,0.4212,54.894962,9.796178,108.3,5.845,1.85,335.95,54.895069,9.793790,54.895348,9.797490
1386921750,1,0,423.1,0,0,0,0,357,400,-0.0292,-1736.6440,6.8213,0.4212,54.894970,9.796206,108.3,5.845,1.85,335.95,54.895069,9.793790,54.895348,9.797490
1386921750,1,0,423.1,0,0,4,0,357,350,-0.0292,-1736.6440,6.8213,0.4212,54.894981,9.796233,108.3,5.845,1.85,335.95,54.895069,9.793790,54.895348,9.797490
1386921750,1,0,423.3,0,0,0,0,357,400,-0.0292,-1736.6440,6.8213,0.4212,54.894989,9.796261,108.3,5.845,1.85,335.95,54.895069,9.793790,54.895348,9.797490
1386921750,1,0,423.2,0,0,4,0,357,350,-0.0292,-1736.6440,6.8213,0.4212,54.894997,9.796288,108.3,5.845,1.85,335.95,54.895069,9.793790,54.895348,9.797490
1386921751,1,0,423.2,0,0,0,0,357,400,-0.0292,-1736.6440,6.8213,0.4212,54.895004,9.796316,108.3,5.845,1.85,335.95,54.895069,9.793790,54.895348,9.797490
1386921751,1,0,423.2,0,0,4,0,357,350,-0.0292,-1736.6440,6.8213,0.4212,54.895012,9.796345,108.3,5.845,1.85,335.95,54.895069,9.793790,54.895348,9.797490
1386921751,1,0,423.1,0,0,0,0,357,400,-0.0292,-1736.6440,6.8213,0.4212,54.895020,9.796372,108.3,5.845,1.85,335.95,54.895069,9.793790,54.895348,9.797490
1386921751,1,0,423.1,0,0,4,0,357,350,-0.0292,-1736.6440,6.8213,0.4212,54.895031,9.796400,108.3,5.845,1.85,335.95,54.895069,9.793790,54.895348,9.797490
1386921752,1,0,423.3,0,0,0,0,357,400,-0.0292,-1736.6440,6.8213,0.4212,54.895039,9.796429,108.3,5.845,1.85,335.95,54.895069,9.793790,54.895348,9.797490
1386921752,1,0,423.3,0,0,4,0,357,350,-0.0292,-1736.6440,6.8213,0.4212,54.895046,9.796456,108.3,5.845,1.85,335.95,54.895069,9.793790,54.895348,9.797490
1386921752,1,0,423.3,0,0,0,0,357,400,-0.0292,-1736.6440,6.8213,0.4212,54.895054,9.796484,108.3,5.845,1.85,335.95,54.895069,9.793790,54.895348,9.797490
1386921752,1,0,423.2,0,0,4,0,357,350,-0.0292,-1736.6440,6.8213,0.4212,54.895061,9.796513,108.3,5.845,1.85,335.95,54.895069,9.793790,54.895348,9.797490
1386921753,1,0,423.2,0,0,0,0,357,400,-0.0292,-1736.6440,6.8213,0.4212,54.895069,9.796540,108.3,5.845,1.85,335.95,54.895069,9.793790,54.895348,9.797490
1386921753,1,0,423.1,0,0,4,0,357,350,-0.0292,-1736.6440,6.8213,0.4212,54.895077,9.796568,108.3,5.845,1.85,335.95,54.895069,9.793790,54.895348,9.797490
1386921753,1,0,423.1,0,0,0,0,357,400,-0.0292,-1736.6440,6.8213,0.4212,54.895084,9.796597,108.3,5.845,1.85,335.95,54.895069,9.793790,54.895348,9.797490
1386921753,1,0,423.0,0,0,4,0,357,350,-0.0292,-1736.6440,6.8213,0.4212,54.895092,9.796624,108.3,5.845,1.85,335.95,54.895069,9.793790,54.895348,9.797490
1386921754,1,0,423.0,0,0,0,0,357,400,-0.0292,-1736.6440,6.8213,0.4212,54.895103,9.796652,108.3,5.845,1.85,335.95,54.895069,9.793790,54.895348,9.797490
1386921754,1,0,423.3,0,0,4,0,357,350,-0.0292,-1736.6440,6.8213,0.4212,54.895111,9.796680,108.3,5.845,1.85,335.95,54.895069,9.793790,54.895348,9.797490
1386921754,1,0,423.2,0,0,0,0,357,400,-0.0292,-1736.6440,6.8213,0.4212,54.895119,9.796708,108.3,5.845,1.85,335.95,54.895069,9.793790,54.895348,9.797490
1386921754,1,0,423.2,0,0,4,0,357,350,-0.0292,-1736.6440,6.8213,0.4212,54.895126,9.796736,108.3,5.845,1.85,335.95,54.895069,9.793790,54.895348,9.797490
1386921755,1,0,423.1,0,0,0,0,357,400,-0.0292,-1736.6440,6.8213,0.4212,54.895134,9.796764,108.3,5.845,1.85,335.95,54.895069,9.793790,54.895348,9.797490
1386921755,1,0,423.0,0,0,4,0,357,350,-0.0292,-1736.6440,6.8213,0.4212,54.895142,9.796792,108.3,5.845,1.85,335.95,54.895069,9.793790,54.895348,9.797490
1386921755,1,0,423.0,0,0,0,0,357,400,-0.0292,-1736.6440,6.8213,0.4212,54.895153,9.796820,108.3,5.845,1.85,335.95,54.895069,9.793790,54.895348,9.797490
1386921755,1,0,423.4,0,0,4,0,357,350,-0.0292,-1736.6440,6.8213,0.4212,54.895161,9.796847,108.3,5.845,1.85,335.95,54.895069,9.793790,54.895348,9.797490
1386921756,1,0,423.3,0,0,0,0,357,400,-0.0292,-1736.6440,6.8213,0.4212,54.895168,9.796875,108.3,5.845,1.85,335.95,54.895069,9.793790,54.895348,9.797490
1386921756,1,0,423.3,0,0,4,0,357,350,-0.0292,-1736.6440,6.8213,0.4212,54.895176,9.796903,108.3,5.845,1.85,335.95,54.895069,9.793790,54.895348,9.797490
1386921756,1,0,423.2,0,0,0,0,357,400,-0.0292,-1736.6440,6.8213,0.4212,54.895184,9.796930,108.3,5.845,1.85,335.95,54.895069,9.793790,54.895348,9.797490
1386921756,1,0,423.1,0,0,4,0,357,350,-0.0292,-1736.6440,6.8213,0.4212,54.895191,9.796958,108.3,5.845,1.85,335.95,54.895069,9.793790,54.895348,9.797490
1386921757,1,0,423.1,0,0,0,0,357,400,-0.0292,-1736.6440,6.8213,0.4212,54.895203,9.796987,108.3,5.845,1.85,335.95,54.895069,9.793790,54.895348,9.797490
1386921757,1,0,423.5,0,0,4,0,357,350,-0.0292,-1736.6440,6.8213,0.4212,54.895210,9.797014,108.3,5.845,1.85,335.95,54.895069,9.793790,54.895348,9.797490
1386921757,1,0,423.5,0,0,0,0,357,400,-0.0292,-1736.6440,6.8213,0.4212,54.895218,9.797042,108.3,5.845,1.85,335.95,54.895069,9.793790,54.895348,9.797490
1386921757,1,0,423.4,0,0,4,0,357,350,-0.0292,-1736.6440,6.8213,0.4212,54.895226,9.797071,108.3,5.845,1.85,335.95,54.895069,9.793790,54.895348,9.797490
1386921758,1,0,423.3,0,0,0,0,357,400,-0.0292,-1736.6440,6.8213,0.4212,54.895233,9.797098,108.3,5.845,1.85,335.95,54.895069,9.793790,54.895348,9.797490
1386921758,1,0,423.2,0,0,4,0,357,350,-0.0292,-1736.6440,6.8213,0.4212,54.895241,9.797126,108.3,5.845,1.85,335.95,54.895069,9.793790,54.895348,9.797490
1386921758,1,0,423.1,0,0,0,0,357,400,-0.0292,-1736.6440,6.8213,0.4212,54.895252,9.797154,108.3,5.845,1.85,335.95,54.895069,9.793790,54.895348,9.797490
1386921758,1,0,423.9,0,0,4,0,357,350,-0.0292,-1736.6440,6.8213,0.4212,54.895260,9.797182,108.3,5.845,1.85,335.95,54.895069,9.793790,54.895348,9.797490
1386921759,1,0,423.8,0,0,0,0,357,400,-0.0292,-1736.6440,6.8213,0.4212,54.895267,9.797210,108.3,5.845,1.85,335.95,54.895069,9.793790,54.895348,9.797490
1386921759,1,0,423.7,0,0,4,0,357,350,-0.0292,-1736.6440,6.8213,0.4212,54.895275,9.797238,108.3,5.845,1.85,335.95,54.895069,9.793790,54.895348,9.797490
1386921759,1,0,423.5,0,0,0,0,357,400,-0.0292,-1736.6440,6.8213,0.4212,54.895283,9.797266,108.3,5.845,1.85,335.95,54.895069,9.793790,54.895348,9.797490
1386921759,1,0,423.4,0,0,4,0,357,350,-0.0292,-1736.6440,6.8213,0.4212,54.895290,9.797294,108.3,5.845,1.85,335.95,54.895069,9.793790,54.895348,9.797490
1386921760,1,0,423.3,0,0,0,0,357,400,-0.0292,-1736.6440,6.8213,0.4212,54.895298,9.797322,108.3,5.845,1.85,335.95,54.895069,9.793790,54.895348,9.797490
1386921760,1,0,423.0,0,0,4,0,357,350,-0.0292,-1736.6440,6.8213,0.4212,54.895306,9.797350,108.3,5.845,1.85,335.95,54.895069,9.793790,54.895348,9.797490
1386921760,1,0,422.6,0,1,0,0,357,400,-0.0292,-1736.9108,6.8213,0.4212,54.895313,9.797378,108.3,5.845,1.85,335.95,54.895069,9.793790,54.895348,9.797490
1386921760,1,0,422.2,0,1,4,0,353,350,-0.0292,-1737.1775,6.8213,0.4212,54.895325,9.797405,108.3,5.845,1.85,335.95,54.895069,9.793790,54.895348,9.797490
1386921761,1,0,425.0,0,-2,0,0,349,300,-0.0292,-1736.6442,6.8213,0.4212,54.895332,9.797433,108.3,5.845,1.85,335.95,54.895069,9.793790,54.895348,9.797490
1386921761,1,0,425.3,0,-2,-4,0,357,350,-0.0292,-1736.1108,6.8213,0.4212,54.895340,9.797461,108.3,5.845,1.85,335.95,54.895348,9.797490,54.894039,9.801540
1386921761,1,0,478.9,0,-35,-8,0,366,400,-0.0292,-1726.7775,6.8213,0.4212,54.895344,9.797490,108.3,5.845,1.85,335.95,54.895348,9.797490,54.894039,9.801540
1386921761,1,0,479.1,0,-35,-12,0,515,450,-0.0292,-1717.4441,6.8213,0.4212,54.895344,9.797521,108.3,5.845,1.85,335.95,54.895348,9.797490,54.894039,9.801540
1386921762,1,0,479.3,0,-35,-16,0,661,500,-0.0292,-1708.1107,6.8213,0.4212,54.895340,9.797551,108.3,5.845,1.85,335.95,54.895348,9.797490,54.894039,9.801540
1386921762,1,0,479.4,0,-28,-20,0,801,550,-0.0292,-1700.6440,6.8213,0.4212,54.895336,9.797583,108.3,5.845,1.85,335.95,54.895348,9.797490,54.894039,9.801540
1386921762,1,0,479.5,0,-20,-16,0,870,600,-0.0292,-1695.3107,6.8213,0.4212,54.895332,9.797613,108.3,5.845,1.85,335.95,54.895348,9.797490,54.894039,9.801540
1386921762,1,0,479.6,0,-15,-12,0,870,650,-0.0292,-1691.3107,6.8213,0.4212,54.895329,9.797643,108.3,5.845,1.85,335.95,54.895348,9.797490,54.894039,9.801540
1386921763,1,0,479.8,0,-11,-8,0,870,700,-0.0292,-1688.3773,6.8213,0.4212,54.895321,9.797672,108.3,5.845,1.85,335.95,54.895348,9.797490,54.894039,9.801540
1386921763,1,0,479.8,0,-8,-4,0,713,750,-0.0292,-1686.2440,6.8213,0.4212,54.895313,9.797701,108.3,5.845,1.85,335.95,54.895348,9.797490,54.894039,9.801540
1386921763,1,0,479.8,0,-6,-8,0,713,700,-0.0292,-1684.6440,6.8213,0.4212,54.895306,9.797729,108.3,5.845,1.85,335.95,54.895348,9.797490,54.894039,9.801540
1386921763,1,0,479.9,0,-5,-4,0,713,750,-0.0292,-1683.3107,6.8213,0.4212,54.895298,9.797757,108.3,5.845,1.85,335.95,54.895348,9.797490,54.894039,9.801540
1386921764,1,0,479.9,0,-3,0,0,713,700,-0.0292,-1682.5106,6.8213,0.4212,54.895290,9.797785,108.3,5.845,1.85,335.95,54.895348,9.797490,54.894039,9.801540
1386921764,1,0,479.9,0,-2,-4,0,713,750,-0.0292,-1681.9773,6.8213,0.4212,54.895279,9.797812,108.3,5.845,1.85,335.95,54.895348,9.797490,54.894039,9.801540
1386921764,1,0,479.9,0,-2,0,0,713,700,-0.0292,-1681.4440,6.8213,0.4212,54.895271,9.797840,108.3,5.845,1.85,335.95,54.895348,9.797490,54.894039,9.801540
1386921764,1,0,479.9,0,-1,-4,0,713,750,-0.0292,-1681.1772,6.8213,0.4212,54.895260,9.797868,108.3,5.845,1.85,335.95,54.895348,9.797490,54.894039,9.801540
1386921765,1,0,479.9,0,-1,0,0,713,700,-0.0292,-1680.9105,6.8213,0.4212,54.895252,9.797894,108.3,5.845,1.85,335.95,54.895348,9.797490,54.894039,9.801540
1386921765,1,0,479.9,0,-1,-4,0,713,750,-0.0292,-1680.6438,6.8213,0.4212,54.895245,9.797922,108.3,5.845,1.85,335.95,54.895348,9.797490,54.894039,9.801540
1386921765,1,0,479.9,0,-1,0,0,713,700,-0.0292,-1680.3771,6.8213,0.4212,54.895233,9.797949,108.3,5.845,1.85,335.95,54.895348,9.797490,54.894039,9.801540
1386921765,1,0,479.9,0,0,4,0,713,750,-0.0292,-1680.3771,6.8213,0.4212,54.895226,9.797976,108.3,5.845,1.85,335.95,54.895348,9.797490,54.894039,9.801540
1386921766,1,0,479.9,0,0,0,0,713,700,-0.0292,-1680.3771,6.8213,0.4212,54.895218,9.798003,108.3,5.845,1.85,335.95,54.895348,9.797490,54.894039,9.801540
1386921766,1,0,479.9,0,0,4,0,713,750,-0.0292,-1680.3771,6.8213,0.4212,54.895206,9.798030,108.3,5.845,1.85,335.95,54.895348,9.797490,54.894039,9.801540
1386921766,1,0,479.9,0,0,0,0,713,700,-0.0292,-1680.3771,6.8213,0.4212,54.895199,9.798058,108.3,5.845,1.85,335.95,54.895348,9.797490,54.894039,9.801540
1386921766,1,0,479.9,0,0,4,0,713,750,-0.0292,-1680.3771,6.8213,0.4212,54.895187,9.798085,108.3,5.845,1.85,335.95,54.895348,9.797490,54.894039,9.801540
1386921767,1,0,479.9,0,0,0,0,713,700,-0.0292,-1680.3771,6.8213,0.4212,54.895180,9.798112,108.3,5.845,1.85,335.95,54.895348,9.797490,54.894039,9.801540
1386921767,1,0,479.9,0,0,4,0,713,750,-0.0292,-1680.3771,6.8213,0.4212,54.895172,9.798140,108.3,5.845,1.85,335.95,54.895348,9.797490,54.894039,9.801540
1386921767,1,0,479.9,0,0,0,0,713,700,-0.0292,-1680.3771,6.8213,0.4212,54.895161,9.798166,108.3,5.845,1.85,335.95,54.895348,9.797490,54.894039,9.801540
1386921767,1,0,479.9,0,0,4,0,713,750,-0.0292,-1680.3771,6.8213,0.4212,54.895153,9.798193,108.3,5.845,1.85,335.95,54.895348,9.797490,54.894039,9.801540
