MCU_timestamp,Navigation_System,Manual_Control,Guidance_Heading,Manual_Ctrl_Rudder,Rudder_Desired_Angle,Rudder_Feedback,Manual_Ctrl_Sail,Sail_Desired_Pos,Sail_Feedback,Rate,Heading,Pitch,Roll,Latitude,Longitude,COG,SOG,Wind_Speed,Wind_Angle,Point_Start_Lat,Point_Start_Lon,Point_End_Lat,Point_End_Lon
1390001026,0,0,0.0,0,0,8,0,0,0,-0.0292,104.6255,6.8213,0.4212,54.891590,9.796768,108.3,5.845,1.85,335.95,0.000000,0.000000,0.000000,0.000000
1390001027,0,0,0.0,0,0,8,0,0,0,-0.0292,104.6255,6.8213,0.4212,54.891590,9.796768,108.3,5.845,1.85,335.95,0.000000,0.000000,0.000000,0.000000
1390001027,0,0,0.0,0,0,8,0,0,0,-0.0292,104.6255,6.8213,0.4212,54.891590,9.796768,108.3,5.845,1.85,335.95,0.000000,0.000000,0.000000,0.000000
1390001027,0,0,0.0,0,0,8,0,0,0,-0.0292,104.6255,6.8213,0.4212,54.891590,9.796768,108.3,5.845,1.85,335.95,0.000000,0.000000,0.000000,0.000000
1390001027,0,0,0.0,0,0,8,0,0,0,-0.0292,104.6255,6.8213,0.4212,54.891590,9.796768,108.3,5.845,1.85,335.95,0.000000,0.000000,0.000000,0.000000
1390001028,0,0,0.0,0,0,8,0,0,0,-0.0292,104.6255,6.8213,0.4212,54.891590,9.796768,108.3,5.845,1.85,335.95,0.000000,0.000000,0.000000,0.000000
1390001028,0,0,0.0,0,0,8,0,0,0,-0.0292,104.6255,6.8213,0.4212,54.891590,9.796768,108.3,5.845,1.85,335.95,0.000000,0.000000,0.000000,0.000000
1390001028,0,0,0.0,0,0,8,0,0,0,-0.0292,104.6255,6.8213,0.4212,54.891590,9.796768,108.3,5.845,1.85,335.95,0.000000,0.000000,0.000000,0.000000
1390001028,0,0,0.0,0,0,8,0,0,0,-0.0292,104.6255,6.8213,0.4212,54.891590,9.796768,108.3,5.845,1.85,335.95,0.000000,0.000000,0.000000,0.000000
1390001029,0,0,0.0,0,0,8,0,0,0,-0.0292,104.6255,6.8213,0.4212,54.891590,9.796768,108.3,5.845,1.85,335.95,0.000000,0.000000,0.000000,0.000000
1390001029,0,0,0.0,0,0,8,0,0,0,-0.0292,104.6255,6.8213,0.4212,54.891590,9.796768,108.3,5.845,1.85,335.95,0.000000,0.000000,0.000000,0.000000
1390001029,0,0,0.0,0,0,8,0,0,0,-0.0292,104.6255,6.8213,0.4212,54.891590,9.796768,108.3,5.845,1.85,335.95,0.000000,0.000000,0.000000,0.000000
1390001029,0,0,0.0,0,0,8,0,0,0,-0.0292,104.6255,6.8213,0.4212,54.891590,9.796768,108.3,5.845,1.85,335.95,0.000000,0.000000,0.000000,0.000000
1390001030,0,0,0.0,0,0,8,0,0,0,-0.0292,104.6255,6.8213,0.4212,54.891590,9.796768,108.3,5.845,1.85,335.95,0.000000,0.000000,0.000000,0.000000
1390001030,0,0,0.0,0,0,8,0,0,0,-0.0292,104.6255,6.8213,0.4212,54.891590,9.796768,108.3,5.845,1.85,335.95,0.000000,0.000000,0.000000,0.000000
1390001030,0,0,0.0,0,0,8,0,0,0,-0.0292,104.6255,6.8213,0.4212,54.891590,9.796768,108.3,5.845,1.85,335.95,0.000000,0.000000,0.000000,0.000000
1390001030,0,0,0.0,0,0,8,0,0,0,-0.0292,104.6255,6.8213,0.4212,54.891590,9.796768,108.3,5.845,1.85,335.95,0.000000,0.000000,0.000000,0.000000
1390001031,0,0,0.0,0,0,8,0,0,0,-0.0292,104.6255,6.8213,0.4212,54.891590,9.796768,108.3,5.845,1.85,335.95,0.000000,0.000000,0.000000,0.000000
1390001031,0,0,0.0,0,0,8,0,0,0,-0.0292,104.6255,6.8213,0.4212,54.891590,9.796768,108.3,5.845,1.85,335.95,0.000000,0.000000,0.000000,0.000000
1390001031,0,0,0.0,0,0,8,0,0,0,-0.0292,104.6255,6.8213,0.4212,54.891590,9.796768,108.3,5.845,1.85,335.95,0.000000,0.000000,0.000000,0.000000
1390001031,0,0,0.0,0,0,8,0,0,0,-0.0292,104.6255,6.8213,0.4212,54.891590,9.796768,108.3,5.845,1.85,335.95,0.000000,0.000000,0.000000,0.000000
1390001032,4,0,0.0,0,0,8,0,0,0,-0.0292,104.6255,6.8213,0.4212,54.891590,9.796768,108.3,5.845,1.85,335.95,0.000000,0.000000,0.000000,0.000000
1390001032,1,0,0.0,0,-35,4,0,870,850,-0.0292,116.2922,6.8213,0.4212,54.891582,9.796793,108.3,5.845,1.85,335.95,54.895069,9.793790,54.895348,9.797490
1390001032,1,0,0.0,0,-35,0,0,713,800,-0.0292,127.9588,6.8213,0.4212,54.891571,9.796815,108.3,5.845,1.85,335.95,54.895348,9.797490,54.894039,9.801540
1390001032,1,0,0.0,0,-35,-4,0,713,750,-0.0292,139.6255,6.8213,0.4212,54.891560,9.796834,108.3,5.845,1.85,335.95,54.894039,9.801540,54.893795,9.802299
1390001033,1,0,0.0,0,-30,-8,0,713,700,-0.0292,149.6255,6.8213,0.4212,54.891544,9.796849,108.3,5.845,1.85,335.95,54.893795,9.802299,54.893364,9.803688
1390001033,1,0,0.0,0,-20,-12,0,0,650,-0.0292,156.2922,6.8213,0.4212,54.891529,9.796862,108.3,5.845,1.85,335.95,54.893364,9.803688,54.892704,9.801139
1390001033,1,0,0.0,0,-14,-16,0,0,600,-0.0292,160.9588,6.8213,0.4212,54.891510,9.796872,108.3,5.845,1.85,335.95,54.892704,9.801139,54.891663,9.800174
1390001033,1,0,0.0,0,-9,-12,0,0,550,-0.0292,163.9588,6.8213,0.4212,54.891491,9.796881,108.3,5.845,1.85,335.95,54.891663,9.800174,54.892929,9.805077
1390001034,1,0,0.0,0,-6,-8,0,0,500,-0.0292,165.9588,6.8213,0.4212,54.891472,9.796888,108.3,5.845,1.85,335.95,54.892929,9.805077,54.892498,9.806466
1390001034,1,0,0.0,0,-4,-4,0,713,550,-0.0292,167.2922,6.8213,0.4212,54.891457,9.796895,108.3,5.845,1.85,335.95,54.892498,9.806466,54.891232,9.801563
1390001034,1,0,0.0,0,-3,0,0,713,600,-0.0292,168.2922,6.8213,0.4212,54.891438,9.796902,108.3,5.845,1.85,335.95,54.891232,9.801563,54.890800,9.802953
1390001034,1,0,0.0,0,-2,-4,0,713,650,-0.0292,168.9588,6.8213,0.4212,54.891418,9.796907,108.3,5.845,1.85,335.95,54.890800,9.802953,54.891651,9.806246
1390001035,1,0,0.0,0,-1,0,0,713,700,-0.0292,169.2922,6.8213,0.4212,54.891399,9.796913,108.3,5.845,1.85,335.95,54.891651,9.806246,54.890560,9.805087
1390001035,1,0,0.0,0,-1,-4,0,713,750,-0.0292,169.6255,6.8213,0.4212,54.891384,9.796919,108.3,5.845,1.85,335.95,54.890560,9.805087,54.890366,9.804342
1390001035,1,0,0.0,0,0,0,0,713,700,-0.0292,169.6255,6.8213,0.4212,54.891365,9.796924,108.3,5.845,1.85,335.95,54.890366,9.804342,54.890846,9.801930
1390001035,1,0,0.0,0,0,4,0,713,750,-0.0292,169.6255,6.8213,0.4212,54.891346,9.796928,108.3,5.845,1.85,335.95,54.890846,9.801930,54.889477,9.798280
1390001036,1,0,0.0,0,0,0,0,713,700,-0.0292,169.6255,6.8213,0.4212,54.891331,9.796934,108.3,5.845,1.85,335.95,54.889477,9.798280,54.891819,9.794550
1390001036,1,0,0.0,0,0,4,0,713,750,-0.0292,169.6255,6.8213,0.4212,54.891312,9.796940,108.3,5.845,1.85,335.95,54.891819,9.794550,54.895348,9.797490
1390001036,1,0,0.0,0,0,0,0,713,700,-0.0292,169.6255,6.8213,0.4212,54.891293,9.796946,108.3,5.845,1.85,335.95,54.895348,9.797490,54.895069,9.793790
1390001036,1,0,0.0,0,0,4,0,713,750,-0.0292,169.6255,6.8213,0.4212,54.891273,9.796951,108.3,5.845,1.85,335.95,54.895348,9.797490,54.895069,9.793790
1390001037,3,0,0.0,0,0,0,0,713,700,-0.0292,169.6255,6.8213,0.4212,54.891258,9.796957,108.3,5.845,1.85,335.95,54.895348,9.797490,54.891273,9.796951
1390001037,3,0,0.0,0,0,4,0,713,750,-0.0292,169.6255,6.8213,0.4212,54.891239,9.796963,108.3,5.845,1.85,335.95,54.895348,9.797490,54.891273,9.796951
1390001037,3,0,0.0,0,10,8,0,713,700,-0.0292,166.2922,6.8213,0.4212,54.891220,9.796969,108.3,5.845,1.85,335.95,54.895348,9.797490,54.891273,9.796951
1390001037,3,0,0.0,0,6,4,0,713,750,-0.0292,164.2922,6.8213,0.4212,54.891201,9.796977,108.3,5.845,1.85,335.95,54.895348,9.797490,54.891273,9.796951
1390001038,3,0,0.0,0,4,8,0,0,700,-0.0292,162.9588,6.8213,0.4212,54.891186,9.796986,108.3,5.845,1.85,335.95,54.895348,9.797490,54.891273,9.796951
1390001038,3,0,0.0,0,3,4,0,0,650,-0.0292,161.9588,6.8213,0.4212,54.891167,9.796995,108.3,5.845,1.85,335.95,54.895348,9.797490,54.891273,9.796951
1390001038,3,0,0.0,0,2,0,0,0,600,-0.0292,161.2922,6.8213,0.4212,54.891148,9.797006,108.3,5.845,1.85,335.95,54.895348,9.797490,54.891273,9.796951
1390001038,3,0,0.0,0,1,4,0,0,550,-0.0292,160.9588,6.8213,0.4212,54.891132,9.797015,108.3,5.845,1.85,335.95,54.895348,9.797490,54.891273,9.796951
1390001039,3,0,0.0,0,1,0,0,0,500,-0.0292,160.6255,6.8213,0.4212,54.891117,9.797025,108.3,5.845,1.85,335.95,54.895348,9.797490,54.891273,9.796951
1390001039,3,0,0.0,0,1,4,0,0,450,-0.0292,160.2922,6.8213,0.4212,54.891098,9.797035,108.3,5.845,1.85,335.95,54.895348,9.797490,54.891273,9.796951
1390001039,3,0,0.0,0,0,0,0,0,400,-0.0292,160.2922,6.8213,0.4212,54.891083,9.797046,108.3,5.845,1.85,335.95,54.895348,9.797490,54.891273,9.796951
1390001039,3,0,0.0,0,0,4,0,0,350,-0.0292,160.2922,6.8213,0.4212,54.891068,9.797056,108.3,5.845,1.85,335.95,54.895348,9.797490,54.891273,9.796951
1390001040,3,0,0.0,0,0,0,0,0,300,-0.0292,160.2922,6.8213,0.4212,54.891048,9.797067,108.3,5.845,1.85,335.95,54.895348,9.797490,54.891273,9.796951
1390001040,3,0,0.0,0,0,4,0,0,250,-0.0292,160.2922,6.8213,0.4212,54.891033,9.797077,108.3,5.845,1.85,335.95,54.895348,9.797490,54.891273,9.796951
1390001040,3,0,0.0,0,0,0,0,0,200,-0.0292,160.2922,6.8213,0.4212,54.891018,9.797088,108.3,5.845,1.85,335.95,54.895348,9.797490,54.891273,9.796951
1390001040,3,0,0.0,0,0,4,0,0,150,-0.0292,160.2922,6.8213,0.4212,54.890999,9.797098,108.3,5.845,1.85,335.95,54.895348,9.797490,54.891273,9.796951
1390001041,3,0,0.0,0,0,0,0,0,100,-0.0292,160.2922,6.8213,0.4212,54.890984,9.797109,108.3,5.845,1.85,335.95,54.895348,9.797490,54.891273,9.796951
1390001041,3,0,0.0,0,0,4,0,0,50,-0.0292,160.2922,6.8213,0.4212,54.890968,9.797119,108.3,5.845,1.85,335.95,54.895348,9.797490,54.891273,9.796951
1390001041,3,0,0.0,0,0,0,0,0,0,-0.0292,160.2922,6.8213,0.4212,54.890949,9.797130,108.3,5.845,1.85,335.95,54.895348,9.797490,54.891273,9.796951
1390001042,3,0,0.0,0,0,4,0,0,0,-0.0292,160.2922,6.8213,0.4212,54.890934,9.797140,108.3,5.845,1.85,335.95,54.895348,9.797490,54.891273,9.796951
1390001042,3,0,0.0,0,0,0,0,0,0,-0.0292,160.2922,6.8213,0.4212,54.890919,9.797151,108.3,5.845,1.85,335.95,54.895348,9.797490,54.891273,9.796951
1390001042,3,0,0.0,0,0,4,0,0,0,-0.0292,160.2922,6.8213,0.4212,54.890900,9.797161,108.3,5.845,1.85,335.95,54.895348,9.797490,54.891273,9.796951
1390001042,3,0,0.0,0,10,8,0,0,0,-0.0292,156.9589,6.8213,0.4212,54.890884,9.797174,108.3,5.845,1.85,335.95,54.895348,9.797490,54.891273,9.796951
1390001043,3,0,0.0,0,7,4,0,0,0,-0.0292,154.6255,6.8213,0.4212,54.890869,9.797187,108.3,5.845,1.85,335.95,54.895348,9.797490,54.891273,9.796951
1390001043,3,0,0.0,0,5,8,0,0,0,-0.0292,152.9589,6.8213,0.4212,54.890854,9.797200,108.3,5.845,1.85,335.95,54.895348,9.797490,54.891273,9.796951
1390001043,3,0,0.0,0,3,4,0,0,0,-0.0292,151.9589,6.8213,0.4212,54.890839,9.797215,108.3,5.845,1.85,335.95,54.895348,9.797490,54.891273,9.796951
1390001043,3,0,0.0,0,2,0,0,0,0,-0.0292,151.2922,6.8213,0.4212,54.890827,9.797230,108.3,5.845,1.85,335.95,54.895348,9.797490,54.891273,9.796951
1390001044,3,0,0.0,0,1,4,0,0,0,-0.0292,150.9589,6.8213,0.4212,54.890812,9.797244,108.3,5.845,1.85,335.95,54.895348,9.797490,54.891273,9.796951
1390001044,3,0,0.0,0,1,0,0,0,0,-0.0292,150.6255,6.8213,0.4212,54.890797,9.797259,108.3,5.845,1.85,335.95,54.895348,9.797490,54.891273,9.796951
1390001044,3,0,0.0,0,1,4,0,0,0,-0.0292,150.2922,6.8213,0.4212,54.890781,9.797275,108.3,5.845,1.85,335.95,54.895348,9.797490,54.891273,9.796951
1390001044,3,0,0.0,0,0,0,0,0,0,-0.0292,150.2922,6.8213,0.4212,54.890766,9.797290,108.3,5.845,1.85,335.95,54.895348,9.797490,54.891273,9.796951
1390001045,3,0,0.0,0,0,4,0,0,0,-0.0292,150.2922,6.8213,0.4212,54.890747,9.797305,108.3,5.845,1.85,335.95,54.895348,9.797490,54.891273,9.796951
1390001045,3,0,0.0,0,0,0,0,0,0,-0.0292,150.2922,6.8213,0.4212,54.890732,9.797319,108.3,5.845,1.85,335.95,54.895348,9.797490,54.891273,9.796951
1390001045,3,0,0.0,0,0,4,0,0,0,-0.0292,150.2922,6.8213,0.4212,54.890717,9.797335,108.3,5.845,1.85,335.95,54.895348,9.797490,54.891273,9.796951
1390001045,3,0,0.0,0,0,0,0,0,0,-0.0292,150.2922,6.8213,0.4212,54.890697,9.797350,108.3,5.845,1.85,335.95,54.895348,9.797490,54.891273,9.796951
1390001046,3,0,0.0,0,0,4,0,0,0,-0.0292,150.2922,6.8213,0.4212,54.890682,9.797364,108.3,5.845,1.85,335.95,54.895348,9.797490,54.891273,9.796951
1390001046,3,0,0.0,0,0,0,0,0,0,-0.0292,150.2922,6.8213,0.4212,54.890667,9.797379,108.3,5.845,1.85,335.95,54.895348,9.797490,54.891273,9.796951
1390001046,3,0,0.0,0,0,4,0,0,0,-0.0292,150.2922,6.8213,0.4212,54.890648,9.797395,108.3,5.845,1.85,335.95,54.895348,9.797490,54.891273,9.796951
1390001046,0,0,0.0,0,0,4,0,0,0,-0.0292,150.2922,6.8213,0.4212,54.890648,9.797395,108.3,5.845,1.85,335.95,54.895348,9.797490,54.891273,9.796951
1390001047,0,0,0.0,0,0,4,0,0,0,-0.0292,150.2922,6.8213,0.4212,54.890648,9.797395,108.3,5.845,1.85,335.95,54.895348,9.797490,54.891273,9.796951
1390001047,0,0,0.0,0,0,4,0,0,0,-0.0292,150.2922,6.8213,0.4212,54.890648,9.797395,108.3,5.845,1.85,335.95,54.895348,9.797490,54.891273,9.796951
1390001047,0,0,0.0,0,0,4,0,0,0,-0.0292,150.2922,6.8213,0.4212,54.890648,9.797395,108.3,5.845,1.85,335.95,54.895348,9.797490,54.891273,9.796951
1390001047,0,0,0.0,0,0,4,0,0,0,-0.0292,150.2922,6.8213,0.4212,54.890648,9.797395,108.3,5.845,1.85,335.95,54.895348,9.797490,54.891273,9.796951
1390001048,0,0,0.0,0,0,4,0,0,0,-0.0292,150.2922,6.8213,0.4212,54.890648,9.797395,108.3,5.845,1.85,335.95,54.895348,9.797490,54.891273,9.796951
1390001048,0,0,0.0,0,0,4,0,0,0,-0.0292,150.2922,6.8213,0.4212,54.890648,9.797395,108.3,5.845,1.85,335.95,54.895348,9.797490,54.891273,9.796951
1390001048,0,0,0.0,0,0,4,0,0,0,-0.0292,150.2922,6.8213,0.4212,54.890648,9.797395,108.3,5.845,1.85,335.95,54.895348,9.797490,54.891273,9.796951
1390001048,0,0,0.0,0,0,4,0,0,0,-0.0292,150.2922,6.8213,0.4212,54.890648,9.797395,108.3,5.845,1.85,335.95,54.895348,9.797490,54.891273,9.796951
1390001049,0,0,0.0,0,0,4,0,0,0,-0.0292,150.2922,6.8213,0.4212,54.890648,9.797395,108.3,5.845,1.85,335.95,54.895348,9.797490,54.891273,9.796951
1390001049,0,0,0.0,0,0,4,0,0,0,-0.0292,150.2922,6.8213,0.4212,54.890648,9.797395,108.3,5.845,1.85,335.95,54.895348,9.797490,54.891273,9.796951
1390001049,0,0,0.0,0,0,4,0,0,0,-0.0292,150.2922,6.8213,0.4212,54.890648,9.797395,108.3,5.845,1.85,335.95,54.895348,9.797490,54.891273,9.796951
1390001049,0,0,0.0,0,0,4,0,0,0,-0.0292,150.2922,6.8213,0.4212,54.890648,9.797395,108.3,5.845,1.85,335.95,54.895348,9.797490,54.891273,9.796951
1390001050,0,0,0.0,0,0,4,0,0,0,-0.0292,150.2922,6.8213,0.4212,54.890648,9.797395,108.3,5.845,1.85,335.95,54.895348,9.797490,54.891273,9.796951
1390001050,0,0,0.0,0,0,4,0,0,0,-0.0292,150.2922,6.8213,0.4212,54.890648,9.797395,108.3,5.845,1.85,335.95,54.895348,9.797490,54.891273,9.796951
1390001050,0,0,0.0,0,0,4,0,0,0,-0.0292,150.2922,6.8213,0.4212,54.890648,9.797395,108.3,5.845,1.85,335.95,54.895348,9.797490,54.891273,9.796951
1390001050,0,0,0.0,0,0,4,0,0,0,-0.0292,150.2922,6.8213,0.4212,54.890648,9.797395,108.3,5.845,1.85,335.95,54.895348,9.797490,54.891273,9.796951
1390001051,0,0,0.0,0,0,4,0,0,0,-0.0292,150.2922,6.8213,0.4212,54.890648,9.797395,108.3,5.845,1.85,335.95,54.895348,9.797490,54.891273,9.796951
1390001051,0,0,0.0,0,0,4,0,0,0,-0.0292,150.2922,6.8213,0.4212,54.890648,9.797395,108.3,5.845,1.85,335.95,54.895348,9.797490,54.891273,9.796951
1390001051,0,0,0.0,0,0,4,0,0,0,-0.0292,150.2922,6.8213,0.4212,54.890648,9.797395,108.3,5.845,1.85,335.95,54.895348,9.797490,54.891273,9.796951
1390001051,0,0,0.0,0,0,4,0,0,0,-0.0292,150.2922,6.8213,0.4212,54.890648,9.797395,108.3,5.845,1.85,335.95,54.895348,9.797490,54.891273,9.796951
1390001052,0,0,0.0,0,0,4,0,0,0,-0.0292,150.2922,6.8213,0.4212,54.890648,9.797395,108.3,5.845,1.85,335.95,54.895348,9.797490,54.891273,9.796951
1390001052,0,0,0.0,0,0,4,0,0,0,-0.0292,150.2922,6.8213,0.4212,54.890648,9.797395,108.3,5.845,1.85,335.95,54.895348,9.797490,54.891273,9.796951
1390001052,0,0,0.0,0,0,4,0,0,0,-0.0292,150.2922,6.8213,0.4212,54.890648,9.797395,108.3,5.845,1.85,335.95,54.895348,9.797490,54.891273,9.796951
1390001052,0,0,0.0,0,0,4,0,0,0,-0.0292,150.2922,6.8213,0.4212,54.890648,9.797395,108.3,5.845,1.85,335.95,54.895348,9.797490,54.891273,9.796951
1390001053,0,0,0.0,0,0,4,0,0,0,-0.0292,150.2922,6.8213,0.4212,54.890648,9.797395,108.3,5.845,1.85,335.95,54.895348,9.797490,54.891273,9.796951
1390001053,0,0,0.0,0,0,4,0,0,0,-0.0292,150.2922,6.8213,0.4212,54.890648,9.797395,108.3,5.845,1.85,335.95,54.895348,9.797490,54.891273,9.796951
1390001053,0,0,0.0,0,0,4,0,0,0,-0.0292,150.2922,6.8213,0.4212,54.890648,9.797395,108.3,5.845,1.85,335.95,54.895348,9.797490,54.891273,9.796951
1390001053,0,0,0.0,0,0,4,0,0,0,-0.0292,150.2922,6.8213,0.4212,54.890648,9.797395,108.3,5.845,1.85,335.95,54.895348,9.797490,54.891273,9.796951
1390001054,0,0,0.0,0,0,4,0,0,0,-0.0292,150.2922,6.8213,0.4212,54.890648,9.797395,108.3,5.845,1.85,335.95,54.895348,9.797490,54.891273,9.796951
1390001054,0,0,0.0,0,0,4,0,0,0,-0.0292,150.2922,6.8213,0.4212,54.890648,9.797395,108.3,5.845,1.85,335.95,54.895348,9.797490,54.891273,9.796951
1390001054,0,0,0.0,0,0,4,0,0,0,-0.0292,150.2922,6.8213,0.4212,54.890648,9.797395,108.3,5.845,1.85,335.95,54.895348,9.797490,54.891273,9.796951
1390001054,0,0,0.0,0,0,4,0,0,0,-0.0292,150.2922,6.8213,0.4212,54.890648,9.797395,108.3,5.845,1.85,335.95,54.895348,9.797490,54.891273,9.796951
1390001055,0,0,0.0,0,0,4,0,0,0,-0.0292,150.2922,6.8213,0.4212,54.890648,9.797395,108.3,5.845,1.85,335.95,54.895348,9.797490,54.891273,9.796951
1390001055,0,0,0.0,0,0,4,0,0,0,-0.0292,150.2922,6.8213,0.4212,54.890648,9.797395,108.3,5.845,1.85,335.95,54.895348,9.797490,54.891273,9.796951
1390001055,0,0,0.0,0,0,4,0,0,0,-0.0292,150.2922,6.8213,0.4212,54.890648,9.797395,108.3,5.845,1.85,335.95,54.895348,9.797490,54.891273,9.796951
1390001055,0,0,0.0,0,0,4,0,0,0,-0.0292,150.2922,6.8213,0.4212,54.890648,9.797395,108.3,5.845,1.85,335.95,54.895348,9.797490,54.891273,9.796951
1390001056,0,0,0.0,0,0,4,0,0,0,-0.0292,150.2922,6.8213,0.4212,54.890648,9.797395,108.3,5.845,1.85,335.95,54.895348,9.797490,54.891273,9.796951
1390001056,0,0,0.0,0,0,4,0,0,0,-0.0292,150.2922,6.8213,0.4212,54.890648,9.797395,108.3,5.845,1.85,335.95,54.895348,9.797490,54.891273,9.796951
1390001056,0,0,0.0,0,0,4,0,0,0,-0.0292,150.2922,6.8213,0.4212,54.890648,9.797395,108.3,5.845,1.85,335.95,54.895348,9.797490,54.891273,9.796951
1390001056,0,0,0.0,0,0,4,0,0,0,-0.0292,150.2922,6.8213,0.4212,54.890648,9.797395,108.3,5.845,1.85,335.95,54.895348,9.797490,54.891273,9.796951
1390001057,0,0,0.0,0,0,4,0,0,0,-0.0292,150.2922,6.8213,0.4212,54.890648,9.797395,108.3,5.845,1.85,335.95,54.895348,9.797490,54.891273,9.796951
1390001057,0,0,0.0,0,0,4,0,0,0,-0.0292,150.2922,6.8213,0.4212,54.890648,9.797395,108.3,5.845,1.85,335.95,54.895348,9.797490,54.891273,9.796951
1390001057,0,0,0.0,0,0,4,0,0,0,-0.0292,150.2922,6.8213,0.4212,54.890648,9.797395,108.3,5.845,1.85,335.95,54.895348,9.797490,54.891273,9.796951
1390001057,0,0,0.0,0,0,4,0,0,0,-0.0292,150.2922,6.8213,0.4212,54.890648,9.797395,108.3,5.845,1.85,335.95,54.895348,9.797490,54.891273,9.796951
1390001058,0,0,0.0,0,0,4,0,0,0,-0.0292,150.2922,6.8213,0.4212,54.890648,9.797395,108.3,5.845,1.85,335.95,54.895348,9.797490,54.891273,9.796951
1390001058,0,0,0.0,0,0,4,0,0,0,-0.0292,150.2922,6.8213,0.4212,54.890648,9.797395,108.3,5.845,1.85,335.95,54.895348,9.797490,54.891273,9.796951
1390001058,0,0,0.0,0,0,4,0,0,0,-0.0292,150.2922,6.8213,0.4212,54.890648,9.797395,108.3,5.845,1.85,335.95,54.895348,9.797490,54.891273,9.796951
1390001058,0,0,0.0,0,0,4,0,0,0,-0.0292,150.2922,6.8213,0.4212,54.890648,9.797395,108.3,5.845,1.85,335.95,54.895348,9.797490,54.891273,9.796951
1390001059,0,0,0.0,0,0,4,0,0,0,-0.0292,150.2922,6.8213,0.4212,54.890648,9.797395,108.3,5.845,1.85,335.95,54.895348,9.797490,54.891273,9.796951
1390001059,0,0,0.0,0,0,4,0,0,0,-0.0292,150.2922,6.8213,0.4212,54.890648,9.797395,108.3,5.845,1.85,335.95,54.895348,9.797490,54.891273,9.796951
1390001059,0,0,0.0,0,0,4,0,0,0,-0.0292,150.2922,6.8213,0.4212,54.890648,9.797395,108.3,5.845,1.85,335.95,54.895348,9.797490,54.891273,9.796951
1390001059,0,0,0.0,0,0,4,0,0,0,-0.0292,150.2922,6.8213,0.4212,54.890648,9.797395,108.3,5.845,1.85,335.95,54.895348,9.797490,54.891273,9.796951
1390001060,0,0,0.0,0,0,4,0,0,0,-0.0292,150.2922,6.8213,0.4212,54.890648,9.797395,108.3,5.845,1.85,335.95,54.895348,9.797490,54.891273,9.796951
