MCU_timestamp,Navigation_System,Manual_Control,Guidance_Heading,Manual_Ctrl_Rudder,Rudder_Desired_Angle,Rudder_Feedback,Manual_Ctrl_Sail,Sail_Desired_Pos,Sail_Feedback,Rate,Heading,Pitch,Roll,Latitude,Longitude,COG,SOG,Wind_Speed,Wind_Angle,Point_Start_Lat,Point_Start_Lon,Point_End_Lat,Point_End_Lon
1390095981,3,0,0.0,0,0,4,0,0,0,-0.0292,0.2922,6.8213,0.4212,54.899246,9.782220,108.3,5.845,1.85,335.95,0.000000,0.000000,54.899250,9.782220
1390095981,3,0,0.0,0,0,0,0,0,0,-0.0292,0.2922,6.8213,0.4212,54.899246,9.782220,108.3,5.845,1.85,335.95,0.000000,0.000000,54.899250,9.782220
1390095981,3,0,0.0,0,0,4,0,0,0,-0.0292,0.2922,6.8213,0.4212,54.899246,9.782220,108.3,5.845,1.85,335.95,0.000000,0.000000,54.899250,9.782220
1390095982,3,0,0.0,0,0,0,0,0,0,-0.0292,0.2922,6.8213,0.4212,54.899246,9.782220,108.3,5.845,1.85,335.95,0.000000,0.000000,54.899250,9.782220
1390095982,3,0,0.0,0,0,4,0,0,0,-0.0292,0.2922,6.8213,0.4212,54.899246,9.782220,108.3,5.845,1.85,335.95,0.000000,0.000000,54.899250,9.782220
1390095982,3,0,0.0,0,0,0,0,0,0,-0.0292,0.2922,6.8213,0.4212,54.899246,9.782220,108.3,5.845,1.85,335.95,0.000000,0.000000,54.899250,9.782220
1390095982,3,0,0.0,0,0,4,0,0,0,-0.0292,0.2922,6.8213,0.4212,54.899246,9.782220,108.3,5.845,1.85,335.95,0.000000,0.000000,54.899250,9.782220
1390095983,3,0,0.0,0,0,0,0,0,0,-0.0292,0.2922,6.8213,0.4212,54.899246,9.782220,108.3,5.845,1.85,335.95,0.000000,0.000000,54.899250,9.782220
1390095983,3,0,0.0,0,0,4,0,0,0,-0.0292,0.2922,6.8213,0.4212,54.899246,9.782220,108.3,5.845,1.85,335.95,0.000000,0.000000,54.899250,9.782220
1390095983,3,0,0.0,0,0,0,0,0,0,-0.0292,0.2922,6.8213,0.4212,54.899246,9.782220,108.3,5.845,1.85,335.95,0.000000,0.000000,54.899250,9.782220
1390095983,3,0,0.0,0,0,4,0,0,0,-0.0292,0.2922,6.8213,0.4212,54.899246,9.782220,108.3,5.845,1.85,335.95,0.000000,0.000000,54.899250,9.782220
1390095984,3,0,0.0,0,0,0,0,0,0,-0.0292,0.2922,6.8213,0.4212,54.899246,9.782220,108.3,5.845,1.85,335.95,0.000000,0.000000,54.899250,9.782220
1390095984,3,0,0.0,0,0,4,0,0,0,-0.0292,0.2922,6.8213,0.4212,54.899246,9.782220,108.3,5.845,1.85,335.95,0.000000,0.000000,54.899250,9.782220
1390095984,3,0,0.0,0,0,0,0,0,0,-0.0292,0.2922,6.8213,0.4212,54.899246,9.782220,108.3,5.845,1.85,335.95,0.000000,0.000000,54.899250,9.782220
1390095984,3,0,0.0,0,0,4,0,0,0,-0.0292,0.2922,6.8213,0.4212,54.899246,9.782220,108.3,5.845,1.85,335.95,0.000000,0.000000,54.899250,9.782220
1390095985,3,0,0.0,0,0,0,0,0,0,-0.0292,0.2922,6.8213,0.4212,54.899246,9.782220,108.3,5.845,1.85,335.95,0.000000,0.000000,54.899250,9.782220
1390095985,3,0,0.0,0,0,4,0,0,0,-0.0292,0.2922,6.8213,0.4212,54.899246,9.782220,108.3,5.845,1.85,335.95,0.000000,0.000000,54.899250,9.782220
1390095985,3,0,0.0,0,0,0,0,0,0,-0.0292,0.2922,6.8213,0.4212,54.899246,9.782220,108.3,5.845,1.85,335.95,0.000000,0.000000,54.899250,9.782220
1390095985,3,0,0.0,0,0,4,0,0,0,-0.0292,0.2922,6.8213,0.4212,54.899246,9.782220,108.3,5.845,1.85,335.95,0.000000,0.000000,54.899250,9.782220
1390095986,3,0,0.0,0,0,0,0,10,50,-0.0292,0.2922,6.8213,0.4212,54.899258,9.782220,108.3,5.845,1.85,335.95,0.000000,0.000000,54.899250,9.782220
1390095986,3,0,0.0,0,0,4,0,10,0,-0.0292,0.2922,6.8213,0.4212,54.899258,9.782220,108.3,5.845,1.85,335.95,0.000000,0.000000,54.899250,9.782220
1390095986,3,0,0.0,0,0,0,0,10,50,-0.0292,0.2922,6.8213,0.4212,54.899265,9.782220,108.3,5.845,1.85,335.95,0.000000,0.000000,54.899250,9.782220
1390095986,3,0,0.0,0,0,4,0,10,0,-0.0292,0.2922,6.8213,0.4212,54.899265,9.782220,108.3,5.845,1.85,335.95,0.000000,0.000000,54.899250,9.782220
1390095987,3,0,0.0,0,0,0,0,10,50,-0.0292,0.2922,6.8213,0.4212,54.899273,9.782220,108.3,5.845,1.85,335.95,0.000000,0.000000,54.899250,9.782220
1390095987,3,0,0.0,0,0,4,0,10,0,-0.0292,0.2922,6.8213,0.4212,54.899277,9.782220,108.3,5.845,1.85,335.95,0.000000,0.000000,54.899250,9.782220
1390095987,0,0,0.0,0,0,4,0,10,0,-0.0292,0.2922,6.8213,0.4212,54.899277,9.782220,108.3,5.845,1.85,335.95,0.000000,0.000000,54.899250,9.782220
1390095987,0,0,0.0,0,0,4,0,10,0,-0.0292,0.2922,6.8213,0.4212,54.899277,9.782220,108.3,5.845,1.85,335.95,0.000000,0.000000,54.899250,9.782220
1390095988,0,0,0.0,0,0,4,0,10,0,-0.0292,0.2922,6.8213,0.4212,54.899277,9.782220,108.3,5.845,1.85,335.95,0.000000,0.000000,54.899250,9.782220
1390095988,0,0,0.0,0,0,4,0,10,0,-0.0292,0.2922,6.8213,0.4212,54.899277,9.782220,108.3,5.845,1.85,335.95,0.000000,0.000000,54.899250,9.782220
1390095988,0,0,0.0,0,0,4,0,10,0,-0.0292,0.2922,6.8213,0.4212,54.899277,9.782220,108.3,5.845,1.85,335.95,0.000000,0.000000,54.899250,9.782220
1390095988,0,0,0.0,0,0,4,0,10,0,-0.0292,0.2922,6.8213,0.4212,54.899277,9.782220,108.3,5.845,1.85,335.95,0.000000,0.000000,54.899250,9.782220
1390095989,0,0,0.0,0,0,4,0,10,0,-0.0292,0.2922,6.8213,0.4212,54.899277,9.782220,108.3,5.845,1.85,335.95,0.000000,0.000000,54.899250,9.782220
1390095989,4,0,0.0,0,0,4,0,10,0,-0.0292,0.2922,6.8213,0.4212,54.899277,9.782220,108.3,5.845,1.85,335.95,0.000000,0.000000,54.899250,9.782220
1390095989,1,0,0.0,0,0,0,0,10,50,-0.0292,0.2922,6.8213,0.4212,54.899284,9.782220,108.3,5.845,1.85,335.95,54.895069,9.793790,54.895348,9.797490
1390095989,1,0,0.0,0,0,4,0,10,0,-0.0292,0.2922,6.8213,0.4212,54.899284,9.782220,108.3,5.845,1.85,335.95,54.895348,9.797490,54.894039,9.801540
1390095990,1,0,0.0,0,0,0,0,10,50,-0.0292,0.2922,6.8213,0.4212,54.899292,9.782220,108.3,5.845,1.85,335.95,54.894039,9.801540,54.893795,9.802299
1390095990,1,0,0.0,0,0,4,0,10,0,-0.0292,0.2922,6.8213,0.4212,54.899292,9.782220,108.3,5.845,1.85,335.95,54.893795,9.802299,54.893364,9.803688
1390095990,1,0,0.0,0,0,0,0,10,50,-0.0292,0.2922,6.8213,0.4212,54.899300,9.782220,108.3,5.845,1.85,335.95,54.893364,9.803688,54.892704,9.801139
1390095990,1,0,0.0,0,0,4,0,10,0,-0.0292,0.2922,6.8213,0.4212,54.899296,9.782220,108.3,5.845,1.85,335.95,54.892704,9.801139,54.891663,9.800174
1390095991,1,0,0.0,0,0,0,0,10,50,-0.0292,0.2922,6.8213,0.4212,54.899307,9.782220,108.3,5.845,1.85,335.95,54.891663,9.800174,54.892929,9.805077
1390095991,1,0,0.0,0,0,4,0,10,0,-0.0292,0.2922,6.8213,0.4212,54.899307,9.782220,108.3,5.845,1.85,335.95,54.892929,9.805077,54.892498,9.806466
1390095991,1,0,0.0,0,0,0,0,10,50,-0.0292,0.2922,6.8213,0.4212,54.899315,9.782220,108.3,5.845,1.85,335.95,54.892498,9.806466,54.891232,9.801563
1390095991,1,0,0.0,0,0,4,0,10,0,-0.0292,0.2922,6.8213,0.4212,54.899315,9.782220,108.3,5.845,1.85,335.95,54.891232,9.801563,54.890800,9.802953
1390095992,1,0,0.0,0,0,0,0,10,50,-0.0292,0.2922,6.8213,0.4212,54.899323,9.782220,108.3,5.845,1.85,335.95,54.890800,9.802953,54.891651,9.806246
1390095992,1,0,0.0,0,0,4,0,10,0,-0.0292,0.2922,6.8213,0.4212,54.899326,9.782220,108.3,5.845,1.85,335.95,54.891651,9.806246,54.890560,9.805087
1390095992,1,0,0.0,0,0,0,0,10,50,-0.0292,0.2922,6.8213,0.4212,54.899334,9.782220,108.3,5.845,1.85,335.95,54.890560,9.805087,54.890366,9.804342
1390095992,1,0,0.0,0,0,4,0,10,0,-0.0292,0.2922,6.8213,0.4212,54.899334,9.782220,108.3,5.845,1.85,335.95,54.890366,9.804342,54.890846,9.801930
1390095993,1,0,0.0,0,0,0,0,20,50,-0.0292,0.2922,6.8213,0.4212,54.899342,9.782220,108.3,5.845,1.85,335.95,54.890846,9.801930,54.889477,9.798280
1390095993,1,0,0.0,0,0,4,0,20,0,-0.0292,0.2922,6.8213,0.4212,54.899342,9.782220,108.3,5.845,1.85,335.95,54.889477,9.798280,54.891819,9.794550
1390095993,1,0,0.0,0,0,0,0,20,50,-0.0292,0.2922,6.8213,0.4212,54.899353,9.782220,108.3,5.845,1.85,335.95,54.891819,9.794550,54.895348,9.797490
1390095993,1,0,0.0,0,0,4,0,20,0,-0.0292,0.2922,6.8213,0.4212,54.899353,9.782220,108.3,5.845,1.85,335.95,54.895348,9.797490,54.895069,9.793790
1390095994,1,0,0.0,0,0,0,0,20,50,-0.0292,0.2922,6.8213,0.4212,54.899361,9.782220,108.3,5.845,1.85,335.95,54.895348,9.797490,54.895069,9.793790
1390095994,3,0,0.0,0,0,4,0,20,0,-0.0292,0.2922,6.8213,0.4212,54.899361,9.782220,108.3,5.845,1.85,335.95,54.895348,9.797490,54.899361,9.782220
1390095994,3,0,0.0,0,0,0,0,20,50,-0.0292,0.2922,6.8213,0.4212,54.899368,9.782220,108.3,5.845,1.85,335.95,54.895348,9.797490,54.899361,9.782220
1390095994,3,0,0.0,0,0,4,0,20,0,-0.0292,0.2922,6.8213,0.4212,54.899368,9.782220,108.3,5.845,1.85,335.95,54.895348,9.797490,54.899361,9.782220
1390095995,3,0,0.0,0,0,0,0,20,50,-0.0292,0.2922,6.8213,0.4212,54.899380,9.782220,108.3,5.845,1.85,335.95,54.895348,9.797490,54.899361,9.782220
1390095995,3,0,0.0,0,0,4,0,20,0,-0.0292,0.2922,6.8213,0.4212,54.899380,9.782220,108.3,5.845,1.85,335.95,54.895348,9.797490,54.899361,9.782220
1390095995,3,0,0.0,0,0,0,0,20,50,-0.0292,0.2922,6.8213,0.4212,54.899387,9.782220,108.3,5.845,1.85,335.95,54.895348,9.797490,54.899361,9.782220
1390095995,3,0,0.0,0,0,4,0,20,0,-0.0292,0.2922,6.8213,0.4212,54.899387,9.782220,108.3,5.845,1.85,335.95,54.895348,9.797490,54.899361,9.782220
1390095996,3,0,0.0,0,0,0,0,20,50,-0.0292,0.2922,6.8213,0.4212,54.899395,9.782220,108.3,5.845,1.85,335.95,54.895348,9.797490,54.899361,9.782220
1390095996,3,0,0.0,0,0,4,0,20,0,-0.0292,0.2922,6.8213,0.4212,54.899395,9.782220,108.3,5.845,1.85,335.95,54.895348,9.797490,54.899361,9.782220
1390095996,3,0,0.0,0,0,0,0,20,50,-0.0292,0.2922,6.8213,0.4212,54.899406,9.782220,108.3,5.845,1.85,335.95,54.895348,9.797490,54.899361,9.782220
1390095996,3,0,0.0,0,0,4,0,20,0,-0.0292,0.2922,6.8213,0.4212,54.899406,9.782220,108.3,5.845,1.85,335.95,54.895348,9.797490,54.899361,9.782220
1390095997,3,0,0.0,0,0,0,0,20,50,-0.0292,0.2922,6.8213,0.4212,54.899414,9.782220,108.3,5.845,1.85,335.95,54.895348,9.797490,54.899361,9.782220
1390095997,3,0,0.0,0,0,4,0,20,0,-0.0292,0.2922,6.8213,0.4212,54.899414,9.782220,108.3,5.845,1.85,335.95,54.895348,9.797490,54.899361,9.782220
1390095997,3,0,0.0,0,0,0,0,20,50,-0.0292,0.2922,6.8213,0.4212,54.899422,9.782220,108.3,5.845,1.85,335.95,54.895348,9.797490,54.899361,9.782220
1390095997,3,0,0.0,0,0,4,0,20,0,-0.0292,0.2922,6.8213,0.4212,54.899426,9.782220,108.3,5.845,1.85,335.95,54.895348,9.797490,54.899361,9.782220
1390095998,3,0,0.0,0,0,0,0,30,50,-0.0292,0.2922,6.8213,0.4212,54.899433,9.782220,108.3,5.845,1.85,335.95,54.895348,9.797490,54.899361,9.782220
1390095998,3,0,0.0,0,0,4,0,30,0,-0.0292,0.2922,6.8213,0.4212,54.899433,9.782220,108.3,5.845,1.85,335.95,54.895348,9.797490,54.899361,9.782220
1390095998,3,0,0.0,0,0,0,0,30,50,-0.0292,0.2922,6.8213,0.4212,54.899441,9.782220,108.3,5.845,1.85,335.95,54.895348,9.797490,54.899361,9.782220
1390095998,3,0,0.0,0,0,4,0,30,0,-0.0292,0.2922,6.8213,0.4212,54.899441,9.782220,108.3,5.845,1.85,335.95,54.895348,9.797490,54.899361,9.782220
1390095999,3,0,0.0,0,0,0,0,30,50,-0.0292,0.2922,6.8213,0.4212,54.899452,9.782220,108.3,5.845,1.85,335.95,54.895348,9.797490,54.899361,9.782220
1390095999,3,0,0.0,0,0,4,0,30,0,-0.0292,0.2922,6.8213,0.4212,54.899452,9.782220,108.3,5.845,1.85,335.95,54.895348,9.797490,54.899361,9.782220
1390095999,3,0,0.0,0,0,0,0,30,50,-0.0292,0.2922,6.8213,0.4212,54.899460,9.782220,108.3,5.845,1.85,335.95,54.895348,9.797490,54.899361,9.782220
1390095999,3,0,0.0,0,0,4,0,30,0,-0.0292,0.2922,6.8213,0.4212,54.899460,9.782220,108.3,5.845,1.85,335.95,54.895348,9.797490,54.899361,9.782220
1390096000,3,0,0.0,0,0,0,0,30,50,-0.0292,0.2922,6.8213,0.4212,54.899467,9.782220,108.3,5.845,1.85,335.95,54.895348,9.797490,54.899361,9.782220
1390096000,3,0,0.0,0,0,4,0,30,0,-0.0292,0.2922,6.8213,0.4212,54.899467,9.782220,108.3,5.845,1.85,335.95,54.895348,9.797490,54.899361,9.782220
1390096000,3,0,0.0,0,0,0,0,30,50,-0.0292,0.2922,6.8213,0.4212,54.899479,9.782220,108.3,5.845,1.85,335.95,54.895348,9.797490,54.899361,9.782220
1390096000,3,0,0.0,0,0,4,0,30,0,-0.0292,0.2922,6.8213,0.4212,54.899479,9.782220,108.3,5.845,1.85,335.95,54.895348,9.797490,54.899361,9.782220
1390096001,3,0,0.0,0,0,0,0,30,50,-0.0292,0.2922,6.8213,0.4212,54.899487,9.782220,108.3,5.845,1.85,335.95,54.895348,9.797490,54.899361,9.782220
1390096001,3,0,0.0,0,0,4,0,30,0,-0.0292,0.2922,6.8213,0.4212,54.899487,9.782220,108.3,5.845,1.85,335.95,54.895348,9.797490,54.899361,9.782220
1390096001,3,0,0.0,0,0,0,0,30,50,-0.0292,0.2922,6.8213,0.4212,54.899494,9.782220,108.3,5.845,1.85,335.95,54.895348,9.797490,54.899361,9.782220
1390096001,3,0,0.0,0,0,4,0,30,0,-0.0292,0.2922,6.8213,0.4212,54.899498,9.782220,108.3,5.845,1.85,335.95,54.895348,9.797490,54.899361,9.782220
1390096002,3,0,0.0,0,0,0,0,30,50,-0.0292,0.2922,6.8213,0.4212,54.899506,9.782220,108.3,5.845,1.85,335.95,54.895348,9.797490,54.899361,9.782220
1390096002,3,0,0.0,0,0,4,0,30,0,-0.0292,0.2922,6.8213,0.4212,54.899506,9.782220,108.3,5.845,1.85,335.95,54.895348,9.797490,54.899361,9.782220
1390096002,3,0,0.0,0,0,0,0,30,50,-0.0292,0.2922,6.8213,0.4212,54.899513,9.782220,108.3,5.845,1.85,335.95,54.895348,9.797490,54.899361,9.782220
1390096003,3,0,0.0,0,0,4,0,30,0,-0.0292,0.2922,6.8213,0.4212,54.899513,9.782220,108.3,5.845,1.85,335.95,54.895348,9.797490,54.899361,9.782220
1390096003,3,0,0.0,0,0,0,0,40,50,-0.0292,0.2922,6.8213,0.4212,54.899521,9.782220,108.3,5.845,1.85,335.95,54.895348,9.797490,54.899361,9.782220
1390096003,3,0,0.0,0,0,4,0,40,0,-0.0292,0.2922,6.8213,0.4212,54.899517,9.782220,108.3,5.845,1.85,335.95,54.895348,9.797490,54.899361,9.782220
1390096003,3,0,0.0,0,0,0,0,40,50,-0.0292,0.2922,6.8213,0.4212,54.899529,9.782220,108.3,5.845,1.85,335.95,54.895348,9.797490,54.899361,9.782220
1390096004,3,0,0.0,0,0,4,0,40,0,-0.0292,0.2922,6.8213,0.4212,54.899529,9.782220,108.3,5.845,1.85,335.95,54.895348,9.797490,54.899361,9.782220
1390096004,3,0,0.0,0,0,0,0,40,50,-0.0292,0.2922,6.8213,0.4212,54.899536,9.782220,108.3,5.845,1.85,335.95,54.895348,9.797490,54.899361,9.782220
1390096004,3,0,0.0,0,0,4,0,40,0,-0.0292,0.2922,6.8213,0.4212,54.899536,9.782220,108.3,5.845,1.85,335.95,54.895348,9.797490,54.899361,9.782220
1390096004,3,0,0.0,0,0,0,0,40,50,-0.0292,0.2922,6.8213,0.4212,54.899544,9.782220,108.3,5.845,1.85,335.95,54.895348,9.797490,54.899361,9.782220
1390096005,3,0,0.0,0,0,4,0,40,0,-0.0292,0.2922,6.8213,0.4212,54.899548,9.782220,108.3,5.845,1.85,335.95,54.895348,9.797490,54.899361,9.782220
1390096005,3,0,0.0,0,0,0,0,40,50,-0.0292,0.2922,6.8213,0.4212,54.899555,9.782220,108.3,5.845,1.85,335.95,54.895348,9.797490,54.899361,9.782220
1390096005,3,0,0.0,0,0,4,0,40,0,-0.0292,0.2922,6.8213,0.4212,54.899555,9.782220,108.3,5.845,1.85,335.95,54.895348,9.797490,54.899361,9.782220
1390096005,3,0,0.0,0,0,0,0,40,50,-0.0292,0.2922,6.8213,0.4212,54.899563,9.782220,108.3,5.845,1.85,335.95,54.895348,9.797490,54.899361,9.782220
1390096006,3,0,0.0,0,0,4,0,40,0,-0.0292,0.2922,6.8213,0.4212,54.899563,9.782220,108.3,5.845,1.85,335.95,54.895348,9.797490,54.899361,9.782220
1390096006,3,0,0.0,0,0,0,0,40,50,-0.0292,0.2922,6.8213,0.4212,54.899574,9.782220,108.3,5.845,1.85,335.95,54.895348,9.797490,54.899361,9.782220
1390096006,3,0,0.0,0,0,4,0,40,0,-0.0292,0.2922,6.8213,0.4212,54.899574,9.782220,108.3,5.845,1.85,335.95,54.895348,9.797490,54.899361,9.782220
1390096006,3,0,0.0,0,0,0,0,40,50,-0.0292,0.2922,6.8213,0.4212,54.899582,9.782220,108.3,5.845,1.85,335.95,54.895348,9.797490,54.899361,9.782220
1390096007,3,0,0.0,0,0,4,0,40,0,-0.0292,0.2922,6.8213,0.4212,54.899582,9.782220,108.3,5.845,1.85,335.95,54.895348,9.797490,54.899361,9.782220
1390096007,3,0,0.0,0,0,0,0,40,50,-0.0292,0.2922,6.8213,0.4212,54.899590,9.782220,108.3,5.845,1.85,335.95,54.895348,9.797490,54.899361,9.782220
1390096007,3,0,0.0,0,0,4,0,40,0,-0.0292,0.2922,6.8213,0.4212,54.899590,9.782220,108.3,5.845,1.85,335.95,54.895348,9.797490,54.899361,9.782220
1390096007,3,0,0.0,0,0,0,0,40,50,-0.0292,0.2922,6.8213,0.4212,54.899601,9.782220,108.3,5.845,1.85,335.95,54.895348,9.797490,54.899361,9.782220
1390096008,3,0,0.0,0,0,4,0,40,0,-0.0292,0.2922,6.8213,0.4212,54.899601,9.782220,108.3,5.845,1.85,335.95,54.895348,9.797490,54.899361,9.782220
1390096008,3,0,0.0,0,0,0,0,50,50,-0.0292,0.2922,6.8213,0.4212,54.899609,9.782220,108.3,5.845,1.85,335.95,54.895348,9.797490,54.899361,9.782220
1390096008,3,0,0.0,0,0,4,0,50,50,-0.0292,0.2922,6.8213,0.4212,54.899616,9.782220,108.3,5.845,1.85,335.95,54.895348,9.797490,54.899361,9.782220
1390096008,3,0,0.0,0,0,0,0,50,50,-0.0292,0.2922,6.8213,0.4212,54.899628,9.782220,108.3,5.845,1.85,335.95,54.895348,9.797490,54.899361,9.782220
1390096009,3,0,0.0,0,0,4,0,50,50,-0.0292,0.2922,6.8213,0.4212,54.899635,9.782220,108.3,5.845,1.85,335.95,54.895348,9.797490,54.899361,9.782220
1390096009,3,0,0.0,0,0,0,0,50,50,-0.0292,0.2922,6.8213,0.4212,54.899643,9.782220,108.3,5.845,1.85,335.95,54.895348,9.797490,54.899361,9.782220
1390096009,3,0,0.0,0,0,4,0,50,50,-0.0292,0.2922,6.8213,0.4212,54.899654,9.782220,108.3,5.845,1.85,335.95,54.895348,9.797490,54.899361,9.782220
1390096009,3,0,0.0,0,0,0,0,50,50,-0.0292,0.2922,6.8213,0.4212,54.899662,9.782220,108.3,5.845,1.85,335.95,54.895348,9.797490,54.899361,9.782220
1390096010,3,0,0.0,0,0,4,0,50,50,-0.0292,0.2922,6.8213,0.4212,54.899673,9.782220,108.3,5.845,1.85,335.95,54.895348,9.797490,54.899361,9.782220
1390096010,3,0,0.0,0,0,0,0,50,50,-0.0292,0.2922,6.8213,0.4212,54.899681,9.782220,108.3,5.845,1.85,335.95,54.895348,9.797490,54.899361,9.782220
1390096010,3,0,0.0,0,0,4,0,50,50,-0.0292,0.2922,6.8213,0.4212,54.899689,9.782220,108.3,5.845,1.85,335.95,54.895348,9.797490,54.899361,9.782220
1390096010,3,0,0.0,0,0,0,0,50,50,-0.0292,0.2922,6.8213,0.4212,54.899700,9.782220,108.3,5.845,1.85,335.95,54.895348,9.797490,54.899361,9.782220
1390096011,3,0,0.0,0,0,4,0,50,50,-0.0292,0.2922,6.8213,0.4212,54.899708,9.782220,108.3,5.845,1.85,335.95,54.895348,9.797490,54.899361,9.782220
1390096011,3,0,0.0,0,0,0,0,50,50,-0.0292,0.2922,6.8213,0.4212,54.899715,9.782220,108.3,5.845,1.85,335.95,54.895348,9.797490,54.899361,9.782220
1390096011,3,0,0.0,0,0,4,0,50,50,-0.0292,0.2922,6.8213,0.4212,54.899727,9.782220,108.3,5.845,1.85,335.95,54.895348,9.797490,54.899361,9.782220
1390096011,3,0,0.0,0,0,0,0,50,50,-0.0292,0.2922,6.8213,0.4212,54.899734,9.782220,108.3,5.845,1.85,335.95,54.895348,9.797490,54.899361,9.782220
1390096012,3,0,0.0,0,0,4,0,50,50,-0.0292,0.2922,6.8213,0.4212,54.899742,9.782220,108.3,5.845,1.85,335.95,54.895348,9.797490,54.899361,9.782220
1390096012,3,0,0.0,0,0,0,0,50,50,-0.0292,0.2922,6.8213,0.4212,54.899750,9.782220,108.3,5.845,1.85,335.95,54.895348,9.797490,54.899361,9.782220
1390096012,3,0,0.0,0,0,4,0,50,50,-0.0292,0.2922,6.8213,0.4212,54.899757,9.782220,108.3,5.845,1.85,335.95,54.895348,9.797490,54.899361,9.782220
1390096012,3,0,0.0,0,0,0,0,50,50,-0.0292,0.2922,6.8213,0.4212,54.899765,9.782220,108.3,5.845,1.85,335.95,54.895348,9.797490,54.899361,9.782220
1390096013,3,0,0.0,0,0,4,0,50,50,-0.0292,0.2922,6.8213,0.4212,54.899776,9.782220,108.3,5.845,1.85,335.95,54.895348,9.797490,54.899361,9.782220
1390096013,3,0,0.0,0,0,0,0,60,100,-0.0292,0.2922,6.8213,0.4212,54.899792,9.782220,108.3,5.845,1.85,335.95,54.895348,9.797490,54.899361,9.782220
1390096013,3,0,0.0,0,0,4,0,60,50,-0.0292,0.2922,6.8213,0.4212,54.899799,9.782220,108.3,5.845,1.85,335.95,54.895348,9.797490,54.899361,9.782220
1390096013,3,0,0.0,0,0,0,0,60,100,-0.0292,0.2922,6.8213,0.4212,54.899815,9.782220,108.3,5.845,1.85,335.95,54.895348,9.797490,54.899361,9.782220
1390096014,3,0,0.0,0,0,4,0,60,50,-0.0292,0.2922,6.8213,0.4212,54.899826,9.782220,108.3,5.845,1.85,335.95,54.895348,9.797490,54.899361,9.782220
1390096014,3,0,0.0,0,0,0,0,60,100,-0.0292,0.2922,6.8213,0.4212,54.899841,9.782220,108.3,5.845,1.85,335.95,54.895348,9.797490,54.899361,9.782220
1390096014,3,0,0.0,0,0,4,0,60,50,-0.0292,0.2922,6.8213,0.4212,54.899849,9.782220,108.3,5.845,1.85,335.95,54.895348,9.797490,54.899361,9.782220
1390096014,3,0,0.0,0,0,0,0,60,100,-0.0292,0.2922,6.8213,0.4212,54.899864,9.782220,108.3,5.845,1.85,335.95,54.895348,9.797490,54.899361,9.782220
1390096015,3,0,0.0,0,0,4,0,60,50,-0.0292,0.2922,6.8213,0.4212,54.899876,9.782220,108.3,5.845,1.85,335.95,54.895348,9.797490,54.899361,9.782220
1390096015,3,0,0.0,0,0,0,0,60,100,-0.0292,0.2922,6.8213,0.4212,54.899891,9.782220,108.3,5.845,1.85,335.95,54.895348,9.797490,54.899361,9.782220
1390096015,3,0,0.0,0,0,4,0,60,50,-0.0292,0.2922,6.8213,0.4212,54.899899,9.782220,108.3,5.845,1.85,335.95,54.895348,9.797490,54.899361,9.782220
1390096015,3,0,0.0,0,0,0,0,60,100,-0.0292,0.2922,6.8213,0.4212,54.899914,9.782220,108.3,5.845,1.85,335.95,54.895348,9.797490,54.899361,9.782220
1390096016,3,0,0.0,0,0,4,0,60,50,-0.0292,0.2922,6.8213,0.4212,54.899925,9.782220,108.3,5.845,1.85,335.95,54.895348,9.797490,54.899361,9.782220
1390096016,3,0,0.0,0,0,0,0,60,100,-0.0292,0.2922,6.8213,0.4212,54.899940,9.782220,108.3,5.845,1.85,335.95,54.895348,9.797490,54.899361,9.782220
1390096016,3,0,0.0,0,0,4,0,60,50,-0.0292,0.2922,6.8213,0.4212,54.899948,9.782220,108.3,5.845,1.85,335.95,54.895348,9.797490,54.899361,9.782220
1390096016,3,0,0.0,0,0,0,0,60,100,-0.0292,0.2922,6.8213,0.4212,54.899963,9.782220,108.3,5.845,1.85,335.95,54.895348,9.797490,54.899361,9.782220
1390096017,3,0,0.0,0,0,4,0,60,50,-0.0292,0.2922,6.8213,0.4212,54.899971,9.782220,108.3,5.845,1.85,335.95,54.895348,9.797490,54.899361,9.782220
1390096017,3,0,0.0,0,0,0,0,60,100,-0.0292,0.2922,6.8213,0.4212,54.899986,9.782220,108.3,5.845,1.85,335.95,54.895348,9.797490,54.899361,9.782220
1390096017,3,0,0.0,0,0,4,0,60,50,-0.0292,0.2922,6.8213,0.4212,54.899998,9.782220,108.3,5.845,1.85,335.95,54.895348,9.797490,54.899361,9.782220
1390096017,3,0,0.0,0,0,0,0,60,100,-0.0292,0.2922,6.8213,0.4212,54.900013,9.782220,108.3,5.845,1.85,335.95,54.895348,9.797490,54.899361,9.782220
1390096018,3,0,0.0,0,0,4,0,60,50,-0.0292,0.2922,6.8213,0.4212,54.900021,9.782220,108.3,5.845,1.85,335.95,54.895348,9.797490,54.899361,9.782220
1390096018,3,0,0.0,0,0,0,0,70,100,-0.0292,0.2922,6.8213,0.4212,54.900036,9.782220,108.3,5.845,1.85,335.95,54.895348,9.797490,54.899361,9.782220
1390096018,3,0,0.0,0,0,4,0,70,50,-0.0292,0.2922,6.8213,0.4212,54.900047,9.782220,108.3,5.845,1.85,335.95,54.895348,9.797490,54.899361,9.782220
1390096018,3,0,0.0,0,0,0,0,70,100,-0.0292,0.2922,6.8213,0.4212,54.900063,9.782220,108.3,5.845,1.85,335.95,54.895348,9.797490,54.899361,9.782220
1390096019,3,0,0.0,0,0,4,0,70,50,-0.0292,0.2922,6.8213,0.4212,54.900070,9.782220,108.3,5.845,1.85,335.95,54.895348,9.797490,54.899361,9.782220
1390096019,3,0,0.0,0,0,0,0,70,100,-0.0292,0.2922,6.8213,0.4212,54.900085,9.782220,108.3,5.845,1.85,335.95,54.895348,9.797490,54.899361,9.782220
1390096019,3,0,0.0,0,0,4,0,70,50,-0.0292,0.2922,6.8213,0.4212,54.900097,9.782220,108.3,5.845,1.85,335.95,54.895348,9.797490,54.899361,9.782220
1390096019,3,0,0.0,0,0,0,0,70,100,-0.0292,0.2922,6.8213,0.4212,54.900112,9.782220,108.3,5.845,1.85,335.95,54.895348,9.797490,54.899361,9.782220
1390096020,3,0,0.0,0,0,4,0,70,50,-0.0292,0.2922,6.8213,0.4212,54.900120,9.782220,108.3,5.845,1.85,335.95,54.895348,9.797490,54.899361,9.782220
1390096020,3,0,0.0,0,0,0,0,70,100,-0.0292,0.2922,6.8213,0.4212,54.900135,9.782220,108.3,5.845,1.85,335.95,54.895348,9.797490,54.899361,9.782220
1390096020,3,0,0.0,0,0,4,0,70,50,-0.0292,0.2922,6.8213,0.4212,54.900146,9.782220,108.3,5.845,1.85,335.95,54.895348,9.797490,54.899361,9.782220
1390096020,3,0,0.0,0,0,0,0,70,100,-0.0292,0.2922,6.8213,0.4212,54.900162,9.782220,108.3,5.845,1.85,335.95,54.895348,9.797490,54.899361,9.782220
1390096021,3,0,0.0,0,0,4,0,70,50,-0.0292,0.2922,6.8213,0.4212,54.900169,9.782220,108.3,5.845,1.85,335.95,54.895348,9.797490,54.899361,9.782220
1390096021,3,0,0.0,0,0,0,0,70,100,-0.0292,0.2922,6.8213,0.4212,54.900185,9.782220,108.3,5.845,1.85,335.95,54.895348,9.797490,54.899361,9.782220
1390096021,3,0,0.0,0,0,4,0,70,50,-0.0292,0.2922,6.8213,0.4212,54.900192,9.782220,108.3,5.845,1.85,335.95,54.895348,9.797490,54.899361,9.782220
1390096021,3,0,0.0,0,0,0,0,70,100,-0.0292,0.2922,6.8213,0.4212,54.900208,9.782220,108.3,5.845,1.85,335.95,54.895348,9.797490,54.899361,9.782220
1390096022,3,0,0.0,0,0,4,0,70,50,-0.0292,0.2922,6.8213,0.4212,54.900219,9.782220,108.3,5.845,1.85,335.95,54.895348,9.797490,54.899361,9.782220
1390096022,3,0,0.0,0,0,0,0,70,100,-0.0292,0.2922,6.8213,0.4212,54.900234,9.782220,108.3,5.845,1.85,335.95,54.895348,9.797490,54.899361,9.782220
1390096022,3,0,0.0,0,0,4,0,70,50,-0.0292,0.2922,6.8213,0.4212,54.900242,9.782220,108.3,5.845,1.85,335.95,54.895348,9.797490,54.899361,9.782220
1390096022,3,0,0.0,0,0,0,0,70,100,-0.0292,0.2922,6.8213,0.4212,54.900257,9.782220,108.3,5.845,1.85,335.95,54.895348,9.797490,54.899361,9.782220
1390096023,3,0,0.0,0,0,4,0,70,50,-0.0292,0.2922,6.8213,0.4212,54.900269,9.782220,108.3,5.845,1.85,335.95,54.895348,9.797490,54.899361,9.782220
1390096023,3,0,0.0,0,0,0,0,80,100,-0.0292,0.2922,6.8213,0.4212,54.900284,9.782220,108.3,5.845,1.85,335.95,54.895348,9.797490,54.899361,9.782220
1390096023,3,0,0.0,0,0,4,0,80,50,-0.0292,0.2922,6.8213,0.4212,54.900291,9.782220,108.3,5.845,1.85,335.95,54.895348,9.797490,54.899361,9.782220
1390096023,3,0,0.0,0,0,0,0,80,100,-0.0292,0.2922,6.8213,0.4212,54.900307,9.782220,108.3,5.845,1.85,335.95,54.895348,9.797490,54.899361,9.782220
1390096024,3,0,0.0,0,0,4,0,80,50,-0.0292,0.2922,6.8213,0.4212,54.900318,9.782220,108.3,5.845,1.85,335.95,54.895348,9.797490,54.899361,9.782220
1390096024,3,0,0.0,0,0,0,0,80,100,-0.0292,0.2922,6.8213,0.4212,54.900333,9.782220,108.3,5.845,1.85,335.95,54.895348,9.797490,54.899361,9.782220
1390096024,3,0,0.0,0,0,4,0,80,50,-0.0292,0.2922,6.8213,0.4212,54.900341,9.782220,108.3,5.845,1.85,335.95,54.895348,9.797490,54.899361,9.782220
1390096024,3,0,0.0,0,0,0,0,80,100,-0.0292,0.2922,6.8213,0.4212,54.900356,9.782220,108.3,5.845,1.85,335.95,54.895348,9.797490,54.899361,9.782220
1390096025,3,0,0.0,0,0,4,0,80,50,-0.0292,0.2922,6.8213,0.4212,54.900368,9.782220,108.3,5.845,1.85,335.95,54.895348,9.797490,54.899361,9.782220
1390096025,3,0,0.0,0,0,0,0,80,100,-0.0292,0.2922,6.8213,0.4212,54.900383,9.782220,108.3,5.845,1.85,335.95,54.895348,9.797490,54.899361,9.782220
1390096025,3,0,0.0,0,0,4,0,80,50,-0.0292,0.2922,6.8213,0.4212,54.900391,9.782220,108.3,5.845,1.85,335.95,54.895348,9.797490,54.899361,9.782220
1390096025,3,0,0.0,0,0,0,0,80,100,-0.0292,0.2922,6.8213,0.4212,54.900406,9.782220,108.3,5.845,1.85,335.95,54.895348,9.797490,54.899361,9.782220
1390096026,3,0,0.0,0,0,4,0,80,50,-0.0292,0.2922,6.8213,0.4212,54.900414,9.782220,108.3,5.845,1.85,335.95,54.895348,9.797490,54.899361,9.782220
1390096026,3,0,0.0,0,0,0,0,80,100,-0.0292,0.2922,6.8213,0.4212,54.900429,9.782220,108.3,5.845,1.85,335.95,54.895348,9.797490,54.899361,9.782220
