MCU_timestamp,Navigation_System,Manual_Control,Guidance_Heading,Manual_Ctrl_Rudder,Rudder_Desired_Angle,Rudder_Feedback,Manual_Ctrl_Sail,Sail_Desired_Pos,Sail_Feedback,Rate,Heading,Pitch,Roll,Latitude,Longitude,COG,SOG,Wind_Speed,Wind_Angle,Point_Start_Lat,Point_Start_Lon,Point_End_Lat,Point_End_Lon
1386876814,1,0,485.9,0,35,4,0,409,100,-0.0292,532.9593,6.8213,0.4212,54.877766,9.820412,108.3,5.845,1.85,335.95,54.877785,9.820408,0.000000,0.000000
1386876814,1,0,485.9,0,35,8,0,409,125,-0.0292,523.6260,6.8213,0.4212,54.877747,9.820420,108.3,5.845,1.85,335.95,54.877785,9.820408,0.000000,0.000000
1386876814,1,0,485.9,0,35,12,0,0,100,-0.0292,514.2927,6.8213,0.4212,54.877731,9.820434,108.3,5.845,1.85,335.95,54.877785,9.820408,0.000000,0.000000
1386876815,1,0,485.9,0,28,16,0,0,75,-0.0292,506.8260,6.8213,0.4212,54.877716,9.820451,108.3,5.845,1.85,335.95,54.877785,9.820408,0.000000,0.000000
1386876815,1,0,485.9,0,21,20,0,0,50,-0.0292,501.2260,6.8213,0.4212,54.877701,9.820471,108.3,5.845,1.85,335.95,54.877785,9.820408,0.000000,0.000000
1386876815,1,0,485.9,0,15,16,0,409,75,-0.0292,497.2260,6.8213,0.4212,54.877689,9.820492,108.3,5.845,1.85,335.95,54.877785,9.820408,0.000000,0.000000
1386876815,1,0,485.9,0,11,12,0,409,100,-0.0292,494.2927,6.8213,0.4212,54.877678,9.820515,108.3,5.845,1.85,335.95,54.877785,9.820408,0.000000,0.000000
1386876816,1,0,485.9,0,8,8,0,409,125,-0.0292,492.1593,6.8213,0.4212,54.877666,9.820538,108.3,5.845,1.85,335.95,54.877785,9.820408,0.000000,0.000000
1386876816,1,0,485.9,0,6,4,0,409,150,-0.0292,490.5593,6.8213,0.4212,54.877655,9.820560,108.3,5.845,1.85,335.95,54.877785,9.820408,0.000000,0.000000
1386876816,1,0,485.9,0,5,8,0,409,175,-0.0292,489.2260,6.8213,0.4212,54.877647,9.820584,108.3,5.845,1.85,335.95,54.877785,9.820408,0.000000,0.000000
1386876816,1,0,485.9,0,3,4,0,409,200,-0.0292,488.4260,6.8213,0.4212,54.877636,9.820608,108.3,5.845,1.85,335.95,54.877785,9.820408,0.000000,0.000000
1386876817,1,0,485.9,0,2,0,0,409,225,-0.0292,487.8927,6.8213,0.4212,54.877625,9.820633,108.3,5.845,1.85,335.95,54.877785,9.820408,0.000000,0.000000
1386876817,1,0,485.9,0,2,4,0,409,250,-0.0292,487.3593,6.8213,0.4212,54.877613,9.820658,108.3,5.845,1.85,335.95,54.877785,9.820408,0.000000,0.000000
1386876817,1,0,485.9,0,1,0,0,409,275,-0.0292,487.0927,6.8213,0.4212,54.877602,9.820683,108.3,5.845,1.85,335.95,54.877785,9.820408,0.000000,0.000000
1386876817,1,0,485.9,0,1,4,0,409,300,-0.0292,486.8260,6.8213,0.4212,54.877590,9.820707,108.3,5.845,1.85,335.95,54.877785,9.820408,0.000000,0.000000
1386876818,1,0,485.9,0,1,0,0,409,325,-0.0292,486.5594,6.8213,0.4212,54.877579,9.820733,108.3,5.845,1.85,335.95,54.877785,9.820408,0.000000,0.000000
1386876818,1,0,485.9,0,1,4,0,409,350,-0.0292,486.2927,6.8213,0.4212,54.877571,9.820758,108.3,5.845,1.85,335.95,54.877785,9.820408,0.000000,0.000000
1386876818,1,0,485.9,0,0,0,0,409,375,-0.0292,486.2927,6.8213,0.4212,54.877560,9.820783,108.3,5.845,1.85,335.95,54.877785,9.820408,0.000000,0.000000
1386876818,1,0,485.9,0,0,4,0,409,400,-0.0292,486.2927,6.8213,0.4212,54.877548,9.820808,108.3,5.845,1.85,335.95,54.877785,9.820408,0.000000,0.000000
1386876819,1,0,485.9,0,0,0,0,409,425,-0.0292,486.2927,6.8213,0.4212,54.877537,9.820833,108.3,5.845,1.85,335.95,54.877785,9.820408,0.000000,0.000000
1386876819,1,0,485.9,0,0,4,0,0,400,-0.0292,486.2927,6.8213,0.4212,54.877525,9.820859,108.3,5.845,1.85,335.95,54.877785,9.820408,0.000000,0.000000
1386876819,1,0,485.9,0,0,0,0,0,375,-0.0292,486.2927,6.8213,0.4212,54.877514,9.820884,108.3,5.845,1.85,335.95,54.877785,9.820408,0.000000,0.000000
1386876819,1,0,485.9,0,0,4,0,0,350,-0.0292,486.2927,6.8213,0.4212,54.877502,9.820909,108.3,5.845,1.85,335.95,54.877785,9.820408,0.000000,0.000000
1386876820,1,0,485.9,0,0,0,0,0,325,-0.0292,486.2927,6.8213,0.4212,54.877491,9.820934,108.3,5.845,1.85,335.95,54.877785,9.820408,0.000000,0.000000
1386876820,1,0,485.9,0,0,4,0,0,300,-0.0292,486.2927,6.8213,0.4212,54.877480,9.820959,108.3,5.845,1.85,335.95,54.877785,9.820408,0.000000,0.000000
1386876820,1,0,485.9,0,0,0,0,0,275,-0.0292,486.2927,6.8213,0.4212,54.877472,9.820985,108.3,5.845,1.85,335.95,54.877785,9.820408,0.000000,0.000000
1386876820,1,0,485.9,0,0,4,0,0,250,-0.0292,486.2927,6.8213,0.4212,54.877460,9.821010,108.3,5.845,1.85,335.95,54.877785,9.820408,0.000000,0.000000
1386876821,1,0,485.9,0,0,0,0,0,225,-0.0292,486.2927,6.8213,0.4212,54.877449,9.821034,108.3,5.845,1.85,335.95,54.877785,9.820408,0.000000,0.000000
1386876821,1,0,485.9,0,0,4,0,0,200,-0.0292,486.2927,6.8213,0.4212,54.877438,9.821059,108.3,5.845,1.85,335.95,54.877785,9.820408,0.000000,0.000000
1386876821,1,0,485.9,0,0,0,0,0,175,-0.0292,486.2927,6.8213,0.4212,54.877426,9.821084,108.3,5.845,1.85,335.95,54.877785,9.820408,0.000000,0.000000
1386876821,1,0,485.9,0,0,4,0,0,150,-0.0292,486.2927,6.8213,0.4212,54.877415,9.821110,108.3,5.845,1.85,335.95,54.877785,9.820408,0.000000,0.000000
1386876822,1,0,485.9,0,0,0,0,0,125,-0.0292,486.2927,6.8213,0.4212,54.877403,9.821135,108.3,5.845,1.85,335.95,54.877785,9.820408,0.000000,0.000000
1386876822,1,0,485.9,0,0,4,0,0,100,-0.0292,486.2927,6.8213,0.4212,54.877392,9.821160,108.3,5.845,1.85,335.95,54.877785,9.820408,0.000000,0.000000
1386876822,1,0,485.9,0,0,0,0,0,75,-0.0292,486.2927,6.8213,0.4212,54.877380,9.821185,108.3,5.845,1.85,335.95,54.877785,9.820408,0.000000,0.000000
1386876822,1,0,485.9,0,0,4,0,0,50,-0.0292,486.2927,6.8213,0.4212,54.877373,9.821210,108.3,5.845,1.85,335.95,54.877785,9.820408,0.000000,0.000000
1386876823,1,0,485.9,0,0,0,0,0,25,-0.0292,486.2927,6.8213,0.4212,54.877361,9.821236,108.3,5.845,1.85,335.95,54.877785,9.820408,0.000000,0.000000
1386876823,1,0,485.9,0,0,4,0,0,0,-0.0292,486.2927,6.8213,0.4212,54.877350,9.821260,108.3,5.845,1.85,335.95,54.877785,9.820408,0.000000,0.000000
1386876823,1,0,485.9,0,0,0,0,0,25,-0.0292,486.2927,6.8213,0.4212,54.877338,9.821286,108.3,5.845,1.85,335.95,54.877785,9.820408,0.000000,0.000000
1386876823,1,0,545.9,0,-35,-4,0,0,0,-0.0292,495.6260,6.8213,0.4212,54.877323,9.821308,108.3,5.845,1.85,335.95,54.877785,9.820408,0.000000,0.000000
1386876824,1,0,545.9,0,-35,-8,0,0,25,-0.0292,504.9594,6.8213,0.4212,54.877308,9.821326,108.3,5.845,1.85,335.95,54.877785,9.820408,0.000000,0.000000
1386876824,1,0,545.9,0,-35,-12,0,0,0,-0.0292,514.2927,6.8213,0.4212,54.877293,9.821340,108.3,5.845,1.85,335.95,54.877785,9.820408,0.000000,0.000000
1386876824,1,0,545.9,0,-32,-16,0,0,25,-0.0292,522.8260,6.8213,0.4212,54.877274,9.821349,108.3,5.845,1.85,335.95,54.877785,9.820408,0.000000,0.000000
1386876824,1,0,545.9,0,-23,-20,0,0,0,-0.0292,528.9594,6.8213,0.4212,54.877254,9.821356,108.3,5.845,1.85,335.95,54.877785,9.820408,0.000000,0.000000
1386876825,1,0,545.9,0,-17,-16,0,0,25,-0.0292,533.4927,6.8213,0.4212,54.877235,9.821359,108.3,5.845,1.85,335.95,54.877785,9.820408,0.000000,0.000000
1386876825,1,0,545.9,0,-12,-12,0,0,0,-0.0292,536.6927,6.8213,0.4212,54.877220,9.821361,108.3,5.845,1.85,335.95,54.877785,9.820408,0.000000,0.000000
1386876825,1,0,545.9,0,-9,-8,0,0,25,-0.0292,539.0928,6.8213,0.4212,54.877201,9.821361,108.3,5.845,1.85,335.95,54.877785,9.820408,0.000000,0.000000
1386876825,1,0,545.9,0,-7,-4,0,409,50,-0.0292,540.9594,6.8213,0.4212,54.877182,9.821360,108.3,5.845,1.85,335.95,54.877785,9.820408,0.000000,0.000000
1386876826,1,0,545.9,0,-5,-8,0,409,75,-0.0292,542.2927,6.8213,0.4212,54.877167,9.821358,108.3,5.845,1.85,335.95,54.877785,9.820408,0.000000,0.000000
1386876826,1,0,545.9,0,-4,-4,0,409,100,-0.0292,543.3594,6.8213,0.4212,54.877148,9.821356,108.3,5.845,1.85,335.95,54.877785,9.820408,0.000000,0.000000
1386876826,1,0,545.9,0,-3,0,0,409,125,-0.0292,544.1594,6.8213,0.4212,54.877129,9.821353,108.3,5.845,1.85,335.95,54.877785,9.820408,0.000000,0.000000
1386876826,1,0,545.9,0,-2,-4,0,409,150,-0.0292,544.6927,6.8213,0.4212,54.877110,9.821350,108.3,5.845,1.85,335.95,54.877785,9.820408,0.000000,0.000000
1386876827,1,0,545.9,0,-1,0,0,409,175,-0.0292,544.9594,6.8213,0.4212,54.877094,9.821348,108.3,5.845,1.85,335.95,54.877785,9.820408,0.000000,0.000000
1386876827,1,0,545.9,0,-1,-4,0,409,200,-0.0292,545.2260,6.8213,0.4212,54.877075,9.821345,108.3,5.845,1.85,335.95,54.877785,9.820408,0.000000,0.000000
1386876827,1,0,545.9,0,-1,0,0,409,225,-0.0292,545.4927,6.8213,0.4212,54.877056,9.821342,108.3,5.845,1.85,335.95,54.877785,9.820408,0.000000,0.000000
1386876827,1,0,545.9,0,0,4,0,409,250,-0.0292,545.4927,6.8213,0.4212,54.877037,9.821340,108.3,5.845,1.85,335.95,54.877785,9.820408,0.000000,0.000000
1386876828,1,0,545.9,0,0,0,0,409,275,-0.0292,545.4927,6.8213,0.4212,54.877022,9.821337,108.3,5.845,1.85,335.95,54.877785,9.820408,0.000000,0.000000
1386876828,1,0,545.9,0,0,4,0,409,300,-0.0292,545.4927,6.8213,0.4212,54.877003,9.821334,108.3,5.845,1.85,335.95,54.877785,9.820408,0.000000,0.000000
1386876828,1,0,545.9,0,0,0,0,409,325,-0.0292,545.4927,6.8213,0.4212,54.876984,9.821331,108.3,5.845,1.85,335.95,54.877785,9.820408,0.000000,0.000000
1386876828,1,0,545.9,0,0,4,0,409,350,-0.0292,545.4927,6.8213,0.4212,54.876965,9.821328,108.3,5.845,1.85,335.95,54.877785,9.820408,0.000000,0.000000
1386876829,1,0,545.9,0,0,0,0,409,375,-0.0292,545.4927,6.8213,0.4212,54.876949,9.821325,108.3,5.845,1.85,335.95,54.877785,9.820408,0.000000,0.000000
1386876829,1,0,545.9,0,0,4,0,0,350,-0.0292,545.4927,6.8213,0.4212,54.876930,9.821322,108.3,5.845,1.85,335.95,54.877785,9.820408,0.000000,0.000000
1386876829,1,0,545.9,0,0,0,0,0,325,-0.0292,545.4927,6.8213,0.4212,54.876911,9.821320,108.3,5.845,1.85,335.95,54.877785,9.820408,0.000000,0.000000
1386876829,1,0,545.9,0,0,4,0,0,300,-0.0292,545.4927,6.8213,0.4212,54.876896,9.821317,108.3,5.845,1.85,335.95,54.877785,9.820408,0.000000,0.000000
1386876830,1,0,545.9,0,0,0,0,0,275,-0.0292,545.4927,6.8213,0.4212,54.876877,9.821314,108.3,5.845,1.85,335.95,54.877785,9.820408,0.000000,0.000000
1386876830,1,0,545.9,0,0,4,0,0,250,-0.0292,545.4927,6.8213,0.4212,54.876858,9.821310,108.3,5.845,1.85,335.95,54.877785,9.820408,0.000000,0.000000
1386876830,1,0,545.9,0,0,0,0,0,225,-0.0292,545.4927,6.8213,0.4212,54.876839,9.821306,108.3,5.845,1.85,335.95,54.877785,9.820408,0.000000,0.000000
1386876830,1,0,545.9,0,0,4,0,0,200,-0.0292,545.4927,6.8213,0.4212,54.876823,9.821303,108.3,5.845,1.85,335.95,54.877785,9.820408,0.000000,0.000000
1386876831,1,0,545.9,0,0,0,0,0,175,-0.0292,545.4927,6.8213,0.4212,54.876804,9.821301,108.3,5.845,1.85,335.95,54.877785,9.820408,0.000000,0.000000
1386876831,1,0,545.9,0,0,4,0,0,150,-0.0292,545.4927,6.8213,0.4212,54.876785,9.821298,108.3,5.845,1.85,335.95,54.877785,9.820408,0.000000,0.000000
1386876831,1,0,545.9,0,0,0,0,0,125,-0.0292,545.4927,6.8213,0.4212,54.876766,9.821295,108.3,5.845,1.85,335.95,54.877785,9.820408,0.000000,0.000000
1386876831,1,0,545.9,0,0,4,0,0,100,-0.0292,545.4927,6.8213,0.4212,54.876751,9.821292,108.3,5.845,1.85,335.95,54.877785,9.820408,0.000000,0.000000
