MCU_timestamp,Navigation_System,Manual_Control,Guidance_Heading,Manual_Ctrl_Rudder,Rudder_Desired_Angle,Rudder_Feedback,Manual_Ctrl_Sail,Sail_Desired_Pos,Sail_Feedback,Rate,Heading,Pitch,Roll,Latitude,Longitude,COG,SOG,Wind_Speed,Wind_Angle,Point_Start_Lat,Point_Start_Lon,Point_End_Lat,Point_End_Lon
1386870797,0,0,0.0,0,0,4,0,0,0,-0.0292,390.5587,6.8213,0.4212,54.890316,9.801955,108.3,5.845,1.85,335.95,0.000000,0.000000,0.000000,0.000000
1386870797,0,0,0.0,0,0,4,0,0,0,-0.0292,390.5587,6.8213,0.4212,54.890316,9.801955,108.3,5.845,1.85,335.95,0.000000,0.000000,0.000000,0.000000
1386870797,0,0,0.0,0,0,4,0,0,0,-0.0292,390.5587,6.8213,0.4212,54.890316,9.801955,108.3,5.845,1.85,335.95,0.000000,0.000000,0.000000,0.000000
1386870798,0,0,0.0,0,0,4,0,0,0,-0.0292,390.5587,6.8213,0.4212,54.890316,9.801955,108.3,5.845,1.85,335.95,0.000000,0.000000,0.000000,0.000000
1386870798,0,0,0.0,0,0,4,0,0,0,-0.0292,390.5587,6.8213,0.4212,54.890316,9.801955,108.3,5.845,1.85,335.95,0.000000,0.000000,0.000000,0.000000
1386870798,0,0,0.0,0,0,4,0,0,0,-0.0292,390.5587,6.8213,0.4212,54.890316,9.801955,108.3,5.845,1.85,335.95,0.000000,0.000000,0.000000,0.000000
1386870798,0,0,0.0,0,0,4,0,0,0,-0.0292,390.5587,6.8213,0.4212,54.890316,9.801955,108.3,5.845,1.85,335.95,0.000000,0.000000,0.000000,0.000000
1386870799,0,0,0.0,0,0,4,0,0,0,-0.0292,390.5587,6.8213,0.4212,54.890316,9.801955,108.3,5.845,1.85,335.95,0.000000,0.000000,0.000000,0.000000
1386870799,0,0,0.0,0,0,4,0,0,0,-0.0292,390.5587,6.8213,0.4212,54.890316,9.801955,108.3,5.845,1.85,335.95,0.000000,0.000000,0.000000,0.000000
1386870799,0,0,0.0,0,0,4,0,0,0,-0.0292,390.5587,6.8213,0.4212,54.890316,9.801955,108.3,5.845,1.85,335.95,0.000000,0.000000,0.000000,0.000000
1386870799,0,0,0.0,0,0,4,0,0,0,-0.0292,390.5587,6.8213,0.4212,54.890316,9.801955,108.3,5.845,1.85,335.95,0.000000,0.000000,0.000000,0.000000
1386870800,0,0,0.0,0,0,4,0,0,0,-0.0292,390.5587,6.8213,0.4212,54.890316,9.801955,108.3,5.845,1.85,335.95,0.000000,0.000000,0.000000,0.000000
1386870800,0,0,0.0,0,0,4,0,0,0,-0.0292,390.5587,6.8213,0.4212,54.890316,9.801955,108.3,5.845,1.85,335.95,0.000000,0.000000,0.000000,0.000000
1386870800,0,0,0.0,0,0,4,0,0,0,-0.0292,390.5587,6.8213,0.4212,54.890316,9.801955,108.3,5.845,1.85,335.95,0.000000,0.000000,0.000000,0.000000
1386870800,0,0,0.0,0,0,4,0,0,0,-0.0292,390.5587,6.8213,0.4212,54.890316,9.801955,108.3,5.845,1.85,335.95,0.000000,0.000000,0.000000,0.000000
1386870801,0,0,0.0,0,0,4,0,0,0,-0.0292,390.5587,6.8213,0.4212,54.890316,9.801955,108.3,5.845,1.85,335.95,0.000000,0.000000,0.000000,0.000000
1386870801,0,0,0.0,0,0,4,0,0,0,-0.0292,390.5587,6.8213,0.4212,54.890316,9.801955,108.3,5.845,1.85,335.95,0.000000,0.000000,0.000000,0.000000
1386870801,0,0,0.0,0,0,4,0,0,0,-0.0292,390.5587,6.8213,0.4212,54.890316,9.801955,108.3,5.845,1.85,335.95,0.000000,0.000000,0.000000,0.000000
1386870801,0,0,0.0,0,0,4,0,0,0,-0.0292,390.5587,6.8213,0.4212,54.890316,9.801955,108.3,5.845,1.85,335.95,0.000000,0.000000,0.000000,0.000000
1386870802,0,0,0.0,0,0,4,0,0,0,-0.0292,390.5587,6.8213,0.4212,54.890316,9.801955,108.3,5.845,1.85,335.95,0.000000,0.000000,0.000000,0.000000
1386870802,0,0,0.0,0,0,4,0,0,0,-0.0292,390.5587,6.8213,0.4212,54.890316,9.801955,108.3,5.845,1.85,335.95,0.000000,0.000000,0.000000,0.000000
1386870802,0,0,0.0,0,0,4,0,0,0,-0.0292,390.5587,6.8213,0.4212,54.890316,9.801955,108.3,5.845,1.85,335.95,0.000000,0.000000,0.000000,0.000000
1386870802,0,0,0.0,0,0,4,0,0,0,-0.0292,390.5587,6.8213,0.4212,54.890316,9.801955,108.3,5.845,1.85,335.95,0.000000,0.000000,0.000000,0.000000
1386870803,0,0,0.0,0,0,4,0,0,0,-0.0292,390.5587,6.8213,0.4212,54.890316,9.801955,108.3,5.845,1.85,335.95,0.000000,0.000000,0.000000,0.000000
1386870803,0,0,0.0,0,0,4,0,0,0,-0.0292,390.5587,6.8213,0.4212,54.890316,9.801955,108.3,5.845,1.85,335.95,0.000000,0.000000,0.000000,0.000000
1386870803,0,0,0.0,0,0,4,0,0,0,-0.0292,390.5587,6.8213,0.4212,54.890316,9.801955,108.3,5.845,1.85,335.95,0.000000,0.000000,0.000000,0.000000
1386870803,4,0,0.0,0,0,4,0,0,0,-0.0292,390.5587,6.8213,0.4212,54.890316,9.801955,108.3,5.845,1.85,335.95,0.000000,0.000000,0.000000,0.000000
1386870804,1,0,485.9,0,-35,0,0,0,0,-0.0292,399.8921,6.8213,0.4212,54.890331,9.801975,108.3,5.845,1.85,335.95,54.890316,9.801955,54.895069,9.793790
1386870804,1,0,485.9,0,-35,-4,0,23,25,-0.0292,409.2254,6.8213,0.4212,54.890343,9.801999,108.3,5.845,1.85,335.95,54.890316,9.801955,54.895069,9.793790
1386870804,1,0,485.9,0,-35,-8,0,83,50,-0.0292,418.5587,6.8213,0.4212,54.890354,9.802026,108.3,5.845,1.85,335.95,54.890316,9.801955,54.895069,9.793790
1386870804,1,0,485.9,0,-35,-12,0,162,75,-0.0292,427.8921,6.8213,0.4212,54.890362,9.802054,108.3,5.845,1.85,335.95,54.890316,9.801955,54.895069,9.793790
1386870805,1,0,485.9,0,-35,-16,0,247,100,-0.0292,437.2254,6.8213,0.4212,54.890366,9.802085,108.3,5.845,1.85,335.95,54.890316,9.801955,54.895069,9.793790
1386870805,1,0,485.9,0,-35,-20,0,332,125,-0.0292,446.5588,6.8213,0.4212,54.890369,9.802116,108.3,5.845,1.85,335.95,54.890316,9.801955,54.895069,9.793790
1386870805,1,0,485.9,0,-35,-24,0,415,150,-0.0292,455.8921,6.8213,0.4212,54.890369,9.802147,108.3,5.845,1.85,335.95,54.890316,9.801955,54.895069,9.793790
1386870805,1,0,485.9,0,-30,-28,0,493,175,-0.0292,463.8921,6.8213,0.4212,54.890366,9.802177,108.3,5.845,1.85,335.95,54.890316,9.801955,54.895069,9.793790
1386870806,1,0,485.9,0,-22,-24,0,555,200,-0.0292,469.7588,6.8213,0.4212,54.890362,9.802207,108.3,5.845,1.85,335.95,54.890316,9.801955,54.895069,9.793790
1386870806,1,0,485.9,0,-16,-20,0,578,225,-0.0292,474.0255,6.8213,0.4212,54.890354,9.802236,108.3,5.845,1.85,335.95,54.890316,9.801955,54.895069,9.793790
1386870806,1,0,485.9,0,-12,-16,0,409,250,-0.0292,477.2255,6.8213,0.4212,54.890347,9.802263,108.3,5.845,1.85,335.95,54.890316,9.801955,54.895069,9.793790
1386870806,1,0,485.9,0,-9,-12,0,409,275,-0.0292,479.6255,6.8213,0.4212,54.890339,9.802291,108.3,5.845,1.85,335.95,54.890316,9.801955,54.895069,9.793790
1386870807,1,0,485.9,0,-6,-8,0,409,300,-0.0292,481.2255,6.8213,0.4212,54.890331,9.802318,108.3,5.845,1.85,335.95,54.890316,9.801955,54.895069,9.793790
1386870807,1,0,485.9,0,-5,-4,0,409,325,-0.0292,482.5588,6.8213,0.4212,54.890320,9.802344,108.3,5.845,1.85,335.95,54.890316,9.801955,54.895069,9.793790
1386870807,1,0,485.9,0,-3,0,0,409,350,-0.0292,483.3588,6.8213,0.4212,54.890312,9.802370,108.3,5.845,1.85,335.95,54.890316,9.801955,54.895069,9.793790
1386870807,1,0,485.9,0,-3,-4,0,409,375,-0.0292,484.1588,6.8213,0.4212,54.890301,9.802396,108.3,5.845,1.85,335.95,54.890316,9.801955,54.895069,9.793790
1386870808,1,0,485.9,0,-2,0,0,409,400,-0.0292,484.6921,6.8213,0.4212,54.890289,9.802422,108.3,5.845,1.85,335.95,54.890316,9.801955,54.895069,9.793790
1386870808,1,0,485.9,0,-1,-4,0,409,425,-0.0292,484.9588,6.8213,0.4212,54.890278,9.802447,108.3,5.845,1.85,335.95,54.890316,9.801955,54.895069,9.793790
1386870808,1,0,485.9,0,-1,0,0,409,400,-0.0292,485.2254,6.8213,0.4212,54.890266,9.802473,108.3,5.845,1.85,335.95,54.890316,9.801955,54.895069,9.793790
1386870808,1,0,485.9,0,-1,-4,0,409,425,-0.0292,485.4921,6.8213,0.4212,54.890259,9.802499,108.3,5.845,1.85,335.95,54.890316,9.801955,54.895069,9.793790
1386870809,1,0,485.9,0,0,0,0,0,400,-0.0292,485.4921,6.8213,0.4212,54.890247,9.802524,108.3,5.845,1.85,335.95,54.890316,9.801955,54.895069,9.793790
1386870809,1,0,485.9,0,0,4,0,0,375,-0.0292,485.4921,6.8213,0.4212,54.890240,9.802549,108.3,5.845,1.85,335.95,54.890316,9.801955,54.895069,9.793790
1386870809,1,0,485.9,0,0,0,0,0,350,-0.0292,485.4921,6.8213,0.4212,54.890228,9.802575,108.3,5.845,1.85,335.95,54.890316,9.801955,54.895069,9.793790
1386870809,1,0,485.9,0,0,4,0,0,325,-0.0292,485.4921,6.8213,0.4212,54.890217,9.802601,108.3,5.845,1.85,335.95,54.890316,9.801955,54.895069,9.793790
1386870810,1,0,485.9,0,0,0,0,0,300,-0.0292,485.4921,6.8213,0.4212,54.890209,9.802627,108.3,5.845,1.85,335.95,54.890316,9.801955,54.895069,9.793790
1386870810,1,0,485.9,0,0,4,0,0,275,-0.0292,485.4921,6.8213,0.4212,54.890198,9.802651,108.3,5.845,1.85,335.95,54.890316,9.801955,54.895069,9.793790
1386870810,1,0,485.9,0,0,0,0,0,250,-0.0292,485.4921,6.8213,0.4212,54.890190,9.802677,108.3,5.845,1.85,335.95,54.890316,9.801955,54.895069,9.793790
1386870810,1,0,485.9,0,0,4,0,0,225,-0.0292,485.4921,6.8213,0.4212,54.890179,9.802702,108.3,5.845,1.85,335.95,54.890316,9.801955,54.895069,9.793790
1386870811,1,0,485.9,0,0,0,0,0,200,-0.0292,485.4921,6.8213,0.4212,54.890167,9.802728,108.3,5.845,1.85,335.95,54.890316,9.801955,54.895069,9.793790
1386870811,1,0,485.9,0,0,4,0,0,175,-0.0292,485.4921,6.8213,0.4212,54.890156,9.802753,108.3,5.845,1.85,335.95,54.890316,9.801955,54.895069,9.793790
1386870811,1,0,485.9,0,0,0,0,0,150,-0.0292,485.4921,6.8213,0.4212,54.890144,9.802778,108.3,5.845,1.85,335.95,54.890316,9.801955,54.895069,9.793790
1386870811,1,0,485.9,0,0,4,0,0,125,-0.0292,485.4921,6.8213,0.4212,54.890137,9.802804,108.3,5.845,1.85,335.95,54.890316,9.801955,54.895069,9.793790
1386870812,1,0,485.9,0,0,0,0,0,100,-0.0292,485.4921,6.8213,0.4212,54.890125,9.802829,108.3,5.845,1.85,335.95,54.890316,9.801955,54.895069,9.793790
1386870812,1,0,485.9,0,0,4,0,0,75,-0.0292,485.4921,6.8213,0.4212,54.890118,9.802855,108.3,5.845,1.85,335.95,54.890316,9.801955,54.895069,9.793790
1386870812,1,0,485.9,0,0,0,0,0,50,-0.0292,485.4921,6.8213,0.4212,54.890106,9.802880,108.3,5.845,1.85,335.95,54.890316,9.801955,54.895069,9.793790
1386870812,1,0,485.9,0,0,4,0,0,25,-0.0292,485.4921,6.8213,0.4212,54.890095,9.802905,108.3,5.845,1.85,335.95,54.890316,9.801955,54.895069,9.793790
1386870813,1,0,485.9,0,0,0,0,0,0,-0.0292,485.4921,6.8213,0.4212,54.890087,9.802931,108.3,5.845,1.85,335.95,54.890316,9.801955,54.895069,9.793790
1386870813,1,0,485.9,0,0,4,0,0,25,-0.0292,485.4921,6.8213,0.4212,54.890076,9.802956,108.3,5.845,1.85,335.95,54.890316,9.801955,54.895069,9.793790
1386870813,1,0,545.9,0,-35,0,0,0,0,-0.0292,494.8254,6.8213,0.4212,54.890064,9.802979,108.3,5.845,1.85,335.95,54.890316,9.801955,54.895069,9.793790
1386870813,1,0,545.9,0,-35,-4,0,0,25,-0.0292,504.1588,6.8213,0.4212,54.890049,9.802997,108.3,5.845,1.85,335.95,54.890316,9.801955,54.895069,9.793790
1386870814,1,0,545.9,0,-35,-8,0,0,0,-0.0292,513.4921,6.8213,0.4212,54.890034,9.803011,108.3,5.845,1.85,335.95,54.890316,9.801955,54.895069,9.793790
1386870814,1,0,545.9,0,-32,-12,0,0,25,-0.0292,522.0255,6.8213,0.4212,54.890015,9.803020,108.3,5.845,1.85,335.95,54.890316,9.801955,54.895069,9.793790
1386870814,1,0,545.9,0,-24,-16,0,0,0,-0.0292,528.4255,6.8213,0.4212,54.889996,9.803026,108.3,5.845,1.85,335.95,54.890316,9.801955,54.895069,9.793790
1386870814,1,0,545.9,0,-18,-20,0,0,25,-0.0292,533.2255,6.8213,0.4212,54.889980,9.803030,108.3,5.845,1.85,335.95,54.890316,9.801955,54.895069,9.793790
1386870815,1,0,545.9,0,-13,-16,0,0,0,-0.0292,536.6921,6.8213,0.4212,54.889961,9.803032,108.3,5.845,1.85,335.95,54.890316,9.801955,54.895069,9.793790
1386870815,1,0,545.9,0,-9,-12,0,0,25,-0.0292,539.0922,6.8213,0.4212,54.889942,9.803033,108.3,5.845,1.85,335.95,54.890316,9.801955,54.895069,9.793790
1386870815,1,0,545.9,0,-7,-8,0,409,50,-0.0292,540.9588,6.8213,0.4212,54.889923,9.803033,108.3,5.845,1.85,335.95,54.890316,9.801955,54.895069,9.793790
1386870815,1,0,545.9,0,-5,-4,0,409,75,-0.0292,542.2921,6.8213,0.4212,54.889908,9.803032,108.3,5.845,1.85,335.95,54.890316,9.801955,54.895069,9.793790
1386870816,1,0,545.9,0,-4,0,0,409,100,-0.0292,543.3588,6.8213,0.4212,54.889889,9.803030,108.3,5.845,1.85,335.95,54.890316,9.801955,54.895069,9.793790
1386870816,1,0,545.9,0,-3,-4,0,409,125,-0.0292,544.1588,6.8213,0.4212,54.889870,9.803028,108.3,5.845,1.85,335.95,54.890316,9.801955,54.895069,9.793790
1386870816,1,0,545.9,0,-2,0,0,409,150,-0.0292,544.6921,6.8213,0.4212,54.889851,9.803025,108.3,5.845,1.85,335.95,54.890316,9.801955,54.895069,9.793790
1386870816,1,0,545.9,0,-1,-4,0,409,175,-0.0292,544.9587,6.8213,0.4212,54.889835,9.803022,108.3,5.845,1.85,335.95,54.890316,9.801955,54.895069,9.793790
1386870817,1,0,545.9,0,-1,0,0,409,200,-0.0292,545.2254,6.8213,0.4212,54.889816,9.803020,108.3,5.845,1.85,335.95,54.890316,9.801955,54.895069,9.793790
1386870817,1,0,545.9,0,-1,-4,0,409,225,-0.0292,545.4921,6.8213,0.4212,54.889797,9.803017,108.3,5.845,1.85,335.95,54.890316,9.801955,54.895069,9.793790
1386870817,1,0,545.9,0,0,0,0,409,250,-0.0292,545.4921,6.8213,0.4212,54.889778,9.803014,108.3,5.845,1.85,335.95,54.890316,9.801955,54.895069,9.793790
1386870818,1,0,545.9,0,0,4,0,409,275,-0.0292,545.4921,6.8213,0.4212,54.889763,9.803011,108.3,5.845,1.85,335.95,54.890316,9.801955,54.895069,9.793790
1386870818,1,0,545.9,0,0,0,0,409,300,-0.0292,545.4921,6.8213,0.4212,54.889744,9.803007,108.3,5.845,1.85,335.95,54.890316,9.801955,54.895069,9.793790
1386870818,1,0,545.9,0,0,4,0,409,325,-0.0292,545.4921,6.8213,0.4212,54.889725,9.803003,108.3,5.845,1.85,335.95,54.890316,9.801955,54.895069,9.793790
1386870818,1,0,280.9,0,-35,0,0,409,350,-0.0292,554.8254,6.8213,0.4212,54.889709,9.802996,108.3,5.845,1.85,335.95,54.890316,9.801955,54.895069,9.793790
1386870819,1,0,280.9,0,-35,-4,0,409,375,-0.0292,564.1587,6.8213,0.4212,54.889690,9.802983,108.3,5.845,1.85,335.95,54.890316,9.801955,54.895069,9.793790
1386870819,1,0,280.9,0,-35,-8,0,578,400,-0.0292,573.4920,6.8213,0.4212,54.889675,9.802966,108.3,5.845,1.85,335.95,54.890316,9.801955,54.895069,9.793790
1386870819,1,0,280.9,0,-35,-12,0,513,425,-0.0292,582.8253,6.8213,0.4212,54.889664,9.802944,108.3,5.845,1.85,335.95,54.890316,9.801955,54.895069,9.793790
1386870819,1,0,280.9,0,-35,-16,0,436,450,-0.0292,592.1586,6.8213,0.4212,54.889652,9.802919,108.3,5.845,1.85,335.95,54.890316,9.801955,54.895069,9.793790
1386870820,1,0,280.9,0,-35,-20,0,355,425,-0.0292,601.4919,6.8213,0.4212,54.889645,9.802892,108.3,5.845,1.85,335.95,54.890316,9.801955,54.895069,9.793790
1386870820,1,0,280.9,0,-35,-24,0,270,400,-0.0292,610.8253,6.8213,0.4212,54.889637,9.802862,108.3,5.845,1.85,335.95,54.890316,9.801955,54.895069,9.793790
1386870820,1,0,280.9,0,-30,-28,0,184,375,-0.0292,618.8253,6.8213,0.4212,54.889633,9.802832,108.3,5.845,1.85,335.95,54.890316,9.801955,54.895069,9.793790
1386870820,1,0,280.9,0,-22,-24,0,114,350,-0.0292,624.6919,6.8213,0.4212,54.889633,9.802801,108.3,5.845,1.85,335.95,54.890316,9.801955,54.895069,9.793790
1386870821,1,0,280.9,0,-16,-20,0,68,325,-0.0292,628.9586,6.8213,0.4212,54.889633,9.802770,108.3,5.845,1.85,335.95,54.890316,9.801955,54.895069,9.793790
1386870821,1,0,280.9,0,-12,-16,0,39,300,-0.0292,632.1586,6.8213,0.4212,54.889637,9.802738,108.3,5.845,1.85,335.95,54.890316,9.801955,54.895069,9.793790
1386870821,1,0,280.9,0,-9,-12,0,22,275,-0.0292,634.5586,6.8213,0.4212,54.889637,9.802708,108.3,5.845,1.85,335.95,54.890316,9.801955,54.895069,9.793790
1386870821,1,0,280.9,0,-6,-8,0,12,250,-0.0292,636.1586,6.8213,0.4212,54.889637,9.802676,108.3,5.845,1.85,335.95,54.890316,9.801955,54.895069,9.793790
1386870822,1,0,280.9,0,-5,-4,0,6,225,-0.0292,637.4919,6.8213,0.4212,54.889637,9.802645,108.3,5.845,1.85,335.95,54.890316,9.801955,54.895069,9.793790
1386870822,1,0,280.9,0,-3,0,0,3,200,-0.0292,638.2919,6.8213,0.4212,54.889637,9.802614,108.3,5.845,1.85,335.95,54.890316,9.801955,54.895069,9.793790
1386870822,1,0,280.9,0,-3,-4,0,2,175,-0.0292,639.0919,6.8213,0.4212,54.889637,9.802584,108.3,5.845,1.85,335.95,54.890316,9.801955,54.895069,9.793790
1386870822,1,0,280.9,0,-2,0,0,1,150,-0.0292,639.6252,6.8213,0.4212,54.889637,9.802552,108.3,5.845,1.85,335.95,54.890316,9.801955,54.895069,9.793790
1386870823,1,0,280.9,0,-1,-4,0,0,125,-0.0292,639.8918,6.8213,0.4212,54.889637,9.802522,108.3,5.845,1.85,335.95,54.890316,9.801955,54.895069,9.793790
1386870823,1,0,280.9,0,-1,0,0,0,100,-0.0292,640.1585,6.8213,0.4212,54.889637,9.802491,108.3,5.845,1.85,335.95,54.890316,9.801955,54.895069,9.793790
1386870823,1,0,280.9,0,-1,-4,0,0,75,-0.0292,640.4252,6.8213,0.4212,54.889637,9.802460,108.3,5.845,1.85,335.95,54.890316,9.801955,54.895069,9.793790
1386870823,1,0,280.9,0,-1,0,0,0,50,-0.0292,640.6918,6.8213,0.4212,54.889637,9.802429,108.3,5.845,1.85,335.95,54.890316,9.801955,54.895069,9.793790
1386870824,1,0,280.9,0,0,4,0,0,25,-0.0292,640.6918,6.8213,0.4212,54.889637,9.802399,108.3,5.845,1.85,335.95,54.890316,9.801955,54.895069,9.793790
1386870824,1,0,280.9,0,0,0,0,0,0,-0.0292,640.6918,6.8213,0.4212,54.889637,9.802368,108.3,5.845,1.85,335.95,54.890316,9.801955,54.895069,9.793790
1386870824,1,0,280.9,0,0,4,0,0,25,-0.0292,640.6918,6.8213,0.4212,54.889637,9.802337,108.3,5.845,1.85,335.95,54.890316,9.801955,54.895069,9.793790
1386870824,1,0,280.9,0,0,0,0,0,0,-0.0292,640.6918,6.8213,0.4212,54.889637,9.802306,108.3,5.845,1.85,335.95,54.890316,9.801955,54.895069,9.793790
1386870825,1,0,280.9,0,0,4,0,0,25,-0.0292,640.6918,6.8213,0.4212,54.889637,9.802276,108.3,5.845,1.85,335.95,54.890316,9.801955,54.895069,9.793790
1386870825,1,0,280.9,0,0,0,0,0,0,-0.0292,640.6918,6.8213,0.4212,54.889637,9.802245,108.3,5.845,1.85,335.95,54.890316,9.801955,54.895069,9.793790
1386870825,1,0,280.9,0,0,4,0,0,25,-0.0292,640.6918,6.8213,0.4212,54.889637,9.802215,108.3,5.845,1.85,335.95,54.890316,9.801955,54.895069,9.793790
1386870825,1,0,280.9,0,0,0,0,0,0,-0.0292,640.6918,6.8213,0.4212,54.889637,9.802184,108.3,5.845,1.85,335.95,54.890316,9.801955,54.895069,9.793790
1386870826,1,0,280.9,0,0,4,0,0,25,-0.0292,640.6918,6.8213,0.4212,54.889637,9.802154,108.3,5.845,1.85,335.95,54.890316,9.801955,54.895069,9.793790
1386870826,1,0,280.9,0,0,0,0,0,0,-0.0292,640.6918,6.8213,0.4212,54.889637,9.802122,108.3,5.845,1.85,335.95,54.890316,9.801955,54.895069,9.793790
1386870826,1,0,280.9,0,0,4,0,0,25,-0.0292,640.6918,6.8213,0.4212,54.889637,9.802092,108.3,5.845,1.85,335.95,54.890316,9.801955,54.895069,9.793790
1386870826,1,0,280.9,0,0,0,0,0,0,-0.0292,640.6918,6.8213,0.4212,54.889637,9.802061,108.3,5.845,1.85,335.95,54.890316,9.801955,54.895069,9.793790
1386870827,1,0,280.9,0,0,4,0,0,25,-0.0292,640.6918,6.8213,0.4212,54.889637,9.802031,108.3,5.845,1.85,335.95,54.890316,9.801955,54.895069,9.793790
1386870827,1,0,545.9,0,35,8,0,0,0,-0.0292,631.3585,6.8213,0.4212,54.889637,9.801999,108.3,5.845,1.85,335.95,54.890316,9.801955,54.895069,9.793790
1386870827,1,0,545.9,0,35,12,0,26,25,-0.0292,622.0252,6.8213,0.4212,54.889633,9.801969,108.3,5.845,1.85,335.95,54.890316,9.801955,54.895069,9.793790
1386870827,1,0,545.9,0,35,16,0,88,50,-0.0292,612.6919,6.8213,0.4212,54.889629,9.801939,108.3,5.845,1.85,335.95,54.890316,9.801955,54.895069,9.793790
1386870828,1,0,545.9,0,35,20,0,168,75,-0.0292,603.3586,6.8213,0.4212,54.889622,9.801910,108.3,5.845,1.85,335.95,54.890316,9.801955,54.895069,9.793790
1386870828,1,0,545.9,0,35,24,0,253,100,-0.0292,594.0253,6.8213,0.4212,54.889610,9.801885,108.3,5.845,1.85,335.95,54.890316,9.801955,54.895069,9.793790
1386870828,1,0,545.9,0,35,28,0,338,125,-0.0292,584.6920,6.8213,0.4212,54.889595,9.801863,108.3,5.845,1.85,335.95,54.890316,9.801955,54.895069,9.793790
1386870828,1,0,545.9,0,35,32,0,420,150,-0.0292,575.3586,6.8213,0.4212,54.889580,9.801845,108.3,5.845,1.85,335.95,54.890316,9.801955,54.895069,9.793790
1386870829,1,0,545.9,0,29,28,0,498,175,-0.0292,567.6253,6.8213,0.4212,54.889565,9.801830,108.3,5.845,1.85,335.95,54.890316,9.801955,54.895069,9.793790
1386870829,1,0,545.9,0,22,24,0,558,200,-0.0292,561.7587,6.8213,0.4212,54.889545,9.801819,108.3,5.845,1.85,335.95,54.890316,9.801955,54.895069,9.793790
1386870829,1,0,545.9,0,16,20,0,578,225,-0.0292,557.4920,6.8213,0.4212,54.889526,9.801809,108.3,5.845,1.85,335.95,54.890316,9.801955,54.895069,9.793790
1386870829,1,0,545.9,0,12,16,0,409,250,-0.0292,554.2920,6.8213,0.4212,54.889511,9.801802,108.3,5.845,1.85,335.95,54.890316,9.801955,54.895069,9.793790
1386870830,1,0,545.9,0,8,12,0,409,275,-0.0292,552.1586,6.8213,0.4212,54.889492,9.801796,108.3,5.845,1.85,335.95,54.890316,9.801955,54.895069,9.793790
1386870830,1,0,545.9,0,6,8,0,0,250,-0.0292,550.5587,6.8213,0.4212,54.889473,9.801790,108.3,5.845,1.85,335.95,54.890316,9.801955,54.895069,9.793790
1386870830,1,0,545.9,0,5,4,0,0,225,-0.0292,549.2253,6.8213,0.4212,54.889454,9.801785,108.3,5.845,1.85,335.95,54.890316,9.801955,54.895069,9.793790
1386870830,1,0,545.9,0,3,0,0,0,200,-0.0292,548.4254,6.8213,0.4212,54.889439,9.801781,108.3,5.845,1.85,335.95,54.890316,9.801955,54.895069,9.793790
1386870831,1,0,545.9,0,2,4,0,0,175,-0.0292,547.8920,6.8213,0.4212,54.889420,9.801776,108.3,5.845,1.85,335.95,54.890316,9.801955,54.895069,9.793790
1386870831,1,0,545.9,0,2,0,0,0,150,-0.0292,547.3587,6.8213,0.4212,54.889400,9.801772,108.3,5.845,1.85,335.95,54.890316,9.801955,54.895069,9.793790
1386870831,1,0,545.9,0,1,4,0,0,125,-0.0292,547.0920,6.8213,0.4212,54.889381,9.801768,108.3,5.845,1.85,335.95,54.890316,9.801955,54.895069,9.793790
1386870831,1,0,545.9,0,1,0,0,0,100,-0.0292,546.8254,6.8213,0.4212,54.889366,9.801764,108.3,5.845,1.85,335.95,54.890316,9.801955,54.895069,9.793790
1386870832,1,0,545.9,0,1,4,0,0,75,-0.0292,546.5587,6.8213,0.4212,54.889347,9.801761,108.3,5.845,1.85,335.95,54.890316,9.801955,54.895069,9.793790
1386870832,1,0,545.9,0,1,0,0,0,50,-0.0292,546.2921,6.8213,0.4212,54.889328,9.801758,108.3,5.845,1.85,335.95,54.890316,9.801955,54.895069,9.793790
1386870832,1,0,545.9,0,0,4,0,0,25,-0.0292,546.2921,6.8213,0.4212,54.889309,9.801755,108.3,5.845,1.85,335.95,54.890316,9.801955,54.895069,9.793790
1386870832,1,0,545.9,0,0,0,0,0,0,-0.0292,546.2921,6.8213,0.4212,54.889294,9.801752,108.3,5.845,1.85,335.95,54.890316,9.801955,54.895069,9.793790
1386870833,1,0,545.9,0,0,4,0,0,25,-0.0292,546.2921,6.8213,0.4212,54.889275,9.801749,108.3,5.845,1.85,335.95,54.890316,9.801955,54.895069,9.793790
1386870833,1,0,485.9,0,35,8,0,0,0,-0.0292,536.9587,6.8213,0.4212,54.889256,9.801751,108.3,5.845,1.85,335.95,54.890316,9.801955,54.895069,9.793790
1386870833,1,0,485.9,0,35,12,0,0,25,-0.0292,527.6254,6.8213,0.4212,54.889240,9.801758,108.3,5.845,1.85,335.95,54.890316,9.801955,54.895069,9.793790
1386870833,1,0,485.9,0,35,16,0,0,0,-0.0292,518.2921,6.8213,0.4212,54.889221,9.801770,108.3,5.845,1.85,335.95,54.890316,9.801955,54.895069,9.793790
1386870834,1,0,485.9,0,32,20,0,0,25,-0.0292,509.7588,6.8213,0.4212,54.889206,9.801785,108.3,5.845,1.85,335.95,54.890316,9.801955,54.895069,9.793790
1386870834,1,0,485.9,0,24,24,0,0,0,-0.0292,503.3588,6.8213,0.4212,54.889191,9.801805,108.3,5.845,1.85,335.95,54.890316,9.801955,54.895069,9.793790
1386870834,1,0,485.9,0,17,20,0,0,25,-0.0292,498.8255,6.8213,0.4212,54.889179,9.801826,108.3,5.845,1.85,335.95,54.890316,9.801955,54.895069,9.793790
1386870834,1,0,485.9,0,13,16,0,0,0,-0.0292,495.3588,6.8213,0.4212,54.889168,9.801847,108.3,5.845,1.85,335.95,54.890316,9.801955,54.895069,9.793790
1386870835,1,0,485.9,0,9,12,0,0,25,-0.0292,492.9588,6.8213,0.4212,54.889153,9.801870,108.3,5.845,1.85,335.95,54.890316,9.801955,54.895069,9.793790
1386870835,1,0,485.9,0,7,8,0,409,50,-0.0292,491.0921,6.8213,0.4212,54.889141,9.801894,108.3,5.845,1.85,335.95,54.890316,9.801955,54.895069,9.793790
1386870835,1,0,485.9,0,5,4,0,409,75,-0.0292,489.7588,6.8213,0.4212,54.889133,9.801918,108.3,5.845,1.85,335.95,54.890316,9.801955,54.895069,9.793790
1386870835,1,0,485.9,0,4,8,0,409,100,-0.0292,488.6921,6.8213,0.4212,54.889122,9.801943,108.3,5.845,1.85,335.95,54.890316,9.801955,54.895069,9.793790
1386870836,1,0,485.9,0,3,4,0,409,125,-0.0292,487.8921,6.8213,0.4212,54.889111,9.801968,108.3,5.845,1.85,335.95,54.890316,9.801955,54.895069,9.793790
1386870836,1,0,485.9,0,2,0,0,409,150,-0.0292,487.3588,6.8213,0.4212,54.889099,9.801992,108.3,5.845,1.85,335.95,54.890316,9.801955,54.895069,9.793790
1386870836,1,0,485.9,0,1,4,0,409,175,-0.0292,487.0921,6.8213,0.4212,54.889088,9.802017,108.3,5.845,1.85,335.95,54.890316,9.801955,54.895069,9.793790
1386870836,1,0,485.9,0,1,0,0,409,200,-0.0292,486.8255,6.8213,0.4212,54.889080,9.802043,108.3,5.845,1.85,335.95,54.890316,9.801955,54.895069,9.793790
1386870837,1,0,485.9,0,1,4,0,409,225,-0.0292,486.5588,6.8213,0.4212,54.889069,9.802068,108.3,5.845,1.85,335.95,54.890316,9.801955,54.895069,9.793790
1386870837,1,0,485.9,0,1,0,0,409,250,-0.0292,486.2921,6.8213,0.4212,54.889057,9.802093,108.3,5.845,1.85,335.95,54.890316,9.801955,54.895069,9.793790
1386870837,1,0,485.9,0,0,4,0,409,275,-0.0292,486.2921,6.8213,0.4212,54.889046,9.802118,108.3,5.845,1.85,335.95,54.890316,9.801955,54.895069,9.793790
1386870837,1,0,485.9,0,0,0,0,409,300,-0.0292,486.2921,6.8213,0.4212,54.889034,9.802143,108.3,5.845,1.85,335.95,54.890316,9.801955,54.895069,9.793790
1386870838,1,0,485.9,0,0,4,0,409,325,-0.0292,486.2921,6.8213,0.4212,54.889023,9.802169,108.3,5.845,1.85,335.95,54.890316,9.801955,54.895069,9.793790
1386870838,1,0,390.9,0,35,8,0,409,350,-0.0292,476.9588,6.8213,0.4212,54.889011,9.802197,108.3,5.845,1.85,335.95,54.890316,9.801955,54.895069,9.793790
1386870838,1,0,390.9,0,35,12,0,409,375,-0.0292,467.6255,6.8213,0.4212,54.889008,9.802226,108.3,5.845,1.85,335.95,54.890316,9.801955,54.895069,9.793790
1386870838,1,0,390.9,0,35,16,0,578,400,-0.0292,458.2921,6.8213,0.4212,54.889004,9.802258,108.3,5.845,1.85,335.95,54.890316,9.801955,54.895069,9.793790
1386870839,1,0,390.9,0,35,20,0,512,425,-0.0292,448.9588,6.8213,0.4212,54.889004,9.802289,108.3,5.845,1.85,335.95,54.890316,9.801955,54.895069,9.793790
1386870839,1,0,390.9,0,35,24,0,435,450,-0.0292,439.6254,6.8213,0.4212,54.889008,9.802320,108.3,5.845,1.85,335.95,54.890316,9.801955,54.895069,9.793790
1386870839,1,0,390.9,0,35,28,0,354,425,-0.0292,430.2921,6.8213,0.4212,54.889015,9.802348,108.3,5.845,1.85,335.95,54.890316,9.801955,54.895069,9.793790
1386870840,1,0,390.9,0,35,32,0,269,400,-0.0292,420.9587,6.8213,0.4212,54.889027,9.802376,108.3,5.845,1.85,335.95,54.890316,9.801955,54.895069,9.793790
1386870840,1,0,390.9,0,30,28,0,183,375,-0.0292,412.9587,6.8213,0.4212,54.889038,9.802401,108.3,5.845,1.85,335.95,54.890316,9.801955,54.895069,9.793790
1386870840,1,0,390.9,0,22,24,0,113,350,-0.0292,407.0921,6.8213,0.4212,54.889053,9.802423,108.3,5.845,1.85,335.95,54.890316,9.801955,54.895069,9.793790
1386870840,1,0,390.9,0,16,20,0,67,325,-0.0292,402.8254,6.8213,0.4212,54.889065,9.802444,108.3,5.845,1.85,335.95,54.890316,9.801955,54.895069,9.793790
1386870841,1,0,390.9,0,12,16,0,39,300,-0.0292,399.6254,6.8213,0.4212,54.889080,9.802464,108.3,5.845,1.85,335.95,54.890316,9.801955,54.895069,9.793790
1386870841,1,0,390.9,0,9,12,0,21,275,-0.0292,397.2254,6.8213,0.4212,54.889095,9.802484,108.3,5.845,1.85,335.95,54.890316,9.801955,54.895069,9.793790
1386870841,1,0,390.9,0,6,8,0,11,250,-0.0292,395.6254,6.8213,0.4212,54.889107,9.802502,108.3,5.845,1.85,335.95,54.890316,9.801955,54.895069,9.793790
1386870841,1,0,390.9,0,5,4,0,6,225,-0.0292,394.2921,6.8213,0.4212,54.889122,9.802519,108.3,5.845,1.85,335.95,54.890316,9.801955,54.895069,9.793790
1386870842,1,0,390.9,0,3,0,0,3,200,-0.0292,393.4921,6.8213,0.4212,54.889137,9.802536,108.3,5.845,1.85,335.95,54.890316,9.801955,54.895069,9.793790
1386870842,1,0,390.9,0,3,4,0,1,175,-0.0292,392.6921,6.8213,0.4212,54.889153,9.802552,108.3,5.845,1.85,335.95,54.890316,9.801955,54.895069,9.793790
1386870842,1,0,390.9,0,2,0,0,0,150,-0.0292,392.1588,6.8213,0.4212,54.889168,9.802568,108.3,5.845,1.85,335.95,54.890316,9.801955,54.895069,9.793790
1386870842,1,0,390.9,0,1,4,0,0,125,-0.0292,391.8921,6.8213,0.4212,54.889183,9.802586,108.3,5.845,1.85,335.95,54.890316,9.801955,54.895069,9.793790
1386870843,1,0,390.9,0,1,0,0,0,100,-0.0292,391.6254,6.8213,0.4212,54.889198,9.802602,108.3,5.845,1.85,335.95,54.890316,9.801955,54.895069,9.793790
1386870843,1,0,390.9,0,1,4,0,0,75,-0.0292,391.3588,6.8213,0.4212,54.889214,9.802618,108.3,5.845,1.85,335.95,54.890316,9.801955,54.895069,9.793790
1386870843,1,0,390.9,0,0,0,0,0,50,-0.0292,391.3588,6.8213,0.4212,54.889233,9.802635,108.3,5.845,1.85,335.95,54.890316,9.801955,54.895069,9.793790
1386870843,1,0,390.9,0,0,4,0,0,25,-0.0292,391.3588,6.8213,0.4212,54.889248,9.802651,108.3,5.845,1.85,335.95,54.890316,9.801955,54.895069,9.793790
1386870844,1,0,390.9,0,0,0,0,0,0,-0.0292,391.3588,6.8213,0.4212,54.889263,9.802668,108.3,5.845,1.85,335.95,54.890316,9.801955,54.895069,9.793790
1386870844,1,0,390.9,0,0,4,0,0,25,-0.0292,391.3588,6.8213,0.4212,54.889282,9.802684,108.3,5.845,1.85,335.95,54.890316,9.801955,54.895069,9.793790
1386870844,1,0,390.9,0,0,0,0,0,0,-0.0292,391.3588,6.8213,0.4212,54.889297,9.802700,108.3,5.845,1.85,335.95,54.890316,9.801955,54.895069,9.793790
1386870844,1,0,390.9,0,0,4,0,0,25,-0.0292,391.3588,6.8213,0.4212,54.889313,9.802716,108.3,5.845,1.85,335.95,54.890316,9.801955,54.895069,9.793790
1386870845,1,0,390.9,0,0,0,0,0,0,-0.0292,391.3588,6.8213,0.4212,54.889332,9.802732,108.3,5.845,1.85,335.95,54.890316,9.801955,54.895069,9.793790
1386870845,1,0,390.9,0,0,4,0,0,25,-0.0292,391.3588,6.8213,0.4212,54.889347,9.802749,108.3,5.845,1.85,335.95,54.890316,9.801955,54.895069,9.793790
1386870845,1,0,390.9,0,0,0,0,0,0,-0.0292,391.3588,6.8213,0.4212,54.889362,9.802765,108.3,5.845,1.85,335.95,54.890316,9.801955,54.895069,9.793790
1386870845,1,0,390.9,0,0,4,0,0,25,-0.0292,391.3588,6.8213,0.4212,54.889381,9.802781,108.3,5.845,1.85,335.95,54.890316,9.801955,54.895069,9.793790
1386870846,1,0,390.9,0,0,0,0,0,0,-0.0292,391.3588,6.8213,0.4212,54.889397,9.802797,108.3,5.845,1.85,335.95,54.890316,9.801955,54.895069,9.793790
1386870846,1,0,390.9,0,0,4,0,0,25,-0.0292,391.3588,6.8213,0.4212,54.889412,9.802814,108.3,5.845,1.85,335.95,54.890316,9.801955,54.895069,9.793790
1386870846,1,0,390.9,0,0,0,0,0,0,-0.0292,391.3588,6.8213,0.4212,54.889431,9.802830,108.3,5.845,1.85,335.95,54.890316,9.801955,54.895069,9.793790
1386870846,1,0,390.9,0,0,4,0,0,25,-0.0292,391.3588,6.8213,0.4212,54.889446,9.802846,108.3,5.845,1.85,335.95,54.890316,9.801955,54.895069,9.793790
1386870847,1,0,390.9,0,0,0,0,0,0,-0.0292,391.3588,6.8213,0.4212,54.889462,9.802862,108.3,5.845,1.85,335.95,54.890316,9.801955,54.895069,9.793790
1386870847,1,0,390.9,0,0,4,0,0,25,-0.0292,391.3588,6.8213,0.4212,54.889473,9.802878,108.3,5.845,1.85,335.95,54.890316,9.801955,54.895069,9.793790
1386870847,1,0,390.9,0,0,0,0,0,0,-0.0292,391.3588,6.8213,0.4212,54.889488,9.802895,108.3,5.845,1.85,335.95,54.890316,9.801955,54.895069,9.793790
1386870847,1,0,390.9,0,0,4,0,0,25,-0.0292,391.3588,6.8213,0.4212,54.889503,9.802911,108.3,5.845,1.85,335.95,54.890316,9.801955,54.895069,9.793790
1386870848,1,0,390.9,0,0,0,0,0,0,-0.0292,391.3588,6.8213,0.4212,54.889519,9.802927,108.3,5.845,1.85,335.95,54.890316,9.801955,54.895069,9.793790
1386870848,1,0,390.9,0,0,4,0,0,25,-0.0292,391.3588,6.8213,0.4212,54.889534,9.802943,108.3,5.845,1.85,335.95,54.890316,9.801955,54.895069,9.793790
1386870848,1,0,390.9,0,0,0,0,0,0,-0.0292,391.3588,6.8213,0.4212,54.889553,9.802959,108.3,5.845,1.85,335.95,54.890316,9.801955,54.895069,9.793790
1386870848,1,0,390.9,0,0,4,0,0,25,-0.0292,391.3588,6.8213,0.4212,54.889568,9.802976,108.3,5.845,1.85,335.95,54.890316,9.801955,54.895069,9.793790
1386870849,1,0,390.9,0,0,0,0,0,0,-0.0292,391.3588,6.8213,0.4212,54.889584,9.802992,108.3,5.845,1.85,335.95,54.890316,9.801955,54.895069,9.793790
1386870849,1,0,390.9,0,0,4,0,0,25,-0.0292,391.3588,6.8213,0.4212,54.889603,9.803008,108.3,5.845,1.85,335.95,54.890316,9.801955,54.895069,9.793790
1386870849,1,0,390.9,0,0,0,0,0,0,-0.0292,391.3588,6.8213,0.4212,54.889618,9.803024,108.3,5.845,1.85,335.95,54.890316,9.801955,54.895069,9.793790
1386870849,1,0,390.9,0,0,4,0,0,25,-0.0292,391.3588,6.8213,0.4212,54.889633,9.803041,108.3,5.845,1.85,335.95,54.890316,9.801955,54.895069,9.793790
1386870850,1,0,390.9,0,0,0,0,0,0,-0.0292,391.3588,6.8213,0.4212,54.889652,9.803057,108.3,5.845,1.85,335.95,54.890316,9.801955,54.895069,9.793790
1386870850,1,0,390.9,0,0,4,0,0,25,-0.0292,391.3588,6.8213,0.4212,54.889668,9.803073,108.3,5.845,1.85,335.95,54.890316,9.801955,54.895069,9.793790
1386870850,1,0,390.9,0,0,0,0,0,0,-0.0292,391.3588,6.8213,0.4212,54.889683,9.803089,108.3,5.845,1.85,335.95,54.890316,9.801955,54.895069,9.793790
1386870850,1,0,390.9,0,0,4,0,0,25,-0.0292,391.3588,6.8213,0.4212,54.889694,9.803106,108.3,5.845,1.85,335.95,54.890316,9.801955,54.895069,9.793790
1386870851,1,0,390.9,0,0,0,0,0,0,-0.0292,391.3588,6.8213,0.4212,54.889709,9.803123,108.3,5.845,1.85,335.95,54.890316,9.801955,54.895069,9.793790
1386870851,1,0,390.9,0,0,4,0,0,25,-0.0292,391.3588,6.8213,0.4212,54.889725,9.803139,108.3,5.845,1.85,335.95,54.890316,9.801955,54.895069,9.793790
1386870851,1,0,390.9,0,0,0,0,0,0,-0.0292,391.3588,6.8213,0.4212,54.889740,9.803155,108.3,5.845,1.85,335.95,54.890316,9.801955,54.895069,9.793790
1386870851,1,0,390.9,0,0,4,0,0,25,-0.0292,391.3588,6.8213,0.4212,54.889755,9.803171,108.3,5.845,1.85,335.95,54.890316,9.801955,54.895069,9.793790
1386870852,1,0,390.9,0,0,0,0,0,0,-0.0292,391.3588,6.8213,0.4212,54.889774,9.803187,108.3,5.845,1.85,335.95,54.890316,9.801955,54.895069,9.793790
1386870852,1,0,390.9,0,0,4,0,0,25,-0.0292,391.3588,6.8213,0.4212,54.889790,9.803204,108.3,5.845,1.85,335.95,54.890316,9.801955,54.895069,9.793790
1386870852,1,0,390.9,0,0,0,0,0,0,-0.0292,391.3588,6.8213,0.4212,54.889805,9.803220,108.3,5.845,1.85,335.95,54.890316,9.801955,54.895069,9.793790
1386870852,1,0,390.9,0,0,4,0,0,25,-0.0292,391.3588,6.8213,0.4212,54.889824,9.803236,108.3,5.845,1.85,335.95,54.890316,9.801955,54.895069,9.793790
1386870853,1,0,390.9,0,0,0,0,0,0,-0.0292,391.3588,6.8213,0.4212,54.889839,9.803252,108.3,5.845,1.85,335.95,54.890316,9.801955,54.895069,9.793790
1386870853,1,0,390.9,0,0,4,0,0,25,-0.0292,391.3588,6.8213,0.4212,54.889854,9.803268,108.3,5.845,1.85,335.95,54.890316,9.801955,54.895069,9.793790
1386870853,1,0,390.9,0,0,0,0,0,0,-0.0292,391.3588,6.8213,0.4212,54.889874,9.803285,108.3,5.845,1.85,335.95,54.890316,9.801955,54.895069,9.793790
1386870853,1,0,390.9,0,0,4,0,0,25,-0.0292,391.3588,6.8213,0.4212,54.889889,9.803301,108.3,5.845,1.85,335.95,54.890316,9.801955,54.895069,9.793790
1386870854,1,0,390.9,0,0,0,0,0,0,-0.0292,391.3588,6.8213,0.4212,54.889904,9.803317,108.3,5.845,1.85,335.95,54.890316,9.801955,54.895069,9.793790
1386870854,1,0,390.9,0,0,4,0,0,25,-0.0292,391.3588,6.8213,0.4212,54.889923,9.803333,108.3,5.845,1.85,335.95,54.890316,9.801955,54.895069,9.793790
1386870854,1,0,390.9,0,0,0,0,0,0,-0.0292,391.3588,6.8213,0.4212,54.889938,9.803349,108.3,5.845,1.85,335.95,54.890316,9.801955,54.895069,9.793790
1386870854,1,0,390.9,0,0,4,0,0,25,-0.0292,391.3588,6.8213,0.4212,54.889954,9.803366,108.3,5.845,1.85,335.95,54.890316,9.801955,54.895069,9.793790
1386870855,1,0,390.9,0,0,0,0,0,0,-0.0292,391.3588,6.8213,0.4212,54.889965,9.803382,108.3,5.845,1.85,335.95,54.890316,9.801955,54.895069,9.793790
1386870855,1,0,390.9,0,0,4,0,0,25,-0.0292,391.3588,6.8213,0.4212,54.889980,9.803398,108.3,5.845,1.85,335.95,54.890316,9.801955,54.895069,9.793790
1386870855,1,0,390.9,0,0,0,0,0,0,-0.0292,391.3588,6.8213,0.4212,54.889996,9.803414,108.3,5.845,1.85,335.95,54.890316,9.801955,54.895069,9.793790
1386870855,1,0,390.9,0,0,4,0,0,25,-0.0292,391.3588,6.8213,0.4212,54.890011,9.803431,108.3,5.845,1.85,335.95,54.890316,9.801955,54.895069,9.793790
1386870856,1,0,390.9,0,0,0,0,0,0,-0.0292,391.3588,6.8213,0.4212,54.890026,9.803447,108.3,5.845,1.85,335.95,54.890316,9.801955,54.895069,9.793790
1386870856,1,0,390.9,0,0,4,0,0,25,-0.0292,391.3588,6.8213,0.4212,54.890045,9.803463,108.3,5.845,1.85,335.95,54.890316,9.801955,54.895069,9.793790
1386870856,1,0,390.9,0,0,0,0,0,0,-0.0292,391.3588,6.8213,0.4212,54.890060,9.803479,108.3,5.845,1.85,335.95,54.890316,9.801955,54.895069,9.793790
1386870856,1,0,390.9,0,0,4,0,0,25,-0.0292,391.3588,6.8213,0.4212,54.890076,9.803495,108.3,5.845,1.85,335.95,54.890316,9.801955,54.895069,9.793790
1386870857,1,0,390.9,0,0,0,0,0,0,-0.0292,391.3588,6.8213,0.4212,54.890095,9.803512,108.3,5.845,1.85,335.95,54.890316,9.801955,54.895069,9.793790
1386870857,1,0,485.9,0,-35,-4,0,0,25,-0.0292,400.6921,6.8213,0.4212,54.890110,9.803533,108.3,5.845,1.85,335.95,54.890316,9.801955,54.895069,9.793790
1386870857,1,0,485.9,0,-35,-8,0,27,50,-0.0292,410.0255,6.8213,0.4212,54.890121,9.803556,108.3,5.845,1.85,335.95,54.890316,9.801955,54.895069,9.793790
1386870857,1,0,485.9,0,-35,-12,0,90,75,-0.0292,419.3588,6.8213,0.4212,54.890133,9.803584,108.3,5.845,1.85,335.95,54.890316,9.801955,54.895069,9.793790
1386870858,1,0,485.9,0,-35,-16,0,169,100,-0.0292,428.6921,6.8213,0.4212,54.890137,9.803614,108.3,5.845,1.85,335.95,54.890316,9.801955,54.895069,9.793790
1386870858,1,0,485.9,0,-35,-20,0,254,125,-0.0292,438.0255,6.8213,0.4212,54.890141,9.803644,108.3,5.845,1.85,335.95,54.890316,9.801955,54.895069,9.793790
1386870858,1,0,485.9,0,-35,-24,0,339,150,-0.0292,447.3588,6.8213,0.4212,54.890141,9.803676,108.3,5.845,1.85,335.95,54.890316,9.801955,54.895069,9.793790
1386870858,1,0,485.9,0,-35,-28,0,422,175,-0.0292,456.6922,6.8213,0.4212,54.890141,9.803707,108.3,5.845,1.85,335.95,54.890316,9.801955,54.895069,9.793790
1386870859,1,0,485.9,0,-29,-32,0,499,200,-0.0292,464.4255,6.8213,0.4212,54.890137,9.803738,108.3,5.845,1.85,335.95,54.890316,9.801955,54.895069,9.793790
1386870859,1,0,485.9,0,-22,-28,0,559,225,-0.0292,470.2922,6.8213,0.4212,54.890129,9.803766,108.3,5.845,1.85,335.95,54.890316,9.801955,54.895069,9.793790
1386870859,1,0,485.9,0,-16,-24,0,578,250,-0.0292,474.5588,6.8213,0.4212,54.890121,9.803795,108.3,5.845,1.85,335.95,54.890316,9.801955,54.895069,9.793790
1386870859,1,0,485.9,0,-11,-20,0,409,275,-0.0292,477.4922,6.8213,0.4212,54.890114,9.803823,108.3,5.845,1.85,335.95,54.890316,9.801955,54.895069,9.793790
1386870860,1,0,485.9,0,-8,-16,0,409,300,-0.0292,479.6255,6.8213,0.4212,54.890106,9.803849,108.3,5.845,1.85,335.95,54.890316,9.801955,54.895069,9.793790
1386870860,1,0,485.9,0,-6,-12,0,0,275,-0.0292,481.2255,6.8213,0.4212,54.890095,9.803876,108.3,5.845,1.85,335.95,54.890316,9.801955,54.895069,9.793790
1386870860,1,0,485.9,0,-5,-8,0,0,250,-0.0292,482.5588,6.8213,0.4212,54.890087,9.803902,108.3,5.845,1.85,335.95,54.890316,9.801955,54.895069,9.793790
1386870860,1,0,485.9,0,-3,-4,0,0,225,-0.0292,483.3588,6.8213,0.4212,54.890076,9.803928,108.3,5.845,1.85,335.95,54.890316,9.801955,54.895069,9.793790
1386870861,1,0,485.9,0,-3,0,0,0,200,-0.0292,484.1588,6.8213,0.4212,54.890068,9.803954,108.3,5.845,1.85,335.95,54.890316,9.801955,54.895069,9.793790
1386870861,1,0,485.9,0,-2,-4,0,0,175,-0.0292,484.6921,6.8213,0.4212,54.890060,9.803980,108.3,5.845,1.85,335.95,54.890316,9.801955,54.895069,9.793790
1386870861,1,0,485.9,0,-1,0,0,0,150,-0.0292,484.9588,6.8213,0.4212,54.890049,9.804006,108.3,5.845,1.85,335.95,54.890316,9.801955,54.895069,9.793790
1386870861,1,0,485.9,0,-1,-4,0,0,125,-0.0292,485.2255,6.8213,0.4212,54.890041,9.804031,108.3,5.845,1.85,335.95,54.890316,9.801955,54.895069,9.793790
1386870862,1,0,485.9,0,-1,0,0,0,100,-0.0292,485.4921,6.8213,0.4212,54.890030,9.804057,108.3,5.845,1.85,335.95,54.890316,9.801955,54.895069,9.793790
1386870862,1,0,485.9,0,0,4,0,0,75,-0.0292,485.4921,6.8213,0.4212,54.890018,9.804083,108.3,5.845,1.85,335.95,54.890316,9.801955,54.895069,9.793790
1386870862,1,0,485.9,0,0,0,0,0,50,-0.0292,485.4921,6.8213,0.4212,54.890007,9.804108,108.3,5.845,1.85,335.95,54.890316,9.801955,54.895069,9.793790
1386870862,1,0,485.9,0,0,4,0,0,25,-0.0292,485.4921,6.8213,0.4212,54.889996,9.804133,108.3,5.845,1.85,335.95,54.890316,9.801955,54.895069,9.793790
1386870863,1,0,485.9,0,0,0,0,0,0,-0.0292,485.4921,6.8213,0.4212,54.889988,9.804158,108.3,5.845,1.85,335.95,54.890316,9.801955,54.895069,9.793790
1386870863,1,0,485.9,0,0,4,0,0,25,-0.0292,485.4921,6.8213,0.4212,54.889977,9.804184,108.3,5.845,1.85,335.95,54.890316,9.801955,54.895069,9.793790
1386870863,1,0,545.9,0,-35,0,0,0,0,-0.0292,494.8255,6.8213,0.4212,54.889965,9.804206,108.3,5.845,1.85,335.95,54.890316,9.801955,54.895069,9.793790
1386870863,1,0,545.9,0,-35,-4,0,0,25,-0.0292,504.1588,6.8213,0.4212,54.889950,9.804224,108.3,5.845,1.85,335.95,54.890316,9.801955,54.895069,9.793790
1386870864,1,0,545.9,0,-35,-8,0,0,0,-0.0292,513.4921,6.8213,0.4212,54.889935,9.804238,108.3,5.845,1.85,335.95,54.890316,9.801955,54.895069,9.793790
1386870864,1,0,545.9,0,-32,-12,0,0,25,-0.0292,522.0255,6.8213,0.4212,54.889915,9.804248,108.3,5.845,1.85,335.95,54.890316,9.801955,54.895069,9.793790
1386870864,1,0,545.9,0,-24,-16,0,0,0,-0.0292,528.4255,6.8213,0.4212,54.889896,9.804255,108.3,5.845,1.85,335.95,54.890316,9.801955,54.895069,9.793790
1386870865,1,0,545.9,0,-18,-20,0,0,25,-0.0292,533.2255,6.8213,0.4212,54.889881,9.804258,108.3,5.845,1.85,335.95,54.890316,9.801955,54.895069,9.793790
1386870865,1,0,545.9,0,-13,-16,0,0,0,-0.0292,536.6921,6.8213,0.4212,54.889862,9.804260,108.3,5.845,1.85,335.95,54.890316,9.801955,54.895069,9.793790
1386870865,1,0,545.9,0,-9,-12,0,0,25,-0.0292,539.0922,6.8213,0.4212,54.889843,9.804260,108.3,5.845,1.85,335.95,54.890316,9.801955,54.895069,9.793790
1386870865,1,0,545.9,0,-7,-8,0,409,50,-0.0292,540.9588,6.8213,0.4212,54.889824,9.804259,108.3,5.845,1.85,335.95,54.890316,9.801955,54.895069,9.793790
1386870866,1,0,545.9,0,-5,-4,0,409,75,-0.0292,542.2921,6.8213,0.4212,54.889809,9.804257,108.3,5.845,1.85,335.95,54.890316,9.801955,54.895069,9.793790
1386870866,1,0,545.9,0,-4,0,0,409,100,-0.0292,543.3588,6.8213,0.4212,54.889790,9.804255,108.3,5.845,1.85,335.95,54.890316,9.801955,54.895069,9.793790
1386870866,1,0,545.9,0,-3,-4,0,409,125,-0.0292,544.1588,6.8213,0.4212,54.889771,9.804253,108.3,5.845,1.85,335.95,54.890316,9.801955,54.895069,9.793790
1386870866,1,0,545.9,0,-2,0,0,409,150,-0.0292,544.6921,6.8213,0.4212,54.889751,9.804250,108.3,5.845,1.85,335.95,54.890316,9.801955,54.895069,9.793790
1386870867,1,0,545.9,0,-1,-4,0,409,175,-0.0292,544.9587,6.8213,0.4212,54.889736,9.804247,108.3,5.845,1.85,335.95,54.890316,9.801955,54.895069,9.793790
1386870867,1,0,545.9,0,-1,0,0,409,200,-0.0292,545.2254,6.8213,0.4212,54.889717,9.804245,108.3,5.845,1.85,335.95,54.890316,9.801955,54.895069,9.793790
1386870867,1,0,545.9,0,-1,-4,0,409,225,-0.0292,545.4921,6.8213,0.4212,54.889698,9.804242,108.3,5.845,1.85,335.95,54.890316,9.801955,54.895069,9.793790
1386870867,1,0,545.9,0,0,0,0,409,250,-0.0292,545.4921,6.8213,0.4212,54.889679,9.804239,108.3,5.845,1.85,335.95,54.890316,9.801955,54.895069,9.793790
1386870868,1,0,545.9,0,0,4,0,409,275,-0.0292,545.4921,6.8213,0.4212,54.889664,9.804236,108.3,5.845,1.85,335.95,54.890316,9.801955,54.895069,9.793790
1386870868,1,0,545.9,0,0,0,0,409,300,-0.0292,545.4921,6.8213,0.4212,54.889645,9.804234,108.3,5.845,1.85,335.95,54.890316,9.801955,54.895069,9.793790
1386870868,1,0,545.9,0,0,4,0,409,325,-0.0292,545.4921,6.8213,0.4212,54.889626,9.804231,108.3,5.845,1.85,335.95,54.890316,9.801955,54.895069,9.793790
1386870868,1,0,280.9,0,-35,0,0,409,350,-0.0292,554.8254,6.8213,0.4212,54.889610,9.804223,108.3,5.845,1.85,335.95,54.890316,9.801955,54.895069,9.793790
1386870869,1,0,280.9,0,-35,-4,0,409,375,-0.0292,564.1587,6.8213,0.4212,54.889591,9.804211,108.3,5.845,1.85,335.95,54.890316,9.801955,54.895069,9.793790
1386870869,1,0,280.9,0,-35,-8,0,578,400,-0.0292,573.4920,6.8213,0.4212,54.889576,9.804193,108.3,5.845,1.85,335.95,54.890316,9.801955,54.895069,9.793790
1386870869,1,0,280.9,0,-35,-12,0,513,425,-0.0292,582.8253,6.8213,0.4212,54.889565,9.804173,108.3,5.845,1.85,335.95,54.890316,9.801955,54.895069,9.793790
1386870869,1,0,280.9,0,-35,-16,0,436,450,-0.0292,592.1586,6.8213,0.4212,54.889553,9.804148,108.3,5.845,1.85,335.95,54.890316,9.801955,54.895069,9.793790
1386870870,1,0,280.9,0,-35,-20,0,355,425,-0.0292,601.4919,6.8213,0.4212,54.889545,9.804120,108.3,5.845,1.85,335.95,54.890316,9.801955,54.895069,9.793790
1386870870,1,0,280.9,0,-35,-24,0,270,400,-0.0292,610.8253,6.8213,0.4212,54.889538,9.804090,108.3,5.845,1.85,335.95,54.890316,9.801955,54.895069,9.793790
1386870870,1,0,280.9,0,-30,-28,0,184,375,-0.0292,618.8253,6.8213,0.4212,54.889534,9.804060,108.3,5.845,1.85,335.95,54.890316,9.801955,54.895069,9.793790
1386870870,1,0,280.9,0,-22,-24,0,114,350,-0.0292,624.6919,6.8213,0.4212,54.889534,9.804029,108.3,5.845,1.85,335.95,54.890316,9.801955,54.895069,9.793790
1386870871,1,0,280.9,0,-16,-20,0,68,325,-0.0292,628.9586,6.8213,0.4212,54.889534,9.803999,108.3,5.845,1.85,335.95,54.890316,9.801955,54.895069,9.793790
1386870871,1,0,280.9,0,-12,-16,0,39,300,-0.0292,632.1586,6.8213,0.4212,54.889538,9.803967,108.3,5.845,1.85,335.95,54.890316,9.801955,54.895069,9.793790
1386870871,1,0,280.9,0,-9,-12,0,22,275,-0.0292,634.5586,6.8213,0.4212,54.889538,9.803936,108.3,5.845,1.85,335.95,54.890316,9.801955,54.895069,9.793790
1386870871,1,0,280.9,0,-6,-8,0,12,250,-0.0292,636.1586,6.8213,0.4212,54.889538,9.803905,108.3,5.845,1.85,335.95,54.890316,9.801955,54.895069,9.793790
1386870872,1,0,280.9,0,-5,-4,0,6,225,-0.0292,637.4919,6.8213,0.4212,54.889538,9.803874,108.3,5.845,1.85,335.95,54.890316,9.801955,54.895069,9.793790
1386870872,1,0,280.9,0,-3,0,0,3,200,-0.0292,638.2919,6.8213,0.4212,54.889538,9.803843,108.3,5.845,1.85,335.95,54.890316,9.801955,54.895069,9.793790
1386870872,1,0,280.9,0,-3,-4,0,2,175,-0.0292,639.0919,6.8213,0.4212,54.889538,9.803812,108.3,5.845,1.85,335.95,54.890316,9.801955,54.895069,9.793790
1386870872,1,0,280.9,0,-2,0,0,1,150,-0.0292,639.6252,6.8213,0.4212,54.889538,9.803782,108.3,5.845,1.85,335.95,54.890316,9.801955,54.895069,9.793790
1386870873,1,0,280.9,0,-1,-4,0,0,125,-0.0292,639.8918,6.8213,0.4212,54.889538,9.803750,108.3,5.845,1.85,335.95,54.890316,9.801955,54.895069,9.793790
1386870873,1,0,280.9,0,-1,0,0,0,100,-0.0292,640.1585,6.8213,0.4212,54.889538,9.803720,108.3,5.845,1.85,335.95,54.890316,9.801955,54.895069,9.793790
1386870873,1,0,280.9,0,-1,-4,0,0,75,-0.0292,640.4252,6.8213,0.4212,54.889538,9.803689,108.3,5.845,1.85,335.95,54.890316,9.801955,54.895069,9.793790
1386870873,1,0,280.9,0,-1,0,0,0,50,-0.0292,640.6918,6.8213,0.4212,54.889538,9.803658,108.3,5.845,1.85,335.95,54.890316,9.801955,54.895069,9.793790
1386870874,1,0,280.9,0,0,4,0,0,25,-0.0292,640.6918,6.8213,0.4212,54.889538,9.803628,108.3,5.845,1.85,335.95,54.890316,9.801955,54.895069,9.793790
1386870874,1,0,280.9,0,0,0,0,0,0,-0.0292,640.6918,6.8213,0.4212,54.889538,9.803597,108.3,5.845,1.85,335.95,54.890316,9.801955,54.895069,9.793790
1386870874,1,0,280.9,0,0,4,0,0,25,-0.0292,640.6918,6.8213,0.4212,54.889538,9.803567,108.3,5.845,1.85,335.95,54.890316,9.801955,54.895069,9.793790
1386870874,1,0,280.9,0,0,0,0,0,0,-0.0292,640.6918,6.8213,0.4212,54.889538,9.803535,108.3,5.845,1.85,335.95,54.890316,9.801955,54.895069,9.793790
1386870875,1,0,280.9,0,0,4,0,0,25,-0.0292,640.6918,6.8213,0.4212,54.889538,9.803505,108.3,5.845,1.85,335.95,54.890316,9.801955,54.895069,9.793790
1386870875,1,0,280.9,0,0,0,0,0,0,-0.0292,640.6918,6.8213,0.4212,54.889538,9.803474,108.3,5.845,1.85,335.95,54.890316,9.801955,54.895069,9.793790
1386870875,1,0,280.9,0,0,4,0,0,25,-0.0292,640.6918,6.8213,0.4212,54.889538,9.803444,108.3,5.845,1.85,335.95,54.890316,9.801955,54.895069,9.793790
1386870875,1,0,280.9,0,0,0,0,0,0,-0.0292,640.6918,6.8213,0.4212,54.889538,9.803413,108.3,5.845,1.85,335.95,54.890316,9.801955,54.895069,9.793790
1386870876,1,0,280.9,0,0,4,0,0,25,-0.0292,640.6918,6.8213,0.4212,54.889538,9.803383,108.3,5.845,1.85,335.95,54.890316,9.801955,54.895069,9.793790
1386870876,1,0,280.9,0,0,0,0,0,0,-0.0292,640.6918,6.8213,0.4212,54.889538,9.803352,108.3,5.845,1.85,335.95,54.890316,9.801955,54.895069,9.793790
1386870876,1,0,280.9,0,0,4,0,0,25,-0.0292,640.6918,6.8213,0.4212,54.889538,9.803321,108.3,5.845,1.85,335.95,54.890316,9.801955,54.895069,9.793790
1386870876,1,0,280.9,0,0,0,0,0,0,-0.0292,640.6918,6.8213,0.4212,54.889538,9.803290,108.3,5.845,1.85,335.95,54.890316,9.801955,54.895069,9.793790
1386870877,1,0,280.9,0,0,4,0,0,25,-0.0292,640.6918,6.8213,0.4212,54.889538,9.803260,108.3,5.845,1.85,335.95,54.890316,9.801955,54.895069,9.793790
1386870877,1,0,280.9,0,0,0,0,0,0,-0.0292,640.6918,6.8213,0.4212,54.889538,9.803229,108.3,5.845,1.85,335.95,54.890316,9.801955,54.895069,9.793790
1386870877,1,0,280.9,0,0,4,0,0,25,-0.0292,640.6918,6.8213,0.4212,54.889538,9.803199,108.3,5.845,1.85,335.95,54.890316,9.801955,54.895069,9.793790
1386870877,1,0,280.9,0,0,0,0,0,0,-0.0292,640.6918,6.8213,0.4212,54.889538,9.803168,108.3,5.845,1.85,335.95,54.890316,9.801955,54.895069,9.793790
1386870878,1,0,280.9,0,0,4,0,0,25,-0.0292,640.6918,6.8213,0.4212,54.889538,9.803138,108.3,5.845,1.85,335.95,54.890316,9.801955,54.895069,9.793790
1386870878,1,0,280.9,0,0,0,0,0,0,-0.0292,640.6918,6.8213,0.4212,54.889538,9.803106,108.3,5.845,1.85,335.95,54.890316,9.801955,54.895069,9.793790
1386870878,1,0,280.9,0,0,4,0,0,25,-0.0292,640.6918,6.8213,0.4212,54.889538,9.803076,108.3,5.845,1.85,335.95,54.890316,9.801955,54.895069,9.793790
1386870878,1,0,280.9,0,0,0,0,0,0,-0.0292,640.6918,6.8213,0.4212,54.889538,9.803045,108.3,5.845,1.85,335.95,54.890316,9.801955,54.895069,9.793790
1386870879,1,0,280.9,0,0,4,0,0,25,-0.0292,640.6918,6.8213,0.4212,54.889538,9.803015,108.3,5.845,1.85,335.95,54.890316,9.801955,54.895069,9.793790
1386870879,1,0,280.9,0,0,0,0,0,0,-0.0292,640.6918,6.8213,0.4212,54.889538,9.802984,108.3,5.845,1.85,335.95,54.890316,9.801955,54.895069,9.793790
1386870879,1,0,280.9,0,0,4,0,0,25,-0.0292,640.6918,6.8213,0.4212,54.889538,9.802954,108.3,5.845,1.85,335.95,54.890316,9.801955,54.895069,9.793790
1386870879,1,0,280.9,0,0,0,0,0,0,-0.0292,640.6918,6.8213,0.4212,54.889538,9.802923,108.3,5.845,1.85,335.95,54.890316,9.801955,54.895069,9.793790
1386870880,1,0,280.9,0,0,4,0,0,25,-0.0292,640.6918,6.8213,0.4212,54.889538,9.802892,108.3,5.845,1.85,335.95,54.890316,9.801955,54.895069,9.793790
1386870880,1,0,280.9,0,0,0,0,0,0,-0.0292,640.6918,6.8213,0.4212,54.889538,9.802861,108.3,5.845,1.85,335.95,54.890316,9.801955,54.895069,9.793790
1386870880,1,0,280.9,0,0,4,0,0,25,-0.0292,640.6918,6.8213,0.4212,54.889538,9.802831,108.3,5.845,1.85,335.95,54.890316,9.801955,54.895069,9.793790
1386870880,1,0,280.9,0,0,0,0,0,0,-0.0292,640.6918,6.8213,0.4212,54.889538,9.802800,108.3,5.845,1.85,335.95,54.890316,9.801955,54.895069,9.793790
1386870881,1,0,280.9,0,0,4,0,0,25,-0.0292,640.6918,6.8213,0.4212,54.889538,9.802770,108.3,5.845,1.85,335.95,54.890316,9.801955,54.895069,9.793790
1386870881,1,0,280.9,0,0,0,0,0,0,-0.0292,640.6918,6.8213,0.4212,54.889538,9.802739,108.3,5.845,1.85,335.95,54.890316,9.801955,54.895069,9.793790
1386870881,1,0,280.9,0,0,4,0,0,25,-0.0292,640.6918,6.8213,0.4212,54.889538,9.802709,108.3,5.845,1.85,335.95,54.890316,9.801955,54.895069,9.793790
1386870881,1,0,280.9,0,0,0,0,0,0,-0.0292,640.6918,6.8213,0.4212,54.889538,9.802677,108.3,5.845,1.85,335.95,54.890316,9.801955,54.895069,9.793790
1386870882,1,0,280.9,0,0,4,0,0,25,-0.0292,640.6918,6.8213,0.4212,54.889538,9.802647,108.3,5.845,1.85,335.95,54.890316,9.801955,54.895069,9.793790
1386870882,1,0,280.9,0,0,0,0,0,0,-0.0292,640.6918,6.8213,0.4212,54.889538,9.802616,108.3,5.845,1.85,335.95,54.890316,9.801955,54.895069,9.793790
1386870882,1,0,280.9,0,0,4,0,0,25,-0.0292,640.6918,6.8213,0.4212,54.889538,9.802586,108.3,5.845,1.85,335.95,54.890316,9.801955,54.895069,9.793790
1386870882,1,0,280.9,0,0,0,0,0,0,-0.0292,640.6918,6.8213,0.4212,54.889538,9.802555,108.3,5.845,1.85,335.95,54.890316,9.801955,54.895069,9.793790
1386870883,1,0,280.9,0,0,4,0,0,25,-0.0292,640.6918,6.8213,0.4212,54.889538,9.802525,108.3,5.845,1.85,335.95,54.890316,9.801955,54.895069,9.793790
1386870883,1,0,280.9,0,0,0,0,0,0,-0.0292,640.6918,6.8213,0.4212,54.889538,9.802494,108.3,5.845,1.85,335.95,54.890316,9.801955,54.895069,9.793790
1386870883,1,0,280.9,0,0,4,0,0,25,-0.0292,640.6918,6.8213,0.4212,54.889538,9.802463,108.3,5.845,1.85,335.95,54.890316,9.801955,54.895069,9.793790
1386870883,1,0,280.9,0,0,0,0,0,0,-0.0292,640.6918,6.8213,0.4212,54.889538,9.802432,108.3,5.845,1.85,335.95,54.890316,9.801955,54.895069,9.793790
1386870884,1,0,280.9,0,0,4,0,0,25,-0.0292,640.6918,6.8213,0.4212,54.889538,9.802402,108.3,5.845,1.85,335.95,54.890316,9.801955,54.895069,9.793790
1386870884,1,0,280.9,0,0,0,0,0,0,-0.0292,640.6918,6.8213,0.4212,54.889538,9.802371,108.3,5.845,1.85,335.95,54.890316,9.801955,54.895069,9.793790
1386870884,1,0,280.9,0,0,4,0,0,25,-0.0292,640.6918,6.8213,0.4212,54.889538,9.802341,108.3,5.845,1.85,335.95,54.890316,9.801955,54.895069,9.793790
1386870884,1,0,280.9,0,0,0,0,0,0,-0.0292,640.6918,6.8213,0.4212,54.889538,9.802310,108.3,5.845,1.85,335.95,54.890316,9.801955,54.895069,9.793790
1386870885,1,0,280.9,0,0,4,0,0,25,-0.0292,640.6918,6.8213,0.4212,54.889538,9.802279,108.3,5.845,1.85,335.95,54.890316,9.801955,54.895069,9.793790
1386870885,1,0,280.9,0,0,0,0,0,0,-0.0292,640.6918,6.8213,0.4212,54.889538,9.802248,108.3,5.845,1.85,335.95,54.890316,9.801955,54.895069,9.793790
1386870885,1,0,280.9,0,0,4,0,0,25,-0.0292,640.6918,6.8213,0.4212,54.889538,9.802217,108.3,5.845,1.85,335.95,54.890316,9.801955,54.895069,9.793790
1386870885,1,0,280.9,0,0,0,0,0,0,-0.0292,640.6918,6.8213,0.4212,54.889538,9.802187,108.3,5.845,1.85,335.95,54.890316,9.801955,54.895069,9.793790
1386870886,1,0,545.9,0,35,4,0,0,25,-0.0292,631.3585,6.8213,0.4212,54.889538,9.802156,108.3,5.845,1.85,335.95,54.890316,9.801955,54.895069,9.793790
1386870886,1,0,545.9,0,35,8,0,26,50,-0.0292,622.0252,6.8213,0.4212,54.889534,9.802125,108.3,5.845,1.85,335.95,54.890316,9.801955,54.895069,9.793790
1386870886,1,0,545.9,0,35,12,0,88,75,-0.0292,612.6919,6.8213,0.4212,54.889530,9.802095,108.3,5.845,1.85,335.95,54.890316,9.801955,54.895069,9.793790
1386870886,1,0,545.9,0,35,16,0,168,100,-0.0292,603.3586,6.8213,0.4212,54.889523,9.802068,108.3,5.845,1.85,335.95,54.890316,9.801955,54.895069,9.793790
1386870887,1,0,545.9,0,35,20,0,253,125,-0.0292,594.0253,6.8213,0.4212,54.889511,9.802042,108.3,5.845,1.85,335.95,54.890316,9.801955,54.895069,9.793790
1386870887,1,0,545.9,0,35,24,0,338,150,-0.0292,584.6920,6.8213,0.4212,54.889496,9.802020,108.3,5.845,1.85,335.95,54.890316,9.801955,54.895069,9.793790
1386870887,1,0,545.9,0,35,28,0,420,175,-0.0292,575.3586,6.8213,0.4212,54.889481,9.802002,108.3,5.845,1.85,335.95,54.890316,9.801955,54.895069,9.793790
1386870887,1,0,545.9,0,29,32,0,498,200,-0.0292,567.6253,6.8213,0.4212,54.889465,9.801988,108.3,5.845,1.85,335.95,54.890316,9.801955,54.895069,9.793790
1386870888,1,0,545.9,0,22,28,0,558,225,-0.0292,561.7587,6.8213,0.4212,54.889446,9.801976,108.3,5.845,1.85,335.95,54.890316,9.801955,54.895069,9.793790
1386870888,1,0,545.9,0,16,24,0,578,250,-0.0292,557.4920,6.8213,0.4212,54.889427,9.801967,108.3,5.845,1.85,335.95,54.890316,9.801955,54.895069,9.793790
1386870888,1,0,545.9,0,12,20,0,409,275,-0.0292,554.2920,6.8213,0.4212,54.889412,9.801959,108.3,5.845,1.85,335.95,54.890316,9.801955,54.895069,9.793790
1386870888,1,0,545.9,0,8,16,0,409,300,-0.0292,552.1586,6.8213,0.4212,54.889397,9.801952,108.3,5.845,1.85,335.95,54.890316,9.801955,54.895069,9.793790
1386870889,1,0,545.9,0,6,12,0,0,275,-0.0292,550.5587,6.8213,0.4212,54.889378,9.801947,108.3,5.845,1.85,335.95,54.890316,9.801955,54.895069,9.793790
1386870889,1,0,545.9,0,5,8,0,0,250,-0.0292,549.2253,6.8213,0.4212,54.889359,9.801942,108.3,5.845,1.85,335.95,54.890316,9.801955,54.895069,9.793790
1386870889,1,0,545.9,0,3,4,0,0,225,-0.0292,548.4254,6.8213,0.4212,54.889343,9.801937,108.3,5.845,1.85,335.95,54.890316,9.801955,54.895069,9.793790
1386870889,1,0,545.9,0,2,0,0,0,200,-0.0292,547.8920,6.8213,0.4212,54.889324,9.801932,108.3,5.845,1.85,335.95,54.890316,9.801955,54.895069,9.793790
1386870890,1,0,545.9,0,2,4,0,0,175,-0.0292,547.3587,6.8213,0.4212,54.889305,9.801929,108.3,5.845,1.85,335.95,54.890316,9.801955,54.895069,9.793790
1386870890,1,0,545.9,0,1,0,0,0,150,-0.0292,547.0920,6.8213,0.4212,54.889286,9.801925,108.3,5.845,1.85,335.95,54.890316,9.801955,54.895069,9.793790
1386870890,1,0,545.9,0,1,4,0,0,125,-0.0292,546.8254,6.8213,0.4212,54.889271,9.801921,108.3,5.845,1.85,335.95,54.890316,9.801955,54.895069,9.793790
1386870890,1,0,545.9,0,1,0,0,0,100,-0.0292,546.5587,6.8213,0.4212,54.889252,9.801917,108.3,5.845,1.85,335.95,54.890316,9.801955,54.895069,9.793790
1386870891,1,0,545.9,0,1,4,0,0,75,-0.0292,546.2921,6.8213,0.4212,54.889233,9.801914,108.3,5.845,1.85,335.95,54.890316,9.801955,54.895069,9.793790
1386870891,1,0,545.9,0,0,0,0,0,50,-0.0292,546.2921,6.8213,0.4212,54.889217,9.801910,108.3,5.845,1.85,335.95,54.890316,9.801955,54.895069,9.793790
1386870891,1,0,545.9,0,0,4,0,0,25,-0.0292,546.2921,6.8213,0.4212,54.889198,9.801907,108.3,5.845,1.85,335.95,54.890316,9.801955,54.895069,9.793790
1386870891,1,0,545.9,0,0,0,0,0,0,-0.0292,546.2921,6.8213,0.4212,54.889179,9.801903,108.3,5.845,1.85,335.95,54.890316,9.801955,54.895069,9.793790
1386870892,1,0,545.9,0,0,4,0,0,25,-0.0292,546.2921,6.8213,0.4212,54.889160,9.801899,108.3,5.845,1.85,335.95,54.890316,9.801955,54.895069,9.793790
1386870892,1,0,485.9,0,35,8,0,0,0,-0.0292,536.9587,6.8213,0.4212,54.889145,9.801900,108.3,5.845,1.85,335.95,54.890316,9.801955,54.895069,9.793790
1386870892,1,0,485.9,0,35,12,0,0,25,-0.0292,527.6254,6.8213,0.4212,54.889126,9.801907,108.3,5.845,1.85,335.95,54.890316,9.801955,54.895069,9.793790
1386870893,1,0,485.9,0,35,16,0,0,0,-0.0292,518.2921,6.8213,0.4212,54.889107,9.801918,108.3,5.845,1.85,335.95,54.890316,9.801955,54.895069,9.793790
1386870893,1,0,485.9,0,32,20,0,0,25,-0.0292,509.7588,6.8213,0.4212,54.889091,9.801934,108.3,5.845,1.85,335.95,54.890316,9.801955,54.895069,9.793790
1386870893,1,0,485.9,0,24,24,0,0,0,-0.0292,503.3588,6.8213,0.4212,54.889080,9.801952,108.3,5.845,1.85,335.95,54.890316,9.801955,54.895069,9.793790
1386870893,1,0,485.9,0,17,20,0,0,25,-0.0292,498.8255,6.8213,0.4212,54.889065,9.801972,108.3,5.845,1.85,335.95,54.890316,9.801955,54.895069,9.793790
1386870894,1,0,485.9,0,13,16,0,0,0,-0.0292,495.3588,6.8213,0.4212,54.889053,9.801994,108.3,5.845,1.85,335.95,54.890316,9.801955,54.895069,9.793790
1386870894,1,0,485.9,0,9,12,0,0,25,-0.0292,492.9588,6.8213,0.4212,54.889042,9.802017,108.3,5.845,1.85,335.95,54.890316,9.801955,54.895069,9.793790
1386870894,1,0,485.9,0,7,8,0,409,50,-0.0292,491.0921,6.8213,0.4212,54.889030,9.802041,108.3,5.845,1.85,335.95,54.890316,9.801955,54.895069,9.793790
1386870894,1,0,485.9,0,5,4,0,409,75,-0.0292,489.7588,6.8213,0.4212,54.889019,9.802065,108.3,5.845,1.85,335.95,54.890316,9.801955,54.895069,9.793790
1386870895,1,0,485.9,0,4,8,0,409,100,-0.0292,488.6921,6.8213,0.4212,54.889004,9.802089,108.3,5.845,1.85,335.95,54.890316,9.801955,54.895069,9.793790
1386870895,1,0,485.9,0,3,4,0,409,125,-0.0292,487.8921,6.8213,0.4212,54.888992,9.802114,108.3,5.845,1.85,335.95,54.890316,9.801955,54.895069,9.793790
1386870895,1,0,485.9,0,2,0,0,409,150,-0.0292,487.3588,6.8213,0.4212,54.888985,9.802138,108.3,5.845,1.85,335.95,54.890316,9.801955,54.895069,9.793790
1386870895,1,0,485.9,0,1,4,0,409,175,-0.0292,487.0921,6.8213,0.4212,54.888973,9.802163,108.3,5.845,1.85,335.95,54.890316,9.801955,54.895069,9.793790
1386870896,1,0,485.9,0,1,0,0,409,200,-0.0292,486.8255,6.8213,0.4212,54.888962,9.802188,108.3,5.845,1.85,335.95,54.890316,9.801955,54.895069,9.793790
1386870896,1,0,485.9,0,1,4,0,409,225,-0.0292,486.5588,6.8213,0.4212,54.888950,9.802214,108.3,5.845,1.85,335.95,54.890316,9.801955,54.895069,9.793790
1386870896,1,0,485.9,0,1,0,0,409,250,-0.0292,486.2921,6.8213,0.4212,54.888939,9.802238,108.3,5.845,1.85,335.95,54.890316,9.801955,54.895069,9.793790
1386870896,1,0,485.9,0,0,4,0,409,275,-0.0292,486.2921,6.8213,0.4212,54.888931,9.802263,108.3,5.845,1.85,335.95,54.890316,9.801955,54.895069,9.793790
1386870897,1,0,485.9,0,0,0,0,409,300,-0.0292,486.2921,6.8213,0.4212,54.888920,9.802289,108.3,5.845,1.85,335.95,54.890316,9.801955,54.895069,9.793790
1386870897,1,0,485.9,0,0,4,0,409,325,-0.0292,486.2921,6.8213,0.4212,54.888912,9.802314,108.3,5.845,1.85,335.95,54.890316,9.801955,54.895069,9.793790
1386870897,1,0,390.9,0,35,8,0,409,350,-0.0292,476.9588,6.8213,0.4212,54.888905,9.802342,108.3,5.845,1.85,335.95,54.890316,9.801955,54.895069,9.793790
1386870897,1,0,390.9,0,35,12,0,409,375,-0.0292,467.6255,6.8213,0.4212,54.888897,9.802372,108.3,5.845,1.85,335.95,54.890316,9.801955,54.895069,9.793790
1386870898,1,0,390.9,0,35,16,0,578,400,-0.0292,458.2921,6.8213,0.4212,54.888893,9.802402,108.3,5.845,1.85,335.95,54.890316,9.801955,54.895069,9.793790
1386870898,1,0,390.9,0,35,20,0,512,425,-0.0292,448.9588,6.8213,0.4212,54.888897,9.802434,108.3,5.845,1.85,335.95,54.890316,9.801955,54.895069,9.793790
1386870898,1,0,390.9,0,35,24,0,435,450,-0.0292,439.6254,6.8213,0.4212,54.888897,9.802464,108.3,5.845,1.85,335.95,54.890316,9.801955,54.895069,9.793790
1386870898,1,0,390.9,0,35,28,0,354,425,-0.0292,430.2921,6.8213,0.4212,54.888901,9.802494,108.3,5.845,1.85,335.95,54.890316,9.801955,54.895069,9.793790
1386870899,1,0,390.9,0,35,32,0,269,400,-0.0292,420.9587,6.8213,0.4212,54.888908,9.802521,108.3,5.845,1.85,335.95,54.890316,9.801955,54.895069,9.793790
