MCU_timestamp,Navigation_System,Manual_Control,Guidance_Heading,Manual_Ctrl_Rudder,Rudder_Desired_Angle,Rudder_Feedback,Manual_Ctrl_Sail,Sail_Desired_Pos,Sail_Feedback,Rate,Heading,Pitch,Roll,Latitude,Longitude,COG,SOG,Wind_Speed,Wind_Angle,Point_Start_Lat,Point_Start_Lon,Point_End_Lat,Point_End_Lon
1386870147,1,0,485.9,0,35,4,0,409,200,-0.0292,175.6254,6.8213,0.4212,54.891262,9.803426,108.3,5.845,1.85,335.95,54.891277,9.803423,0.000000,0.000000
1386870147,1,0,485.9,0,35,8,0,409,225,-0.0292,166.2921,6.8213,0.4212,54.891243,9.803433,108.3,5.845,1.85,335.95,54.891277,9.803423,0.000000,0.000000
1386870148,1,0,485.9,0,35,12,0,409,250,-0.0292,156.9588,6.8213,0.4212,54.891228,9.803446,108.3,5.845,1.85,335.95,54.891277,9.803423,0.000000,0.000000
1386870148,1,0,485.9,0,31,16,0,0,225,-0.0292,148.6921,6.8213,0.4212,54.891212,9.803462,108.3,5.845,1.85,335.95,54.891277,9.803423,0.000000,0.000000
1386870148,1,0,485.9,0,23,20,0,0,200,-0.0292,142.5588,6.8213,0.4212,54.891197,9.803481,108.3,5.845,1.85,335.95,54.891277,9.803423,0.000000,0.000000
1386870148,1,0,485.9,0,17,16,0,409,225,-0.0292,138.0255,6.8213,0.4212,54.891186,9.803501,108.3,5.845,1.85,335.95,54.891277,9.803423,0.000000,0.000000
1386870149,1,0,485.9,0,12,12,0,409,250,-0.0292,134.8255,6.8213,0.4212,54.891171,9.803523,108.3,5.845,1.85,335.95,54.891277,9.803423,0.000000,0.000000
1386870149,1,0,485.9,0,9,8,0,409,275,-0.0292,132.4255,6.8213,0.4212,54.891159,9.803546,108.3,5.845,1.85,335.95,54.891277,9.803423,0.000000,0.000000
1386870149,1,0,485.9,0,6,4,0,409,300,-0.0292,130.8255,6.8213,0.4212,54.891144,9.803570,108.3,5.845,1.85,335.95,54.891277,9.803423,0.000000,0.000000
1386870149,1,0,485.9,0,5,8,0,409,325,-0.0292,129.4921,6.8213,0.4212,54.891132,9.803594,108.3,5.845,1.85,335.95,54.891277,9.803423,0.000000,0.000000
1386870150,1,0,485.9,0,4,4,0,409,350,-0.0292,128.4255,6.8213,0.4212,54.891125,9.803618,108.3,5.845,1.85,335.95,54.891277,9.803423,0.000000,0.000000
1386870150,1,0,485.9,0,2,0,0,409,375,-0.0292,127.8921,6.8213,0.4212,54.891113,9.803643,108.3,5.845,1.85,335.95,54.891277,9.803423,0.000000,0.000000
1386870150,1,0,485.9,0,2,4,0,409,400,-0.0292,127.3588,6.8213,0.4212,54.891102,9.803668,108.3,5.845,1.85,335.95,54.891277,9.803423,0.000000,0.000000
1386870150,1,0,485.9,0,1,0,0,409,425,-0.0292,127.0921,6.8213,0.4212,54.891090,9.803693,108.3,5.845,1.85,335.95,54.891277,9.803423,0.000000,0.000000
1386870151,1,0,485.9,0,1,4,0,409,400,-0.0292,126.8255,6.8213,0.4212,54.891079,9.803718,108.3,5.845,1.85,335.95,54.891277,9.803423,0.000000,0.000000
1386870151,1,0,485.9,0,1,0,0,409,425,-0.0292,126.5588,6.8213,0.4212,54.891068,9.803742,108.3,5.845,1.85,335.95,54.891277,9.803423,0.000000,0.000000
1386870151,1,0,485.9,0,1,4,0,409,400,-0.0292,126.2921,6.8213,0.4212,54.891056,9.803767,108.3,5.845,1.85,335.95,54.891277,9.803423,0.000000,0.000000
1386870151,1,0,485.9,0,0,0,0,409,425,-0.0292,126.2921,6.8213,0.4212,54.891048,9.803793,108.3,5.845,1.85,335.95,54.891277,9.803423,0.000000,0.000000
1386870152,1,0,485.9,0,0,4,0,409,400,-0.0292,126.2921,6.8213,0.4212,54.891037,9.803818,108.3,5.845,1.85,335.95,54.891277,9.803423,0.000000,0.000000
1386870152,1,0,485.9,0,0,0,0,409,425,-0.0292,126.2921,6.8213,0.4212,54.891026,9.803843,108.3,5.845,1.85,335.95,54.891277,9.803423,0.000000,0.000000
1386870152,1,0,485.9,0,0,4,0,0,400,-0.0292,126.2921,6.8213,0.4212,54.891014,9.803868,108.3,5.845,1.85,335.95,54.891277,9.803423,0.000000,0.000000
1386870152,1,0,485.9,0,0,0,0,0,375,-0.0292,126.2921,6.8213,0.4212,54.891003,9.803893,108.3,5.845,1.85,335.95,54.891277,9.803423,0.000000,0.000000
1386870153,1,0,485.9,0,0,4,0,0,350,-0.0292,126.2921,6.8213,0.4212,54.890991,9.803919,108.3,5.845,1.85,335.95,54.891277,9.803423,0.000000,0.000000
1386870153,1,0,485.9,0,0,0,0,0,325,-0.0292,126.2921,6.8213,0.4212,54.890980,9.803944,108.3,5.845,1.85,335.95,54.891277,9.803423,0.000000,0.000000
1386870153,1,0,485.9,0,0,4,0,0,300,-0.0292,126.2921,6.8213,0.4212,54.890968,9.803969,108.3,5.845,1.85,335.95,54.891277,9.803423,0.000000,0.000000
1386870153,1,0,485.9,0,0,0,0,0,275,-0.0292,126.2921,6.8213,0.4212,54.890957,9.803994,108.3,5.845,1.85,335.95,54.891277,9.803423,0.000000,0.000000
1386870154,1,0,485.9,0,0,4,0,0,250,-0.0292,126.2921,6.8213,0.4212,54.890949,9.804019,108.3,5.845,1.85,335.95,54.891277,9.803423,0.000000,0.000000
1386870154,1,0,485.9,0,0,0,0,0,225,-0.0292,126.2921,6.8213,0.4212,54.890938,9.804045,108.3,5.845,1.85,335.95,54.891277,9.803423,0.000000,0.000000
1386870154,1,0,485.9,0,0,4,0,0,200,-0.0292,126.2921,6.8213,0.4212,54.890926,9.804070,108.3,5.845,1.85,335.95,54.891277,9.803423,0.000000,0.000000
1386870154,1,0,485.9,0,0,0,0,0,175,-0.0292,126.2921,6.8213,0.4212,54.890915,9.804095,108.3,5.845,1.85,335.95,54.891277,9.803423,0.000000,0.000000
1386870155,1,0,485.9,0,0,4,0,0,150,-0.0292,126.2921,6.8213,0.4212,54.890903,9.804120,108.3,5.845,1.85,335.95,54.891277,9.803423,0.000000,0.000000
1386870155,1,0,485.9,0,0,0,0,0,125,-0.0292,126.2921,6.8213,0.4212,54.890892,9.804145,108.3,5.845,1.85,335.95,54.891277,9.803423,0.000000,0.000000
1386870155,1,0,485.9,0,0,4,0,0,100,-0.0292,126.2921,6.8213,0.4212,54.890881,9.804170,108.3,5.845,1.85,335.95,54.891277,9.803423,0.000000,0.000000
1386870155,1,0,485.9,0,0,0,0,0,75,-0.0292,126.2921,6.8213,0.4212,54.890869,9.804194,108.3,5.845,1.85,335.95,54.891277,9.803423,0.000000,0.000000
1386870156,1,0,485.9,0,0,4,0,0,50,-0.0292,126.2921,6.8213,0.4212,54.890858,9.804220,108.3,5.845,1.85,335.95,54.891277,9.803423,0.000000,0.000000
1386870156,1,0,485.9,0,0,0,0,0,25,-0.0292,126.2921,6.8213,0.4212,54.890850,9.804245,108.3,5.845,1.85,335.95,54.891277,9.803423,0.000000,0.000000
1386870156,1,0,485.9,0,0,4,0,0,0,-0.0292,126.2921,6.8213,0.4212,54.890839,9.804271,108.3,5.845,1.85,335.95,54.891277,9.803423,0.000000,0.000000
1386870156,1,0,485.9,0,0,0,0,0,25,-0.0292,126.2921,6.8213,0.4212,54.890831,9.804296,108.3,5.845,1.85,335.95,54.891277,9.803423,0.000000,0.000000
1386870157,1,0,545.9,0,-35,-4,0,0,0,-0.0292,135.6254,6.8213,0.4212,54.890820,9.804317,108.3,5.845,1.85,335.95,54.891277,9.803423,0.000000,0.000000
1386870157,1,0,545.9,0,-35,-8,0,0,25,-0.0292,144.9588,6.8213,0.4212,54.890804,9.804335,108.3,5.845,1.85,335.95,54.891277,9.803423,0.000000,0.000000
1386870157,1,0,545.9,0,-35,-12,0,0,0,-0.0292,154.2921,6.8213,0.4212,54.890789,9.804348,108.3,5.845,1.85,335.95,54.891277,9.803423,0.000000,0.000000
1386870157,1,0,545.9,0,-32,-16,0,0,25,-0.0292,162.8254,6.8213,0.4212,54.890774,9.804357,108.3,5.845,1.85,335.95,54.891277,9.803423,0.000000,0.000000
1386870158,1,0,545.9,0,-23,-20,0,0,0,-0.0292,168.9588,6.8213,0.4212,54.890755,9.804362,108.3,5.845,1.85,335.95,54.891277,9.803423,0.000000,0.000000
1386870158,1,0,545.9,0,-17,-16,0,0,25,-0.0292,173.4921,6.8213,0.4212,54.890736,9.804366,108.3,5.845,1.85,335.95,54.891277,9.803423,0.000000,0.000000
1386870158,1,0,545.9,0,-12,-12,0,0,0,-0.0292,176.6921,6.8213,0.4212,54.890720,9.804368,108.3,5.845,1.85,335.95,54.891277,9.803423,0.000000,0.000000
1386870158,1,0,545.9,0,-9,-8,0,0,25,-0.0292,179.0921,6.8213,0.4212,54.890701,9.804369,108.3,5.845,1.85,335.95,54.891277,9.803423,0.000000,0.000000
1386870159,1,0,545.9,0,-7,-4,0,409,50,-0.0292,180.9588,6.8213,0.4212,54.890682,9.804369,108.3,5.845,1.85,335.95,54.891277,9.803423,0.000000,0.000000
1386870159,1,0,545.9,0,-5,-8,0,409,75,-0.0292,182.2921,6.8213,0.4212,54.890663,9.804368,108.3,5.845,1.85,335.95,54.891277,9.803423,0.000000,0.000000
1386870159,1,0,545.9,0,-4,-4,0,409,100,-0.0292,183.3588,6.8213,0.4212,54.890648,9.804366,108.3,5.845,1.85,335.95,54.891277,9.803423,0.000000,0.000000
1386870159,1,0,545.9,0,-3,0,0,409,125,-0.0292,184.1588,6.8213,0.4212,54.890629,9.804364,108.3,5.845,1.85,335.95,54.891277,9.803423,0.000000,0.000000
1386870160,1,0,545.9,0,-2,-4,0,409,150,-0.0292,184.6921,6.8213,0.4212,54.890610,9.804362,108.3,5.845,1.85,335.95,54.891277,9.803423,0.000000,0.000000
1386870160,1,0,545.9,0,-1,0,0,409,175,-0.0292,184.9588,6.8213,0.4212,54.890594,9.804359,108.3,5.845,1.85,335.95,54.891277,9.803423,0.000000,0.000000
1386870160,1,0,545.9,0,-1,-4,0,409,200,-0.0292,185.2254,6.8213,0.4212,54.890575,9.804357,108.3,5.845,1.85,335.95,54.891277,9.803423,0.000000,0.000000
1386870160,1,0,545.9,0,-1,0,0,409,225,-0.0292,185.4921,6.8213,0.4212,54.890556,9.804354,108.3,5.845,1.85,335.95,54.891277,9.803423,0.000000,0.000000
1386870161,1,0,545.9,0,0,4,0,409,250,-0.0292,185.4921,6.8213,0.4212,54.890537,9.804351,108.3,5.845,1.85,335.95,54.891277,9.803423,0.000000,0.000000
1386870161,1,0,545.9,0,0,0,0,409,275,-0.0292,185.4921,6.8213,0.4212,54.890522,9.804348,108.3,5.845,1.85,335.95,54.891277,9.803423,0.000000,0.000000
1386870161,1,0,545.9,0,0,4,0,409,300,-0.0292,185.4921,6.8213,0.4212,54.890503,9.804345,108.3,5.845,1.85,335.95,54.891277,9.803423,0.000000,0.000000
1386870161,1,0,545.9,0,0,0,0,409,325,-0.0292,185.4921,6.8213,0.4212,54.890484,9.804342,108.3,5.845,1.85,335.95,54.891277,9.803423,0.000000,0.000000
1386870162,1,0,545.9,0,0,4,0,409,350,-0.0292,185.4921,6.8213,0.4212,54.890465,9.804339,108.3,5.845,1.85,335.95,54.891277,9.803423,0.000000,0.000000
1386870162,1,0,545.9,0,0,0,0,409,375,-0.0292,185.4921,6.8213,0.4212,54.890450,9.804336,108.3,5.845,1.85,335.95,54.891277,9.803423,0.000000,0.000000
1386870162,1,0,545.9,0,0,4,0,409,400,-0.0292,185.4921,6.8213,0.4212,54.890430,9.804332,108.3,5.845,1.85,335.95,54.891277,9.803423,0.000000,0.000000
1386870162,1,0,545.9,0,0,0,0,409,425,-0.0292,185.4921,6.8213,0.4212,54.890411,9.804329,108.3,5.845,1.85,335.95,54.891277,9.803423,0.000000,0.000000
1386870163,1,0,545.9,0,0,4,0,409,400,-0.0292,185.4921,6.8213,0.4212,54.890392,9.804326,108.3,5.845,1.85,335.95,54.891277,9.803423,0.000000,0.000000
1386870163,1,0,545.9,0,0,0,0,409,425,-0.0292,185.4921,6.8213,0.4212,54.890377,9.804323,108.3,5.845,1.85,335.95,54.891277,9.803423,0.000000,0.000000
1386870163,1,0,545.9,0,0,4,0,409,400,-0.0292,185.4921,6.8213,0.4212,54.890358,9.804320,108.3,5.845,1.85,335.95,54.891277,9.803423,0.000000,0.000000
1386870163,1,0,545.9,0,0,0,0,409,425,-0.0292,185.4921,6.8213,0.4212,54.890339,9.804317,108.3,5.845,1.85,335.95,54.891277,9.803423,0.000000,0.000000
1386870164,1,0,545.9,0,0,4,0,409,400,-0.0292,185.4921,6.8213,0.4212,54.890320,9.804315,108.3,5.845,1.85,335.95,54.891277,9.803423,0.000000,0.000000
1386870164,1,0,545.9,0,0,0,0,409,425,-0.0292,185.4921,6.8213,0.4212,54.890305,9.804312,108.3,5.845,1.85,335.95,54.891277,9.803423,0.000000,0.000000
1386870164,1,0,545.9,0,0,4,0,409,400,-0.0292,185.4921,6.8213,0.4212,54.890285,9.804309,108.3,5.845,1.85,335.95,54.891277,9.803423,0.000000,0.000000
1386870164,1,0,545.9,0,0,0,0,409,425,-0.0292,185.4921,6.8213,0.4212,54.890266,9.804306,108.3,5.845,1.85,335.95,54.891277,9.803423,0.000000,0.000000
1386870165,1,0,545.9,0,0,4,0,409,400,-0.0292,185.4921,6.8213,0.4212,54.890251,9.804303,108.3,5.845,1.85,335.95,54.891277,9.803423,0.000000,0.000000
1386870165,1,0,545.9,0,0,0,0,409,425,-0.0292,185.4921,6.8213,0.4212,54.890232,9.804300,108.3,5.845,1.85,335.95,54.891277,9.803423,0.000000,0.000000
1386870165,1,0,545.9,0,0,4,0,409,400,-0.0292,185.4921,6.8213,0.4212,54.890213,9.804297,108.3,5.845,1.85,335.95,54.891277,9.803423,0.000000,0.000000
1386870165,1,0,545.9,0,0,0,0,409,425,-0.0292,185.4921,6.8213,0.4212,54.890194,9.804295,108.3,5.845,1.85,335.95,54.891277,9.803423,0.000000,0.000000
1386870166,1,0,545.9,0,0,4,0,409,400,-0.0292,185.4921,6.8213,0.4212,54.890179,9.804291,108.3,5.845,1.85,335.95,54.891277,9.803423,0.000000,0.000000
1386870166,1,0,545.9,0,0,0,0,409,425,-0.0292,185.4921,6.8213,0.4212,54.890160,9.804288,108.3,5.845,1.85,335.95,54.891277,9.803423,0.000000,0.000000
1386870166,1,0,545.9,0,0,4,0,409,400,-0.0292,185.4921,6.8213,0.4212,54.890141,9.804285,108.3,5.845,1.85,335.95,54.891277,9.803423,0.000000,0.000000
1386870166,1,0,545.9,0,0,0,0,409,425,-0.0292,185.4921,6.8213,0.4212,54.890121,9.804282,108.3,5.845,1.85,335.95,54.891277,9.803423,0.000000,0.000000
1386870167,1,0,545.9,0,0,4,0,409,400,-0.0292,185.4921,6.8213,0.4212,54.890106,9.804279,108.3,5.845,1.85,335.95,54.891277,9.803423,0.000000,0.000000
1386870167,1,0,545.9,0,0,0,0,409,425,-0.0292,185.4921,6.8213,0.4212,54.890087,9.804276,108.3,5.845,1.85,335.95,54.891277,9.803423,0.000000,0.000000
1386870167,1,0,545.9,0,0,4,0,409,400,-0.0292,185.4921,6.8213,0.4212,54.890068,9.804274,108.3,5.845,1.85,335.95,54.891277,9.803423,0.000000,0.000000
1386870167,1,0,545.9,0,0,0,0,409,425,-0.0292,185.4921,6.8213,0.4212,54.890049,9.804271,108.3,5.845,1.85,335.95,54.891277,9.803423,0.000000,0.000000
1386870168,1,0,545.9,0,0,4,0,409,400,-0.0292,185.4921,6.8213,0.4212,54.890034,9.804268,108.3,5.845,1.85,335.95,54.891277,9.803423,0.000000,0.000000
1386870168,1,0,545.9,0,0,0,0,409,425,-0.0292,185.4921,6.8213,0.4212,54.890015,9.804265,108.3,5.845,1.85,335.95,54.891277,9.803423,0.000000,0.000000
1386870168,1,0,545.9,0,0,4,0,409,400,-0.0292,185.4921,6.8213,0.4212,54.889996,9.804262,108.3,5.845,1.85,335.95,54.891277,9.803423,0.000000,0.000000
1386870168,1,0,545.9,0,0,0,0,409,425,-0.0292,185.4921,6.8213,0.4212,54.889980,9.804259,108.3,5.845,1.85,335.95,54.891277,9.803423,0.000000,0.000000
1386870169,1,0,545.9,0,0,4,0,409,400,-0.0292,185.4921,6.8213,0.4212,54.889961,9.804256,108.3,5.845,1.85,335.95,54.891277,9.803423,0.000000,0.000000
1386870169,1,0,545.9,0,0,0,0,409,425,-0.0292,185.4921,6.8213,0.4212,54.889942,9.804254,108.3,5.845,1.85,335.95,54.891277,9.803423,0.000000,0.000000
1386870169,1,0,545.9,0,0,4,0,409,400,-0.0292,185.4921,6.8213,0.4212,54.889923,9.804250,108.3,5.845,1.85,335.95,54.891277,9.803423,0.000000,0.000000
1386870169,1,0,545.9,0,0,0,0,409,425,-0.0292,185.4921,6.8213,0.4212,54.889908,9.804246,108.3,5.845,1.85,335.95,54.891277,9.803423,0.000000,0.000000
1386870170,1,0,545.9,0,0,4,0,409,400,-0.0292,185.4921,6.8213,0.4212,54.889889,9.804243,108.3,5.845,1.85,335.95,54.891277,9.803423,0.000000,0.000000
1386870170,1,0,545.9,0,0,0,0,409,425,-0.0292,185.4921,6.8213,0.4212,54.889870,9.804240,108.3,5.845,1.85,335.95,54.891277,9.803423,0.000000,0.000000
1386870170,1,0,545.9,0,0,4,0,409,400,-0.0292,185.4921,6.8213,0.4212,54.889851,9.804237,108.3,5.845,1.85,335.95,54.891277,9.803423,0.000000,0.000000
1386870171,1,0,545.9,0,0,0,0,409,425,-0.0292,185.4921,6.8213,0.4212,54.889835,9.804235,108.3,5.845,1.85,335.95,54.891277,9.803423,0.000000,0.000000
1386870171,1,0,545.9,0,0,4,0,409,400,-0.0292,185.4921,6.8213,0.4212,54.889816,9.804232,108.3,5.845,1.85,335.95,54.891277,9.803423,0.000000,0.000000
1386870171,1,0,545.9,0,0,0,0,409,425,-0.0292,185.4921,6.8213,0.4212,54.889797,9.804229,108.3,5.845,1.85,335.95,54.891277,9.803423,0.000000,0.000000
1386870171,1,0,545.9,0,0,4,0,409,400,-0.0292,185.4921,6.8213,0.4212,54.889778,9.804226,108.3,5.845,1.85,335.95,54.891277,9.803423,0.000000,0.000000
1386870172,1,0,545.9,0,0,0,0,409,425,-0.0292,185.4921,6.8213,0.4212,54.889763,9.804223,108.3,5.845,1.85,335.95,54.891277,9.803423,0.000000,0.000000
1386870172,1,0,545.9,0,0,4,0,409,400,-0.0292,185.4921,6.8213,0.4212,54.889744,9.804220,108.3,5.845,1.85,335.95,54.891277,9.803423,0.000000,0.000000
1386870172,1,0,545.9,0,0,0,0,409,425,-0.0292,185.4921,6.8213,0.4212,54.889725,9.804217,108.3,5.845,1.85,335.95,54.891277,9.803423,0.000000,0.000000
1386870172,1,0,545.9,0,0,4,0,409,400,-0.0292,185.4921,6.8213,0.4212,54.889709,9.804214,108.3,5.845,1.85,335.95,54.891277,9.803423,0.000000,0.000000
1386870173,1,0,545.9,0,0,0,0,409,425,-0.0292,185.4921,6.8213,0.4212,54.889690,9.804212,108.3,5.845,1.85,335.95,54.891277,9.803423,0.000000,0.000000
1386870173,1,0,545.9,0,0,4,0,409,400,-0.0292,185.4921,6.8213,0.4212,54.889671,9.804209,108.3,5.845,1.85,335.95,54.891277,9.803423,0.000000,0.000000
1386870173,1,0,545.9,0,0,0,0,409,425,-0.0292,185.4921,6.8213,0.4212,54.889652,9.804205,108.3,5.845,1.85,335.95,54.891277,9.803423,0.000000,0.000000
1386870173,1,0,545.9,0,0,4,0,409,400,-0.0292,185.4921,6.8213,0.4212,54.889637,9.804202,108.3,5.845,1.85,335.95,54.891277,9.803423,0.000000,0.000000
1386870174,1,0,545.9,0,0,0,0,409,425,-0.0292,185.4921,6.8213,0.4212,54.889618,9.804199,108.3,5.845,1.85,335.95,54.891277,9.803423,0.000000,0.000000
1386870174,1,0,545.9,0,0,4,0,409,400,-0.0292,185.4921,6.8213,0.4212,54.889599,9.804196,108.3,5.845,1.85,335.95,54.891277,9.803423,0.000000,0.000000
1386870174,1,0,545.9,0,0,0,0,409,425,-0.0292,185.4921,6.8213,0.4212,54.889580,9.804193,108.3,5.845,1.85,335.95,54.891277,9.803423,0.000000,0.000000
1386870174,1,0,545.9,0,0,4,0,409,400,-0.0292,185.4921,6.8213,0.4212,54.889565,9.804191,108.3,5.845,1.85,335.95,54.891277,9.803423,0.000000,0.000000
1386870175,1,0,545.9,0,0,0,0,409,425,-0.0292,185.4921,6.8213,0.4212,54.889545,9.804188,108.3,5.845,1.85,335.95,54.891277,9.803423,0.000000,0.000000
1386870175,1,0,545.9,0,0,4,0,409,400,-0.0292,185.4921,6.8213,0.4212,54.889526,9.804185,108.3,5.845,1.85,335.95,54.891277,9.803423,0.000000,0.000000
1386870175,1,0,545.9,0,0,0,0,409,425,-0.0292,185.4921,6.8213,0.4212,54.889507,9.804182,108.3,5.845,1.85,335.95,54.891277,9.803423,0.000000,0.000000
1386870175,1,0,545.9,0,0,4,0,409,400,-0.0292,185.4921,6.8213,0.4212,54.889492,9.804179,108.3,5.845,1.85,335.95,54.891277,9.803423,0.000000,0.000000
1386870176,1,0,545.9,0,0,0,0,409,425,-0.0292,185.4921,6.8213,0.4212,54.889473,9.804176,108.3,5.845,1.85,335.95,54.891277,9.803423,0.000000,0.000000
1386870176,1,0,545.9,0,0,4,0,409,400,-0.0292,185.4921,6.8213,0.4212,54.889454,9.804173,108.3,5.845,1.85,335.95,54.891277,9.803423,0.000000,0.000000
1386870176,1,0,545.9,0,0,0,0,409,425,-0.0292,185.4921,6.8213,0.4212,54.889439,9.804171,108.3,5.845,1.85,335.95,54.891277,9.803423,0.000000,0.000000
1386870176,1,0,545.9,0,0,4,0,409,400,-0.0292,185.4921,6.8213,0.4212,54.889420,9.804168,108.3,5.845,1.85,335.95,54.891277,9.803423,0.000000,0.000000
1386870177,1,0,545.9,0,0,0,0,409,425,-0.0292,185.4921,6.8213,0.4212,54.889400,9.804164,108.3,5.845,1.85,335.95,54.891277,9.803423,0.000000,0.000000
1386870177,1,0,545.9,0,0,4,0,409,400,-0.0292,185.4921,6.8213,0.4212,54.889381,9.804160,108.3,5.845,1.85,335.95,54.891277,9.803423,0.000000,0.000000
1386870177,1,0,545.9,0,0,0,0,409,425,-0.0292,185.4921,6.8213,0.4212,54.889366,9.804157,108.3,5.845,1.85,335.95,54.891277,9.803423,0.000000,0.000000
1386870177,1,0,545.9,0,0,4,0,409,400,-0.0292,185.4921,6.8213,0.4212,54.889347,9.804154,108.3,5.845,1.85,335.95,54.891277,9.803423,0.000000,0.000000
1386870178,1,0,545.9,0,0,0,0,409,425,-0.0292,185.4921,6.8213,0.4212,54.889328,9.804152,108.3,5.845,1.85,335.95,54.891277,9.803423,0.000000,0.000000
1386870178,1,0,545.9,0,0,4,0,409,400,-0.0292,185.4921,6.8213,0.4212,54.889309,9.804149,108.3,5.845,1.85,335.95,54.891277,9.803423,0.000000,0.000000
1386870178,1,0,545.9,0,0,0,0,409,425,-0.0292,185.4921,6.8213,0.4212,54.889294,9.804146,108.3,5.845,1.85,335.95,54.891277,9.803423,0.000000,0.000000
1386870178,1,0,545.9,0,0,4,0,409,400,-0.0292,185.4921,6.8213,0.4212,54.889275,9.804143,108.3,5.845,1.85,335.95,54.891277,9.803423,0.000000,0.000000
1386870179,1,0,545.9,0,0,0,0,409,425,-0.0292,185.4921,6.8213,0.4212,54.889256,9.804140,108.3,5.845,1.85,335.95,54.891277,9.803423,0.000000,0.000000
1386870179,1,0,545.9,0,0,4,0,409,400,-0.0292,185.4921,6.8213,0.4212,54.889236,9.804137,108.3,5.845,1.85,335.95,54.891277,9.803423,0.000000,0.000000
1386870179,1,0,545.9,0,0,0,0,409,425,-0.0292,185.4921,6.8213,0.4212,54.889221,9.804134,108.3,5.845,1.85,335.95,54.891277,9.803423,0.000000,0.000000
1386870179,1,0,545.9,0,0,4,0,409,400,-0.0292,185.4921,6.8213,0.4212,54.889202,9.804132,108.3,5.845,1.85,335.95,54.891277,9.803423,0.000000,0.000000
1386870180,1,0,545.9,0,0,0,0,409,425,-0.0292,185.4921,6.8213,0.4212,54.889183,9.804129,108.3,5.845,1.85,335.95,54.891277,9.803423,0.000000,0.000000
1386870180,1,0,545.9,0,0,4,0,409,400,-0.0292,185.4921,6.8213,0.4212,54.889168,9.804126,108.3,5.845,1.85,335.95,54.891277,9.803423,0.000000,0.000000
