MCU_timestamp,Navigation_System,Manual_Control,Guidance_Heading,Manual_Ctrl_Rudder,Rudder_Desired_Angle,Rudder_Feedback,Manual_Ctrl_Sail,Sail_Desired_Pos,Sail_Feedback,Rate,Heading,Pitch,Roll,Latitude,Longitude,COG,SOG,Wind_Speed,Wind_Angle,Point_Start_Lat,Point_Start_Lon,Point_End_Lat,Point_End_Lon
1390064848,0,0,0.0,0,0,-4,0,0,0,-0.0292,13.6256,6.8213,0.4212,54.894947,9.789513,108.3,5.845,1.85,335.95,0.000000,0.000000,0.000000,0.000000
1390064848,0,0,0.0,0,0,-4,0,0,0,-0.0292,13.6256,6.8213,0.4212,54.894947,9.789513,108.3,5.845,1.85,335.95,0.000000,0.000000,0.000000,0.000000
1390064848,0,0,0.0,0,0,-4,0,0,0,-0.0292,13.6256,6.8213,0.4212,54.894947,9.789513,108.3,5.845,1.85,335.95,0.000000,0.000000,0.000000,0.000000
1390064849,0,0,0.0,0,0,-4,0,0,0,-0.0292,13.6256,6.8213,0.4212,54.894947,9.789513,108.3,5.845,1.85,335.95,0.000000,0.000000,0.000000,0.000000
1390064849,0,0,0.0,0,0,-4,0,0,0,-0.0292,13.6256,6.8213,0.4212,54.894947,9.789513,108.3,5.845,1.85,335.95,0.000000,0.000000,0.000000,0.000000
1390064849,0,0,0.0,0,0,-4,0,0,0,-0.0292,13.6256,6.8213,0.4212,54.894947,9.789513,108.3,5.845,1.85,335.95,0.000000,0.000000,0.000000,0.000000
1390064849,0,0,0.0,0,0,-4,0,0,0,-0.0292,13.6256,6.8213,0.4212,54.894947,9.789513,108.3,5.845,1.85,335.95,0.000000,0.000000,0.000000,0.000000
1390064850,0,0,0.0,0,0,-4,0,0,0,-0.0292,13.6256,6.8213,0.4212,54.894947,9.789513,108.3,5.845,1.85,335.95,0.000000,0.000000,0.000000,0.000000
1390064850,0,0,0.0,0,0,-4,0,0,0,-0.0292,13.6256,6.8213,0.4212,54.894947,9.789513,108.3,5.845,1.85,335.95,0.000000,0.000000,0.000000,0.000000
1390064850,0,0,0.0,0,0,-4,0,0,0,-0.0292,13.6256,6.8213,0.4212,54.894947,9.789513,108.3,5.845,1.85,335.95,0.000000,0.000000,0.000000,0.000000
1390064850,0,0,0.0,0,0,-4,0,0,0,-0.0292,13.6256,6.8213,0.4212,54.894947,9.789513,108.3,5.845,1.85,335.95,0.000000,0.000000,0.000000,0.000000
1390064851,0,0,0.0,0,0,-4,0,0,0,-0.0292,13.6256,6.8213,0.4212,54.894947,9.789513,108.3,5.845,1.85,335.95,0.000000,0.000000,0.000000,0.000000
1390064851,0,0,0.0,0,0,-4,0,0,0,-0.0292,13.6256,6.8213,0.4212,54.894947,9.789513,108.3,5.845,1.85,335.95,0.000000,0.000000,0.000000,0.000000
1390064851,0,0,0.0,0,0,-4,0,0,0,-0.0292,13.6256,6.8213,0.4212,54.894947,9.789513,108.3,5.845,1.85,335.95,0.000000,0.000000,0.000000,0.000000
1390064851,0,0,0.0,0,0,-4,0,0,0,-0.0292,13.6256,6.8213,0.4212,54.894947,9.789513,108.3,5.845,1.85,335.95,0.000000,0.000000,0.000000,0.000000
1390064852,0,0,0.0,0,0,-4,0,0,0,-0.0292,13.6256,6.8213,0.4212,54.894947,9.789513,108.3,5.845,1.85,335.95,0.000000,0.000000,0.000000,0.000000
1390064852,0,0,0.0,0,0,-4,0,0,0,-0.0292,13.6256,6.8213,0.4212,54.894947,9.789513,108.3,5.845,1.85,335.95,0.000000,0.000000,0.000000,0.000000
1390064852,0,0,0.0,0,0,-4,0,0,0,-0.0292,13.6256,6.8213,0.4212,54.894947,9.789513,108.3,5.845,1.85,335.95,0.000000,0.000000,0.000000,0.000000
1390064852,0,0,0.0,0,0,-4,0,0,0,-0.0292,13.6256,6.8213,0.4212,54.894947,9.789513,108.3,5.845,1.85,335.95,0.000000,0.000000,0.000000,0.000000
1390064853,0,0,0.0,0,0,-4,0,0,0,-0.0292,13.6256,6.8213,0.4212,54.894947,9.789513,108.3,5.845,1.85,335.95,0.000000,0.000000,0.000000,0.000000
1390064853,0,0,0.0,0,0,-4,0,0,0,-0.0292,13.6256,6.8213,0.4212,54.894947,9.789513,108.3,5.845,1.85,335.95,0.000000,0.000000,0.000000,0.000000
1390064853,0,0,0.0,0,0,-4,0,0,0,-0.0292,13.6256,6.8213,0.4212,54.894947,9.789513,108.3,5.845,1.85,335.95,0.000000,0.000000,0.000000,0.000000
1390064853,0,0,0.0,0,0,-4,0,0,0,-0.0292,13.6256,6.8213,0.4212,54.894947,9.789513,108.3,5.845,1.85,335.95,0.000000,0.000000,0.000000,0.000000
1390064854,0,0,0.0,0,0,-4,0,0,0,-0.0292,13.6256,6.8213,0.4212,54.894947,9.789513,108.3,5.845,1.85,335.95,0.000000,0.000000,0.000000,0.000000
1390064854,0,0,0.0,0,0,-4,0,0,0,-0.0292,13.6256,6.8213,0.4212,54.894947,9.789513,108.3,5.845,1.85,335.95,0.000000,0.000000,0.000000,0.000000
1390064854,0,0,0.0,0,0,-4,0,0,0,-0.0292,13.6256,6.8213,0.4212,54.894947,9.789513,108.3,5.845,1.85,335.95,0.000000,0.000000,0.000000,0.000000
1390064854,0,0,0.0,0,0,-4,0,0,0,-0.0292,13.6256,6.8213,0.4212,54.894947,9.789513,108.3,5.845,1.85,335.95,0.000000,0.000000,0.000000,0.000000
1390064855,0,0,0.0,0,0,-4,0,0,0,-0.0292,13.6256,6.8213,0.4212,54.894947,9.789513,108.3,5.845,1.85,335.95,0.000000,0.000000,0.000000,0.000000
1390064855,0,0,0.0,0,0,-4,0,0,0,-0.0292,13.6256,6.8213,0.4212,54.894947,9.789513,108.3,5.845,1.85,335.95,0.000000,0.000000,0.000000,0.000000
1390064855,0,0,0.0,0,0,-4,0,0,0,-0.0292,13.6256,6.8213,0.4212,54.894947,9.789513,108.3,5.845,1.85,335.95,0.000000,0.000000,0.000000,0.000000
1390064855,0,0,0.0,0,0,-4,0,0,0,-0.0292,13.6256,6.8213,0.4212,54.894947,9.789513,108.3,5.845,1.85,335.95,0.000000,0.000000,0.000000,0.000000
1390064856,0,0,0.0,0,0,-4,0,0,0,-0.0292,13.6256,6.8213,0.4212,54.894947,9.789513,108.3,5.845,1.85,335.95,0.000000,0.000000,0.000000,0.000000
1390064856,0,0,0.0,0,0,-4,0,0,0,-0.0292,13.6256,6.8213,0.4212,54.894947,9.789513,108.3,5.845,1.85,335.95,0.000000,0.000000,0.000000,0.000000
1390064856,0,0,0.0,0,0,-4,0,0,0,-0.0292,13.6256,6.8213,0.4212,54.894947,9.789513,108.3,5.845,1.85,335.95,0.000000,0.000000,0.000000,0.000000
1390064856,0,0,0.0,0,0,-4,0,0,0,-0.0292,13.6256,6.8213,0.4212,54.894947,9.789513,108.3,5.845,1.85,335.95,0.000000,0.000000,0.000000,0.000000
1390064857,0,0,0.0,0,0,-4,0,0,0,-0.0292,13.6256,6.8213,0.4212,54.894947,9.789513,108.3,5.845,1.85,335.95,0.000000,0.000000,0.000000,0.000000
1390064857,0,0,0.0,0,0,-4,0,0,0,-0.0292,13.6256,6.8213,0.4212,54.894947,9.789513,108.3,5.845,1.85,335.95,0.000000,0.000000,0.000000,0.000000
1390064857,0,0,0.0,0,0,-4,0,0,0,-0.0292,13.6256,6.8213,0.4212,54.894947,9.789513,108.3,5.845,1.85,335.95,0.000000,0.000000,0.000000,0.000000
1390064857,0,0,0.0,0,0,-4,0,0,0,-0.0292,13.6256,6.8213,0.4212,54.894947,9.789513,108.3,5.845,1.85,335.95,0.000000,0.000000,0.000000,0.000000
1390064858,0,0,0.0,0,0,-4,0,0,0,-0.0292,13.6256,6.8213,0.4212,54.894947,9.789513,108.3,5.845,1.85,335.95,0.000000,0.000000,0.000000,0.000000
1390064858,0,0,0.0,0,0,-4,0,0,0,-0.0292,13.6256,6.8213,0.4212,54.894947,9.789513,108.3,5.845,1.85,335.95,0.000000,0.000000,0.000000,0.000000
1390064858,0,0,0.0,0,0,-4,0,0,0,-0.0292,13.6256,6.8213,0.4212,54.894947,9.789513,108.3,5.845,1.85,335.95,0.000000,0.000000,0.000000,0.000000
1390064858,0,0,0.0,0,0,-4,0,0,0,-0.0292,13.6256,6.8213,0.4212,54.894947,9.789513,108.3,5.845,1.85,335.95,0.000000,0.000000,0.000000,0.000000
1390064859,0,0,0.0,0,0,-4,0,0,0,-0.0292,13.6256,6.8213,0.4212,54.894947,9.789513,108.3,5.845,1.85,335.95,0.000000,0.000000,0.000000,0.000000
1390064859,0,0,0.0,0,0,-4,0,0,0,-0.0292,13.6256,6.8213,0.4212,54.894947,9.789513,108.3,5.845,1.85,335.95,0.000000,0.000000,0.000000,0.000000
1390064859,0,0,0.0,0,0,-4,0,0,0,-0.0292,13.6256,6.8213,0.4212,54.894947,9.789513,108.3,5.845,1.85,335.95,0.000000,0.000000,0.000000,0.000000
1390064859,0,0,0.0,0,0,-4,0,0,0,-0.0292,13.6256,6.8213,0.4212,54.894947,9.789513,108.3,5.845,1.85,335.95,0.000000,0.000000,0.000000,0.000000
1390064860,0,0,0.0,0,0,-4,0,0,0,-0.0292,13.6256,6.8213,0.4212,54.894947,9.789513,108.3,5.845,1.85,335.95,0.000000,0.000000,0.000000,0.000000
1390064860,0,0,0.0,0,0,-4,0,0,0,-0.0292,13.6256,6.8213,0.4212,54.894947,9.789513,108.3,5.845,1.85,335.95,0.000000,0.000000,0.000000,0.000000
1390064860,0,0,0.0,0,0,-4,0,0,0,-0.0292,13.6256,6.8213,0.4212,54.894947,9.789513,108.3,5.845,1.85,335.95,0.000000,0.000000,0.000000,0.000000
1390064860,0,0,0.0,0,0,-4,0,0,0,-0.0292,13.6256,6.8213,0.4212,54.894947,9.789513,108.3,5.845,1.85,335.95,0.000000,0.000000,0.000000,0.000000
1390064861,0,0,0.0,0,0,-4,0,0,0,-0.0292,13.6256,6.8213,0.4212,54.894947,9.789513,108.3,5.845,1.85,335.95,0.000000,0.000000,0.000000,0.000000
1390064861,0,0,0.0,0,0,-4,0,0,0,-0.0292,13.6256,6.8213,0.4212,54.894947,9.789513,108.3,5.845,1.85,335.95,0.000000,0.000000,0.000000,0.000000
1390064861,4,0,0.0,0,0,-4,0,0,0,-0.0292,13.6256,6.8213,0.4212,54.894947,9.789513,108.3,5.845,1.85,335.95,0.000000,0.000000,0.000000,0.000000
1390064861,1,0,0.0,0,-35,-8,0,0,0,-0.0292,25.2922,6.8213,0.4212,54.894951,9.789515,108.3,5.845,1.85,335.95,54.895069,9.793790,54.895348,9.797490
1390064862,1,0,0.0,0,-35,-12,0,0,0,-0.0292,36.9589,6.8213,0.4212,54.894955,9.789522,108.3,5.845,1.85,335.95,54.895348,9.797490,54.894039,9.801540
1390064862,1,0,0.0,0,-35,-16,0,19,50,-0.0292,48.6256,6.8213,0.4212,54.894958,9.789533,108.3,5.845,1.85,335.95,54.894039,9.801540,54.893795,9.802299
1390064862,1,0,0.0,0,-35,-20,0,138,100,-0.0292,60.2922,6.8213,0.4212,54.894962,9.789548,108.3,5.845,1.85,335.95,54.893795,9.802299,54.893364,9.803688
1390064862,1,0,0.0,0,-35,-24,0,310,150,-0.0292,71.9589,6.8213,0.4212,54.894966,9.789566,108.3,5.845,1.85,335.95,54.893364,9.803688,54.892704,9.801139
1390064863,1,0,0.0,0,-35,-28,0,495,200,-0.0292,83.6256,6.8213,0.4212,54.894970,9.789588,108.3,5.845,1.85,335.95,54.892704,9.801139,54.891663,9.800174
1390064863,1,0,0.0,0,-35,-32,0,678,250,-0.0292,95.2922,6.8213,0.4212,54.894970,9.789612,108.3,5.845,1.85,335.95,54.891663,9.800174,54.892929,9.805077
1390064863,1,0,0.0,0,-35,-36,0,850,300,-0.0292,106.9589,6.8213,0.4212,54.894966,9.789637,108.3,5.845,1.85,335.95,54.892929,9.805077,54.892498,9.806466
1390064863,1,0,0.0,0,-35,-32,0,870,350,-0.0292,118.6255,6.8213,0.4212,54.894958,9.789660,108.3,5.845,1.85,335.95,54.892498,9.806466,54.891232,9.801563
1390064864,1,0,0.0,0,-35,-36,0,713,400,-0.0292,130.2922,6.8213,0.4212,54.894947,9.789682,108.3,5.845,1.85,335.95,54.891232,9.801563,54.890800,9.802953
1390064864,1,0,0.0,0,-35,-32,0,713,450,-0.0292,141.9589,6.8213,0.4212,54.894932,9.789701,108.3,5.845,1.85,335.95,54.890800,9.802953,54.891651,9.806246
1390064864,1,0,0.0,0,-35,-36,0,713,500,-0.0292,153.6256,6.8213,0.4212,54.894917,9.789714,108.3,5.845,1.85,335.95,54.891651,9.806246,54.890560,9.805087
1390064864,1,0,0.0,0,-35,-32,0,0,450,-0.0292,165.2922,6.8213,0.4212,54.894901,9.789722,108.3,5.845,1.85,335.95,54.890560,9.805087,54.890366,9.804342
1390064865,1,0,0.0,0,-25,-28,0,0,400,-0.0292,173.6256,6.8213,0.4212,54.894882,9.789725,108.3,5.845,1.85,335.95,54.890366,9.804342,54.890846,9.801930
1390064865,1,0,0.0,0,-16,-24,0,713,450,-0.0292,178.9589,6.8213,0.4212,54.894863,9.789725,108.3,5.845,1.85,335.95,54.890846,9.801930,54.889477,9.798280
1390064865,1,0,0.0,0,-11,-20,0,713,500,-0.0292,182.6256,6.8213,0.4212,54.894844,9.789723,108.3,5.845,1.85,335.95,54.889477,9.798280,54.891819,9.794550
1390064865,1,0,0.0,0,-7,-16,0,713,550,-0.0292,184.9589,6.8213,0.4212,54.894829,9.789721,108.3,5.845,1.85,335.95,54.891819,9.794550,54.895348,9.797490
1390064866,1,0,0.0,0,-5,-12,0,713,600,-0.0292,186.6256,6.8213,0.4212,54.894810,9.789717,108.3,5.845,1.85,335.95,54.895348,9.797490,54.895069,9.793790
1390064866,1,0,0.0,0,-3,-8,0,713,650,-0.0292,187.6256,6.8213,0.4212,54.894791,9.789712,108.3,5.845,1.85,335.95,54.895348,9.797490,54.895069,9.793790
1390064866,3,0,0.0,0,-2,-4,0,713,700,-0.0292,188.2922,6.8213,0.4212,54.894775,9.789708,108.3,5.845,1.85,335.95,54.895348,9.797490,54.894791,9.789712
1390064866,3,0,0.0,0,-2,0,0,713,750,-0.0292,188.9589,6.8213,0.4212,54.894756,9.789703,108.3,5.845,1.85,335.95,54.895348,9.797490,54.894791,9.789712
1390064867,3,0,0.0,0,9,4,0,713,700,-0.0292,185.9589,6.8213,0.4212,54.894737,9.789701,108.3,5.845,1.85,335.95,54.895348,9.797490,54.894791,9.789712
1390064867,3,0,0.0,0,6,8,0,713,750,-0.0292,183.9589,6.8213,0.4212,54.894718,9.789699,108.3,5.845,1.85,335.95,54.895348,9.797490,54.894791,9.789712
1390064867,3,0,0.0,0,4,4,0,713,700,-0.0292,182.6256,6.8213,0.4212,54.894703,9.789698,108.3,5.845,1.85,335.95,54.895348,9.797490,54.894791,9.789712
1390064867,3,0,0.0,0,3,0,0,713,750,-0.0292,181.6256,6.8213,0.4212,54.894684,9.789697,108.3,5.845,1.85,335.95,54.895348,9.797490,54.894791,9.789712
1390064868,3,0,0.0,0,2,4,0,713,700,-0.0292,180.9589,6.8213,0.4212,54.894665,9.789696,108.3,5.845,1.85,335.95,54.895348,9.797490,54.894791,9.789712
1390064868,3,0,0.0,0,1,0,0,713,750,-0.0292,180.6256,6.8213,0.4212,54.894646,9.789696,108.3,5.845,1.85,335.95,54.895348,9.797490,54.894791,9.789712
1390064868,3,0,0.0,0,1,4,0,713,700,-0.0292,180.2923,6.8213,0.4212,54.894630,9.789696,108.3,5.845,1.85,335.95,54.895348,9.797490,54.894791,9.789712
1390064868,3,0,0.0,0,0,0,0,713,750,-0.0292,180.2923,6.8213,0.4212,54.894611,9.789696,108.3,5.845,1.85,335.95,54.895348,9.797490,54.894791,9.789712
1390064869,3,0,0.0,0,0,4,0,713,700,-0.0292,180.2923,6.8213,0.4212,54.894592,9.789696,108.3,5.845,1.85,335.95,54.895348,9.797490,54.894791,9.789712
1390064869,3,0,0.0,0,0,0,0,713,750,-0.0292,180.2923,6.8213,0.4212,54.894573,9.789696,108.3,5.845,1.85,335.95,54.895348,9.797490,54.894791,9.789712
1390064869,3,0,0.0,0,0,4,0,713,700,-0.0292,180.2923,6.8213,0.4212,54.894558,9.789696,108.3,5.845,1.85,335.95,54.895348,9.797490,54.894791,9.789712
1390064869,3,0,0.0,0,0,0,0,713,750,-0.0292,180.2923,6.8213,0.4212,54.894539,9.789696,108.3,5.845,1.85,335.95,54.895348,9.797490,54.894791,9.789712
1390064870,3,0,0.0,0,0,4,0,713,700,-0.0292,180.2923,6.8213,0.4212,54.894520,9.789696,108.3,5.845,1.85,335.95,54.895348,9.797490,54.894791,9.789712
1390064870,3,0,0.0,0,0,0,0,713,750,-0.0292,180.2923,6.8213,0.4212,54.894501,9.789696,108.3,5.845,1.85,335.95,54.895348,9.797490,54.894791,9.789712
1390064870,3,0,0.0,0,0,4,0,713,700,-0.0292,180.2923,6.8213,0.4212,54.894485,9.789696,108.3,5.845,1.85,335.95,54.895348,9.797490,54.894791,9.789712
1390064870,3,0,0.0,0,0,0,0,713,750,-0.0292,180.2923,6.8213,0.4212,54.894466,9.789696,108.3,5.845,1.85,335.95,54.895348,9.797490,54.894791,9.789712
1390064871,3,0,0.0,0,0,4,0,713,700,-0.0292,180.2923,6.8213,0.4212,54.894447,9.789696,108.3,5.845,1.85,335.95,54.895348,9.797490,54.894791,9.789712
1390064871,3,0,0.0,0,0,0,0,713,750,-0.0292,180.2923,6.8213,0.4212,54.894432,9.789696,108.3,5.845,1.85,335.95,54.895348,9.797490,54.894791,9.789712
1390064871,3,0,0.0,0,0,4,0,713,700,-0.0292,180.2923,6.8213,0.4212,54.894413,9.789696,108.3,5.845,1.85,335.95,54.895348,9.797490,54.894791,9.789712
1390064871,3,0,0.0,0,0,0,0,713,750,-0.0292,180.2923,6.8213,0.4212,54.894394,9.789696,108.3,5.845,1.85,335.95,54.895348,9.797490,54.894791,9.789712
1390064872,3,0,0.0,0,10,4,0,713,700,-0.0292,176.9589,6.8213,0.4212,54.894375,9.789698,108.3,5.845,1.85,335.95,54.895348,9.797490,54.894791,9.789712
1390064872,3,0,0.0,0,7,8,0,713,750,-0.0292,174.6256,6.8213,0.4212,54.894360,9.789701,108.3,5.845,1.85,335.95,54.895348,9.797490,54.894791,9.789712
1390064872,3,0,0.0,0,5,4,0,713,700,-0.0292,172.9589,6.8213,0.4212,54.894341,9.789704,108.3,5.845,1.85,335.95,54.895348,9.797490,54.894791,9.789712
1390064872,3,0,0.0,0,3,0,0,713,750,-0.0292,171.9589,6.8213,0.4212,54.894321,9.789709,108.3,5.845,1.85,335.95,54.895348,9.797490,54.894791,9.789712
1390064873,3,0,0.0,0,2,4,0,713,700,-0.0292,171.2923,6.8213,0.4212,54.894302,9.789714,108.3,5.845,1.85,335.95,54.895348,9.797490,54.894791,9.789712
1390064873,3,0,0.0,0,1,0,0,713,750,-0.0292,170.9589,6.8213,0.4212,54.894287,9.789720,108.3,5.845,1.85,335.95,54.895348,9.797490,54.894791,9.789712
1390064873,3,0,0.0,0,1,4,0,713,700,-0.0292,170.6256,6.8213,0.4212,54.894268,9.789724,108.3,5.845,1.85,335.95,54.895348,9.797490,54.894791,9.789712
1390064873,3,0,0.0,0,1,0,0,713,750,-0.0292,170.2923,6.8213,0.4212,54.894249,9.789729,108.3,5.845,1.85,335.95,54.895348,9.797490,54.894791,9.789712
1390064874,3,0,0.0,0,0,4,0,713,700,-0.0292,170.2923,6.8213,0.4212,54.894234,9.789734,108.3,5.845,1.85,335.95,54.895348,9.797490,54.894791,9.789712
1390064874,3,0,0.0,0,0,0,0,713,750,-0.0292,170.2923,6.8213,0.4212,54.894215,9.789739,108.3,5.845,1.85,335.95,54.895348,9.797490,54.894791,9.789712
1390064874,3,0,0.0,0,0,4,0,713,700,-0.0292,170.2923,6.8213,0.4212,54.894196,9.789744,108.3,5.845,1.85,335.95,54.895348,9.797490,54.894791,9.789712
1390064874,3,0,0.0,0,0,0,0,713,750,-0.0292,170.2923,6.8213,0.4212,54.894176,9.789750,108.3,5.845,1.85,335.95,54.895348,9.797490,54.894791,9.789712
1390064875,3,0,0.0,0,0,4,0,713,700,-0.0292,170.2923,6.8213,0.4212,54.894161,9.789756,108.3,5.845,1.85,335.95,54.895348,9.797490,54.894791,9.789712
1390064875,3,0,0.0,0,0,0,0,713,750,-0.0292,170.2923,6.8213,0.4212,54.894142,9.789762,108.3,5.845,1.85,335.95,54.895348,9.797490,54.894791,9.789712
1390064875,3,0,0.0,0,0,4,0,713,700,-0.0292,170.2923,6.8213,0.4212,54.894123,9.789766,108.3,5.845,1.85,335.95,54.895348,9.797490,54.894791,9.789712
1390064875,3,0,0.0,0,0,0,0,713,750,-0.0292,170.2923,6.8213,0.4212,54.894104,9.789771,108.3,5.845,1.85,335.95,54.895348,9.797490,54.894791,9.789712
1390064876,3,0,0.0,0,0,4,0,713,700,-0.0292,170.2923,6.8213,0.4212,54.894089,9.789776,108.3,5.845,1.85,335.95,54.895348,9.797490,54.894791,9.789712
1390064876,3,0,0.0,0,0,0,0,713,750,-0.0292,170.2923,6.8213,0.4212,54.894070,9.789781,108.3,5.845,1.85,335.95,54.895348,9.797490,54.894791,9.789712
1390064876,3,0,0.0,0,0,4,0,713,700,-0.0292,170.2923,6.8213,0.4212,54.894051,9.789785,108.3,5.845,1.85,335.95,54.895348,9.797490,54.894791,9.789712
1390064876,3,0,0.0,0,0,0,0,713,750,-0.0292,170.2923,6.8213,0.4212,54.894032,9.789791,108.3,5.845,1.85,335.95,54.895348,9.797490,54.894791,9.789712
1390064877,3,0,0.0,0,10,4,0,713,700,-0.0292,166.9589,6.8213,0.4212,54.894016,9.789799,108.3,5.845,1.85,335.95,54.895348,9.797490,54.894791,9.789712
1390064877,3,0,0.0,0,7,8,0,713,750,-0.0292,164.6256,6.8213,0.4212,54.893997,9.789807,108.3,5.845,1.85,335.95,54.895348,9.797490,54.894791,9.789712
1390064877,3,0,0.0,0,5,4,0,0,700,-0.0292,162.9589,6.8213,0.4212,54.893978,9.789816,108.3,5.845,1.85,335.95,54.895348,9.797490,54.894791,9.789712
1390064877,3,0,0.0,0,3,0,0,0,650,-0.0292,161.9589,6.8213,0.4212,54.893963,9.789825,108.3,5.845,1.85,335.95,54.895348,9.797490,54.894791,9.789712
1390064878,3,0,0.0,0,2,4,0,0,600,-0.0292,161.2923,6.8213,0.4212,54.893944,9.789835,108.3,5.845,1.85,335.95,54.895348,9.797490,54.894791,9.789712
1390064878,3,0,0.0,0,1,0,0,0,550,-0.0292,160.9589,6.8213,0.4212,54.893925,9.789845,108.3,5.845,1.85,335.95,54.895348,9.797490,54.894791,9.789712
1390064878,3,0,0.0,0,1,4,0,0,500,-0.0292,160.6256,6.8213,0.4212,54.893909,9.789855,108.3,5.845,1.85,335.95,54.895348,9.797490,54.894791,9.789712
1390064878,3,0,0.0,0,1,0,0,0,450,-0.0292,160.2923,6.8213,0.4212,54.893894,9.789865,108.3,5.845,1.85,335.95,54.895348,9.797490,54.894791,9.789712
1390064879,3,0,0.0,0,0,4,0,0,400,-0.0292,160.2923,6.8213,0.4212,54.893875,9.789876,108.3,5.845,1.85,335.95,54.895348,9.797490,54.894791,9.789712
1390064879,3,0,0.0,0,0,0,0,0,350,-0.0292,160.2923,6.8213,0.4212,54.893860,9.789886,108.3,5.845,1.85,335.95,54.895348,9.797490,54.894791,9.789712
1390064879,3,0,0.0,0,0,4,0,0,300,-0.0292,160.2923,6.8213,0.4212,54.893845,9.789897,108.3,5.845,1.85,335.95,54.895348,9.797490,54.894791,9.789712
1390064879,3,0,0.0,0,0,0,0,0,250,-0.0292,160.2923,6.8213,0.4212,54.893826,9.789907,108.3,5.845,1.85,335.95,54.895348,9.797490,54.894791,9.789712
1390064880,3,0,0.0,0,0,4,0,0,200,-0.0292,160.2923,6.8213,0.4212,54.893810,9.789918,108.3,5.845,1.85,335.95,54.895348,9.797490,54.894791,9.789712
1390064880,3,0,0.0,0,0,0,0,0,150,-0.0292,160.2923,6.8213,0.4212,54.893795,9.789928,108.3,5.845,1.85,335.95,54.895348,9.797490,54.894791,9.789712
1390064880,3,0,0.0,0,0,4,0,0,100,-0.0292,160.2923,6.8213,0.4212,54.893776,9.789939,108.3,5.845,1.85,335.95,54.895348,9.797490,54.894791,9.789712
1390064880,3,0,0.0,0,0,0,0,0,50,-0.0292,160.2923,6.8213,0.4212,54.893761,9.789949,108.3,5.845,1.85,335.95,54.895348,9.797490,54.894791,9.789712
1390064881,3,0,0.0,0,0,4,0,0,0,-0.0292,160.2923,6.8213,0.4212,54.893745,9.789960,108.3,5.845,1.85,335.95,54.895348,9.797490,54.894791,9.789712
1390064881,3,0,0.0,0,0,0,0,0,0,-0.0292,160.2923,6.8213,0.4212,54.893726,9.789970,108.3,5.845,1.85,335.95,54.895348,9.797490,54.894791,9.789712
1390064881,3,0,0.0,0,0,4,0,0,0,-0.0292,160.2923,6.8213,0.4212,54.893711,9.789981,108.3,5.845,1.85,335.95,54.895348,9.797490,54.894791,9.789712
1390064881,3,0,0.0,0,0,0,0,0,0,-0.0292,160.2923,6.8213,0.4212,54.893696,9.789991,108.3,5.845,1.85,335.95,54.895348,9.797490,54.894791,9.789712
1390064882,3,0,0.0,0,10,4,0,0,0,-0.0292,156.9590,6.8213,0.4212,54.893677,9.790003,108.3,5.845,1.85,335.95,54.895348,9.797490,54.894791,9.789712
1390064882,3,0,0.0,0,7,8,0,0,0,-0.0292,154.6256,6.8213,0.4212,54.893661,9.790016,108.3,5.845,1.85,335.95,54.895348,9.797490,54.894791,9.789712
1390064882,3,0,0.0,0,5,4,0,0,0,-0.0292,152.9590,6.8213,0.4212,54.893646,9.790030,108.3,5.845,1.85,335.95,54.895348,9.797490,54.894791,9.789712
1390064882,3,0,0.0,0,3,0,0,0,0,-0.0292,151.9590,6.8213,0.4212,54.893631,9.790045,108.3,5.845,1.85,335.95,54.895348,9.797490,54.894791,9.789712
1390064883,3,0,0.0,0,2,4,0,0,0,-0.0292,151.2923,6.8213,0.4212,54.893616,9.790059,108.3,5.845,1.85,335.95,54.895348,9.797490,54.894791,9.789712
1390064883,3,0,0.0,0,1,0,0,0,0,-0.0292,150.9590,6.8213,0.4212,54.893600,9.790074,108.3,5.845,1.85,335.95,54.895348,9.797490,54.894791,9.789712
1390064883,3,0,0.0,0,1,4,0,0,0,-0.0292,150.6256,6.8213,0.4212,54.893585,9.790089,108.3,5.845,1.85,335.95,54.895348,9.797490,54.894791,9.789712
1390064883,3,0,0.0,0,1,0,0,0,0,-0.0292,150.2923,6.8213,0.4212,54.893570,9.790104,108.3,5.845,1.85,335.95,54.895348,9.797490,54.894791,9.789712
1390064884,3,0,0.0,0,0,4,0,0,0,-0.0292,150.2923,6.8213,0.4212,54.893551,9.790118,108.3,5.845,1.85,335.95,54.895348,9.797490,54.894791,9.789712
1390064884,3,0,0.0,0,0,0,0,0,0,-0.0292,150.2923,6.8213,0.4212,54.893536,9.790133,108.3,5.845,1.85,335.95,54.895348,9.797490,54.894791,9.789712
1390064884,3,0,0.0,0,0,4,0,0,0,-0.0292,150.2923,6.8213,0.4212,54.893520,9.790149,108.3,5.845,1.85,335.95,54.895348,9.797490,54.894791,9.789712
1390064885,3,0,0.0,0,0,0,0,0,0,-0.0292,150.2923,6.8213,0.4212,54.893501,9.790163,108.3,5.845,1.85,335.95,54.895348,9.797490,54.894791,9.789712
1390064885,3,0,0.0,0,0,4,0,0,0,-0.0292,150.2923,6.8213,0.4212,54.893486,9.790178,108.3,5.845,1.85,335.95,54.895348,9.797490,54.894791,9.789712
1390064885,3,0,0.0,0,0,0,0,0,0,-0.0292,150.2923,6.8213,0.4212,54.893471,9.790194,108.3,5.845,1.85,335.95,54.895348,9.797490,54.894791,9.789712
1390064885,3,0,0.0,0,0,4,0,0,0,-0.0292,150.2923,6.8213,0.4212,54.893452,9.790208,108.3,5.845,1.85,335.95,54.895348,9.797490,54.894791,9.789712
1390064886,3,0,0.0,0,0,0,0,0,0,-0.0292,150.2923,6.8213,0.4212,54.893436,9.790223,108.3,5.845,1.85,335.95,54.895348,9.797490,54.894791,9.789712
1390064886,3,0,0.0,0,0,4,0,0,0,-0.0292,150.2923,6.8213,0.4212,54.893421,9.790238,108.3,5.845,1.85,335.95,54.895348,9.797490,54.894791,9.789712
1390064886,3,0,0.0,0,0,0,0,0,0,-0.0292,150.2923,6.8213,0.4212,54.893402,9.790253,108.3,5.845,1.85,335.95,54.895348,9.797490,54.894791,9.789712
1390064886,3,0,0.0,0,0,4,0,0,0,-0.0292,150.2923,6.8213,0.4212,54.893387,9.790268,108.3,5.845,1.85,335.95,54.895348,9.797490,54.894791,9.789712
1390064887,3,0,0.0,0,0,0,0,0,0,-0.0292,150.2923,6.8213,0.4212,54.893372,9.790283,108.3,5.845,1.85,335.95,54.895348,9.797490,54.894791,9.789712
1390064887,3,0,0.0,0,10,4,0,0,0,-0.0292,146.9590,6.8213,0.4212,54.893360,9.790299,108.3,5.845,1.85,335.95,54.895348,9.797490,54.894791,9.789712
1390064887,3,0,0.0,0,7,8,0,0,0,-0.0292,144.6256,6.8213,0.4212,54.893345,9.790317,108.3,5.845,1.85,335.95,54.895348,9.797490,54.894791,9.789712
1390064887,3,0,0.0,0,5,4,0,713,50,-0.0292,142.9590,6.8213,0.4212,54.893333,9.790334,108.3,5.845,1.85,335.95,54.895348,9.797490,54.894791,9.789712
1390064888,3,0,0.0,0,3,0,0,713,100,-0.0292,141.9590,6.8213,0.4212,54.893318,9.790352,108.3,5.845,1.85,335.95,54.895348,9.797490,54.894791,9.789712
1390064888,3,0,0.0,0,2,4,0,713,150,-0.0292,141.2923,6.8213,0.4212,54.893307,9.790371,108.3,5.845,1.85,335.95,54.895348,9.797490,54.894791,9.789712
1390064888,3,0,0.0,0,1,0,0,713,200,-0.0292,140.9590,6.8213,0.4212,54.893291,9.790389,108.3,5.845,1.85,335.95,54.895348,9.797490,54.894791,9.789712
1390064888,3,0,0.0,0,1,4,0,713,250,-0.0292,140.6256,6.8213,0.4212,54.893280,9.790408,108.3,5.845,1.85,335.95,54.895348,9.797490,54.894791,9.789712
1390064889,3,0,0.0,0,1,0,0,713,300,-0.0292,140.2923,6.8213,0.4212,54.893265,9.790426,108.3,5.845,1.85,335.95,54.895348,9.797490,54.894791,9.789712
1390064889,3,0,0.0,0,0,4,0,713,350,-0.0292,140.2923,6.8213,0.4212,54.893253,9.790445,108.3,5.845,1.85,335.95,54.895348,9.797490,54.894791,9.789712
1390064889,3,0,0.0,0,0,0,0,713,400,-0.0292,140.2923,6.8213,0.4212,54.893238,9.790463,108.3,5.845,1.85,335.95,54.895348,9.797490,54.894791,9.789712
1390064889,3,0,0.0,0,0,4,0,713,450,-0.0292,140.2923,6.8213,0.4212,54.893227,9.790483,108.3,5.845,1.85,335.95,54.895348,9.797490,54.894791,9.789712
1390064890,3,0,0.0,0,0,0,0,713,500,-0.0292,140.2923,6.8213,0.4212,54.893211,9.790502,108.3,5.845,1.85,335.95,54.895348,9.797490,54.894791,9.789712
1390064890,3,0,0.0,0,0,4,0,713,550,-0.0292,140.2923,6.8213,0.4212,54.893200,9.790521,108.3,5.845,1.85,335.95,54.895348,9.797490,54.894791,9.789712
1390064890,3,0,0.0,0,0,0,0,713,600,-0.0292,140.2923,6.8213,0.4212,54.893185,9.790540,108.3,5.845,1.85,335.95,54.895348,9.797490,54.894791,9.789712
1390064890,3,0,0.0,0,0,4,0,713,650,-0.0292,140.2923,6.8213,0.4212,54.893169,9.790559,108.3,5.845,1.85,335.95,54.895348,9.797490,54.894791,9.789712
1390064891,3,0,0.0,0,0,0,0,713,700,-0.0292,140.2923,6.8213,0.4212,54.893158,9.790578,108.3,5.845,1.85,335.95,54.895348,9.797490,54.894791,9.789712
1390064891,3,0,0.0,0,0,4,0,713,750,-0.0292,140.2923,6.8213,0.4212,54.893143,9.790596,108.3,5.845,1.85,335.95,54.895348,9.797490,54.894791,9.789712
1390064891,3,0,0.0,0,0,0,0,713,700,-0.0292,140.2923,6.8213,0.4212,54.893131,9.790615,108.3,5.845,1.85,335.95,54.895348,9.797490,54.894791,9.789712
1390064891,3,0,0.0,0,0,4,0,713,750,-0.0292,140.2923,6.8213,0.4212,54.893116,9.790634,108.3,5.845,1.85,335.95,54.895348,9.797490,54.894791,9.789712
1390064892,3,0,0.0,0,0,0,0,713,700,-0.0292,140.2923,6.8213,0.4212,54.893105,9.790653,108.3,5.845,1.85,335.95,54.895348,9.797490,54.894791,9.789712
1390064892,3,0,0.0,0,10,4,0,713,750,-0.0292,136.9590,6.8213,0.4212,54.893089,9.790673,108.3,5.845,1.85,335.95,54.895348,9.797490,54.894791,9.789712
1390064892,3,0,0.0,0,7,8,0,713,700,-0.0292,134.6257,6.8213,0.4212,54.893078,9.790694,108.3,5.845,1.85,335.95,54.895348,9.797490,54.894791,9.789712
1390064892,3,0,0.0,0,5,4,0,713,750,-0.0292,132.9590,6.8213,0.4212,54.893063,9.790716,108.3,5.845,1.85,335.95,54.895348,9.797490,54.894791,9.789712
1390064893,3,0,0.0,0,3,0,0,713,700,-0.0292,131.9590,6.8213,0.4212,54.893051,9.790737,108.3,5.845,1.85,335.95,54.895348,9.797490,54.894791,9.789712
1390064893,3,0,0.0,0,2,4,0,713,750,-0.0292,131.2923,6.8213,0.4212,54.893044,9.790759,108.3,5.845,1.85,335.95,54.895348,9.797490,54.894791,9.789712
1390064893,3,0,0.0,0,1,0,0,713,700,-0.0292,130.9590,6.8213,0.4212,54.893032,9.790781,108.3,5.845,1.85,335.95,54.895348,9.797490,54.894791,9.789712
1390064893,3,0,0.0,0,1,4,0,713,750,-0.0292,130.6257,6.8213,0.4212,54.893021,9.790803,108.3,5.845,1.85,335.95,54.895348,9.797490,54.894791,9.789712
1390064894,3,0,0.0,0,1,0,0,713,700,-0.0292,130.2923,6.8213,0.4212,54.893009,9.790825,108.3,5.845,1.85,335.95,54.895348,9.797490,54.894791,9.789712
1390064894,3,0,0.0,0,0,4,0,713,750,-0.0292,130.2923,6.8213,0.4212,54.892998,9.790847,108.3,5.845,1.85,335.95,54.895348,9.797490,54.894791,9.789712
1390064894,3,0,0.0,0,0,0,0,713,700,-0.0292,130.2923,6.8213,0.4212,54.892990,9.790869,108.3,5.845,1.85,335.95,54.895348,9.797490,54.894791,9.789712
1390064894,3,0,0.0,0,0,4,0,713,750,-0.0292,130.2923,6.8213,0.4212,54.892979,9.790891,108.3,5.845,1.85,335.95,54.895348,9.797490,54.894791,9.789712
1390064895,3,0,0.0,0,0,0,0,713,700,-0.0292,130.2923,6.8213,0.4212,54.892967,9.790913,108.3,5.845,1.85,335.95,54.895348,9.797490,54.894791,9.789712
1390064895,3,0,0.0,0,0,4,0,713,750,-0.0292,130.2923,6.8213,0.4212,54.892956,9.790935,108.3,5.845,1.85,335.95,54.895348,9.797490,54.894791,9.789712
1390064895,3,0,0.0,0,0,0,0,713,700,-0.0292,130.2923,6.8213,0.4212,54.892944,9.790956,108.3,5.845,1.85,335.95,54.895348,9.797490,54.894791,9.789712
1390064895,3,0,0.0,0,0,4,0,713,750,-0.0292,130.2923,6.8213,0.4212,54.892933,9.790978,108.3,5.845,1.85,335.95,54.895348,9.797490,54.894791,9.789712
1390064896,3,0,0.0,0,0,0,0,713,700,-0.0292,130.2923,6.8213,0.4212,54.892921,9.791000,108.3,5.845,1.85,335.95,54.895348,9.797490,54.894791,9.789712
1390064896,3,0,0.0,0,0,4,0,713,750,-0.0292,130.2923,6.8213,0.4212,54.892910,9.791022,108.3,5.845,1.85,335.95,54.895348,9.797490,54.894791,9.789712
1390064896,3,0,0.0,0,0,0,0,713,700,-0.0292,130.2923,6.8213,0.4212,54.892899,9.791044,108.3,5.845,1.85,335.95,54.895348,9.797490,54.894791,9.789712
1390064896,3,0,0.0,0,0,4,0,713,750,-0.0292,130.2923,6.8213,0.4212,54.892887,9.791066,108.3,5.845,1.85,335.95,54.895348,9.797490,54.894791,9.789712
1390064897,3,0,0.0,0,0,0,0,713,700,-0.0292,130.2923,6.8213,0.4212,54.892876,9.791088,108.3,5.845,1.85,335.95,54.895348,9.797490,54.894791,9.789712
1390064897,3,0,0.0,0,10,4,0,713,750,-0.0292,126.9590,6.8213,0.4212,54.892868,9.791110,108.3,5.845,1.85,335.95,54.895348,9.797490,54.894791,9.789712
1390064897,3,0,0.0,0,7,8,0,713,700,-0.0292,124.6257,6.8213,0.4212,54.892860,9.791133,108.3,5.845,1.85,335.95,54.895348,9.797490,54.894791,9.789712
1390064897,3,0,0.0,0,5,4,0,713,750,-0.0292,122.9590,6.8213,0.4212,54.892849,9.791156,108.3,5.845,1.85,335.95,54.895348,9.797490,54.894791,9.789712
1390064898,3,0,0.0,0,3,0,0,713,700,-0.0292,121.9590,6.8213,0.4212,54.892841,9.791180,108.3,5.845,1.85,335.95,54.895348,9.797490,54.894791,9.789712
1390064898,3,0,0.0,0,2,4,0,713,750,-0.0292,121.2923,6.8213,0.4212,54.892834,9.791203,108.3,5.845,1.85,335.95,54.895348,9.797490,54.894791,9.789712
1390064898,3,0,0.0,0,1,0,0,713,700,-0.0292,120.9590,6.8213,0.4212,54.892822,9.791226,108.3,5.845,1.85,335.95,54.895348,9.797490,54.894791,9.789712
1390064898,3,0,0.0,0,1,4,0,713,750,-0.0292,120.6257,6.8213,0.4212,54.892815,9.791250,108.3,5.845,1.85,335.95,54.895348,9.797490,54.894791,9.789712
1390064899,3,0,0.0,0,1,0,0,713,700,-0.0292,120.2923,6.8213,0.4212,54.892807,9.791274,108.3,5.845,1.85,335.95,54.895348,9.797490,54.894791,9.789712
1390064899,3,0,0.0,0,0,4,0,713,750,-0.0292,120.2923,6.8213,0.4212,54.892796,9.791298,108.3,5.845,1.85,335.95,54.895348,9.797490,54.894791,9.789712
1390064899,3,0,0.0,0,0,0,0,713,700,-0.0292,120.2923,6.8213,0.4212,54.892788,9.791322,108.3,5.845,1.85,335.95,54.895348,9.797490,54.894791,9.789712
1390064899,3,0,0.0,0,0,4,0,713,750,-0.0292,120.2923,6.8213,0.4212,54.892780,9.791346,108.3,5.845,1.85,335.95,54.895348,9.797490,54.894791,9.789712
1390064900,3,0,0.0,0,0,0,0,713,700,-0.0292,120.2923,6.8213,0.4212,54.892773,9.791369,108.3,5.845,1.85,335.95,54.895348,9.797490,54.894791,9.789712
1390064900,3,0,0.0,0,0,4,0,713,750,-0.0292,120.2923,6.8213,0.4212,54.892765,9.791393,108.3,5.845,1.85,335.95,54.895348,9.797490,54.894791,9.789712
1390064900,3,0,0.0,0,0,0,0,713,700,-0.0292,120.2923,6.8213,0.4212,54.892757,9.791417,108.3,5.845,1.85,335.95,54.895348,9.797490,54.894791,9.789712
1390064900,3,0,0.0,0,0,4,0,713,750,-0.0292,120.2923,6.8213,0.4212,54.892746,9.791441,108.3,5.845,1.85,335.95,54.895348,9.797490,54.894791,9.789712
1390064901,3,0,0.0,0,0,0,0,713,700,-0.0292,120.2923,6.8213,0.4212,54.892738,9.791465,108.3,5.845,1.85,335.95,54.895348,9.797490,54.894791,9.789712
1390064901,3,0,0.0,0,0,4,0,713,750,-0.0292,120.2923,6.8213,0.4212,54.892731,9.791489,108.3,5.845,1.85,335.95,54.895348,9.797490,54.894791,9.789712
1390064901,3,0,0.0,0,0,0,0,713,700,-0.0292,120.2923,6.8213,0.4212,54.892723,9.791512,108.3,5.845,1.85,335.95,54.895348,9.797490,54.894791,9.789712
1390064901,3,0,0.0,0,0,4,0,713,750,-0.0292,120.2923,6.8213,0.4212,54.892715,9.791536,108.3,5.845,1.85,335.95,54.895348,9.797490,54.894791,9.789712
1390064902,3,0,0.0,0,0,0,0,713,700,-0.0292,120.2923,6.8213,0.4212,54.892708,9.791560,108.3,5.845,1.85,335.95,54.895348,9.797490,54.894791,9.789712
1390064902,3,0,0.0,0,10,4,0,713,750,-0.0292,116.9590,6.8213,0.4212,54.892700,9.791584,108.3,5.845,1.85,335.95,54.895348,9.797490,54.894791,9.789712
1390064902,3,0,0.0,0,7,8,0,713,700,-0.0292,114.6256,6.8213,0.4212,54.892696,9.791609,108.3,5.845,1.85,335.95,54.895348,9.797490,54.894791,9.789712
1390064902,3,0,0.0,0,5,4,0,713,750,-0.0292,112.9590,6.8213,0.4212,54.892689,9.791633,108.3,5.845,1.85,335.95,54.895348,9.797490,54.894791,9.789712
1390064903,3,0,0.0,0,3,0,0,713,700,-0.0292,111.9590,6.8213,0.4212,54.892681,9.791657,108.3,5.845,1.85,335.95,54.895348,9.797490,54.894791,9.789712
1390064903,3,0,0.0,0,2,4,0,713,750,-0.0292,111.2923,6.8213,0.4212,54.892677,9.791682,108.3,5.845,1.85,335.95,54.895348,9.797490,54.894791,9.789712
1390064903,3,0,0.0,0,1,0,0,713,700,-0.0292,110.9590,6.8213,0.4212,54.892673,9.791707,108.3,5.845,1.85,335.95,54.895348,9.797490,54.894791,9.789712
1390064903,3,0,0.0,0,1,4,0,713,750,-0.0292,110.6256,6.8213,0.4212,54.892670,9.791732,108.3,5.845,1.85,335.95,54.895348,9.797490,54.894791,9.789712
1390064904,3,0,0.0,0,1,0,0,870,800,-0.0292,110.2923,6.8213,0.4212,54.892666,9.791756,108.3,5.845,1.85,335.95,54.895348,9.797490,54.894791,9.789712
1390064904,3,0,0.0,0,0,4,0,870,850,-0.0292,110.2923,6.8213,0.4212,54.892658,9.791780,108.3,5.845,1.85,335.95,54.895348,9.797490,54.894791,9.789712
1390064904,3,0,0.0,0,0,0,0,870,900,-0.0292,110.2923,6.8213,0.4212,54.892654,9.791805,108.3,5.845,1.85,335.95,54.895348,9.797490,54.894791,9.789712
1390064904,3,0,0.0,0,0,4,0,870,850,-0.0292,110.2923,6.8213,0.4212,54.892651,9.791830,108.3,5.845,1.85,335.95,54.895348,9.797490,54.894791,9.789712
1390064905,3,0,0.0,0,0,0,0,870,900,-0.0292,110.2923,6.8213,0.4212,54.892647,9.791855,108.3,5.845,1.85,335.95,54.895348,9.797490,54.894791,9.789712
1390064905,3,0,0.0,0,0,4,0,870,850,-0.0292,110.2923,6.8213,0.4212,54.892643,9.791880,108.3,5.845,1.85,335.95,54.895348,9.797490,54.894791,9.789712
1390064905,3,0,0.0,0,0,0,0,870,900,-0.0292,110.2923,6.8213,0.4212,54.892635,9.791904,108.3,5.845,1.85,335.95,54.895348,9.797490,54.894791,9.789712
1390064905,3,0,0.0,0,0,4,0,870,850,-0.0292,110.2923,6.8213,0.4212,54.892628,9.791928,108.3,5.845,1.85,335.95,54.895348,9.797490,54.894791,9.789712
1390064906,3,0,0.0,0,0,0,0,870,900,-0.0292,110.2923,6.8213,0.4212,54.892624,9.791953,108.3,5.845,1.85,335.95,54.895348,9.797490,54.894791,9.789712
1390064906,3,0,0.0,0,0,4,0,870,850,-0.0292,110.2923,6.8213,0.4212,54.892620,9.791978,108.3,5.845,1.85,335.95,54.895348,9.797490,54.894791,9.789712
1390064906,3,0,0.0,0,0,0,0,870,900,-0.0292,110.2923,6.8213,0.4212,54.892616,9.792003,108.3,5.845,1.85,335.95,54.895348,9.797490,54.894791,9.789712
1390064906,3,0,0.0,0,0,4,0,870,850,-0.0292,110.2923,6.8213,0.4212,54.892609,9.792027,108.3,5.845,1.85,335.95,54.895348,9.797490,54.894791,9.789712
1390064907,3,0,0.0,0,0,0,0,870,900,-0.0292,110.2923,6.8213,0.4212,54.892605,9.792052,108.3,5.845,1.85,335.95,54.895348,9.797490,54.894791,9.789712
1390064907,3,0,0.0,0,10,4,0,870,850,-0.0292,106.9590,6.8213,0.4212,54.892601,9.792077,108.3,5.845,1.85,335.95,54.895348,9.797490,54.894791,9.789712
1390064907,3,0,0.0,0,7,8,0,870,900,-0.0292,104.6256,6.8213,0.4212,54.892597,9.792101,108.3,5.845,1.85,335.95,54.895348,9.797490,54.894791,9.789712
1390064907,3,0,0.0,0,5,4,0,870,850,-0.0292,102.9590,6.8213,0.4212,54.892593,9.792126,108.3,5.845,1.85,335.95,54.895348,9.797490,54.894791,9.789712
1390064908,3,0,0.0,0,3,0,0,870,900,-0.0292,101.9590,6.8213,0.4212,54.892590,9.792150,108.3,5.845,1.85,335.95,54.895348,9.797490,54.894791,9.789712
1390064908,3,0,0.0,0,2,4,0,870,850,-0.0292,101.2923,6.8213,0.4212,54.892586,9.792175,108.3,5.845,1.85,335.95,54.895348,9.797490,54.894791,9.789712
1390064908,3,0,0.0,0,1,0,0,870,900,-0.0292,100.9590,6.8213,0.4212,54.892582,9.792200,108.3,5.845,1.85,335.95,54.895348,9.797490,54.894791,9.789712
1390064908,3,0,0.0,0,1,4,0,870,850,-0.0292,100.6256,6.8213,0.4212,54.892582,9.792225,108.3,5.845,1.85,335.95,54.895348,9.797490,54.894791,9.789712
1390064909,3,0,0.0,0,1,0,0,870,900,-0.0292,100.2923,6.8213,0.4212,54.892582,9.792250,108.3,5.845,1.85,335.95,54.895348,9.797490,54.894791,9.789712
1390064909,3,0,0.0,0,0,4,0,870,850,-0.0292,100.2923,6.8213,0.4212,54.892582,9.792274,108.3,5.845,1.85,335.95,54.895348,9.797490,54.894791,9.789712
1390064909,3,0,0.0,0,0,0,0,870,900,-0.0292,100.2923,6.8213,0.4212,54.892582,9.792298,108.3,5.845,1.85,335.95,54.895348,9.797490,54.894791,9.789712
1390064909,3,0,0.0,0,0,4,0,870,850,-0.0292,100.2923,6.8213,0.4212,54.892582,9.792322,108.3,5.845,1.85,335.95,54.895348,9.797490,54.894791,9.789712
1390064910,3,0,0.0,0,0,0,0,870,900,-0.0292,100.2923,6.8213,0.4212,54.892582,9.792347,108.3,5.845,1.85,335.95,54.895348,9.797490,54.894791,9.789712
1390064910,3,0,0.0,0,0,4,0,870,850,-0.0292,100.2923,6.8213,0.4212,54.892582,9.792372,108.3,5.845,1.85,335.95,54.895348,9.797490,54.894791,9.789712
1390064910,3,0,0.0,0,0,0,0,870,900,-0.0292,100.2923,6.8213,0.4212,54.892582,9.792397,108.3,5.845,1.85,335.95,54.895348,9.797490,54.894791,9.789712
1390064910,3,0,0.0,0,0,4,0,870,850,-0.0292,100.2923,6.8213,0.4212,54.892582,9.792421,108.3,5.845,1.85,335.95,54.895348,9.797490,54.894791,9.789712
1390064911,3,0,0.0,0,0,0,0,870,900,-0.0292,100.2923,6.8213,0.4212,54.892582,9.792445,108.3,5.845,1.85,335.95,54.895348,9.797490,54.894791,9.789712
1390064911,3,0,0.0,0,0,4,0,870,850,-0.0292,100.2923,6.8213,0.4212,54.892582,9.792470,108.3,5.845,1.85,335.95,54.895348,9.797490,54.894791,9.789712
1390064911,3,0,0.0,0,0,0,0,870,900,-0.0292,100.2923,6.8213,0.4212,54.892582,9.792494,108.3,5.845,1.85,335.95,54.895348,9.797490,54.894791,9.789712
1390064911,3,0,0.0,0,0,4,0,870,850,-0.0292,100.2923,6.8213,0.4212,54.892582,9.792519,108.3,5.845,1.85,335.95,54.895348,9.797490,54.894791,9.789712
1390064912,3,0,0.0,0,0,0,0,870,900,-0.0292,100.2923,6.8213,0.4212,54.892582,9.792543,108.3,5.845,1.85,335.95,54.895348,9.797490,54.894791,9.789712
1390064912,3,0,0.0,0,10,4,0,870,850,-0.0292,96.9590,6.8213,0.4212,54.892582,9.792568,108.3,5.845,1.85,335.95,54.895348,9.797490,54.894791,9.789712
1390064912,3,0,0.0,0,7,8,0,870,900,-0.0292,94.6256,6.8213,0.4212,54.892582,9.792592,108.3,5.845,1.85,335.95,54.895348,9.797490,54.894791,9.789712
1390064912,3,0,0.0,0,5,4,0,840,850,-0.0292,92.9590,6.8213,0.4212,54.892582,9.792615,108.3,5.845,1.85,335.95,54.895348,9.797490,54.894791,9.789712
1390064913,3,0,0.0,0,3,0,0,817,800,-0.0292,91.9590,6.8213,0.4212,54.892582,9.792639,108.3,5.845,1.85,335.95,54.895348,9.797490,54.894791,9.789712
1390064913,3,0,0.0,0,2,4,0,802,850,-0.0292,91.2923,6.8213,0.4212,54.892582,9.792662,108.3,5.845,1.85,335.95,54.895348,9.797490,54.894791,9.789712
1390064913,3,0,0.0,0,1,0,0,793,800,-0.0292,90.9590,6.8213,0.4212,54.892582,9.792686,108.3,5.845,1.85,335.95,54.895348,9.797490,54.894791,9.789712
1390064913,3,0,0.0,0,1,4,0,788,750,-0.0292,90.6256,6.8213,0.4212,54.892582,9.792708,108.3,5.845,1.85,335.95,54.895348,9.797490,54.894791,9.789712
1390064914,3,0,0.0,0,1,0,0,783,800,-0.0292,90.2923,6.8213,0.4212,54.892582,9.792732,108.3,5.845,1.85,335.95,54.895348,9.797490,54.894791,9.789712
1390064914,3,0,0.0,0,0,4,0,778,750,-0.0292,90.2923,6.8213,0.4212,54.892582,9.792755,108.3,5.845,1.85,335.95,54.895348,9.797490,54.894791,9.789712
1390064914,3,0,0.0,0,0,0,0,778,800,-0.0292,90.2923,6.8213,0.4212,54.892582,9.792779,108.3,5.845,1.85,335.95,54.895348,9.797490,54.894791,9.789712
1390064914,3,0,0.0,0,0,4,0,778,750,-0.0292,90.2923,6.8213,0.4212,54.892582,9.792802,108.3,5.845,1.85,335.95,54.895348,9.797490,54.894791,9.789712
1390064915,3,0,0.0,0,0,0,0,778,800,-0.0292,90.2923,6.8213,0.4212,54.892582,9.792826,108.3,5.845,1.85,335.95,54.895348,9.797490,54.894791,9.789712
1390064915,3,0,0.0,0,0,4,0,778,750,-0.0292,90.2923,6.8213,0.4212,54.892582,9.792849,108.3,5.845,1.85,335.95,54.895348,9.797490,54.894791,9.789712
1390064915,3,0,0.0,0,0,0,0,778,800,-0.0292,90.2923,6.8213,0.4212,54.892582,9.792871,108.3,5.845,1.85,335.95,54.895348,9.797490,54.894791,9.789712
1390064915,3,0,0.0,0,0,4,0,778,750,-0.0292,90.2923,6.8213,0.4212,54.892582,9.792895,108.3,5.845,1.85,335.95,54.895348,9.797490,54.894791,9.789712
1390064916,3,0,0.0,0,0,0,0,778,800,-0.0292,90.2923,6.8213,0.4212,54.892582,9.792918,108.3,5.845,1.85,335.95,54.895348,9.797490,54.894791,9.789712
1390064916,3,0,0.0,0,0,4,0,778,750,-0.0292,90.2923,6.8213,0.4212,54.892582,9.792942,108.3,5.845,1.85,335.95,54.895348,9.797490,54.894791,9.789712
1390064916,3,0,0.0,0,0,0,0,778,800,-0.0292,90.2923,6.8213,0.4212,54.892582,9.792965,108.3,5.845,1.85,335.95,54.895348,9.797490,54.894791,9.789712
1390064916,3,0,0.0,0,0,4,0,778,750,-0.0292,90.2923,6.8213,0.4212,54.892582,9.792989,108.3,5.845,1.85,335.95,54.895348,9.797490,54.894791,9.789712
1390064917,3,0,0.0,0,0,0,0,778,800,-0.0292,90.2923,6.8213,0.4212,54.892582,9.793012,108.3,5.845,1.85,335.95,54.895348,9.797490,54.894791,9.789712
1390064917,3,0,0.0,0,10,4,0,778,750,-0.0292,86.9590,6.8213,0.4212,54.892586,9.793035,108.3,5.845,1.85,335.95,54.895348,9.797490,54.894791,9.789712
1390064917,3,0,0.0,0,7,8,0,729,700,-0.0292,84.6256,6.8213,0.4212,54.892586,9.793056,108.3,5.845,1.85,335.95,54.895348,9.797490,54.894791,9.789712
1390064917,3,0,0.0,0,5,4,0,693,650,-0.0292,82.9590,6.8213,0.4212,54.892586,9.793078,108.3,5.845,1.85,335.95,54.895348,9.797490,54.894791,9.789712
1390064918,3,0,0.0,0,3,0,0,668,700,-0.0292,81.9590,6.8213,0.4212,54.892586,9.793100,108.3,5.845,1.85,335.95,54.895348,9.797490,54.894791,9.789712
1390064918,3,0,0.0,0,2,4,0,652,650,-0.0292,81.2923,6.8213,0.4212,54.892586,9.793122,108.3,5.845,1.85,335.95,54.895348,9.797490,54.894791,9.789712
1390064918,3,0,0.0,0,1,0,0,642,600,-0.0292,80.9590,6.8213,0.4212,54.892586,9.793143,108.3,5.845,1.85,335.95,54.895348,9.797490,54.894791,9.789712
1390064918,3,0,0.0,0,1,4,0,637,650,-0.0292,80.6256,6.8213,0.4212,54.892586,9.793165,108.3,5.845,1.85,335.95,54.895348,9.797490,54.894791,9.789712
1390064919,3,0,0.0,0,1,0,0,632,600,-0.0292,80.2923,6.8213,0.4212,54.892586,9.793186,108.3,5.845,1.85,335.95,54.895348,9.797490,54.894791,9.789712
1390064919,3,0,0.0,0,0,4,0,627,650,-0.0292,80.2923,6.8213,0.4212,54.892586,9.793208,108.3,5.845,1.85,335.95,54.895348,9.797490,54.894791,9.789712
1390064919,3,0,0.0,0,0,0,0,627,600,-0.0292,80.2923,6.8213,0.4212,54.892586,9.793229,108.3,5.845,1.85,335.95,54.895348,9.797490,54.894791,9.789712
1390064919,3,0,0.0,0,0,4,0,627,650,-0.0292,80.2923,6.8213,0.4212,54.892586,9.793251,108.3,5.845,1.85,335.95,54.895348,9.797490,54.894791,9.789712
1390064920,3,0,0.0,0,0,0,0,627,600,-0.0292,80.2923,6.8213,0.4212,54.892586,9.793272,108.3,5.845,1.85,335.95,54.895348,9.797490,54.894791,9.789712
1390064920,3,0,0.0,0,0,4,0,627,650,-0.0292,80.2923,6.8213,0.4212,54.892586,9.793294,108.3,5.845,1.85,335.95,54.895348,9.797490,54.894791,9.789712
1390064920,3,0,0.0,0,0,0,0,627,600,-0.0292,80.2923,6.8213,0.4212,54.892586,9.793315,108.3,5.845,1.85,335.95,54.895348,9.797490,54.894791,9.789712
1390064920,3,0,0.0,0,0,4,0,627,650,-0.0292,80.2923,6.8213,0.4212,54.892586,9.793337,108.3,5.845,1.85,335.95,54.895348,9.797490,54.894791,9.789712
1390064921,3,0,0.0,0,0,0,0,627,600,-0.0292,80.2923,6.8213,0.4212,54.892586,9.793358,108.3,5.845,1.85,335.95,54.895348,9.797490,54.894791,9.789712
1390064921,3,0,0.0,0,0,4,0,627,650,-0.0292,80.2923,6.8213,0.4212,54.892586,9.793380,108.3,5.845,1.85,335.95,54.895348,9.797490,54.894791,9.789712
1390064921,3,0,0.0,0,0,0,0,627,600,-0.0292,80.2923,6.8213,0.4212,54.892586,9.793401,108.3,5.845,1.85,335.95,54.895348,9.797490,54.894791,9.789712
1390064922,3,0,0.0,0,0,4,0,627,650,-0.0292,80.2923,6.8213,0.4212,54.892586,9.793423,108.3,5.845,1.85,335.95,54.895348,9.797490,54.894791,9.789712
1390064922,3,0,0.0,0,0,0,0,627,600,-0.0292,80.2923,6.8213,0.4212,54.892586,9.793444,108.3,5.845,1.85,335.95,54.895348,9.797490,54.894791,9.789712
1390064922,3,0,0.0,0,10,4,0,627,650,-0.0292,76.9590,6.8213,0.4212,54.892586,9.793465,108.3,5.845,1.85,335.95,54.895348,9.797490,54.894791,9.789712
1390064922,3,0,0.0,0,7,8,0,574,600,-0.0292,74.6256,6.8213,0.4212,54.892586,9.793484,108.3,5.845,1.85,335.95,54.895348,9.797490,54.894791,9.789712
1390064923,3,0,0.0,0,5,4,0,538,550,-0.0292,72.9590,6.8213,0.4212,54.892586,9.793503,108.3,5.845,1.85,335.95,54.895348,9.797490,54.894791,9.789712
1390064923,3,0,0.0,0,3,0,0,511,500,-0.0292,71.9590,6.8213,0.4212,54.892586,9.793522,108.3,5.845,1.85,335.95,54.895348,9.797490,54.894791,9.789712
1390064923,3,0,0.0,0,2,4,0,495,450,-0.0292,71.2923,6.8213,0.4212,54.892586,9.793541,108.3,5.845,1.85,335.95,54.895348,9.797490,54.894791,9.789712
1390064923,3,0,0.0,0,1,0,0,485,500,-0.0292,70.9590,6.8213,0.4212,54.892586,9.793559,108.3,5.845,1.85,335.95,54.895348,9.797490,54.894791,9.789712
1390064924,3,0,0.0,0,1,4,0,479,450,-0.0292,70.6256,6.8213,0.4212,54.892586,9.793577,108.3,5.845,1.85,335.95,54.895348,9.797490,54.894791,9.789712
1390064924,3,0,0.0,0,1,0,0,474,500,-0.0292,70.2923,6.8213,0.4212,54.892586,9.793595,108.3,5.845,1.85,335.95,54.895348,9.797490,54.894791,9.789712
1390064924,3,0,0.0,0,0,4,0,469,450,-0.0292,70.2923,6.8213,0.4212,54.892586,9.793613,108.3,5.845,1.85,335.95,54.895348,9.797490,54.894791,9.789712
1390064924,3,0,0.0,0,0,0,0,469,500,-0.0292,70.2923,6.8213,0.4212,54.892586,9.793633,108.3,5.845,1.85,335.95,54.895348,9.797490,54.894791,9.789712
1390064925,3,0,0.0,0,0,4,0,469,450,-0.0292,70.2923,6.8213,0.4212,54.892586,9.793651,108.3,5.845,1.85,335.95,54.895348,9.797490,54.894791,9.789712
1390064925,3,0,0.0,0,0,0,0,469,500,-0.0292,70.2923,6.8213,0.4212,54.892586,9.793669,108.3,5.845,1.85,335.95,54.895348,9.797490,54.894791,9.789712
1390064925,3,0,0.0,0,0,4,0,469,450,-0.0292,70.2923,6.8213,0.4212,54.892586,9.793687,108.3,5.845,1.85,335.95,54.895348,9.797490,54.894791,9.789712
1390064925,3,0,0.0,0,0,0,0,469,500,-0.0292,70.2923,6.8213,0.4212,54.892586,9.793705,108.3,5.845,1.85,335.95,54.895348,9.797490,54.894791,9.789712
1390064926,3,0,0.0,0,0,4,0,469,450,-0.0292,70.2923,6.8213,0.4212,54.892586,9.793723,108.3,5.845,1.85,335.95,54.895348,9.797490,54.894791,9.789712
1390064926,3,0,0.0,0,0,0,0,469,500,-0.0292,70.2923,6.8213,0.4212,54.892586,9.793741,108.3,5.845,1.85,335.95,54.895348,9.797490,54.894791,9.789712
1390064926,3,0,0.0,0,0,4,0,469,450,-0.0292,70.2923,6.8213,0.4212,54.892586,9.793760,108.3,5.845,1.85,335.95,54.895348,9.797490,54.894791,9.789712
1390064926,3,0,0.0,0,0,0,0,469,500,-0.0292,70.2923,6.8213,0.4212,54.892586,9.793778,108.3,5.845,1.85,335.95,54.895348,9.797490,54.894791,9.789712
1390064927,3,0,0.0,0,0,4,0,469,450,-0.0292,70.2923,6.8213,0.4212,54.892586,9.793797,108.3,5.845,1.85,335.95,54.895348,9.797490,54.894791,9.789712
1390064927,3,0,0.0,0,0,0,0,469,500,-0.0292,70.2923,6.8213,0.4212,54.892586,9.793815,108.3,5.845,1.85,335.95,54.895348,9.797490,54.894791,9.789712
1390064927,3,0,0.0,0,10,4,0,469,450,-0.0292,66.9589,6.8213,0.4212,54.892590,9.793832,108.3,5.845,1.85,335.95,54.895348,9.797490,54.894791,9.789712
1390064927,3,0,0.0,0,7,8,0,415,400,-0.0292,64.6256,6.8213,0.4212,54.892593,9.793848,108.3,5.845,1.85,335.95,54.895348,9.797490,54.894791,9.789712
1390064928,3,0,0.0,0,5,4,0,378,350,-0.0292,62.9589,6.8213,0.4212,54.892597,9.793864,108.3,5.845,1.85,335.95,54.895348,9.797490,54.894791,9.789712
1390064928,3,0,0.0,0,3,0,0,352,400,-0.0292,61.9589,6.8213,0.4212,54.892601,9.793880,108.3,5.845,1.85,335.95,54.895348,9.797490,54.894791,9.789712
1390064928,3,0,0.0,0,2,4,0,336,350,-0.0292,61.2923,6.8213,0.4212,54.892605,9.793896,108.3,5.845,1.85,335.95,54.895348,9.797490,54.894791,9.789712
1390064928,3,0,0.0,0,1,0,0,325,300,-0.0292,60.9589,6.8213,0.4212,54.892612,9.793911,108.3,5.845,1.85,335.95,54.895348,9.797490,54.894791,9.789712
1390064929,3,0,0.0,0,1,4,0,320,350,-0.0292,60.6256,6.8213,0.4212,54.892616,9.793926,108.3,5.845,1.85,335.95,54.895348,9.797490,54.894791,9.789712
1390064929,3,0,0.0,0,1,0,0,315,300,-0.0292,60.2923,6.8213,0.4212,54.892620,9.793941,108.3,5.845,1.85,335.95,54.895348,9.797490,54.894791,9.789712
1390064929,3,0,0.0,0,0,4,0,310,350,-0.0292,60.2923,6.8213,0.4212,54.892624,9.793956,108.3,5.845,1.85,335.95,54.895348,9.797490,54.894791,9.789712
1390064929,3,0,0.0,0,0,0,0,310,300,-0.0292,60.2923,6.8213,0.4212,54.892628,9.793971,108.3,5.845,1.85,335.95,54.895348,9.797490,54.894791,9.789712
1390064930,3,0,0.0,0,0,4,0,310,350,-0.0292,60.2923,6.8213,0.4212,54.892635,9.793985,108.3,5.845,1.85,335.95,54.895348,9.797490,54.894791,9.789712
1390064930,3,0,0.0,0,0,0,0,310,300,-0.0292,60.2923,6.8213,0.4212,54.892639,9.794001,108.3,5.845,1.85,335.95,54.895348,9.797490,54.894791,9.789712
1390064930,3,0,0.0,0,0,4,0,310,350,-0.0292,60.2923,6.8213,0.4212,54.892643,9.794016,108.3,5.845,1.85,335.95,54.895348,9.797490,54.894791,9.789712
1390064930,3,0,0.0,0,0,0,0,310,300,-0.0292,60.2923,6.8213,0.4212,54.892647,9.794030,108.3,5.845,1.85,335.95,54.895348,9.797490,54.894791,9.789712
1390064931,3,0,0.0,0,0,4,0,310,350,-0.0292,60.2923,6.8213,0.4212,54.892651,9.794045,108.3,5.845,1.85,335.95,54.895348,9.797490,54.894791,9.789712
1390064931,3,0,0.0,0,0,0,0,310,300,-0.0292,60.2923,6.8213,0.4212,54.892658,9.794061,108.3,5.845,1.85,335.95,54.895348,9.797490,54.894791,9.789712
1390064931,3,0,0.0,0,0,4,0,310,350,-0.0292,60.2923,6.8213,0.4212,54.892666,9.794076,108.3,5.845,1.85,335.95,54.895348,9.797490,54.894791,9.789712
1390064931,3,0,0.0,0,0,0,0,310,300,-0.0292,60.2923,6.8213,0.4212,54.892670,9.794091,108.3,5.845,1.85,335.95,54.895348,9.797490,54.894791,9.789712
1390064932,3,0,0.0,0,0,4,0,310,350,-0.0292,60.2923,6.8213,0.4212,54.892673,9.794106,108.3,5.845,1.85,335.95,54.895348,9.797490,54.894791,9.789712
1390064932,3,0,0.0,0,0,0,0,310,300,-0.0292,60.2923,6.8213,0.4212,54.892677,9.794121,108.3,5.845,1.85,335.95,54.895348,9.797490,54.894791,9.789712
1390064932,3,0,0.0,0,10,4,0,310,350,-0.0292,56.9589,6.8213,0.4212,54.892685,9.794135,108.3,5.845,1.85,335.95,54.895348,9.797490,54.894791,9.789712
1390064932,3,0,0.0,0,7,8,0,258,300,-0.0292,54.6256,6.8213,0.4212,54.892689,9.794147,108.3,5.845,1.85,335.95,54.895348,9.797490,54.894791,9.789712
1390064933,3,0,0.0,0,5,4,0,223,250,-0.0292,52.9589,6.8213,0.4212,54.892693,9.794160,108.3,5.845,1.85,335.95,54.895348,9.797490,54.894791,9.789712
1390064933,3,0,0.0,0,3,0,0,198,200,-0.0292,51.9589,6.8213,0.4212,54.892696,9.794172,108.3,5.845,1.85,335.95,54.895348,9.797490,54.894791,9.789712
1390064933,3,0,0.0,0,2,4,0,184,150,-0.0292,51.2923,6.8213,0.4212,54.892700,9.794185,108.3,5.845,1.85,335.95,54.895348,9.797490,54.894791,9.789712
1390064933,3,0,0.0,0,1,0,0,174,200,-0.0292,50.9589,6.8213,0.4212,54.892708,9.794196,108.3,5.845,1.85,335.95,54.895348,9.797490,54.894791,9.789712
1390064934,3,0,0.0,0,1,4,0,170,150,-0.0292,50.6256,6.8213,0.4212,54.892712,9.794208,108.3,5.845,1.85,335.95,54.895348,9.797490,54.894791,9.789712
1390064934,3,0,0.0,0,1,0,0,165,200,-0.0292,50.2923,6.8213,0.4212,54.892715,9.794219,108.3,5.845,1.85,335.95,54.895348,9.797490,54.894791,9.789712
1390064934,3,0,0.0,0,0,4,0,160,150,-0.0292,50.2923,6.8213,0.4212,54.892719,9.794230,108.3,5.845,1.85,335.95,54.895348,9.797490,54.894791,9.789712
1390064934,3,0,0.0,0,0,0,0,160,200,-0.0292,50.2923,6.8213,0.4212,54.892723,9.794241,108.3,5.845,1.85,335.95,54.895348,9.797490,54.894791,9.789712
1390064935,3,0,0.0,0,0,4,0,160,150,-0.0292,50.2923,6.8213,0.4212,54.892731,9.794252,108.3,5.845,1.85,335.95,54.895348,9.797490,54.894791,9.789712
1390064935,3,0,0.0,0,0,0,0,160,200,-0.0292,50.2923,6.8213,0.4212,54.892738,9.794264,108.3,5.845,1.85,335.95,54.895348,9.797490,54.894791,9.789712
1390064935,3,0,0.0,0,0,4,0,160,150,-0.0292,50.2923,6.8213,0.4212,54.892742,9.794275,108.3,5.845,1.85,335.95,54.895348,9.797490,54.894791,9.789712
1390064935,3,0,0.0,0,0,0,0,160,200,-0.0292,50.2923,6.8213,0.4212,54.892746,9.794287,108.3,5.845,1.85,335.95,54.895348,9.797490,54.894791,9.789712
1390064936,3,0,0.0,0,0,4,0,160,150,-0.0292,50.2923,6.8213,0.4212,54.892750,9.794298,108.3,5.845,1.85,335.95,54.895348,9.797490,54.894791,9.789712
1390064936,3,0,0.0,0,0,0,0,160,200,-0.0292,50.2923,6.8213,0.4212,54.892757,9.794310,108.3,5.845,1.85,335.95,54.895348,9.797490,54.894791,9.789712
1390064936,3,0,0.0,0,0,4,0,160,150,-0.0292,50.2923,6.8213,0.4212,54.892761,9.794321,108.3,5.845,1.85,335.95,54.895348,9.797490,54.894791,9.789712
1390064936,3,0,0.0,0,0,0,0,160,200,-0.0292,50.2923,6.8213,0.4212,54.892765,9.794333,108.3,5.845,1.85,335.95,54.895348,9.797490,54.894791,9.789712
1390064937,3,0,0.0,0,0,4,0,160,150,-0.0292,50.2923,6.8213,0.4212,54.892769,9.794344,108.3,5.845,1.85,335.95,54.895348,9.797490,54.894791,9.789712
1390064937,3,0,0.0,0,0,0,0,160,200,-0.0292,50.2923,6.8213,0.4212,54.892773,9.794355,108.3,5.845,1.85,335.95,54.895348,9.797490,54.894791,9.789712
1390064937,3,0,0.0,0,10,4,0,160,150,-0.0292,46.9590,6.8213,0.4212,54.892780,9.794365,108.3,5.845,1.85,335.95,54.895348,9.797490,54.894791,9.789712
1390064937,3,0,0.0,0,7,8,0,116,100,-0.0292,44.6256,6.8213,0.4212,54.892788,9.794374,108.3,5.845,1.85,335.95,54.895348,9.797490,54.894791,9.789712
1390064938,3,0,0.0,0,5,4,0,88,50,-0.0292,42.9590,6.8213,0.4212,54.892792,9.794383,108.3,5.845,1.85,335.95,54.895348,9.797490,54.894791,9.789712
1390064938,3,0,0.0,0,3,0,0,70,100,-0.0292,41.9590,6.8213,0.4212,54.892796,9.794392,108.3,5.845,1.85,335.95,54.895348,9.797490,54.894791,9.789712
1390064938,3,0,0.0,0,2,4,0,59,50,-0.0292,41.2923,6.8213,0.4212,54.892803,9.794399,108.3,5.845,1.85,335.95,54.895348,9.797490,54.894791,9.789712
1390064938,3,0,0.0,0,1,0,0,53,100,-0.0292,40.9590,6.8213,0.4212,54.892811,9.794407,108.3,5.845,1.85,335.95,54.895348,9.797490,54.894791,9.789712
1390064939,3,0,0.0,0,1,4,0,50,50,-0.0292,40.6256,6.8213,0.4212,54.892815,9.794415,108.3,5.845,1.85,335.95,54.895348,9.797490,54.894791,9.789712
1390064939,3,0,0.0,0,1,0,0,47,0,-0.0292,40.2923,6.8213,0.4212,54.892818,9.794422,108.3,5.845,1.85,335.95,54.895348,9.797490,54.894791,9.789712
1390064939,3,0,0.0,0,0,4,0,44,50,-0.0292,40.2923,6.8213,0.4212,54.892822,9.794431,108.3,5.845,1.85,335.95,54.895348,9.797490,54.894791,9.789712
1390064939,3,0,0.0,0,0,0,0,44,0,-0.0292,40.2923,6.8213,0.4212,54.892830,9.794439,108.3,5.845,1.85,335.95,54.895348,9.797490,54.894791,9.789712
1390064940,3,0,0.0,0,0,4,0,44,50,-0.0292,40.2923,6.8213,0.4212,54.892838,9.794447,108.3,5.845,1.85,335.95,54.895348,9.797490,54.894791,9.789712
1390064940,3,0,0.0,0,0,0,0,44,0,-0.0292,40.2923,6.8213,0.4212,54.892841,9.794455,108.3,5.845,1.85,335.95,54.895348,9.797490,54.894791,9.789712
1390064940,3,0,0.0,0,0,4,0,44,50,-0.0292,40.2923,6.8213,0.4212,54.892845,9.794462,108.3,5.845,1.85,335.95,54.895348,9.797490,54.894791,9.789712
1390064940,3,0,0.0,0,0,0,0,44,0,-0.0292,40.2923,6.8213,0.4212,54.892853,9.794471,108.3,5.845,1.85,335.95,54.895348,9.797490,54.894791,9.789712
1390064941,3,0,0.0,0,0,4,0,44,50,-0.0292,40.2923,6.8213,0.4212,54.892860,9.794479,108.3,5.845,1.85,335.95,54.895348,9.797490,54.894791,9.789712
1390064941,3,0,0.0,0,0,0,0,44,0,-0.0292,40.2923,6.8213,0.4212,54.892864,9.794487,108.3,5.845,1.85,335.95,54.895348,9.797490,54.894791,9.789712
1390064941,3,0,0.0,0,0,4,0,44,50,-0.0292,40.2923,6.8213,0.4212,54.892868,9.794495,108.3,5.845,1.85,335.95,54.895348,9.797490,54.894791,9.789712
1390064941,3,0,0.0,0,0,0,0,44,0,-0.0292,40.2923,6.8213,0.4212,54.892872,9.794502,108.3,5.845,1.85,335.95,54.895348,9.797490,54.894791,9.789712
1390064942,3,0,0.0,0,0,4,0,44,50,-0.0292,40.2923,6.8213,0.4212,54.892879,9.794510,108.3,5.845,1.85,335.95,54.895348,9.797490,54.894791,9.789712
1390064942,3,0,0.0,0,0,0,0,44,0,-0.0292,40.2923,6.8213,0.4212,54.892887,9.794518,108.3,5.845,1.85,335.95,54.895348,9.797490,54.894791,9.789712
1390064942,3,0,0.0,0,10,4,0,44,50,-0.0292,36.9590,6.8213,0.4212,54.892891,9.794525,108.3,5.845,1.85,335.95,54.895348,9.797490,54.894791,9.789712
1390064942,3,0,0.0,0,7,8,0,19,0,-0.0292,34.6256,6.8213,0.4212,54.892895,9.794531,108.3,5.845,1.85,335.95,54.895348,9.797490,54.894791,9.789712
1390064943,3,0,0.0,0,5,4,0,7,50,-0.0292,32.9590,6.8213,0.4212,54.892899,9.794537,108.3,5.845,1.85,335.95,54.895348,9.797490,54.894791,9.789712
1390064943,3,0,0.0,0,3,0,0,2,0,-0.0292,31.9590,6.8213,0.4212,54.892906,9.794541,108.3,5.845,1.85,335.95,54.895348,9.797490,54.894791,9.789712
1390064943,3,0,0.0,0,2,4,0,1,50,-0.0292,31.2923,6.8213,0.4212,54.892910,9.794546,108.3,5.845,1.85,335.95,54.895348,9.797490,54.894791,9.789712
1390064943,3,0,0.0,0,1,0,0,0,0,-0.0292,30.9590,6.8213,0.4212,54.892914,9.794551,108.3,5.845,1.85,335.95,54.895348,9.797490,54.894791,9.789712
1390064944,3,0,0.0,0,1,4,0,0,0,-0.0292,30.6256,6.8213,0.4212,54.892918,9.794556,108.3,5.845,1.85,335.95,54.895348,9.797490,54.894791,9.789712
1390064944,3,0,0.0,0,1,0,0,0,0,-0.0292,30.2923,6.8213,0.4212,54.892921,9.794560,108.3,5.845,1.85,335.95,54.895348,9.797490,54.894791,9.789712
1390064944,3,0,0.0,0,0,4,0,0,0,-0.0292,30.2923,6.8213,0.4212,54.892925,9.794565,108.3,5.845,1.85,335.95,54.895348,9.797490,54.894791,9.789712
1390064944,3,0,0.0,0,0,0,0,0,0,-0.0292,30.2923,6.8213,0.4212,54.892933,9.794570,108.3,5.845,1.85,335.95,54.895348,9.797490,54.894791,9.789712
1390064945,3,0,0.0,0,0,4,0,0,0,-0.0292,30.2923,6.8213,0.4212,54.892937,9.794575,108.3,5.845,1.85,335.95,54.895348,9.797490,54.894791,9.789712
1390064945,3,0,0.0,0,0,0,0,0,0,-0.0292,30.2923,6.8213,0.4212,54.892941,9.794580,108.3,5.845,1.85,335.95,54.895348,9.797490,54.894791,9.789712
1390064945,3,0,0.0,0,0,4,0,0,0,-0.0292,30.2923,6.8213,0.4212,54.892944,9.794584,108.3,5.845,1.85,335.95,54.895348,9.797490,54.894791,9.789712
1390064945,3,0,0.0,0,0,0,0,0,0,-0.0292,30.2923,6.8213,0.4212,54.892948,9.794589,108.3,5.845,1.85,335.95,54.895348,9.797490,54.894791,9.789712
1390064946,3,0,0.0,0,0,4,0,0,0,-0.0292,30.2923,6.8213,0.4212,54.892956,9.794594,108.3,5.845,1.85,335.95,54.895348,9.797490,54.894791,9.789712
1390064946,3,0,0.0,0,0,0,0,0,0,-0.0292,30.2923,6.8213,0.4212,54.892960,9.794599,108.3,5.845,1.85,335.95,54.895348,9.797490,54.894791,9.789712
1390064946,3,0,0.0,0,0,4,0,0,0,-0.0292,30.2923,6.8213,0.4212,54.892963,9.794603,108.3,5.845,1.85,335.95,54.895348,9.797490,54.894791,9.789712
1390064946,3,0,0.0,0,0,0,0,0,0,-0.0292,30.2923,6.8213,0.4212,54.892967,9.794608,108.3,5.845,1.85,335.95,54.895348,9.797490,54.894791,9.789712
1390064947,3,0,0.0,0,0,4,0,0,0,-0.0292,30.2923,6.8213,0.4212,54.892971,9.794613,108.3,5.845,1.85,335.95,54.895348,9.797490,54.894791,9.789712
1390064947,3,0,0.0,0,0,0,0,0,0,-0.0292,30.2923,6.8213,0.4212,54.892975,9.794618,108.3,5.845,1.85,335.95,54.895348,9.797490,54.894791,9.789712
1390064947,3,0,0.0,0,10,4,0,0,0,-0.0292,26.9590,6.8213,0.4212,54.892982,9.794621,108.3,5.845,1.85,335.95,54.895348,9.797490,54.894791,9.789712
1390064947,3,0,0.0,0,7,8,0,0,0,-0.0292,24.6256,6.8213,0.4212,54.892986,9.794624,108.3,5.845,1.85,335.95,54.895348,9.797490,54.894791,9.789712
1390064948,3,0,0.0,0,5,4,0,0,0,-0.0292,22.9590,6.8213,0.4212,54.892990,9.794627,108.3,5.845,1.85,335.95,54.895348,9.797490,54.894791,9.789712
1390064948,3,0,0.0,0,3,0,0,0,0,-0.0292,21.9590,6.8213,0.4212,54.892994,9.794630,108.3,5.845,1.85,335.95,54.895348,9.797490,54.894791,9.789712
1390064948,3,0,0.0,0,2,4,0,0,0,-0.0292,21.2923,6.8213,0.4212,54.892998,9.794633,108.3,5.845,1.85,335.95,54.895348,9.797490,54.894791,9.789712
1390064948,3,0,0.0,0,1,0,0,0,0,-0.0292,20.9590,6.8213,0.4212,54.893002,9.794636,108.3,5.845,1.85,335.95,54.895348,9.797490,54.894791,9.789712
1390064949,3,0,0.0,0,1,4,0,0,0,-0.0292,20.6256,6.8213,0.4212,54.893005,9.794639,108.3,5.845,1.85,335.95,54.895348,9.797490,54.894791,9.789712
1390064949,3,0,0.0,0,1,0,0,0,0,-0.0292,20.2923,6.8213,0.4212,54.893005,9.794641,108.3,5.845,1.85,335.95,54.895348,9.797490,54.894791,9.789712
1390064949,3,0,0.0,0,0,4,0,0,0,-0.0292,20.2923,6.8213,0.4212,54.893005,9.794644,108.3,5.845,1.85,335.95,54.895348,9.797490,54.894791,9.789712
1390064949,3,0,0.0,0,0,0,0,0,0,-0.0292,20.2923,6.8213,0.4212,54.893005,9.794647,108.3,5.845,1.85,335.95,54.895348,9.797490,54.894791,9.789712
1390064950,3,0,0.0,0,0,4,0,0,0,-0.0292,20.2923,6.8213,0.4212,54.893005,9.794649,108.3,5.845,1.85,335.95,54.895348,9.797490,54.894791,9.789712
1390064950,3,0,0.0,0,0,0,0,0,0,-0.0292,20.2923,6.8213,0.4212,54.893005,9.794651,108.3,5.845,1.85,335.95,54.895348,9.797490,54.894791,9.789712
1390064950,3,0,0.0,0,0,4,0,0,0,-0.0292,20.2923,6.8213,0.4212,54.893005,9.794653,108.3,5.845,1.85,335.95,54.895348,9.797490,54.894791,9.789712
1390064950,3,0,0.0,0,0,0,0,0,0,-0.0292,20.2923,6.8213,0.4212,54.893005,9.794655,108.3,5.845,1.85,335.95,54.895348,9.797490,54.894791,9.789712
1390064951,3,0,0.0,0,0,4,0,0,0,-0.0292,20.2923,6.8213,0.4212,54.893005,9.794657,108.3,5.845,1.85,335.95,54.895348,9.797490,54.894791,9.789712
1390064951,3,0,0.0,0,0,0,0,0,0,-0.0292,20.2923,6.8213,0.4212,54.893005,9.794659,108.3,5.845,1.85,335.95,54.895348,9.797490,54.894791,9.789712
