MCU_timestamp,Navigation_System,Manual_Control,Guidance_Heading,Manual_Ctrl_Rudder,Rudder_Desired_Angle,Rudder_Feedback,Manual_Ctrl_Sail,Sail_Desired_Pos,Sail_Feedback,Rate,Heading,Pitch,Roll,Latitude,Longitude,COG,SOG,Wind_Speed,Wind_Angle,Point_Start_Lat,Point_Start_Lon,Point_End_Lat,Point_End_Lon
1386871719,1,0,485.9,0,35,4,0,409,25,-0.0292,527.3589,6.8213,0.4212,54.890018,9.803485,108.3,5.845,1.85,335.95,54.890038,9.803478,0.000000,0.000000
1386871720,1,0,485.9,0,35,8,0,409,50,-0.0292,518.0256,6.8213,0.4212,54.890003,9.803496,108.3,5.845,1.85,335.95,54.890038,9.803478,0.000000,0.000000
1386871720,1,0,485.9,0,32,12,0,0,25,-0.0292,509.4922,6.8213,0.4212,54.889984,9.803513,108.3,5.845,1.85,335.95,54.890038,9.803478,0.000000,0.000000
1386871720,1,0,485.9,0,24,16,0,0,0,-0.0292,503.0923,6.8213,0.4212,54.889969,9.803532,108.3,5.845,1.85,335.95,54.890038,9.803478,0.000000,0.000000
1386871720,1,0,485.9,0,17,20,0,409,25,-0.0292,498.5589,6.8213,0.4212,54.889957,9.803552,108.3,5.845,1.85,335.95,54.890038,9.803478,0.000000,0.000000
1386871721,1,0,485.9,0,13,16,0,409,50,-0.0292,495.0923,6.8213,0.4212,54.889942,9.803574,108.3,5.845,1.85,335.95,54.890038,9.803478,0.000000,0.000000
1386871721,1,0,485.9,0,9,12,0,409,75,-0.0292,492.6923,6.8213,0.4212,54.889931,9.803596,108.3,5.845,1.85,335.95,54.890038,9.803478,0.000000,0.000000
1386871721,1,0,485.9,0,7,8,0,409,100,-0.0292,490.8256,6.8213,0.4212,54.889915,9.803620,108.3,5.845,1.85,335.95,54.890038,9.803478,0.000000,0.000000
1386871721,1,0,485.9,0,5,4,0,409,125,-0.0292,489.4922,6.8213,0.4212,54.889904,9.803644,108.3,5.845,1.85,335.95,54.890038,9.803478,0.000000,0.000000
1386871722,1,0,485.9,0,4,8,0,409,150,-0.0292,488.4256,6.8213,0.4212,54.889896,9.803669,108.3,5.845,1.85,335.95,54.890038,9.803478,0.000000,0.000000
1386871722,1,0,485.9,0,2,4,0,409,175,-0.0292,487.8922,6.8213,0.4212,54.889885,9.803694,108.3,5.845,1.85,335.95,54.890038,9.803478,0.000000,0.000000
1386871722,1,0,485.9,0,2,0,0,409,200,-0.0292,487.3589,6.8213,0.4212,54.889874,9.803719,108.3,5.845,1.85,335.95,54.890038,9.803478,0.000000,0.000000
1386871722,1,0,485.9,0,1,4,0,409,225,-0.0292,487.0923,6.8213,0.4212,54.889862,9.803743,108.3,5.845,1.85,335.95,54.890038,9.803478,0.000000,0.000000
1386871723,1,0,485.9,0,1,0,0,409,250,-0.0292,486.8256,6.8213,0.4212,54.889851,9.803768,108.3,5.845,1.85,335.95,54.890038,9.803478,0.000000,0.000000
1386871723,1,0,485.9,0,1,4,0,409,275,-0.0292,486.5589,6.8213,0.4212,54.889843,9.803794,108.3,5.845,1.85,335.95,54.890038,9.803478,0.000000,0.000000
1386871723,1,0,485.9,0,1,0,0,409,300,-0.0292,486.2923,6.8213,0.4212,54.889832,9.803819,108.3,5.845,1.85,335.95,54.890038,9.803478,0.000000,0.000000
1386871723,0,0,485.9,0,1,0,0,409,300,-0.0292,486.2923,6.8213,0.4212,54.889832,9.803819,108.3,5.845,1.85,335.95,54.890038,9.803478,0.000000,0.000000
1386871724,0,0,485.9,0,1,0,0,409,300,-0.0292,486.2923,6.8213,0.4212,54.889832,9.803819,108.3,5.845,1.85,335.95,54.890038,9.803478,0.000000,0.000000
1386871724,0,0,485.9,0,1,0,0,409,300,-0.0292,486.2923,6.8213,0.4212,54.889832,9.803819,108.3,5.845,1.85,335.95,54.890038,9.803478,0.000000,0.000000
1386871724,0,0,485.9,0,1,0,0,409,300,-0.0292,486.2923,6.8213,0.4212,54.889832,9.803819,108.3,5.845,1.85,335.95,54.890038,9.803478,0.000000,0.000000
1386871724,0,0,485.9,0,1,0,0,409,300,-0.0292,486.2923,6.8213,0.4212,54.889832,9.803819,108.3,5.845,1.85,335.95,54.890038,9.803478,0.000000,0.000000
1386871725,0,0,485.9,0,1,0,0,409,300,-0.0292,486.2923,6.8213,0.4212,54.889832,9.803819,108.3,5.845,1.85,335.95,54.890038,9.803478,0.000000,0.000000
1386871725,4,0,485.9,0,1,0,0,409,300,-0.0292,486.2923,6.8213,0.4212,54.889832,9.803819,108.3,5.845,1.85,335.95,54.890038,9.803478,0.000000,0.000000
1386871725,1,0,485.9,0,0,4,0,409,325,-0.0292,486.2923,6.8213,0.4212,54.889820,9.803844,108.3,5.845,1.85,335.95,54.889832,9.803819,54.895069,9.793790
1386871725,1,0,485.9,0,0,0,0,409,350,-0.0292,486.2923,6.8213,0.4212,54.889809,9.803869,108.3,5.845,1.85,335.95,54.889832,9.803819,54.895069,9.793790
1386871726,1,0,485.9,0,0,4,0,409,375,-0.0292,486.2923,6.8213,0.4212,54.889797,9.803894,108.3,5.845,1.85,335.95,54.889832,9.803819,54.895069,9.793790
1386871726,1,0,485.9,0,0,0,0,409,400,-0.0292,486.2923,6.8213,0.4212,54.889786,9.803920,108.3,5.845,1.85,335.95,54.889832,9.803819,54.895069,9.793790
1386871726,1,0,485.9,0,0,4,0,0,375,-0.0292,486.2923,6.8213,0.4212,54.889774,9.803945,108.3,5.845,1.85,335.95,54.889832,9.803819,54.895069,9.793790
1386871726,1,0,485.9,0,0,0,0,0,350,-0.0292,486.2923,6.8213,0.4212,54.889763,9.803970,108.3,5.845,1.85,335.95,54.889832,9.803819,54.895069,9.793790
1386871727,1,0,485.9,0,0,4,0,0,325,-0.0292,486.2923,6.8213,0.4212,54.889751,9.803995,108.3,5.845,1.85,335.95,54.889832,9.803819,54.895069,9.793790
1386871727,1,0,485.9,0,0,0,0,0,300,-0.0292,486.2923,6.8213,0.4212,54.889744,9.804020,108.3,5.845,1.85,335.95,54.889832,9.803819,54.895069,9.793790
1386871727,1,0,485.9,0,0,4,0,0,275,-0.0292,486.2923,6.8213,0.4212,54.889732,9.804046,108.3,5.845,1.85,335.95,54.889832,9.803819,54.895069,9.793790
1386871727,1,0,485.9,0,0,0,0,0,250,-0.0292,486.2923,6.8213,0.4212,54.889721,9.804070,108.3,5.845,1.85,335.95,54.889832,9.803819,54.895069,9.793790
1386871728,1,0,485.9,0,0,4,0,0,225,-0.0292,486.2923,6.8213,0.4212,54.889709,9.804096,108.3,5.845,1.85,335.95,54.889832,9.803819,54.895069,9.793790
1386871728,1,0,485.9,0,0,0,0,0,200,-0.0292,486.2923,6.8213,0.4212,54.889698,9.804121,108.3,5.845,1.85,335.95,54.889832,9.803819,54.895069,9.793790
1386871728,1,0,485.9,0,0,4,0,0,175,-0.0292,486.2923,6.8213,0.4212,54.889687,9.804146,108.3,5.845,1.85,335.95,54.889832,9.803819,54.895069,9.793790
1386871728,1,0,485.9,0,0,0,0,0,150,-0.0292,486.2923,6.8213,0.4212,54.889675,9.804171,108.3,5.845,1.85,335.95,54.889832,9.803819,54.895069,9.793790
1386871729,1,0,485.9,0,0,4,0,0,125,-0.0292,486.2923,6.8213,0.4212,54.889664,9.804195,108.3,5.845,1.85,335.95,54.889832,9.803819,54.895069,9.793790
1386871729,1,0,485.9,0,0,0,0,0,100,-0.0292,486.2923,6.8213,0.4212,54.889652,9.804221,108.3,5.845,1.85,335.95,54.889832,9.803819,54.895069,9.793790
1386871729,1,0,485.9,0,0,4,0,0,75,-0.0292,486.2923,6.8213,0.4212,54.889645,9.804246,108.3,5.845,1.85,335.95,54.889832,9.803819,54.895069,9.793790
1386871729,1,0,485.9,0,0,0,0,0,50,-0.0292,486.2923,6.8213,0.4212,54.889633,9.804272,108.3,5.845,1.85,335.95,54.889832,9.803819,54.895069,9.793790
1386871730,1,0,485.9,0,0,4,0,0,25,-0.0292,486.2923,6.8213,0.4212,54.889626,9.804296,108.3,5.845,1.85,335.95,54.889832,9.803819,54.895069,9.793790
1386871730,1,0,485.9,0,0,0,0,0,0,-0.0292,486.2923,6.8213,0.4212,54.889614,9.804321,108.3,5.845,1.85,335.95,54.889832,9.803819,54.895069,9.793790
1386871730,1,0,485.9,0,0,4,0,0,25,-0.0292,486.2923,6.8213,0.4212,54.889603,9.804347,108.3,5.845,1.85,335.95,54.889832,9.803819,54.895069,9.793790
1386871730,1,0,545.9,0,-35,0,0,0,0,-0.0292,495.6256,6.8213,0.4212,54.889591,9.804369,108.3,5.845,1.85,335.95,54.889832,9.803819,54.895069,9.793790
1386871731,1,0,545.9,0,-35,-4,0,0,25,-0.0292,504.9590,6.8213,0.4212,54.889576,9.804387,108.3,5.845,1.85,335.95,54.889832,9.803819,54.895069,9.793790
1386871731,1,0,545.9,0,-35,-8,0,0,0,-0.0292,514.2923,6.8213,0.4212,54.889561,9.804400,108.3,5.845,1.85,335.95,54.889832,9.803819,54.895069,9.793790
1386871731,1,0,545.9,0,-32,-12,0,0,25,-0.0292,522.8256,6.8213,0.4212,54.889542,9.804410,108.3,5.845,1.85,335.95,54.889832,9.803819,54.895069,9.793790
1386871731,1,0,545.9,0,-23,-16,0,0,0,-0.0292,528.9590,6.8213,0.4212,54.889523,9.804417,108.3,5.845,1.85,335.95,54.889832,9.803819,54.895069,9.793790
1386871732,1,0,545.9,0,-17,-20,0,0,25,-0.0292,533.4923,6.8213,0.4212,54.889503,9.804420,108.3,5.845,1.85,335.95,54.889832,9.803819,54.895069,9.793790
1386871732,1,0,545.9,0,-12,-16,0,0,0,-0.0292,536.6923,6.8213,0.4212,54.889488,9.804421,108.3,5.845,1.85,335.95,54.889832,9.803819,54.895069,9.793790
1386871732,1,0,545.9,0,-9,-12,0,0,25,-0.0292,539.0923,6.8213,0.4212,54.889469,9.804421,108.3,5.845,1.85,335.95,54.889832,9.803819,54.895069,9.793790
1386871732,1,0,545.9,0,-7,-8,0,409,50,-0.0292,540.9590,6.8213,0.4212,54.889450,9.804420,108.3,5.845,1.85,335.95,54.889832,9.803819,54.895069,9.793790
1386871733,1,0,545.9,0,-5,-4,0,409,75,-0.0292,542.2923,6.8213,0.4212,54.889431,9.804419,108.3,5.845,1.85,335.95,54.889832,9.803819,54.895069,9.793790
1386871733,1,0,545.9,0,-4,0,0,409,100,-0.0292,543.3589,6.8213,0.4212,54.889416,9.804418,108.3,5.845,1.85,335.95,54.889832,9.803819,54.895069,9.793790
1386871733,1,0,545.9,0,-3,-4,0,409,125,-0.0292,544.1589,6.8213,0.4212,54.889397,9.804416,108.3,5.845,1.85,335.95,54.889832,9.803819,54.895069,9.793790
1386871733,1,0,545.9,0,-2,0,0,409,150,-0.0292,544.6923,6.8213,0.4212,54.889378,9.804414,108.3,5.845,1.85,335.95,54.889832,9.803819,54.895069,9.793790
1386871734,1,0,545.9,0,-1,-4,0,409,175,-0.0292,544.9589,6.8213,0.4212,54.889359,9.804412,108.3,5.845,1.85,335.95,54.889832,9.803819,54.895069,9.793790
1386871734,1,0,545.9,0,-1,0,0,409,200,-0.0292,545.2256,6.8213,0.4212,54.889343,9.804409,108.3,5.845,1.85,335.95,54.889832,9.803819,54.895069,9.793790
1386871734,1,0,545.9,0,-1,-4,0,409,225,-0.0292,545.4922,6.8213,0.4212,54.889324,9.804406,108.3,5.845,1.85,335.95,54.889832,9.803819,54.895069,9.793790
1386871734,1,0,545.9,0,0,0,0,409,250,-0.0292,545.4922,6.8213,0.4212,54.889305,9.804403,108.3,5.845,1.85,335.95,54.889832,9.803819,54.895069,9.793790
1386871735,1,0,545.9,0,0,4,0,409,275,-0.0292,545.4922,6.8213,0.4212,54.889286,9.804400,108.3,5.845,1.85,335.95,54.889832,9.803819,54.895069,9.793790
1386871735,1,0,545.9,0,0,0,0,409,300,-0.0292,545.4922,6.8213,0.4212,54.889271,9.804398,108.3,5.845,1.85,335.95,54.889832,9.803819,54.895069,9.793790
1386871735,1,0,545.9,0,0,4,0,409,325,-0.0292,545.4922,6.8213,0.4212,54.889252,9.804395,108.3,5.845,1.85,335.95,54.889832,9.803819,54.895069,9.793790
1386871735,1,0,545.9,0,0,0,0,409,350,-0.0292,545.4922,6.8213,0.4212,54.889233,9.804392,108.3,5.845,1.85,335.95,54.889832,9.803819,54.895069,9.793790
1386871736,1,0,280.9,0,-35,-4,0,409,375,-0.0292,554.8256,6.8213,0.4212,54.889217,9.804383,108.3,5.845,1.85,335.95,54.889832,9.803819,54.895069,9.793790
1386871736,1,0,280.9,0,-35,-8,0,409,400,-0.0292,564.1589,6.8213,0.4212,54.889198,9.804370,108.3,5.845,1.85,335.95,54.889832,9.803819,54.895069,9.793790
1386871736,1,0,280.9,0,-35,-12,0,578,425,-0.0292,573.4922,6.8213,0.4212,54.889183,9.804353,108.3,5.845,1.85,335.95,54.889832,9.803819,54.895069,9.793790
1386871736,1,0,280.9,0,-35,-16,0,513,450,-0.0292,582.8255,6.8213,0.4212,54.889172,9.804332,108.3,5.845,1.85,335.95,54.889832,9.803819,54.895069,9.793790
1386871737,1,0,280.9,0,-35,-20,0,436,425,-0.0292,592.1588,6.8213,0.4212,54.889160,9.804308,108.3,5.845,1.85,335.95,54.889832,9.803819,54.895069,9.793790
1386871737,1,0,280.9,0,-35,-24,0,355,400,-0.0292,601.4921,6.8213,0.4212,54.889153,9.804280,108.3,5.845,1.85,335.95,54.889832,9.803819,54.895069,9.793790
1386871737,1,0,280.9,0,-35,-28,0,270,375,-0.0292,610.8254,6.8213,0.4212,54.889145,9.804251,108.3,5.845,1.85,335.95,54.889832,9.803819,54.895069,9.793790
1386871737,1,0,280.9,0,-30,-32,0,184,350,-0.0292,618.8254,6.8213,0.4212,54.889141,9.804219,108.3,5.845,1.85,335.95,54.889832,9.803819,54.895069,9.793790
1386871738,1,0,280.9,0,-22,-28,0,114,325,-0.0292,624.6921,6.8213,0.4212,54.889141,9.804188,108.3,5.845,1.85,335.95,54.889832,9.803819,54.895069,9.793790
1386871738,1,0,280.9,0,-16,-24,0,68,300,-0.0292,628.9587,6.8213,0.4212,54.889141,9.804156,108.3,5.845,1.85,335.95,54.889832,9.803819,54.895069,9.793790
1386871738,1,0,280.9,0,-12,-20,0,39,275,-0.0292,632.1588,6.8213,0.4212,54.889145,9.804126,108.3,5.845,1.85,335.95,54.889832,9.803819,54.895069,9.793790
1386871738,1,0,280.9,0,-9,-16,0,22,250,-0.0292,634.5588,6.8213,0.4212,54.889145,9.804094,108.3,5.845,1.85,335.95,54.889832,9.803819,54.895069,9.793790
1386871739,1,0,280.9,0,-6,-12,0,12,225,-0.0292,636.1588,6.8213,0.4212,54.889145,9.804063,108.3,5.845,1.85,335.95,54.889832,9.803819,54.895069,9.793790
1386871739,1,0,280.9,0,-5,-8,0,6,200,-0.0292,637.4921,6.8213,0.4212,54.889145,9.804032,108.3,5.845,1.85,335.95,54.889832,9.803819,54.895069,9.793790
1386871739,1,0,280.9,0,-3,-4,0,3,175,-0.0292,638.2921,6.8213,0.4212,54.889145,9.804002,108.3,5.845,1.85,335.95,54.889832,9.803819,54.895069,9.793790
1386871739,1,0,280.9,0,-3,0,0,2,150,-0.0292,639.0920,6.8213,0.4212,54.889145,9.803970,108.3,5.845,1.85,335.95,54.889832,9.803819,54.895069,9.793790
1386871740,1,0,545.9,0,35,4,0,1,125,-0.0292,629.7587,6.8213,0.4212,54.889145,9.803939,108.3,5.845,1.85,335.95,54.889832,9.803819,54.895069,9.793790
1386871740,1,0,545.9,0,35,8,0,35,100,-0.0292,620.4254,6.8213,0.4212,54.889141,9.803908,108.3,5.845,1.85,335.95,54.889832,9.803819,54.895069,9.793790
1386871740,1,0,545.9,0,35,12,0,101,125,-0.0292,611.0921,6.8213,0.4212,54.889137,9.803879,108.3,5.845,1.85,335.95,54.889832,9.803819,54.895069,9.793790
1386871740,1,0,545.9,0,35,16,0,182,150,-0.0292,601.7588,6.8213,0.4212,54.889130,9.803851,108.3,5.845,1.85,335.95,54.889832,9.803819,54.895069,9.793790
1386871741,1,0,545.9,0,35,20,0,267,175,-0.0292,592.4255,6.8213,0.4212,54.889118,9.803826,108.3,5.845,1.85,335.95,54.889832,9.803819,54.895069,9.793790
1386871741,1,0,545.9,0,35,24,0,352,200,-0.0292,583.0922,6.8213,0.4212,54.889103,9.803804,108.3,5.845,1.85,335.95,54.889832,9.803819,54.895069,9.793790
1386871741,1,0,545.9,0,35,28,0,434,225,-0.0292,573.7589,6.8213,0.4212,54.889088,9.803787,108.3,5.845,1.85,335.95,54.889832,9.803819,54.895069,9.793790
1386871742,1,0,545.9,0,28,32,0,511,250,-0.0292,566.2922,6.8213,0.4212,54.889072,9.803773,108.3,5.845,1.85,335.95,54.889832,9.803819,54.895069,9.793790
1386871742,1,0,545.9,0,20,28,0,567,275,-0.0292,560.9589,6.8213,0.4212,54.889053,9.803762,108.3,5.845,1.85,335.95,54.889832,9.803819,54.895069,9.793790
1386871742,1,0,545.9,0,15,24,0,578,300,-0.0292,556.9589,6.8213,0.4212,54.889034,9.803754,108.3,5.845,1.85,335.95,54.889832,9.803819,54.895069,9.793790
1386871742,1,0,545.9,0,11,20,0,409,325,-0.0292,554.0255,6.8213,0.4212,54.889019,9.803746,108.3,5.845,1.85,335.95,54.889832,9.803819,54.895069,9.793790
1386871743,1,0,545.9,0,8,16,0,409,350,-0.0292,551.8922,6.8213,0.4212,54.889000,9.803740,108.3,5.845,1.85,335.95,54.889832,9.803819,54.895069,9.793790
1386871743,1,0,545.9,0,6,12,0,0,325,-0.0292,550.2922,6.8213,0.4212,54.888981,9.803734,108.3,5.845,1.85,335.95,54.889832,9.803819,54.895069,9.793790
1386871743,1,0,545.9,0,4,8,0,0,300,-0.0292,549.2255,6.8213,0.4212,54.888962,9.803728,108.3,5.845,1.85,335.95,54.889832,9.803819,54.895069,9.793790
1386871743,1,0,545.9,0,3,4,0,0,275,-0.0292,548.4255,6.8213,0.4212,54.888947,9.803724,108.3,5.845,1.85,335.95,54.889832,9.803819,54.895069,9.793790
1386871744,1,0,545.9,0,2,0,0,0,250,-0.0292,547.8922,6.8213,0.4212,54.888927,9.803720,108.3,5.845,1.85,335.95,54.889832,9.803819,54.895069,9.793790
1386871744,1,0,545.9,0,2,4,0,0,225,-0.0292,547.3589,6.8213,0.4212,54.888908,9.803717,108.3,5.845,1.85,335.95,54.889832,9.803819,54.895069,9.793790
1386871744,1,0,545.9,0,1,0,0,0,200,-0.0292,547.0922,6.8213,0.4212,54.888889,9.803713,108.3,5.845,1.85,335.95,54.889832,9.803819,54.895069,9.793790
1386871744,1,0,545.9,0,1,4,0,0,175,-0.0292,546.8256,6.8213,0.4212,54.888874,9.803709,108.3,5.845,1.85,335.95,54.889832,9.803819,54.895069,9.793790
1386871745,1,0,545.9,0,1,0,0,0,150,-0.0292,546.5589,6.8213,0.4212,54.888855,9.803705,108.3,5.845,1.85,335.95,54.889832,9.803819,54.895069,9.793790
1386871745,1,0,545.9,0,1,4,0,0,125,-0.0292,546.2922,6.8213,0.4212,54.888836,9.803701,108.3,5.845,1.85,335.95,54.889832,9.803819,54.895069,9.793790
1386871745,1,0,545.9,0,0,0,0,0,100,-0.0292,546.2922,6.8213,0.4212,54.888817,9.803698,108.3,5.845,1.85,335.95,54.889832,9.803819,54.895069,9.793790
1386871745,1,0,545.9,0,0,4,0,0,75,-0.0292,546.2922,6.8213,0.4212,54.888802,9.803694,108.3,5.845,1.85,335.95,54.889832,9.803819,54.895069,9.793790
1386871746,1,0,545.9,0,0,0,0,0,50,-0.0292,546.2922,6.8213,0.4212,54.888783,9.803690,108.3,5.845,1.85,335.95,54.889832,9.803819,54.895069,9.793790
1386871746,1,0,545.9,0,0,4,0,0,25,-0.0292,546.2922,6.8213,0.4212,54.888763,9.803687,108.3,5.845,1.85,335.95,54.889832,9.803819,54.895069,9.793790
1386871746,1,0,545.9,0,0,0,0,0,0,-0.0292,546.2922,6.8213,0.4212,54.888744,9.803684,108.3,5.845,1.85,335.95,54.889832,9.803819,54.895069,9.793790
1386871746,1,0,545.9,0,0,4,0,0,25,-0.0292,546.2922,6.8213,0.4212,54.888729,9.803681,108.3,5.845,1.85,335.95,54.889832,9.803819,54.895069,9.793790
1386871747,1,0,485.9,0,35,8,0,0,0,-0.0292,536.9589,6.8213,0.4212,54.888710,9.803683,108.3,5.845,1.85,335.95,54.889832,9.803819,54.895069,9.793790
1386871747,1,0,485.9,0,35,12,0,0,25,-0.0292,527.6256,6.8213,0.4212,54.888691,9.803690,108.3,5.845,1.85,335.95,54.889832,9.803819,54.895069,9.793790
1386871747,1,0,485.9,0,35,16,0,0,0,-0.0292,518.2923,6.8213,0.4212,54.888676,9.803702,108.3,5.845,1.85,335.95,54.889832,9.803819,54.895069,9.793790
1386871747,1,0,485.9,0,32,20,0,0,25,-0.0292,509.7590,6.8213,0.4212,54.888657,9.803718,108.3,5.845,1.85,335.95,54.889832,9.803819,54.895069,9.793790
1386871748,1,0,485.9,0,24,24,0,0,0,-0.0292,503.3590,6.8213,0.4212,54.888641,9.803737,108.3,5.845,1.85,335.95,54.889832,9.803819,54.895069,9.793790
1386871748,1,0,485.9,0,17,20,0,0,25,-0.0292,498.8257,6.8213,0.4212,54.888630,9.803757,108.3,5.845,1.85,335.95,54.889832,9.803819,54.895069,9.793790
1386871748,1,0,485.9,0,13,16,0,0,0,-0.0292,495.3590,6.8213,0.4212,54.888615,9.803779,108.3,5.845,1.85,335.95,54.889832,9.803819,54.895069,9.793790
1386871748,1,0,485.9,0,9,12,0,0,25,-0.0292,492.9590,6.8213,0.4212,54.888603,9.803801,108.3,5.845,1.85,335.95,54.889832,9.803819,54.895069,9.793790
1386871749,1,0,485.9,0,7,8,0,409,50,-0.0292,491.0923,6.8213,0.4212,54.888588,9.803824,108.3,5.845,1.85,335.95,54.889832,9.803819,54.895069,9.793790
1386871749,1,0,485.9,0,5,4,0,409,75,-0.0292,489.7590,6.8213,0.4212,54.888577,9.803848,108.3,5.845,1.85,335.95,54.889832,9.803819,54.895069,9.793790
1386871749,1,0,485.9,0,4,8,0,409,100,-0.0292,488.6923,6.8213,0.4212,54.888561,9.803873,108.3,5.845,1.85,335.95,54.889832,9.803819,54.895069,9.793790
1386871749,1,0,485.9,0,3,4,0,409,125,-0.0292,487.8923,6.8213,0.4212,54.888550,9.803898,108.3,5.845,1.85,335.95,54.889832,9.803819,54.895069,9.793790
1386871750,1,0,485.9,0,2,0,0,409,150,-0.0292,487.3590,6.8213,0.4212,54.888542,9.803923,108.3,5.845,1.85,335.95,54.889832,9.803819,54.895069,9.793790
1386871750,1,0,485.9,0,1,4,0,409,175,-0.0292,487.0923,6.8213,0.4212,54.888531,9.803947,108.3,5.845,1.85,335.95,54.889832,9.803819,54.895069,9.793790
1386871750,1,0,485.9,0,1,0,0,409,200,-0.0292,486.8257,6.8213,0.4212,54.888519,9.803973,108.3,5.845,1.85,335.95,54.889832,9.803819,54.895069,9.793790
1386871750,1,0,485.9,0,1,4,0,409,225,-0.0292,486.5590,6.8213,0.4212,54.888508,9.803998,108.3,5.845,1.85,335.95,54.889832,9.803819,54.895069,9.793790
1386871751,1,0,485.9,0,1,0,0,409,250,-0.0292,486.2923,6.8213,0.4212,54.888496,9.804023,108.3,5.845,1.85,335.95,54.889832,9.803819,54.895069,9.793790
1386871751,1,0,485.9,0,0,4,0,409,275,-0.0292,486.2923,6.8213,0.4212,54.888489,9.804049,108.3,5.845,1.85,335.95,54.889832,9.803819,54.895069,9.793790
1386871751,1,0,485.9,0,0,0,0,409,300,-0.0292,486.2923,6.8213,0.4212,54.888477,9.804073,108.3,5.845,1.85,335.95,54.889832,9.803819,54.895069,9.793790
1386871751,1,0,485.9,0,0,4,0,409,325,-0.0292,486.2923,6.8213,0.4212,54.888470,9.804099,108.3,5.845,1.85,335.95,54.889832,9.803819,54.895069,9.793790
1386871752,1,0,390.9,0,35,8,0,409,350,-0.0292,476.9590,6.8213,0.4212,54.888462,9.804127,108.3,5.845,1.85,335.95,54.889832,9.803819,54.895069,9.793790
1386871752,1,0,390.9,0,35,12,0,409,375,-0.0292,467.6256,6.8213,0.4212,54.888454,9.804156,108.3,5.845,1.85,335.95,54.889832,9.803819,54.895069,9.793790
1386871752,1,0,390.9,0,35,16,0,578,400,-0.0292,458.2923,6.8213,0.4212,54.888451,9.804188,108.3,5.845,1.85,335.95,54.889832,9.803819,54.895069,9.793790
1386871752,1,0,390.9,0,35,20,0,512,425,-0.0292,448.9590,6.8213,0.4212,54.888454,9.804219,108.3,5.845,1.85,335.95,54.889832,9.803819,54.895069,9.793790
1386871753,1,0,390.9,0,35,24,0,435,450,-0.0292,439.6256,6.8213,0.4212,54.888454,9.804250,108.3,5.845,1.85,335.95,54.889832,9.803819,54.895069,9.793790
1386871753,1,0,390.9,0,35,28,0,354,425,-0.0292,430.2923,6.8213,0.4212,54.888458,9.804278,108.3,5.845,1.85,335.95,54.889832,9.803819,54.895069,9.793790
1386871753,1,0,390.9,0,35,32,0,269,400,-0.0292,420.9589,6.8213,0.4212,54.888466,9.804306,108.3,5.845,1.85,335.95,54.889832,9.803819,54.895069,9.793790
1386871753,1,0,390.9,0,30,28,0,183,375,-0.0292,412.9589,6.8213,0.4212,54.888477,9.804331,108.3,5.845,1.85,335.95,54.889832,9.803819,54.895069,9.793790
1386871754,1,0,390.9,0,22,24,0,113,350,-0.0292,407.0923,6.8213,0.4212,54.888493,9.804354,108.3,5.845,1.85,335.95,54.889832,9.803819,54.895069,9.793790
1386871754,1,0,390.9,0,16,20,0,67,325,-0.0292,402.8256,6.8213,0.4212,54.888508,9.804375,108.3,5.845,1.85,335.95,54.889832,9.803819,54.895069,9.793790
1386871754,1,0,390.9,0,12,16,0,39,300,-0.0292,399.6256,6.8213,0.4212,54.888519,9.804395,108.3,5.845,1.85,335.95,54.889832,9.803819,54.895069,9.793790
1386871754,1,0,390.9,0,9,12,0,21,275,-0.0292,397.2256,6.8213,0.4212,54.888535,9.804414,108.3,5.845,1.85,335.95,54.889832,9.803819,54.895069,9.793790
1386871755,1,0,390.9,0,6,8,0,11,250,-0.0292,395.6256,6.8213,0.4212,54.888550,9.804432,108.3,5.845,1.85,335.95,54.889832,9.803819,54.895069,9.793790
1386871755,1,0,390.9,0,5,4,0,6,225,-0.0292,394.2922,6.8213,0.4212,54.888565,9.804449,108.3,5.845,1.85,335.95,54.889832,9.803819,54.895069,9.793790
1386871755,1,0,390.9,0,3,0,0,3,200,-0.0292,393.4922,6.8213,0.4212,54.888580,9.804466,108.3,5.845,1.85,335.95,54.889832,9.803819,54.895069,9.793790
1386871755,1,0,390.9,0,3,4,0,1,175,-0.0292,392.6923,6.8213,0.4212,54.888596,9.804482,108.3,5.845,1.85,335.95,54.889832,9.803819,54.895069,9.793790
1386871756,1,0,390.9,0,2,0,0,0,150,-0.0292,392.1589,6.8213,0.4212,54.888611,9.804499,108.3,5.845,1.85,335.95,54.889832,9.803819,54.895069,9.793790
1386871756,1,0,390.9,0,1,4,0,0,125,-0.0292,391.8923,6.8213,0.4212,54.888626,9.804516,108.3,5.845,1.85,335.95,54.889832,9.803819,54.895069,9.793790
1386871756,1,0,390.9,0,1,0,0,0,100,-0.0292,391.6256,6.8213,0.4212,54.888638,9.804532,108.3,5.845,1.85,335.95,54.889832,9.803819,54.895069,9.793790
1386871756,1,0,390.9,0,1,4,0,0,75,-0.0292,391.3589,6.8213,0.4212,54.888653,9.804548,108.3,5.845,1.85,335.95,54.889832,9.803819,54.895069,9.793790
1386871757,1,0,390.9,0,0,0,0,0,50,-0.0292,391.3589,6.8213,0.4212,54.888668,9.804564,108.3,5.845,1.85,335.95,54.889832,9.803819,54.895069,9.793790
1386871757,1,0,390.9,0,0,4,0,0,25,-0.0292,391.3589,6.8213,0.4212,54.888683,9.804581,108.3,5.845,1.85,335.95,54.889832,9.803819,54.895069,9.793790
1386871757,1,0,390.9,0,0,0,0,0,0,-0.0292,391.3589,6.8213,0.4212,54.888699,9.804597,108.3,5.845,1.85,335.95,54.889832,9.803819,54.895069,9.793790
1386871757,1,0,390.9,0,0,4,0,0,25,-0.0292,391.3589,6.8213,0.4212,54.888718,9.804613,108.3,5.845,1.85,335.95,54.889832,9.803819,54.895069,9.793790
1386871758,1,0,390.9,0,0,0,0,0,0,-0.0292,391.3589,6.8213,0.4212,54.888733,9.804629,108.3,5.845,1.85,335.95,54.889832,9.803819,54.895069,9.793790
1386871758,1,0,390.9,0,0,4,0,0,25,-0.0292,391.3589,6.8213,0.4212,54.888748,9.804646,108.3,5.845,1.85,335.95,54.889832,9.803819,54.895069,9.793790
1386871758,1,0,390.9,0,0,0,0,0,0,-0.0292,391.3589,6.8213,0.4212,54.888760,9.804662,108.3,5.845,1.85,335.95,54.889832,9.803819,54.895069,9.793790
1386871758,1,0,390.9,0,0,4,0,0,25,-0.0292,391.3589,6.8213,0.4212,54.888775,9.804678,108.3,5.845,1.85,335.95,54.889832,9.803819,54.895069,9.793790
1386871759,1,0,390.9,0,0,0,0,0,0,-0.0292,391.3589,6.8213,0.4212,54.888790,9.804694,108.3,5.845,1.85,335.95,54.889832,9.803819,54.895069,9.793790
1386871759,1,0,390.9,0,0,4,0,0,25,-0.0292,391.3589,6.8213,0.4212,54.888805,9.804710,108.3,5.845,1.85,335.95,54.889832,9.803819,54.895069,9.793790
1386871759,1,0,390.9,0,0,0,0,0,0,-0.0292,391.3589,6.8213,0.4212,54.888821,9.804727,108.3,5.845,1.85,335.95,54.889832,9.803819,54.895069,9.793790
1386871759,1,0,390.9,0,0,4,0,0,25,-0.0292,391.3589,6.8213,0.4212,54.888840,9.804743,108.3,5.845,1.85,335.95,54.889832,9.803819,54.895069,9.793790
1386871760,1,0,390.9,0,0,0,0,0,0,-0.0292,391.3589,6.8213,0.4212,54.888855,9.804759,108.3,5.845,1.85,335.95,54.889832,9.803819,54.895069,9.793790
1386871760,1,0,390.9,0,0,4,0,0,25,-0.0292,391.3589,6.8213,0.4212,54.888870,9.804775,108.3,5.845,1.85,335.95,54.889832,9.803819,54.895069,9.793790
1386871760,1,0,390.9,0,0,0,0,0,0,-0.0292,391.3589,6.8213,0.4212,54.888889,9.804791,108.3,5.845,1.85,335.95,54.889832,9.803819,54.895069,9.793790
1386871760,1,0,390.9,0,0,4,0,0,25,-0.0292,391.3589,6.8213,0.4212,54.888905,9.804808,108.3,5.845,1.85,335.95,54.889832,9.803819,54.895069,9.793790
1386871761,1,0,390.9,0,0,0,0,0,0,-0.0292,391.3589,6.8213,0.4212,54.888920,9.804824,108.3,5.845,1.85,335.95,54.889832,9.803819,54.895069,9.793790
1386871761,1,0,390.9,0,0,4,0,0,25,-0.0292,391.3589,6.8213,0.4212,54.888939,9.804840,108.3,5.845,1.85,335.95,54.889832,9.803819,54.895069,9.793790
1386871761,1,0,390.9,0,0,0,0,0,0,-0.0292,391.3589,6.8213,0.4212,54.888954,9.804856,108.3,5.845,1.85,335.95,54.889832,9.803819,54.895069,9.793790
1386871761,1,0,390.9,0,0,4,0,0,25,-0.0292,391.3589,6.8213,0.4212,54.888969,9.804873,108.3,5.845,1.85,335.95,54.889832,9.803819,54.895069,9.793790
1386871762,1,0,390.9,0,0,0,0,0,0,-0.0292,391.3589,6.8213,0.4212,54.888988,9.804889,108.3,5.845,1.85,335.95,54.889832,9.803819,54.895069,9.793790
1386871762,1,0,390.9,0,0,4,0,0,25,-0.0292,391.3589,6.8213,0.4212,54.889004,9.804905,108.3,5.845,1.85,335.95,54.889832,9.803819,54.895069,9.793790
1386871762,1,0,390.9,0,0,0,0,0,0,-0.0292,391.3589,6.8213,0.4212,54.889019,9.804921,108.3,5.845,1.85,335.95,54.889832,9.803819,54.895069,9.793790
1386871762,1,0,390.9,0,0,4,0,0,25,-0.0292,391.3589,6.8213,0.4212,54.889030,9.804937,108.3,5.845,1.85,335.95,54.889832,9.803819,54.895069,9.793790
1386871763,1,0,390.9,0,0,0,0,0,0,-0.0292,391.3589,6.8213,0.4212,54.889046,9.804954,108.3,5.845,1.85,335.95,54.889832,9.803819,54.895069,9.793790
1386871763,1,0,390.9,0,0,4,0,0,25,-0.0292,391.3589,6.8213,0.4212,54.889061,9.804970,108.3,5.845,1.85,335.95,54.889832,9.803819,54.895069,9.793790
1386871763,1,0,390.9,0,0,0,0,0,0,-0.0292,391.3589,6.8213,0.4212,54.889076,9.804986,108.3,5.845,1.85,335.95,54.889832,9.803819,54.895069,9.793790
1386871763,1,0,390.9,0,0,4,0,0,25,-0.0292,391.3589,6.8213,0.4212,54.889091,9.805002,108.3,5.845,1.85,335.95,54.889832,9.803819,54.895069,9.793790
1386871764,1,0,390.9,0,0,0,0,0,0,-0.0292,391.3589,6.8213,0.4212,54.889111,9.805018,108.3,5.845,1.85,335.95,54.889832,9.803819,54.895069,9.793790
1386871764,1,0,390.9,0,0,4,0,0,25,-0.0292,391.3589,6.8213,0.4212,54.889126,9.805036,108.3,5.845,1.85,335.95,54.889832,9.803819,54.895069,9.793790
1386871764,1,0,390.9,0,0,0,0,0,0,-0.0292,391.3589,6.8213,0.4212,54.889141,9.805052,108.3,5.845,1.85,335.95,54.889832,9.803819,54.895069,9.793790
1386871764,1,0,390.9,0,0,4,0,0,25,-0.0292,391.3589,6.8213,0.4212,54.889160,9.805068,108.3,5.845,1.85,335.95,54.889832,9.803819,54.895069,9.793790
1386871765,1,0,390.9,0,0,0,0,0,0,-0.0292,391.3589,6.8213,0.4212,54.889175,9.805084,108.3,5.845,1.85,335.95,54.889832,9.803819,54.895069,9.793790
1386871765,1,0,390.9,0,0,4,0,0,25,-0.0292,391.3589,6.8213,0.4212,54.889191,9.805100,108.3,5.845,1.85,335.95,54.889832,9.803819,54.895069,9.793790
1386871765,1,0,390.9,0,0,0,0,0,0,-0.0292,391.3589,6.8213,0.4212,54.889210,9.805117,108.3,5.845,1.85,335.95,54.889832,9.803819,54.895069,9.793790
1386871765,1,0,390.9,0,0,4,0,0,25,-0.0292,391.3589,6.8213,0.4212,54.889225,9.805133,108.3,5.845,1.85,335.95,54.889832,9.803819,54.895069,9.793790
1386871766,1,0,390.9,0,0,0,0,0,0,-0.0292,391.3589,6.8213,0.4212,54.889240,9.805149,108.3,5.845,1.85,335.95,54.889832,9.803819,54.895069,9.793790
1386871766,1,0,390.9,0,0,4,0,0,25,-0.0292,391.3589,6.8213,0.4212,54.889252,9.805165,108.3,5.845,1.85,335.95,54.889832,9.803819,54.895069,9.793790
1386871766,1,0,390.9,0,0,0,0,0,0,-0.0292,391.3589,6.8213,0.4212,54.889267,9.805182,108.3,5.845,1.85,335.95,54.889832,9.803819,54.895069,9.793790
1386871766,1,0,390.9,0,0,4,0,0,25,-0.0292,391.3589,6.8213,0.4212,54.889282,9.805198,108.3,5.845,1.85,335.95,54.889832,9.803819,54.895069,9.793790
1386871767,1,0,390.9,0,0,0,0,0,0,-0.0292,391.3589,6.8213,0.4212,54.889297,9.805214,108.3,5.845,1.85,335.95,54.889832,9.803819,54.895069,9.793790
1386871767,1,0,390.9,0,0,4,0,0,25,-0.0292,391.3589,6.8213,0.4212,54.889313,9.805230,108.3,5.845,1.85,335.95,54.889832,9.803819,54.895069,9.793790
1386871767,1,0,390.9,0,0,0,0,0,0,-0.0292,391.3589,6.8213,0.4212,54.889332,9.805246,108.3,5.845,1.85,335.95,54.889832,9.803819,54.895069,9.793790
1386871767,1,0,390.9,0,0,4,0,0,25,-0.0292,391.3589,6.8213,0.4212,54.889347,9.805263,108.3,5.845,1.85,335.95,54.889832,9.803819,54.895069,9.793790
1386871768,1,0,390.9,0,0,0,0,0,0,-0.0292,391.3589,6.8213,0.4212,54.889362,9.805279,108.3,5.845,1.85,335.95,54.889832,9.803819,54.895069,9.793790
1386871768,1,0,390.9,0,0,4,0,0,25,-0.0292,391.3589,6.8213,0.4212,54.889381,9.805295,108.3,5.845,1.85,335.95,54.889832,9.803819,54.895069,9.793790
1386871768,1,0,390.9,0,0,0,0,0,0,-0.0292,391.3589,6.8213,0.4212,54.889397,9.805311,108.3,5.845,1.85,335.95,54.889832,9.803819,54.895069,9.793790
1386871768,1,0,390.9,0,0,4,0,0,25,-0.0292,391.3589,6.8213,0.4212,54.889412,9.805327,108.3,5.845,1.85,335.95,54.889832,9.803819,54.895069,9.793790
1386871769,1,0,390.9,0,0,0,0,0,0,-0.0292,391.3589,6.8213,0.4212,54.889431,9.805344,108.3,5.845,1.85,335.95,54.889832,9.803819,54.895069,9.793790
1386871769,1,0,390.9,0,0,4,0,0,25,-0.0292,391.3589,6.8213,0.4212,54.889446,9.805360,108.3,5.845,1.85,335.95,54.889832,9.803819,54.895069,9.793790
1386871769,1,0,390.9,0,0,0,0,0,0,-0.0292,391.3589,6.8213,0.4212,54.889462,9.805376,108.3,5.845,1.85,335.95,54.889832,9.803819,54.895069,9.793790
1386871770,1,0,390.9,0,0,4,0,0,25,-0.0292,391.3589,6.8213,0.4212,54.889473,9.805392,108.3,5.845,1.85,335.95,54.889832,9.803819,54.895069,9.793790
1386871770,1,0,390.9,0,0,0,0,0,0,-0.0292,391.3589,6.8213,0.4212,54.889488,9.805408,108.3,5.845,1.85,335.95,54.889832,9.803819,54.895069,9.793790
1386871770,1,0,390.9,0,0,4,0,0,25,-0.0292,391.3589,6.8213,0.4212,54.889503,9.805425,108.3,5.845,1.85,335.95,54.889832,9.803819,54.895069,9.793790
1386871770,1,0,390.9,0,0,0,0,0,0,-0.0292,391.3589,6.8213,0.4212,54.889519,9.805441,108.3,5.845,1.85,335.95,54.889832,9.803819,54.895069,9.793790
1386871771,1,0,390.9,0,0,4,0,0,25,-0.0292,391.3589,6.8213,0.4212,54.889534,9.805457,108.3,5.845,1.85,335.95,54.889832,9.803819,54.895069,9.793790
1386871771,1,0,390.9,0,0,0,0,0,0,-0.0292,391.3589,6.8213,0.4212,54.889553,9.805473,108.3,5.845,1.85,335.95,54.889832,9.803819,54.895069,9.793790
1386871771,1,0,390.9,0,0,4,0,0,25,-0.0292,391.3589,6.8213,0.4212,54.889568,9.805490,108.3,5.845,1.85,335.95,54.889832,9.803819,54.895069,9.793790
1386871771,1,0,390.9,0,0,0,0,0,0,-0.0292,391.3589,6.8213,0.4212,54.889584,9.805507,108.3,5.845,1.85,335.95,54.889832,9.803819,54.895069,9.793790
1386871772,1,0,485.9,0,-35,-4,0,0,25,-0.0292,400.6923,6.8213,0.4212,54.889599,9.805527,108.3,5.845,1.85,335.95,54.889832,9.803819,54.895069,9.793790
1386871772,1,0,485.9,0,-35,-8,0,27,50,-0.0292,410.0256,6.8213,0.4212,54.889610,9.805551,108.3,5.845,1.85,335.95,54.889832,9.803819,54.895069,9.793790
1386871772,1,0,485.9,0,-35,-12,0,90,75,-0.0292,419.3590,6.8213,0.4212,54.889618,9.805577,108.3,5.845,1.85,335.95,54.889832,9.803819,54.895069,9.793790
1386871772,1,0,485.9,0,-35,-16,0,169,100,-0.0292,428.6923,6.8213,0.4212,54.889626,9.805606,108.3,5.845,1.85,335.95,54.889832,9.803819,54.895069,9.793790
1386871773,1,0,485.9,0,-35,-20,0,254,125,-0.0292,438.0257,6.8213,0.4212,54.889629,9.805636,108.3,5.845,1.85,335.95,54.889832,9.803819,54.895069,9.793790
1386871773,1,0,485.9,0,-35,-24,0,339,150,-0.0292,447.3590,6.8213,0.4212,54.889633,9.805668,108.3,5.845,1.85,335.95,54.889832,9.803819,54.895069,9.793790
