MCU_timestamp,Navigation_System,Manual_Control,Guidance_Heading,Manual_Ctrl_Rudder,Rudder_Desired_Angle,Rudder_Feedback,Manual_Ctrl_Sail,Sail_Desired_Pos,Sail_Feedback,Rate,Heading,Pitch,Roll,Latitude,Longitude,COG,SOG,Wind_Speed,Wind_Angle,Point_Start_Lat,Point_Start_Lon,Point_End_Lat,Point_End_Lon
1390059130,0,0,0.0,0,0,4,0,0,0,-0.0292,170.2922,6.8213,0.4212,54.887409,9.785521,108.3,5.845,1.85,335.95,0.000000,0.000000,0.000000,0.000000
1390059131,0,0,0.0,0,0,4,0,0,0,-0.0292,170.2922,6.8213,0.4212,54.887409,9.785521,108.3,5.845,1.85,335.95,0.000000,0.000000,0.000000,0.000000
1390059131,0,0,0.0,0,0,4,0,0,0,-0.0292,170.2922,6.8213,0.4212,54.887409,9.785521,108.3,5.845,1.85,335.95,0.000000,0.000000,0.000000,0.000000
1390059131,0,0,0.0,0,0,4,0,0,0,-0.0292,170.2922,6.8213,0.4212,54.887409,9.785521,108.3,5.845,1.85,335.95,0.000000,0.000000,0.000000,0.000000
1390059131,0,0,0.0,0,0,4,0,0,0,-0.0292,170.2922,6.8213,0.4212,54.887409,9.785521,108.3,5.845,1.85,335.95,0.000000,0.000000,0.000000,0.000000
1390059132,0,0,0.0,0,0,4,0,0,0,-0.0292,170.2922,6.8213,0.4212,54.887409,9.785521,108.3,5.845,1.85,335.95,0.000000,0.000000,0.000000,0.000000
1390059132,0,0,0.0,0,0,4,0,0,0,-0.0292,170.2922,6.8213,0.4212,54.887409,9.785521,108.3,5.845,1.85,335.95,0.000000,0.000000,0.000000,0.000000
1390059132,0,0,0.0,0,0,4,0,0,0,-0.0292,170.2922,6.8213,0.4212,54.887409,9.785521,108.3,5.845,1.85,335.95,0.000000,0.000000,0.000000,0.000000
1390059133,0,0,0.0,0,0,4,0,0,0,-0.0292,170.2922,6.8213,0.4212,54.887409,9.785521,108.3,5.845,1.85,335.95,0.000000,0.000000,0.000000,0.000000
1390059133,0,0,0.0,0,0,4,0,0,0,-0.0292,170.2922,6.8213,0.4212,54.887409,9.785521,108.3,5.845,1.85,335.95,0.000000,0.000000,0.000000,0.000000
1390059133,0,0,0.0,0,0,4,0,0,0,-0.0292,170.2922,6.8213,0.4212,54.887409,9.785521,108.3,5.845,1.85,335.95,0.000000,0.000000,0.000000,0.000000
1390059133,0,0,0.0,0,0,4,0,0,0,-0.0292,170.2922,6.8213,0.4212,54.887409,9.785521,108.3,5.845,1.85,335.95,0.000000,0.000000,0.000000,0.000000
1390059134,0,0,0.0,0,0,4,0,0,0,-0.0292,170.2922,6.8213,0.4212,54.887409,9.785521,108.3,5.845,1.85,335.95,0.000000,0.000000,0.000000,0.000000
1390059134,0,0,0.0,0,0,4,0,0,0,-0.0292,170.2922,6.8213,0.4212,54.887409,9.785521,108.3,5.845,1.85,335.95,0.000000,0.000000,0.000000,0.000000
1390059134,0,0,0.0,0,0,4,0,0,0,-0.0292,170.2922,6.8213,0.4212,54.887409,9.785521,108.3,5.845,1.85,335.95,0.000000,0.000000,0.000000,0.000000
1390059134,0,0,0.0,0,0,4,0,0,0,-0.0292,170.2922,6.8213,0.4212,54.887409,9.785521,108.3,5.845,1.85,335.95,0.000000,0.000000,0.000000,0.000000
1390059135,0,0,0.0,0,0,4,0,0,0,-0.0292,170.2922,6.8213,0.4212,54.887409,9.785521,108.3,5.845,1.85,335.95,0.000000,0.000000,0.000000,0.000000
1390059135,0,0,0.0,0,0,4,0,0,0,-0.0292,170.2922,6.8213,0.4212,54.887409,9.785521,108.3,5.845,1.85,335.95,0.000000,0.000000,0.000000,0.000000
1390059135,4,0,0.0,0,0,4,0,0,0,-0.0292,170.2922,6.8213,0.4212,54.887409,9.785521,108.3,5.845,1.85,335.95,0.000000,0.000000,0.000000,0.000000
1390059135,1,0,0.0,0,-10,0,0,713,700,-0.0292,173.6255,6.8213,0.4212,54.887390,9.785523,108.3,5.845,1.85,335.95,54.895069,9.793790,54.895348,9.797490
1390059136,1,0,0.0,0,4,4,0,713,750,-0.0292,172.2922,6.8213,0.4212,54.887375,9.785527,108.3,5.845,1.85,335.95,54.895348,9.797490,54.894039,9.801540
1390059136,1,0,0.0,0,2,0,0,713,700,-0.0292,171.6255,6.8213,0.4212,54.887356,9.785532,108.3,5.845,1.85,335.95,54.894039,9.801540,54.893795,9.802299
1390059136,1,0,0.0,0,2,4,0,713,750,-0.0292,170.9589,6.8213,0.4212,54.887337,9.785537,108.3,5.845,1.85,335.95,54.893795,9.802299,54.893364,9.803688
1390059136,1,0,0.0,0,1,0,0,713,700,-0.0292,170.6255,6.8213,0.4212,54.887318,9.785542,108.3,5.845,1.85,335.95,54.893364,9.803688,54.892704,9.801139
1390059137,1,0,0.0,0,1,4,0,713,750,-0.0292,170.2922,6.8213,0.4212,54.887302,9.785547,108.3,5.845,1.85,335.95,54.892704,9.801139,54.891663,9.800174
1390059137,1,0,0.0,0,0,0,0,713,700,-0.0292,170.2922,6.8213,0.4212,54.887283,9.785553,108.3,5.845,1.85,335.95,54.891663,9.800174,54.892929,9.805077
1390059137,1,0,0.0,0,0,4,0,713,750,-0.0292,170.2922,6.8213,0.4212,54.887264,9.785559,108.3,5.845,1.85,335.95,54.892929,9.805077,54.892498,9.806466
1390059137,1,0,0.0,0,0,0,0,713,700,-0.0292,170.2922,6.8213,0.4212,54.887249,9.785563,108.3,5.845,1.85,335.95,54.892498,9.806466,54.891232,9.801563
1390059138,1,0,0.0,0,0,4,0,713,750,-0.0292,170.2922,6.8213,0.4212,54.887230,9.785568,108.3,5.845,1.85,335.95,54.891232,9.801563,54.890800,9.802953
1390059138,1,0,0.0,0,0,0,0,713,700,-0.0292,170.2922,6.8213,0.4212,54.887211,9.785573,108.3,5.845,1.85,335.95,54.890800,9.802953,54.891651,9.806246
1390059138,1,0,0.0,0,0,4,0,713,750,-0.0292,170.2922,6.8213,0.4212,54.887192,9.785578,108.3,5.845,1.85,335.95,54.891651,9.806246,54.890560,9.805087
1390059138,1,0,0.0,0,0,0,0,713,700,-0.0292,170.2922,6.8213,0.4212,54.887177,9.785583,108.3,5.845,1.85,335.95,54.890560,9.805087,54.890366,9.804342
1390059139,1,0,0.0,0,0,4,0,713,750,-0.0292,170.2922,6.8213,0.4212,54.887157,9.785588,108.3,5.845,1.85,335.95,54.890366,9.804342,54.890846,9.801930
1390059139,1,0,0.0,0,0,0,0,713,700,-0.0292,170.2922,6.8213,0.4212,54.887138,9.785594,108.3,5.845,1.85,335.95,54.890846,9.801930,54.889477,9.798280
1390059139,1,0,0.0,0,0,4,0,713,750,-0.0292,170.2922,6.8213,0.4212,54.887119,9.785600,108.3,5.845,1.85,335.95,54.889477,9.798280,54.891819,9.794550
1390059139,1,0,0.0,0,0,0,0,713,700,-0.0292,170.2922,6.8213,0.4212,54.887104,9.785605,108.3,5.845,1.85,335.95,54.891819,9.794550,54.895348,9.797490
1390059140,1,0,0.0,0,0,4,0,713,750,-0.0292,170.2922,6.8213,0.4212,54.887085,9.785610,108.3,5.845,1.85,335.95,54.895348,9.797490,54.895069,9.793790
1390059140,1,0,0.0,0,0,0,0,713,700,-0.0292,170.2922,6.8213,0.4212,54.887066,9.785615,108.3,5.845,1.85,335.95,54.895348,9.797490,54.895069,9.793790
1390059140,3,0,0.0,0,0,4,0,713,750,-0.0292,170.2922,6.8213,0.4212,54.887047,9.785620,108.3,5.845,1.85,335.95,54.895348,9.797490,54.887066,9.785615
1390059140,3,0,0.0,0,0,0,0,713,700,-0.0292,170.2922,6.8213,0.4212,54.887032,9.785625,108.3,5.845,1.85,335.95,54.895348,9.797490,54.887066,9.785615
1390059141,3,0,0.0,0,0,4,0,713,750,-0.0292,170.2922,6.8213,0.4212,54.887012,9.785630,108.3,5.845,1.85,335.95,54.895348,9.797490,54.887066,9.785615
1390059141,3,0,0.0,0,0,0,0,713,700,-0.0292,170.2922,6.8213,0.4212,54.886993,9.785636,108.3,5.845,1.85,335.95,54.895348,9.797490,54.887066,9.785615
1390059141,3,0,0.0,0,0,4,0,713,750,-0.0292,170.2922,6.8213,0.4212,54.886978,9.785642,108.3,5.845,1.85,335.95,54.895348,9.797490,54.887066,9.785615
1390059141,3,0,0.0,0,0,0,0,713,700,-0.0292,170.2922,6.8213,0.4212,54.886959,9.785647,108.3,5.845,1.85,335.95,54.895348,9.797490,54.887066,9.785615
1390059142,3,0,0.0,0,0,4,0,713,750,-0.0292,170.2922,6.8213,0.4212,54.886940,9.785652,108.3,5.845,1.85,335.95,54.895348,9.797490,54.887066,9.785615
1390059142,3,0,0.0,0,0,0,0,713,700,-0.0292,170.2922,6.8213,0.4212,54.886921,9.785657,108.3,5.845,1.85,335.95,54.895348,9.797490,54.887066,9.785615
1390059142,3,0,0.0,0,0,4,0,713,750,-0.0292,170.2922,6.8213,0.4212,54.886906,9.785662,108.3,5.845,1.85,335.95,54.895348,9.797490,54.887066,9.785615
1390059142,3,0,0.0,0,0,0,0,713,700,-0.0292,170.2922,6.8213,0.4212,54.886887,9.785666,108.3,5.845,1.85,335.95,54.895348,9.797490,54.887066,9.785615
1390059143,3,0,0.0,0,0,4,0,713,750,-0.0292,170.2922,6.8213,0.4212,54.886868,9.785672,108.3,5.845,1.85,335.95,54.895348,9.797490,54.887066,9.785615
1390059143,3,0,0.0,0,0,0,0,713,700,-0.0292,170.2922,6.8213,0.4212,54.886848,9.785678,108.3,5.845,1.85,335.95,54.895348,9.797490,54.887066,9.785615
1390059143,3,0,0.0,0,0,4,0,713,750,-0.0292,170.2922,6.8213,0.4212,54.886833,9.785684,108.3,5.845,1.85,335.95,54.895348,9.797490,54.887066,9.785615
1390059143,3,0,0.0,0,0,0,0,713,700,-0.0292,170.2922,6.8213,0.4212,54.886814,9.785689,108.3,5.845,1.85,335.95,54.895348,9.797490,54.887066,9.785615
1390059144,3,0,0.0,0,0,4,0,713,750,-0.0292,170.2922,6.8213,0.4212,54.886795,9.785694,108.3,5.845,1.85,335.95,54.895348,9.797490,54.887066,9.785615
1390059144,3,0,0.0,0,0,0,0,713,700,-0.0292,170.2922,6.8213,0.4212,54.886776,9.785699,108.3,5.845,1.85,335.95,54.895348,9.797490,54.887066,9.785615
1390059144,3,0,0.0,0,0,4,0,713,750,-0.0292,170.2922,6.8213,0.4212,54.886761,9.785704,108.3,5.845,1.85,335.95,54.895348,9.797490,54.887066,9.785615
1390059144,3,0,0.0,0,0,0,0,713,700,-0.0292,170.2922,6.8213,0.4212,54.886742,9.785708,108.3,5.845,1.85,335.95,54.895348,9.797490,54.887066,9.785615
1390059145,3,0,0.0,0,0,4,0,713,750,-0.0292,170.2922,6.8213,0.4212,54.886723,9.785714,108.3,5.845,1.85,335.95,54.895348,9.797490,54.887066,9.785615
1390059145,3,0,0.0,0,0,0,0,713,700,-0.0292,170.2922,6.8213,0.4212,54.886707,9.785720,108.3,5.845,1.85,335.95,54.895348,9.797490,54.887066,9.785615
1390059145,3,0,0.0,0,0,4,0,713,750,-0.0292,170.2922,6.8213,0.4212,54.886688,9.785726,108.3,5.845,1.85,335.95,54.895348,9.797490,54.887066,9.785615
1390059145,3,0,0.0,0,0,0,0,713,700,-0.0292,170.2922,6.8213,0.4212,54.886669,9.785731,108.3,5.845,1.85,335.95,54.895348,9.797490,54.887066,9.785615
1390059146,3,0,0.0,0,0,4,0,713,750,-0.0292,170.2922,6.8213,0.4212,54.886650,9.785736,108.3,5.845,1.85,335.95,54.895348,9.797490,54.887066,9.785615
1390059146,3,0,0.0,0,0,0,0,713,700,-0.0292,170.2922,6.8213,0.4212,54.886635,9.785741,108.3,5.845,1.85,335.95,54.895348,9.797490,54.887066,9.785615
1390059146,3,0,0.0,0,0,4,0,713,750,-0.0292,170.2922,6.8213,0.4212,54.886616,9.785746,108.3,5.845,1.85,335.95,54.895348,9.797490,54.887066,9.785615
1390059146,3,0,0.0,0,0,0,0,713,700,-0.0292,170.2922,6.8213,0.4212,54.886597,9.785750,108.3,5.845,1.85,335.95,54.895348,9.797490,54.887066,9.785615
1390059147,3,0,0.0,0,0,4,0,713,750,-0.0292,170.2922,6.8213,0.4212,54.886578,9.785755,108.3,5.845,1.85,335.95,54.895348,9.797490,54.887066,9.785615
1390059147,3,0,0.0,0,0,0,0,713,700,-0.0292,170.2922,6.8213,0.4212,54.886562,9.785761,108.3,5.845,1.85,335.95,54.895348,9.797490,54.887066,9.785615
1390059147,3,0,0.0,0,0,4,0,713,750,-0.0292,170.2922,6.8213,0.4212,54.886543,9.785767,108.3,5.845,1.85,335.95,54.895348,9.797490,54.887066,9.785615
1390059147,3,0,0.0,0,0,0,0,713,700,-0.0292,170.2922,6.8213,0.4212,54.886524,9.785772,108.3,5.845,1.85,335.95,54.895348,9.797490,54.887066,9.785615
1390059148,3,0,0.0,0,0,4,0,713,750,-0.0292,170.2922,6.8213,0.4212,54.886505,9.785778,108.3,5.845,1.85,335.95,54.895348,9.797490,54.887066,9.785615
1390059148,3,0,0.0,0,0,0,0,713,700,-0.0292,170.2922,6.8213,0.4212,54.886490,9.785783,108.3,5.845,1.85,335.95,54.895348,9.797490,54.887066,9.785615
1390059148,3,0,0.0,0,0,4,0,713,750,-0.0292,170.2922,6.8213,0.4212,54.886471,9.785788,108.3,5.845,1.85,335.95,54.895348,9.797490,54.887066,9.785615
1390059148,3,0,0.0,0,0,0,0,713,700,-0.0292,170.2922,6.8213,0.4212,54.886452,9.785792,108.3,5.845,1.85,335.95,54.895348,9.797490,54.887066,9.785615
1390059149,3,0,0.0,0,0,4,0,713,750,-0.0292,170.2922,6.8213,0.4212,54.886436,9.785797,108.3,5.845,1.85,335.95,54.895348,9.797490,54.887066,9.785615
1390059149,3,0,0.0,0,0,0,0,713,700,-0.0292,170.2922,6.8213,0.4212,54.886417,9.785803,108.3,5.845,1.85,335.95,54.895348,9.797490,54.887066,9.785615
1390059149,3,0,0.0,0,0,4,0,713,750,-0.0292,170.2922,6.8213,0.4212,54.886398,9.785809,108.3,5.845,1.85,335.95,54.895348,9.797490,54.887066,9.785615
1390059149,3,0,0.0,0,0,0,0,713,700,-0.0292,170.2922,6.8213,0.4212,54.886379,9.785814,108.3,5.845,1.85,335.95,54.895348,9.797490,54.887066,9.785615
1390059150,3,0,0.0,0,0,4,0,713,750,-0.0292,170.2922,6.8213,0.4212,54.886364,9.785820,108.3,5.845,1.85,335.95,54.895348,9.797490,54.887066,9.785615
1390059150,3,0,0.0,0,0,0,0,713,700,-0.0292,170.2922,6.8213,0.4212,54.886345,9.785825,108.3,5.845,1.85,335.95,54.895348,9.797490,54.887066,9.785615
1390059150,3,0,0.0,0,0,4,0,713,750,-0.0292,170.2922,6.8213,0.4212,54.886326,9.785830,108.3,5.845,1.85,335.95,54.895348,9.797490,54.887066,9.785615
1390059150,3,0,0.0,0,0,0,0,713,700,-0.0292,170.2922,6.8213,0.4212,54.886307,9.785834,108.3,5.845,1.85,335.95,54.895348,9.797490,54.887066,9.785615
1390059151,3,0,0.0,0,0,4,0,713,750,-0.0292,170.2922,6.8213,0.4212,54.886292,9.785839,108.3,5.845,1.85,335.95,54.895348,9.797490,54.887066,9.785615
1390059151,3,0,0.0,0,0,0,0,713,700,-0.0292,170.2922,6.8213,0.4212,54.886272,9.785845,108.3,5.845,1.85,335.95,54.895348,9.797490,54.887066,9.785615
1390059151,3,0,0.0,0,0,4,0,713,750,-0.0292,170.2922,6.8213,0.4212,54.886253,9.785851,108.3,5.845,1.85,335.95,54.895348,9.797490,54.887066,9.785615
1390059151,3,0,0.0,0,0,0,0,713,700,-0.0292,170.2922,6.8213,0.4212,54.886234,9.785856,108.3,5.845,1.85,335.95,54.895348,9.797490,54.887066,9.785615
1390059152,3,0,0.0,0,0,4,0,713,750,-0.0292,170.2922,6.8213,0.4212,54.886219,9.785862,108.3,5.845,1.85,335.95,54.895348,9.797490,54.887066,9.785615
1390059152,3,0,0.0,0,0,0,0,713,700,-0.0292,170.2922,6.8213,0.4212,54.886200,9.785867,108.3,5.845,1.85,335.95,54.895348,9.797490,54.887066,9.785615
1390059152,3,0,0.0,0,0,4,0,713,750,-0.0292,170.2922,6.8213,0.4212,54.886181,9.785872,108.3,5.845,1.85,335.95,54.895348,9.797490,54.887066,9.785615
1390059152,3,0,0.0,0,0,0,0,713,700,-0.0292,170.2922,6.8213,0.4212,54.886162,9.785876,108.3,5.845,1.85,335.95,54.895348,9.797490,54.887066,9.785615
1390059153,3,0,0.0,0,0,4,0,713,750,-0.0292,170.2922,6.8213,0.4212,54.886147,9.785881,108.3,5.845,1.85,335.95,54.895348,9.797490,54.887066,9.785615
1390059153,3,0,0.0,0,0,0,0,713,700,-0.0292,170.2922,6.8213,0.4212,54.886127,9.785887,108.3,5.845,1.85,335.95,54.895348,9.797490,54.887066,9.785615
1390059153,3,0,0.0,0,0,4,0,713,750,-0.0292,170.2922,6.8213,0.4212,54.886108,9.785892,108.3,5.845,1.85,335.95,54.895348,9.797490,54.887066,9.785615
1390059153,3,0,0.0,0,0,0,0,713,700,-0.0292,170.2922,6.8213,0.4212,54.886093,9.785898,108.3,5.845,1.85,335.95,54.895348,9.797490,54.887066,9.785615
1390059154,3,0,0.0,0,0,4,0,713,750,-0.0292,170.2922,6.8213,0.4212,54.886074,9.785904,108.3,5.845,1.85,335.95,54.895348,9.797490,54.887066,9.785615
1390059154,3,0,0.0,0,0,0,0,713,700,-0.0292,170.2922,6.8213,0.4212,54.886055,9.785909,108.3,5.845,1.85,335.95,54.895348,9.797490,54.887066,9.785615
1390059154,3,0,0.0,0,0,4,0,713,750,-0.0292,170.2922,6.8213,0.4212,54.886036,9.785913,108.3,5.845,1.85,335.95,54.895348,9.797490,54.887066,9.785615
1390059154,3,0,0.0,0,0,0,0,713,700,-0.0292,170.2922,6.8213,0.4212,54.886021,9.785918,108.3,5.845,1.85,335.95,54.895348,9.797490,54.887066,9.785615
1390059155,3,0,0.0,0,0,4,0,713,750,-0.0292,170.2922,6.8213,0.4212,54.886002,9.785923,108.3,5.845,1.85,335.95,54.895348,9.797490,54.887066,9.785615
1390059155,3,0,0.0,0,0,0,0,713,700,-0.0292,170.2922,6.8213,0.4212,54.885983,9.785929,108.3,5.845,1.85,335.95,54.895348,9.797490,54.887066,9.785615
1390059155,3,0,0.0,0,0,4,0,713,750,-0.0292,170.2922,6.8213,0.4212,54.885963,9.785934,108.3,5.845,1.85,335.95,54.895348,9.797490,54.887066,9.785615
1390059155,3,0,0.0,0,0,0,0,713,700,-0.0292,170.2922,6.8213,0.4212,54.885948,9.785940,108.3,5.845,1.85,335.95,54.895348,9.797490,54.887066,9.785615
1390059156,3,0,0.0,0,0,4,0,713,750,-0.0292,170.2922,6.8213,0.4212,54.885929,9.785946,108.3,5.845,1.85,335.95,54.895348,9.797490,54.887066,9.785615
1390059156,3,0,0.0,0,0,0,0,713,700,-0.0292,170.2922,6.8213,0.4212,54.885910,9.785951,108.3,5.845,1.85,335.95,54.895348,9.797490,54.887066,9.785615
1390059156,3,0,0.0,0,0,4,0,713,750,-0.0292,170.2922,6.8213,0.4212,54.885891,9.785955,108.3,5.845,1.85,335.95,54.895348,9.797490,54.887066,9.785615
1390059156,3,0,0.0,0,0,0,0,713,700,-0.0292,170.2922,6.8213,0.4212,54.885876,9.785960,108.3,5.845,1.85,335.95,54.895348,9.797490,54.887066,9.785615
1390059157,3,0,0.0,0,0,4,0,713,750,-0.0292,170.2922,6.8213,0.4212,54.885857,9.785965,108.3,5.845,1.85,335.95,54.895348,9.797490,54.887066,9.785615
1390059157,3,0,0.0,0,0,0,0,713,700,-0.0292,170.2922,6.8213,0.4212,54.885838,9.785970,108.3,5.845,1.85,335.95,54.895348,9.797490,54.887066,9.785615
1390059157,3,0,0.0,0,0,4,0,713,750,-0.0292,170.2922,6.8213,0.4212,54.885822,9.785975,108.3,5.845,1.85,335.95,54.895348,9.797490,54.887066,9.785615
1390059157,3,0,0.0,0,0,0,0,713,700,-0.0292,170.2922,6.8213,0.4212,54.885803,9.785981,108.3,5.845,1.85,335.95,54.895348,9.797490,54.887066,9.785615
1390059158,3,0,0.0,0,0,4,0,713,750,-0.0292,170.2922,6.8213,0.4212,54.885784,9.785987,108.3,5.845,1.85,335.95,54.895348,9.797490,54.887066,9.785615
1390059158,3,0,0.0,0,0,0,0,713,700,-0.0292,170.2922,6.8213,0.4212,54.885765,9.785992,108.3,5.845,1.85,335.95,54.895348,9.797490,54.887066,9.785615
1390059158,3,0,0.0,0,0,4,0,713,750,-0.0292,170.2922,6.8213,0.4212,54.885750,9.785996,108.3,5.845,1.85,335.95,54.895348,9.797490,54.887066,9.785615
1390059158,3,0,0.0,0,0,0,0,713,700,-0.0292,170.2922,6.8213,0.4212,54.885731,9.786001,108.3,5.845,1.85,335.95,54.895348,9.797490,54.887066,9.785615
1390059159,3,0,0.0,0,0,4,0,713,750,-0.0292,170.2922,6.8213,0.4212,54.885712,9.786006,108.3,5.845,1.85,335.95,54.895348,9.797490,54.887066,9.785615
1390059159,3,0,0.0,0,0,0,0,713,700,-0.0292,170.2922,6.8213,0.4212,54.885693,9.786011,108.3,5.845,1.85,335.95,54.895348,9.797490,54.887066,9.785615
1390059159,3,0,0.0,0,0,4,0,713,750,-0.0292,170.2922,6.8213,0.4212,54.885677,9.786016,108.3,5.845,1.85,335.95,54.895348,9.797490,54.887066,9.785615
1390059159,3,0,0.0,0,0,0,0,713,700,-0.0292,170.2922,6.8213,0.4212,54.885658,9.786022,108.3,5.845,1.85,335.95,54.895348,9.797490,54.887066,9.785615
1390059160,3,0,0.0,0,0,4,0,713,750,-0.0292,170.2922,6.8213,0.4212,54.885639,9.786028,108.3,5.845,1.85,335.95,54.895348,9.797490,54.887066,9.785615
1390059160,3,0,0.0,0,0,0,0,713,700,-0.0292,170.2922,6.8213,0.4212,54.885620,9.786034,108.3,5.845,1.85,335.95,54.895348,9.797490,54.887066,9.785615
1390059160,3,0,0.0,0,0,4,0,713,750,-0.0292,170.2922,6.8213,0.4212,54.885605,9.786038,108.3,5.845,1.85,335.95,54.895348,9.797490,54.887066,9.785615
1390059160,3,0,0.0,0,0,0,0,713,700,-0.0292,170.2922,6.8213,0.4212,54.885586,9.786043,108.3,5.845,1.85,335.95,54.895348,9.797490,54.887066,9.785615
1390059161,3,0,0.0,0,0,4,0,713,750,-0.0292,170.2922,6.8213,0.4212,54.885567,9.786048,108.3,5.845,1.85,335.95,54.895348,9.797490,54.887066,9.785615
1390059161,3,0,0.0,0,0,0,0,713,700,-0.0292,170.2922,6.8213,0.4212,54.885551,9.786053,108.3,5.845,1.85,335.95,54.895348,9.797490,54.887066,9.785615
1390059161,3,0,0.0,0,0,4,0,713,750,-0.0292,170.2922,6.8213,0.4212,54.885532,9.786058,108.3,5.845,1.85,335.95,54.895348,9.797490,54.887066,9.785615
1390059161,3,0,0.0,0,0,0,0,713,700,-0.0292,170.2922,6.8213,0.4212,54.885513,9.786064,108.3,5.845,1.85,335.95,54.895348,9.797490,54.887066,9.785615
1390059162,3,0,0.0,0,0,4,0,713,750,-0.0292,170.2922,6.8213,0.4212,54.885494,9.786070,108.3,5.845,1.85,335.95,54.895348,9.797490,54.887066,9.785615
1390059162,3,0,0.0,0,0,0,0,713,700,-0.0292,170.2922,6.8213,0.4212,54.885479,9.786076,108.3,5.845,1.85,335.95,54.895348,9.797490,54.887066,9.785615
1390059162,3,0,0.0,0,0,4,0,713,750,-0.0292,170.2922,6.8213,0.4212,54.885460,9.786080,108.3,5.845,1.85,335.95,54.895348,9.797490,54.887066,9.785615
1390059162,3,0,0.0,0,0,0,0,713,700,-0.0292,170.2922,6.8213,0.4212,54.885441,9.786085,108.3,5.845,1.85,335.95,54.895348,9.797490,54.887066,9.785615
1390059163,3,0,0.0,0,0,4,0,713,750,-0.0292,170.2922,6.8213,0.4212,54.885422,9.786090,108.3,5.845,1.85,335.95,54.895348,9.797490,54.887066,9.785615
1390059163,3,0,0.0,0,0,0,0,713,700,-0.0292,170.2922,6.8213,0.4212,54.885406,9.786095,108.3,5.845,1.85,335.95,54.895348,9.797490,54.887066,9.785615
1390059163,3,0,0.0,0,0,4,0,713,750,-0.0292,170.2922,6.8213,0.4212,54.885387,9.786100,108.3,5.845,1.85,335.95,54.895348,9.797490,54.887066,9.785615
1390059163,3,0,0.0,0,0,0,0,713,700,-0.0292,170.2922,6.8213,0.4212,54.885368,9.786106,108.3,5.845,1.85,335.95,54.895348,9.797490,54.887066,9.785615
1390059164,3,0,0.0,0,0,4,0,713,750,-0.0292,170.2922,6.8213,0.4212,54.885349,9.786112,108.3,5.845,1.85,335.95,54.895348,9.797490,54.887066,9.785615
1390059164,3,0,0.0,0,0,0,0,713,700,-0.0292,170.2922,6.8213,0.4212,54.885334,9.786118,108.3,5.845,1.85,335.95,54.895348,9.797490,54.887066,9.785615
1390059164,3,0,0.0,0,0,4,0,713,750,-0.0292,170.2922,6.8213,0.4212,54.885315,9.786122,108.3,5.845,1.85,335.95,54.895348,9.797490,54.887066,9.785615
1390059164,3,0,0.0,0,0,0,0,713,700,-0.0292,170.2922,6.8213,0.4212,54.885296,9.786127,108.3,5.845,1.85,335.95,54.895348,9.797490,54.887066,9.785615
1390059165,3,0,0.0,0,0,4,0,713,750,-0.0292,170.2922,6.8213,0.4212,54.885281,9.786132,108.3,5.845,1.85,335.95,54.895348,9.797490,54.887066,9.785615
1390059165,3,0,0.0,0,0,0,0,713,700,-0.0292,170.2922,6.8213,0.4212,54.885262,9.786137,108.3,5.845,1.85,335.95,54.895348,9.797490,54.887066,9.785615
1390059165,3,0,0.0,0,0,4,0,713,750,-0.0292,170.2922,6.8213,0.4212,54.885242,9.786141,108.3,5.845,1.85,335.95,54.895348,9.797490,54.887066,9.785615
1390059165,3,0,0.0,0,0,0,0,713,700,-0.0292,170.2922,6.8213,0.4212,54.885223,9.786147,108.3,5.845,1.85,335.95,54.895348,9.797490,54.887066,9.785615
1390059166,3,0,0.0,0,-10,-4,0,713,750,-0.0292,173.6255,6.8213,0.4212,54.885208,9.786151,108.3,5.845,1.85,335.95,54.895348,9.797490,54.887066,9.785615
1390059166,3,0,0.0,0,-6,-8,0,713,700,-0.0292,175.6255,6.8213,0.4212,54.885189,9.786154,108.3,5.845,1.85,335.95,54.895348,9.797490,54.887066,9.785615
1390059166,3,0,0.0,0,-4,-4,0,713,750,-0.0292,176.9589,6.8213,0.4212,54.885170,9.786156,108.3,5.845,1.85,335.95,54.895348,9.797490,54.887066,9.785615
1390059166,3,0,0.0,0,-3,0,0,713,700,-0.0292,177.9589,6.8213,0.4212,54.885151,9.786158,108.3,5.845,1.85,335.95,54.895348,9.797490,54.887066,9.785615
1390059167,3,0,0.0,0,-2,-4,0,713,750,-0.0292,178.6255,6.8213,0.4212,54.885136,9.786159,108.3,5.845,1.85,335.95,54.895348,9.797490,54.887066,9.785615
1390059167,3,0,0.0,0,-1,0,0,713,700,-0.0292,178.9589,6.8213,0.4212,54.885117,9.786159,108.3,5.845,1.85,335.95,54.895348,9.797490,54.887066,9.785615
1390059167,3,0,0.0,0,-1,-4,0,713,750,-0.0292,179.2922,6.8213,0.4212,54.885098,9.786159,108.3,5.845,1.85,335.95,54.895348,9.797490,54.887066,9.785615
1390059167,3,0,0.0,0,-1,0,0,713,700,-0.0292,179.6255,6.8213,0.4212,54.885078,9.786159,108.3,5.845,1.85,335.95,54.895348,9.797490,54.887066,9.785615
1390059168,3,0,0.0,0,0,4,0,713,750,-0.0292,179.6255,6.8213,0.4212,54.885063,9.786159,108.3,5.845,1.85,335.95,54.895348,9.797490,54.887066,9.785615
1390059168,3,0,0.0,0,0,0,0,713,700,-0.0292,179.6255,6.8213,0.4212,54.885044,9.786159,108.3,5.845,1.85,335.95,54.895348,9.797490,54.887066,9.785615
1390059168,3,0,0.0,0,0,4,0,713,750,-0.0292,179.6255,6.8213,0.4212,54.885025,9.786159,108.3,5.845,1.85,335.95,54.895348,9.797490,54.887066,9.785615
1390059168,3,0,0.0,0,0,0,0,713,700,-0.0292,179.6255,6.8213,0.4212,54.885006,9.786159,108.3,5.845,1.85,335.95,54.895348,9.797490,54.887066,9.785615
1390059169,3,0,0.0,0,0,4,0,713,750,-0.0292,179.6255,6.8213,0.4212,54.884991,9.786159,108.3,5.845,1.85,335.95,54.895348,9.797490,54.887066,9.785615
1390059169,3,0,0.0,0,0,0,0,713,700,-0.0292,179.6255,6.8213,0.4212,54.884972,9.786159,108.3,5.845,1.85,335.95,54.895348,9.797490,54.887066,9.785615
1390059169,3,0,0.0,0,0,4,0,713,750,-0.0292,179.6255,6.8213,0.4212,54.884953,9.786159,108.3,5.845,1.85,335.95,54.895348,9.797490,54.887066,9.785615
1390059169,3,0,0.0,0,0,0,0,713,700,-0.0292,179.6255,6.8213,0.4212,54.884933,9.786159,108.3,5.845,1.85,335.95,54.895348,9.797490,54.887066,9.785615
1390059170,3,0,0.0,0,0,4,0,713,750,-0.0292,179.6255,6.8213,0.4212,54.884918,9.786159,108.3,5.845,1.85,335.95,54.895348,9.797490,54.887066,9.785615
1390059170,3,0,0.0,0,0,0,0,713,700,-0.0292,179.6255,6.8213,0.4212,54.884899,9.786159,108.3,5.845,1.85,335.95,54.895348,9.797490,54.887066,9.785615
1390059170,3,0,0.0,0,0,4,0,713,750,-0.0292,179.6255,6.8213,0.4212,54.884880,9.786159,108.3,5.845,1.85,335.95,54.895348,9.797490,54.887066,9.785615
1390059170,3,0,0.0,0,0,0,0,713,700,-0.0292,179.6255,6.8213,0.4212,54.884865,9.786159,108.3,5.845,1.85,335.95,54.895348,9.797490,54.887066,9.785615
1390059171,3,0,0.0,0,0,4,0,713,750,-0.0292,179.6255,6.8213,0.4212,54.884846,9.786159,108.3,5.845,1.85,335.95,54.895348,9.797490,54.887066,9.785615
1390059171,3,0,0.0,0,0,0,0,713,700,-0.0292,179.6255,6.8213,0.4212,54.884827,9.786159,108.3,5.845,1.85,335.95,54.895348,9.797490,54.887066,9.785615
1390059171,3,0,0.0,0,0,4,0,713,750,-0.0292,179.6255,6.8213,0.4212,54.884808,9.786159,108.3,5.845,1.85,335.95,54.895348,9.797490,54.887066,9.785615
1390059172,3,0,0.0,0,0,0,0,713,700,-0.0292,179.6255,6.8213,0.4212,54.884792,9.786159,108.3,5.845,1.85,335.95,54.895348,9.797490,54.887066,9.785615
1390059172,3,0,0.0,0,0,4,0,713,750,-0.0292,179.6255,6.8213,0.4212,54.884773,9.786159,108.3,5.845,1.85,335.95,54.895348,9.797490,54.887066,9.785615
1390059172,3,0,0.0,0,0,0,0,713,700,-0.0292,179.6255,6.8213,0.4212,54.884754,9.786159,108.3,5.845,1.85,335.95,54.895348,9.797490,54.887066,9.785615
1390059172,3,0,0.0,0,0,4,0,713,750,-0.0292,179.6255,6.8213,0.4212,54.884735,9.786159,108.3,5.845,1.85,335.95,54.895348,9.797490,54.887066,9.785615
1390059173,3,0,0.0,0,0,0,0,713,700,-0.0292,179.6255,6.8213,0.4212,54.884720,9.786159,108.3,5.845,1.85,335.95,54.895348,9.797490,54.887066,9.785615
1390059173,3,0,0.0,0,0,4,0,713,750,-0.0292,179.6255,6.8213,0.4212,54.884701,9.786159,108.3,5.845,1.85,335.95,54.895348,9.797490,54.887066,9.785615
1390059173,3,0,0.0,0,0,0,0,713,700,-0.0292,179.6255,6.8213,0.4212,54.884682,9.786159,108.3,5.845,1.85,335.95,54.895348,9.797490,54.887066,9.785615
1390059173,3,0,0.0,0,0,4,0,713,750,-0.0292,179.6255,6.8213,0.4212,54.884663,9.786159,108.3,5.845,1.85,335.95,54.895348,9.797490,54.887066,9.785615
1390059174,3,0,0.0,0,0,0,0,713,700,-0.0292,179.6255,6.8213,0.4212,54.884647,9.786159,108.3,5.845,1.85,335.95,54.895348,9.797490,54.887066,9.785615
1390059174,3,0,0.0,0,0,4,0,713,750,-0.0292,179.6255,6.8213,0.4212,54.884628,9.786159,108.3,5.845,1.85,335.95,54.895348,9.797490,54.887066,9.785615
1390059174,3,0,0.0,0,0,0,0,713,700,-0.0292,179.6255,6.8213,0.4212,54.884609,9.786159,108.3,5.845,1.85,335.95,54.895348,9.797490,54.887066,9.785615
1390059174,3,0,0.0,0,0,4,0,713,750,-0.0292,179.6255,6.8213,0.4212,54.884594,9.786159,108.3,5.845,1.85,335.95,54.895348,9.797490,54.887066,9.785615
1390059175,3,0,0.0,0,0,0,0,713,700,-0.0292,179.6255,6.8213,0.4212,54.884575,9.786159,108.3,5.845,1.85,335.95,54.895348,9.797490,54.887066,9.785615
1390059175,3,0,0.0,0,0,4,0,713,750,-0.0292,179.6255,6.8213,0.4212,54.884556,9.786159,108.3,5.845,1.85,335.95,54.895348,9.797490,54.887066,9.785615
1390059175,3,0,0.0,0,0,0,0,713,700,-0.0292,179.6255,6.8213,0.4212,54.884537,9.786159,108.3,5.845,1.85,335.95,54.895348,9.797490,54.887066,9.785615
1390059175,3,0,0.0,0,0,4,0,713,750,-0.0292,179.6255,6.8213,0.4212,54.884521,9.786159,108.3,5.845,1.85,335.95,54.895348,9.797490,54.887066,9.785615
1390059176,3,0,0.0,0,0,0,0,713,700,-0.0292,179.6255,6.8213,0.4212,54.884502,9.786159,108.3,5.845,1.85,335.95,54.895348,9.797490,54.887066,9.785615
1390059176,3,0,0.0,0,0,4,0,713,750,-0.0292,179.6255,6.8213,0.4212,54.884483,9.786159,108.3,5.845,1.85,335.95,54.895348,9.797490,54.887066,9.785615
1390059176,3,0,0.0,0,0,0,0,713,700,-0.0292,179.6255,6.8213,0.4212,54.884464,9.786159,108.3,5.845,1.85,335.95,54.895348,9.797490,54.887066,9.785615
1390059176,3,0,0.0,0,0,4,0,713,750,-0.0292,179.6255,6.8213,0.4212,54.884449,9.786159,108.3,5.845,1.85,335.95,54.895348,9.797490,54.887066,9.785615
1390059177,3,0,0.0,0,0,0,0,713,700,-0.0292,179.6255,6.8213,0.4212,54.884430,9.786159,108.3,5.845,1.85,335.95,54.895348,9.797490,54.887066,9.785615
1390059177,3,0,0.0,0,0,4,0,713,750,-0.0292,179.6255,6.8213,0.4212,54.884411,9.786159,108.3,5.845,1.85,335.95,54.895348,9.797490,54.887066,9.785615
1390059177,3,0,0.0,0,0,0,0,713,700,-0.0292,179.6255,6.8213,0.4212,54.884392,9.786159,108.3,5.845,1.85,335.95,54.895348,9.797490,54.887066,9.785615
1390059177,3,0,0.0,0,0,4,0,713,750,-0.0292,179.6255,6.8213,0.4212,54.884377,9.786159,108.3,5.845,1.85,335.95,54.895348,9.797490,54.887066,9.785615
1390059178,3,0,0.0,0,0,0,0,713,700,-0.0292,179.6255,6.8213,0.4212,54.884357,9.786159,108.3,5.845,1.85,335.95,54.895348,9.797490,54.887066,9.785615
1390059178,3,0,0.0,0,0,4,0,713,750,-0.0292,179.6255,6.8213,0.4212,54.884338,9.786159,108.3,5.845,1.85,335.95,54.895348,9.797490,54.887066,9.785615
1390059178,3,0,0.0,0,0,0,0,713,700,-0.0292,179.6255,6.8213,0.4212,54.884323,9.786159,108.3,5.845,1.85,335.95,54.895348,9.797490,54.887066,9.785615
1390059178,3,0,0.0,0,0,4,0,713,750,-0.0292,179.6255,6.8213,0.4212,54.884304,9.786159,108.3,5.845,1.85,335.95,54.895348,9.797490,54.887066,9.785615
1390059179,3,0,0.0,0,0,0,0,713,700,-0.0292,179.6255,6.8213,0.4212,54.884285,9.786159,108.3,5.845,1.85,335.95,54.895348,9.797490,54.887066,9.785615
1390059179,3,0,0.0,0,0,4,0,713,750,-0.0292,179.6255,6.8213,0.4212,54.884266,9.786159,108.3,5.845,1.85,335.95,54.895348,9.797490,54.887066,9.785615
1390059179,3,0,0.0,0,0,0,0,713,700,-0.0292,179.6255,6.8213,0.4212,54.884251,9.786159,108.3,5.845,1.85,335.95,54.895348,9.797490,54.887066,9.785615
1390059179,3,0,0.0,0,0,4,0,713,750,-0.0292,179.6255,6.8213,0.4212,54.884232,9.786159,108.3,5.845,1.85,335.95,54.895348,9.797490,54.887066,9.785615
1390059180,3,0,0.0,0,0,0,0,713,700,-0.0292,179.6255,6.8213,0.4212,54.884212,9.786159,108.3,5.845,1.85,335.95,54.895348,9.797490,54.887066,9.785615
1390059180,3,0,0.0,0,0,4,0,713,750,-0.0292,179.6255,6.8213,0.4212,54.884193,9.786159,108.3,5.845,1.85,335.95,54.895348,9.797490,54.887066,9.785615
1390059180,3,0,0.0,0,0,0,0,713,700,-0.0292,179.6255,6.8213,0.4212,54.884178,9.786159,108.3,5.845,1.85,335.95,54.895348,9.797490,54.887066,9.785615
1390059180,3,0,0.0,0,0,4,0,713,750,-0.0292,179.6255,6.8213,0.4212,54.884159,9.786159,108.3,5.845,1.85,335.95,54.895348,9.797490,54.887066,9.785615
1390059181,3,0,0.0,0,0,0,0,713,700,-0.0292,179.6255,6.8213,0.4212,54.884140,9.786159,108.3,5.845,1.85,335.95,54.895348,9.797490,54.887066,9.785615
1390059181,3,0,0.0,0,0,4,0,713,750,-0.0292,179.6255,6.8213,0.4212,54.884121,9.786159,108.3,5.845,1.85,335.95,54.895348,9.797490,54.887066,9.785615
1390059181,3,0,0.0,0,0,0,0,713,700,-0.0292,179.6255,6.8213,0.4212,54.884106,9.786159,108.3,5.845,1.85,335.95,54.895348,9.797490,54.887066,9.785615
1390059181,3,0,0.0,0,0,4,0,713,750,-0.0292,179.6255,6.8213,0.4212,54.884087,9.786159,108.3,5.845,1.85,335.95,54.895348,9.797490,54.887066,9.785615
1390059182,3,0,0.0,0,0,0,0,713,700,-0.0292,179.6255,6.8213,0.4212,54.884068,9.786159,108.3,5.845,1.85,335.95,54.895348,9.797490,54.887066,9.785615
1390059182,3,0,0.0,0,0,4,0,713,750,-0.0292,179.6255,6.8213,0.4212,54.884048,9.786159,108.3,5.845,1.85,335.95,54.895348,9.797490,54.887066,9.785615
1390059182,3,0,0.0,0,0,0,0,713,700,-0.0292,179.6255,6.8213,0.4212,54.884033,9.786159,108.3,5.845,1.85,335.95,54.895348,9.797490,54.887066,9.785615
1390059182,3,0,0.0,0,0,4,0,713,750,-0.0292,179.6255,6.8213,0.4212,54.884014,9.786159,108.3,5.845,1.85,335.95,54.895348,9.797490,54.887066,9.785615
1390059183,3,0,0.0,0,0,0,0,713,700,-0.0292,179.6255,6.8213,0.4212,54.883995,9.786159,108.3,5.845,1.85,335.95,54.895348,9.797490,54.887066,9.785615
1390059183,3,0,0.0,0,0,4,0,713,750,-0.0292,179.6255,6.8213,0.4212,54.883980,9.786159,108.3,5.845,1.85,335.95,54.895348,9.797490,54.887066,9.785615
1390059183,3,0,0.0,0,0,0,0,713,700,-0.0292,179.6255,6.8213,0.4212,54.883961,9.786159,108.3,5.845,1.85,335.95,54.895348,9.797490,54.887066,9.785615
1390059183,3,0,0.0,0,0,4,0,713,750,-0.0292,179.6255,6.8213,0.4212,54.883942,9.786159,108.3,5.845,1.85,335.95,54.895348,9.797490,54.887066,9.785615
1390059184,3,0,0.0,0,0,0,0,713,700,-0.0292,179.6255,6.8213,0.4212,54.883923,9.786159,108.3,5.845,1.85,335.95,54.895348,9.797490,54.887066,9.785615
1390059184,3,0,0.0,0,0,4,0,713,750,-0.0292,179.6255,6.8213,0.4212,54.883907,9.786159,108.3,5.845,1.85,335.95,54.895348,9.797490,54.887066,9.785615
1390059184,3,0,0.0,0,0,0,0,713,700,-0.0292,179.6255,6.8213,0.4212,54.883888,9.786159,108.3,5.845,1.85,335.95,54.895348,9.797490,54.887066,9.785615
1390059184,3,0,0.0,0,0,4,0,713,750,-0.0292,179.6255,6.8213,0.4212,54.883869,9.786159,108.3,5.845,1.85,335.95,54.895348,9.797490,54.887066,9.785615
1390059185,3,0,0.0,0,0,0,0,713,700,-0.0292,179.6255,6.8213,0.4212,54.883850,9.786159,108.3,5.845,1.85,335.95,54.895348,9.797490,54.887066,9.785615
1390059185,3,0,0.0,0,0,4,0,713,750,-0.0292,179.6255,6.8213,0.4212,54.883835,9.786159,108.3,5.845,1.85,335.95,54.895348,9.797490,54.887066,9.785615
1390059185,3,0,0.0,0,0,0,0,713,700,-0.0292,179.6255,6.8213,0.4212,54.883816,9.786159,108.3,5.845,1.85,335.95,54.895348,9.797490,54.887066,9.785615
1390059185,3,0,0.0,0,0,4,0,713,750,-0.0292,179.6255,6.8213,0.4212,54.883797,9.786159,108.3,5.845,1.85,335.95,54.895348,9.797490,54.887066,9.785615
1390059186,3,0,0.0,0,0,0,0,713,700,-0.0292,179.6255,6.8213,0.4212,54.883778,9.786159,108.3,5.845,1.85,335.95,54.895348,9.797490,54.887066,9.785615
1390059186,3,0,0.0,0,0,4,0,713,750,-0.0292,179.6255,6.8213,0.4212,54.883762,9.786159,108.3,5.845,1.85,335.95,54.895348,9.797490,54.887066,9.785615
1390059186,3,0,0.0,0,0,0,0,713,700,-0.0292,179.6255,6.8213,0.4212,54.883743,9.786159,108.3,5.845,1.85,335.95,54.895348,9.797490,54.887066,9.785615
1390059186,3,0,0.0,0,0,4,0,713,750,-0.0292,179.6255,6.8213,0.4212,54.883724,9.786159,108.3,5.845,1.85,335.95,54.895348,9.797490,54.887066,9.785615
1390059187,3,0,0.0,0,0,0,0,713,700,-0.0292,179.6255,6.8213,0.4212,54.883709,9.786159,108.3,5.845,1.85,335.95,54.895348,9.797490,54.887066,9.785615
1390059187,3,0,0.0,0,0,4,0,713,750,-0.0292,179.6255,6.8213,0.4212,54.883690,9.786159,108.3,5.845,1.85,335.95,54.895348,9.797490,54.887066,9.785615
1390059187,3,0,0.0,0,0,0,0,713,700,-0.0292,179.6255,6.8213,0.4212,54.883671,9.786159,108.3,5.845,1.85,335.95,54.895348,9.797490,54.887066,9.785615
1390059187,3,0,0.0,0,0,4,0,713,750,-0.0292,179.6255,6.8213,0.4212,54.883652,9.786159,108.3,5.845,1.85,335.95,54.895348,9.797490,54.887066,9.785615
1390059188,3,0,0.0,0,0,0,0,713,700,-0.0292,179.6255,6.8213,0.4212,54.883636,9.786159,108.3,5.845,1.85,335.95,54.895348,9.797490,54.887066,9.785615
1390059188,3,0,0.0,0,0,4,0,713,750,-0.0292,179.6255,6.8213,0.4212,54.883617,9.786159,108.3,5.845,1.85,335.95,54.895348,9.797490,54.887066,9.785615
1390059188,3,0,0.0,0,0,0,0,713,700,-0.0292,179.6255,6.8213,0.4212,54.883598,9.786159,108.3,5.845,1.85,335.95,54.895348,9.797490,54.887066,9.785615
1390059188,3,0,0.0,0,0,4,0,713,750,-0.0292,179.6255,6.8213,0.4212,54.883579,9.786159,108.3,5.845,1.85,335.95,54.895348,9.797490,54.887066,9.785615
1390059189,3,0,0.0,0,0,0,0,713,700,-0.0292,179.6255,6.8213,0.4212,54.883564,9.786159,108.3,5.845,1.85,335.95,54.895348,9.797490,54.887066,9.785615
1390059189,3,0,0.0,0,0,4,0,713,750,-0.0292,179.6255,6.8213,0.4212,54.883545,9.786159,108.3,5.845,1.85,335.95,54.895348,9.797490,54.887066,9.785615
1390059189,3,0,0.0,0,0,0,0,713,700,-0.0292,179.6255,6.8213,0.4212,54.883526,9.786159,108.3,5.845,1.85,335.95,54.895348,9.797490,54.887066,9.785615
1390059189,3,0,0.0,0,0,4,0,713,750,-0.0292,179.6255,6.8213,0.4212,54.883507,9.786159,108.3,5.845,1.85,335.95,54.895348,9.797490,54.887066,9.785615
1390059190,3,0,0.0,0,0,0,0,713,700,-0.0292,179.6255,6.8213,0.4212,54.883492,9.786159,108.3,5.845,1.85,335.95,54.895348,9.797490,54.887066,9.785615
1390059190,3,0,0.0,0,0,4,0,713,750,-0.0292,179.6255,6.8213,0.4212,54.883472,9.786159,108.3,5.845,1.85,335.95,54.895348,9.797490,54.887066,9.785615
1390059190,3,0,0.0,0,0,0,0,713,700,-0.0292,179.6255,6.8213,0.4212,54.883453,9.786159,108.3,5.845,1.85,335.95,54.895348,9.797490,54.887066,9.785615
1390059190,3,0,0.0,0,0,4,0,713,750,-0.0292,179.6255,6.8213,0.4212,54.883438,9.786159,108.3,5.845,1.85,335.95,54.895348,9.797490,54.887066,9.785615
1390059191,3,0,0.0,0,0,0,0,713,700,-0.0292,179.6255,6.8213,0.4212,54.883419,9.786159,108.3,5.845,1.85,335.95,54.895348,9.797490,54.887066,9.785615
1390059191,3,0,0.0,0,0,4,0,713,750,-0.0292,179.6255,6.8213,0.4212,54.883400,9.786159,108.3,5.845,1.85,335.95,54.895348,9.797490,54.887066,9.785615
1390059191,3,0,0.0,0,0,0,0,713,700,-0.0292,179.6255,6.8213,0.4212,54.883381,9.786159,108.3,5.845,1.85,335.95,54.895348,9.797490,54.887066,9.785615
1390059191,3,0,0.0,0,0,4,0,713,750,-0.0292,179.6255,6.8213,0.4212,54.883366,9.786159,108.3,5.845,1.85,335.95,54.895348,9.797490,54.887066,9.785615
1390059192,3,0,0.0,0,0,0,0,713,700,-0.0292,179.6255,6.8213,0.4212,54.883347,9.786159,108.3,5.845,1.85,335.95,54.895348,9.797490,54.887066,9.785615
1390059192,3,0,0.0,0,0,4,0,713,750,-0.0292,179.6255,6.8213,0.4212,54.883327,9.786159,108.3,5.845,1.85,335.95,54.895348,9.797490,54.887066,9.785615
1390059192,3,0,0.0,0,0,0,0,713,700,-0.0292,179.6255,6.8213,0.4212,54.883308,9.786159,108.3,5.845,1.85,335.95,54.895348,9.797490,54.887066,9.785615
1390059192,3,0,0.0,0,0,4,0,713,750,-0.0292,179.6255,6.8213,0.4212,54.883293,9.786159,108.3,5.845,1.85,335.95,54.895348,9.797490,54.887066,9.785615
1390059193,3,0,0.0,0,0,0,0,713,700,-0.0292,179.6255,6.8213,0.4212,54.883274,9.786159,108.3,5.845,1.85,335.95,54.895348,9.797490,54.887066,9.785615
1390059193,3,0,0.0,0,0,4,0,713,750,-0.0292,179.6255,6.8213,0.4212,54.883255,9.786159,108.3,5.845,1.85,335.95,54.895348,9.797490,54.887066,9.785615
1390059193,3,0,0.0,0,0,0,0,713,700,-0.0292,179.6255,6.8213,0.4212,54.883236,9.786159,108.3,5.845,1.85,335.95,54.895348,9.797490,54.887066,9.785615
1390059193,3,0,0.0,0,0,4,0,713,750,-0.0292,179.6255,6.8213,0.4212,54.883221,9.786159,108.3,5.845,1.85,335.95,54.895348,9.797490,54.887066,9.785615
1390059194,3,0,0.0,0,0,0,0,713,700,-0.0292,179.6255,6.8213,0.4212,54.883202,9.786159,108.3,5.845,1.85,335.95,54.895348,9.797490,54.887066,9.785615
1390059194,3,0,0.0,0,0,4,0,713,750,-0.0292,179.6255,6.8213,0.4212,54.883183,9.786159,108.3,5.845,1.85,335.95,54.895348,9.797490,54.887066,9.785615
1390059194,3,0,0.0,0,0,0,0,713,700,-0.0292,179.6255,6.8213,0.4212,54.883167,9.786159,108.3,5.845,1.85,335.95,54.895348,9.797490,54.887066,9.785615
1390059194,3,0,0.0,0,0,4,0,713,750,-0.0292,179.6255,6.8213,0.4212,54.883148,9.786159,108.3,5.845,1.85,335.95,54.895348,9.797490,54.887066,9.785615
1390059195,3,0,0.0,0,0,0,0,713,700,-0.0292,179.6255,6.8213,0.4212,54.883129,9.786159,108.3,5.845,1.85,335.95,54.895348,9.797490,54.887066,9.785615
1390059195,3,0,0.0,0,0,4,0,713,750,-0.0292,179.6255,6.8213,0.4212,54.883110,9.786159,108.3,5.845,1.85,335.95,54.895348,9.797490,54.887066,9.785615
1390059195,3,0,0.0,0,0,0,0,713,700,-0.0292,179.6255,6.8213,0.4212,54.883095,9.786159,108.3,5.845,1.85,335.95,54.895348,9.797490,54.887066,9.785615
1390059195,3,0,0.0,0,0,4,0,713,750,-0.0292,179.6255,6.8213,0.4212,54.883076,9.786159,108.3,5.845,1.85,335.95,54.895348,9.797490,54.887066,9.785615
1390059196,3,0,0.0,0,0,0,0,713,700,-0.0292,179.6255,6.8213,0.4212,54.883057,9.786159,108.3,5.845,1.85,335.95,54.895348,9.797490,54.887066,9.785615
1390059196,3,0,0.0,0,10,4,0,713,750,-0.0292,176.2922,6.8213,0.4212,54.883038,9.786160,108.3,5.845,1.85,335.95,54.895348,9.797490,54.887066,9.785615
1390059196,3,0,0.0,0,6,8,0,713,700,-0.0292,174.2922,6.8213,0.4212,54.883022,9.786163,108.3,5.845,1.85,335.95,54.895348,9.797490,54.887066,9.785615
1390059196,3,0,0.0,0,4,4,0,713,750,-0.0292,172.9589,6.8213,0.4212,54.883003,9.786167,108.3,5.845,1.85,335.95,54.895348,9.797490,54.887066,9.785615
1390059197,3,0,0.0,0,3,0,0,713,700,-0.0292,171.9589,6.8213,0.4212,54.882984,9.786171,108.3,5.845,1.85,335.95,54.895348,9.797490,54.887066,9.785615
1390059197,3,0,0.0,0,2,4,0,713,750,-0.0292,171.2922,6.8213,0.4212,54.882965,9.786176,108.3,5.845,1.85,335.95,54.895348,9.797490,54.887066,9.785615
1390059197,3,0,0.0,0,1,0,0,713,700,-0.0292,170.9589,6.8213,0.4212,54.882950,9.786180,108.3,5.845,1.85,335.95,54.895348,9.797490,54.887066,9.785615
1390059197,3,0,0.0,0,1,4,0,713,750,-0.0292,170.6255,6.8213,0.4212,54.882931,9.786185,108.3,5.845,1.85,335.95,54.895348,9.797490,54.887066,9.785615
1390059198,3,0,0.0,0,1,0,0,713,700,-0.0292,170.2922,6.8213,0.4212,54.882912,9.786191,108.3,5.845,1.85,335.95,54.895348,9.797490,54.887066,9.785615
1390059198,3,0,0.0,0,0,4,0,713,750,-0.0292,170.2922,6.8213,0.4212,54.882896,9.786197,108.3,5.845,1.85,335.95,54.895348,9.797490,54.887066,9.785615
1390059198,3,0,0.0,0,0,0,0,713,700,-0.0292,170.2922,6.8213,0.4212,54.882877,9.786202,108.3,5.845,1.85,335.95,54.895348,9.797490,54.887066,9.785615
1390059198,3,0,0.0,0,0,4,0,713,750,-0.0292,170.2922,6.8213,0.4212,54.882858,9.786207,108.3,5.845,1.85,335.95,54.895348,9.797490,54.887066,9.785615
1390059199,3,0,0.0,0,0,0,0,713,700,-0.0292,170.2922,6.8213,0.4212,54.882839,9.786212,108.3,5.845,1.85,335.95,54.895348,9.797490,54.887066,9.785615
1390059199,3,0,0.0,0,0,4,0,713,750,-0.0292,170.2922,6.8213,0.4212,54.882824,9.786217,108.3,5.845,1.85,335.95,54.895348,9.797490,54.887066,9.785615
1390059199,3,0,0.0,0,0,0,0,713,700,-0.0292,170.2922,6.8213,0.4212,54.882805,9.786222,108.3,5.845,1.85,335.95,54.895348,9.797490,54.887066,9.785615
1390059199,3,0,0.0,0,0,4,0,713,750,-0.0292,170.2922,6.8213,0.4212,54.882786,9.786226,108.3,5.845,1.85,335.95,54.895348,9.797490,54.887066,9.785615
1390059200,3,0,0.0,0,0,0,0,713,700,-0.0292,170.2922,6.8213,0.4212,54.882767,9.786232,108.3,5.845,1.85,335.95,54.895348,9.797490,54.887066,9.785615
1390059200,3,0,0.0,0,0,4,0,713,750,-0.0292,170.2922,6.8213,0.4212,54.882751,9.786238,108.3,5.845,1.85,335.95,54.895348,9.797490,54.887066,9.785615
1390059200,3,0,0.0,0,0,0,0,713,700,-0.0292,170.2922,6.8213,0.4212,54.882732,9.786243,108.3,5.845,1.85,335.95,54.895348,9.797490,54.887066,9.785615
1390059200,3,0,0.0,0,0,4,0,713,750,-0.0292,170.2922,6.8213,0.4212,54.882713,9.786249,108.3,5.845,1.85,335.95,54.895348,9.797490,54.887066,9.785615
1390059201,3,0,0.0,0,0,0,0,713,700,-0.0292,170.2922,6.8213,0.4212,54.882694,9.786254,108.3,5.845,1.85,335.95,54.895348,9.797490,54.887066,9.785615
1390059201,3,0,0.0,0,0,4,0,713,750,-0.0292,170.2922,6.8213,0.4212,54.882679,9.786259,108.3,5.845,1.85,335.95,54.895348,9.797490,54.887066,9.785615
1390059201,3,0,0.0,0,0,0,0,713,700,-0.0292,170.2922,6.8213,0.4212,54.882660,9.786263,108.3,5.845,1.85,335.95,54.895348,9.797490,54.887066,9.785615
1390059201,3,0,0.0,0,0,4,0,713,750,-0.0292,170.2922,6.8213,0.4212,54.882641,9.786268,108.3,5.845,1.85,335.95,54.895348,9.797490,54.887066,9.785615
1390059202,3,0,0.0,0,0,0,0,713,700,-0.0292,170.2922,6.8213,0.4212,54.882626,9.786274,108.3,5.845,1.85,335.95,54.895348,9.797490,54.887066,9.785615
1390059202,3,0,0.0,0,0,4,0,713,750,-0.0292,170.2922,6.8213,0.4212,54.882607,9.786280,108.3,5.845,1.85,335.95,54.895348,9.797490,54.887066,9.785615
1390059202,3,0,0.0,0,0,0,0,713,700,-0.0292,170.2922,6.8213,0.4212,54.882587,9.786285,108.3,5.845,1.85,335.95,54.895348,9.797490,54.887066,9.785615
1390059202,3,0,0.0,0,0,4,0,713,750,-0.0292,170.2922,6.8213,0.4212,54.882568,9.786291,108.3,5.845,1.85,335.95,54.895348,9.797490,54.887066,9.785615
1390059203,3,0,0.0,0,0,0,0,713,700,-0.0292,170.2922,6.8213,0.4212,54.882553,9.786296,108.3,5.845,1.85,335.95,54.895348,9.797490,54.887066,9.785615
1390059203,3,0,0.0,0,0,4,0,713,750,-0.0292,170.2922,6.8213,0.4212,54.882534,9.786301,108.3,5.845,1.85,335.95,54.895348,9.797490,54.887066,9.785615
1390059203,3,0,0.0,0,0,0,0,713,700,-0.0292,170.2922,6.8213,0.4212,54.882515,9.786305,108.3,5.845,1.85,335.95,54.895348,9.797490,54.887066,9.785615
1390059203,3,0,0.0,0,0,4,0,713,750,-0.0292,170.2922,6.8213,0.4212,54.882496,9.786310,108.3,5.845,1.85,335.95,54.895348,9.797490,54.887066,9.785615
1390059204,3,0,0.0,0,0,0,0,713,700,-0.0292,170.2922,6.8213,0.4212,54.882481,9.786316,108.3,5.845,1.85,335.95,54.895348,9.797490,54.887066,9.785615
1390059204,3,0,0.0,0,0,4,0,713,750,-0.0292,170.2922,6.8213,0.4212,54.882462,9.786322,108.3,5.845,1.85,335.95,54.895348,9.797490,54.887066,9.785615
1390059204,3,0,0.0,0,0,0,0,713,700,-0.0292,170.2922,6.8213,0.4212,54.882442,9.786327,108.3,5.845,1.85,335.95,54.895348,9.797490,54.887066,9.785615
1390059204,3,0,0.0,0,0,4,0,713,750,-0.0292,170.2922,6.8213,0.4212,54.882423,9.786333,108.3,5.845,1.85,335.95,54.895348,9.797490,54.887066,9.785615
1390059205,3,0,0.0,0,0,0,0,713,700,-0.0292,170.2922,6.8213,0.4212,54.882408,9.786338,108.3,5.845,1.85,335.95,54.895348,9.797490,54.887066,9.785615
1390059205,3,0,0.0,0,0,4,0,713,750,-0.0292,170.2922,6.8213,0.4212,54.882389,9.786343,108.3,5.845,1.85,335.95,54.895348,9.797490,54.887066,9.785615
1390059205,3,0,0.0,0,0,0,0,713,700,-0.0292,170.2922,6.8213,0.4212,54.882370,9.786347,108.3,5.845,1.85,335.95,54.895348,9.797490,54.887066,9.785615
1390059205,3,0,0.0,0,0,4,0,713,750,-0.0292,170.2922,6.8213,0.4212,54.882355,9.786352,108.3,5.845,1.85,335.95,54.895348,9.797490,54.887066,9.785615
1390059206,3,0,0.0,0,0,0,0,713,700,-0.0292,170.2922,6.8213,0.4212,54.882336,9.786358,108.3,5.845,1.85,335.95,54.895348,9.797490,54.887066,9.785615
1390059206,3,0,0.0,0,0,4,0,713,750,-0.0292,170.2922,6.8213,0.4212,54.882317,9.786364,108.3,5.845,1.85,335.95,54.895348,9.797490,54.887066,9.785615
1390059206,3,0,0.0,0,0,0,0,713,700,-0.0292,170.2922,6.8213,0.4212,54.882298,9.786369,108.3,5.845,1.85,335.95,54.895348,9.797490,54.887066,9.785615
1390059206,3,0,0.0,0,0,4,0,713,750,-0.0292,170.2922,6.8213,0.4212,54.882282,9.786375,108.3,5.845,1.85,335.95,54.895348,9.797490,54.887066,9.785615
1390059207,3,0,0.0,0,0,0,0,713,700,-0.0292,170.2922,6.8213,0.4212,54.882263,9.786380,108.3,5.845,1.85,335.95,54.895348,9.797490,54.887066,9.785615
1390059207,3,0,0.0,0,0,4,0,713,750,-0.0292,170.2922,6.8213,0.4212,54.882244,9.786385,108.3,5.845,1.85,335.95,54.895348,9.797490,54.887066,9.785615
1390059207,3,0,0.0,0,0,0,0,713,700,-0.0292,170.2922,6.8213,0.4212,54.882225,9.786389,108.3,5.845,1.85,335.95,54.895348,9.797490,54.887066,9.785615
1390059207,3,0,0.0,0,0,4,0,713,750,-0.0292,170.2922,6.8213,0.4212,54.882210,9.786394,108.3,5.845,1.85,335.95,54.895348,9.797490,54.887066,9.785615
1390059208,3,0,0.0,0,0,0,0,713,700,-0.0292,170.2922,6.8213,0.4212,54.882191,9.786399,108.3,5.845,1.85,335.95,54.895348,9.797490,54.887066,9.785615
1390059208,3,0,0.0,0,0,4,0,713,750,-0.0292,170.2922,6.8213,0.4212,54.882172,9.786405,108.3,5.845,1.85,335.95,54.895348,9.797490,54.887066,9.785615
1390059208,3,0,0.0,0,0,0,0,713,700,-0.0292,170.2922,6.8213,0.4212,54.882153,9.786410,108.3,5.845,1.85,335.95,54.895348,9.797490,54.887066,9.785615
1390059209,3,0,0.0,0,0,4,0,713,750,-0.0292,170.2922,6.8213,0.4212,54.882137,9.786416,108.3,5.845,1.85,335.95,54.895348,9.797490,54.887066,9.785615
1390059209,3,0,0.0,0,0,0,0,713,700,-0.0292,170.2922,6.8213,0.4212,54.882118,9.786421,108.3,5.845,1.85,335.95,54.895348,9.797490,54.887066,9.785615
1390059209,3,0,0.0,0,0,4,0,713,750,-0.0292,170.2922,6.8213,0.4212,54.882099,9.786426,108.3,5.845,1.85,335.95,54.895348,9.797490,54.887066,9.785615
1390059209,3,0,0.0,0,0,0,0,713,700,-0.0292,170.2922,6.8213,0.4212,54.882084,9.786430,108.3,5.845,1.85,335.95,54.895348,9.797490,54.887066,9.785615
1390059210,3,0,0.0,0,0,4,0,713,750,-0.0292,170.2922,6.8213,0.4212,54.882065,9.786435,108.3,5.845,1.85,335.95,54.895348,9.797490,54.887066,9.785615
1390059210,3,0,0.0,0,0,0,0,713,700,-0.0292,170.2922,6.8213,0.4212,54.882046,9.786440,108.3,5.845,1.85,335.95,54.895348,9.797490,54.887066,9.785615
1390059210,3,0,0.0,0,0,4,0,713,750,-0.0292,170.2922,6.8213,0.4212,54.882027,9.786446,108.3,5.845,1.85,335.95,54.895348,9.797490,54.887066,9.785615
1390059210,3,0,0.0,0,0,0,0,713,700,-0.0292,170.2922,6.8213,0.4212,54.882011,9.786451,108.3,5.845,1.85,335.95,54.895348,9.797490,54.887066,9.785615
1390059211,3,0,0.0,0,0,4,0,713,750,-0.0292,170.2922,6.8213,0.4212,54.881992,9.786457,108.3,5.845,1.85,335.95,54.895348,9.797490,54.887066,9.785615
1390059211,3,0,0.0,0,0,0,0,713,700,-0.0292,170.2922,6.8213,0.4212,54.881973,9.786463,108.3,5.845,1.85,335.95,54.895348,9.797490,54.887066,9.785615
1390059211,3,0,0.0,0,0,4,0,713,750,-0.0292,170.2922,6.8213,0.4212,54.881954,9.786468,108.3,5.845,1.85,335.95,54.895348,9.797490,54.887066,9.785615
1390059211,3,0,0.0,0,0,0,0,713,700,-0.0292,170.2922,6.8213,0.4212,54.881939,9.786472,108.3,5.845,1.85,335.95,54.895348,9.797490,54.887066,9.785615
1390059212,3,0,0.0,0,0,4,0,713,750,-0.0292,170.2922,6.8213,0.4212,54.881920,9.786477,108.3,5.845,1.85,335.95,54.895348,9.797490,54.887066,9.785615
1390059212,3,0,0.0,0,0,0,0,713,700,-0.0292,170.2922,6.8213,0.4212,54.881901,9.786482,108.3,5.845,1.85,335.95,54.895348,9.797490,54.887066,9.785615
1390059212,3,0,0.0,0,0,4,0,713,750,-0.0292,170.2922,6.8213,0.4212,54.881882,9.786488,108.3,5.845,1.85,335.95,54.895348,9.797490,54.887066,9.785615
1390059212,3,0,0.0,0,0,0,0,713,700,-0.0292,170.2922,6.8213,0.4212,54.881866,9.786493,108.3,5.845,1.85,335.95,54.895348,9.797490,54.887066,9.785615
1390059213,3,0,0.0,0,0,4,0,713,750,-0.0292,170.2922,6.8213,0.4212,54.881847,9.786499,108.3,5.845,1.85,335.95,54.895348,9.797490,54.887066,9.785615
1390059213,3,0,0.0,0,0,0,0,713,700,-0.0292,170.2922,6.8213,0.4212,54.881828,9.786505,108.3,5.845,1.85,335.95,54.895348,9.797490,54.887066,9.785615
1390059213,3,0,0.0,0,0,4,0,713,750,-0.0292,170.2922,6.8213,0.4212,54.881813,9.786510,108.3,5.845,1.85,335.95,54.895348,9.797490,54.887066,9.785615
1390059213,3,0,0.0,0,0,0,0,713,700,-0.0292,170.2922,6.8213,0.4212,54.881794,9.786514,108.3,5.845,1.85,335.95,54.895348,9.797490,54.887066,9.785615
1390059214,3,0,0.0,0,0,4,0,713,750,-0.0292,170.2922,6.8213,0.4212,54.881775,9.786519,108.3,5.845,1.85,335.95,54.895348,9.797490,54.887066,9.785615
1390059214,3,0,0.0,0,0,0,0,713,700,-0.0292,170.2922,6.8213,0.4212,54.881756,9.786524,108.3,5.845,1.85,335.95,54.895348,9.797490,54.887066,9.785615
1390059214,3,0,0.0,0,0,4,0,713,750,-0.0292,170.2922,6.8213,0.4212,54.881741,9.786530,108.3,5.845,1.85,335.95,54.895348,9.797490,54.887066,9.785615
1390059214,3,0,0.0,0,0,0,0,713,700,-0.0292,170.2922,6.8213,0.4212,54.881721,9.786535,108.3,5.845,1.85,335.95,54.895348,9.797490,54.887066,9.785615
1390059215,3,0,0.0,0,0,4,0,713,750,-0.0292,170.2922,6.8213,0.4212,54.881702,9.786541,108.3,5.845,1.85,335.95,54.895348,9.797490,54.887066,9.785615
1390059215,3,0,0.0,0,0,0,0,713,700,-0.0292,170.2922,6.8213,0.4212,54.881683,9.786547,108.3,5.845,1.85,335.95,54.895348,9.797490,54.887066,9.785615
1390059215,3,0,0.0,0,0,4,0,713,750,-0.0292,170.2922,6.8213,0.4212,54.881668,9.786551,108.3,5.845,1.85,335.95,54.895348,9.797490,54.887066,9.785615
1390059215,3,0,0.0,0,0,0,0,713,700,-0.0292,170.2922,6.8213,0.4212,54.881649,9.786556,108.3,5.845,1.85,335.95,54.895348,9.797490,54.887066,9.785615
1390059216,3,0,0.0,0,0,4,0,713,750,-0.0292,170.2922,6.8213,0.4212,54.881630,9.786561,108.3,5.845,1.85,335.95,54.895348,9.797490,54.887066,9.785615
1390059216,3,0,0.0,0,0,0,0,713,700,-0.0292,170.2922,6.8213,0.4212,54.881611,9.786566,108.3,5.845,1.85,335.95,54.895348,9.797490,54.887066,9.785615
1390059216,3,0,0.0,0,0,4,0,713,750,-0.0292,170.2922,6.8213,0.4212,54.881596,9.786572,108.3,5.845,1.85,335.95,54.895348,9.797490,54.887066,9.785615
1390059216,3,0,0.0,0,0,0,0,713,700,-0.0292,170.2922,6.8213,0.4212,54.881577,9.786577,108.3,5.845,1.85,335.95,54.895348,9.797490,54.887066,9.785615
1390059217,3,0,0.0,0,0,4,0,713,750,-0.0292,170.2922,6.8213,0.4212,54.881557,9.786583,108.3,5.845,1.85,335.95,54.895348,9.797490,54.887066,9.785615
1390059217,3,0,0.0,0,0,0,0,713,700,-0.0292,170.2922,6.8213,0.4212,54.881542,9.786589,108.3,5.845,1.85,335.95,54.895348,9.797490,54.887066,9.785615
1390059217,3,0,0.0,0,0,4,0,713,750,-0.0292,170.2922,6.8213,0.4212,54.881523,9.786593,108.3,5.845,1.85,335.95,54.895348,9.797490,54.887066,9.785615
1390059217,3,0,0.0,0,0,0,0,713,700,-0.0292,170.2922,6.8213,0.4212,54.881504,9.786598,108.3,5.845,1.85,335.95,54.895348,9.797490,54.887066,9.785615
1390059218,3,0,0.0,0,0,4,0,713,750,-0.0292,170.2922,6.8213,0.4212,54.881485,9.786603,108.3,5.845,1.85,335.95,54.895348,9.797490,54.887066,9.785615
1390059218,3,0,0.0,0,0,0,0,713,700,-0.0292,170.2922,6.8213,0.4212,54.881470,9.786608,108.3,5.845,1.85,335.95,54.895348,9.797490,54.887066,9.785615
1390059218,3,0,0.0,0,0,4,0,713,750,-0.0292,170.2922,6.8213,0.4212,54.881451,9.786613,108.3,5.845,1.85,335.95,54.895348,9.797490,54.887066,9.785615
1390059218,3,0,0.0,0,0,0,0,713,700,-0.0292,170.2922,6.8213,0.4212,54.881432,9.786618,108.3,5.845,1.85,335.95,54.895348,9.797490,54.887066,9.785615
1390059219,3,0,0.0,0,0,4,0,713,750,-0.0292,170.2922,6.8213,0.4212,54.881413,9.786624,108.3,5.845,1.85,335.95,54.895348,9.797490,54.887066,9.785615
1390059219,3,0,0.0,0,0,0,0,713,700,-0.0292,170.2922,6.8213,0.4212,54.881397,9.786630,108.3,5.845,1.85,335.95,54.895348,9.797490,54.887066,9.785615
1390059219,3,0,0.0,0,0,4,0,713,750,-0.0292,170.2922,6.8213,0.4212,54.881378,9.786635,108.3,5.845,1.85,335.95,54.895348,9.797490,54.887066,9.785615
1390059219,3,0,0.0,0,0,0,0,713,700,-0.0292,170.2922,6.8213,0.4212,54.881359,9.786640,108.3,5.845,1.85,335.95,54.895348,9.797490,54.887066,9.785615
1390059220,3,0,0.0,0,0,4,0,713,750,-0.0292,170.2922,6.8213,0.4212,54.881340,9.786645,108.3,5.845,1.85,335.95,54.895348,9.797490,54.887066,9.785615
1390059220,3,0,0.0,0,0,0,0,713,700,-0.0292,170.2922,6.8213,0.4212,54.881325,9.786650,108.3,5.845,1.85,335.95,54.895348,9.797490,54.887066,9.785615
1390059220,3,0,0.0,0,0,4,0,713,750,-0.0292,170.2922,6.8213,0.4212,54.881306,9.786654,108.3,5.845,1.85,335.95,54.895348,9.797490,54.887066,9.785615
