MCU_timestamp,Navigation_System,Manual_Control,Guidance_Heading,Manual_Ctrl_Rudder,Rudder_Desired_Angle,Rudder_Feedback,Manual_Ctrl_Sail,Sail_Desired_Pos,Sail_Feedback,Rate,Heading,Pitch,Roll,Latitude,Longitude,COG,SOG,Wind_Speed,Wind_Angle,Point_Start_Lat,Point_Start_Lon,Point_End_Lat,Point_End_Lon
1386877192,1,0,485.9,0,35,4,0,436,450,-0.0292,573.4927,6.8213,0.4212,54.889816,9.794970,108.3,5.845,1.85,335.95,54.889832,9.794987,0.000000,0.000000
1386877192,1,0,485.9,0,35,8,0,500,475,-0.0292,564.1594,6.8213,0.4212,54.889801,9.794957,108.3,5.845,1.85,335.95,54.889832,9.794987,0.000000,0.000000
1386877193,1,0,485.9,0,35,12,0,500,500,-0.0292,554.8261,6.8213,0.4212,54.889786,9.794949,108.3,5.845,1.85,335.95,54.889832,9.794987,0.000000,0.000000
1386877193,1,0,485.9,0,35,16,0,409,475,-0.0292,545.4928,6.8213,0.4212,54.889767,9.794945,108.3,5.845,1.85,335.95,54.889832,9.794987,0.000000,0.000000
1386877193,1,0,485.9,0,35,20,0,409,450,-0.0292,536.1595,6.8213,0.4212,54.889748,9.794948,108.3,5.845,1.85,335.95,54.889832,9.794987,0.000000,0.000000
1386877193,1,0,485.9,0,35,24,0,409,425,-0.0292,526.8262,6.8213,0.4212,54.889732,9.794954,108.3,5.845,1.85,335.95,54.889832,9.794987,0.000000,0.000000
1386877194,1,0,485.9,0,35,28,0,409,400,-0.0292,517.4929,6.8213,0.4212,54.889713,9.794966,108.3,5.845,1.85,335.95,54.889832,9.794987,0.000000,0.000000
1386877194,1,0,485.9,0,32,32,0,0,375,-0.0292,508.9595,6.8213,0.4212,54.889698,9.794982,108.3,5.845,1.85,335.95,54.889832,9.794987,0.000000,0.000000
1386877194,1,0,485.9,0,23,28,0,0,350,-0.0292,502.8262,6.8213,0.4212,54.889683,9.795001,108.3,5.845,1.85,335.95,54.889832,9.794987,0.000000,0.000000
1386877194,1,0,485.9,0,17,24,0,409,375,-0.0292,498.2929,6.8213,0.4212,54.889668,9.795022,108.3,5.845,1.85,335.95,54.889832,9.794987,0.000000,0.000000
1386877195,1,0,485.9,0,12,20,0,409,400,-0.0292,495.0929,6.8213,0.4212,54.889656,9.795044,108.3,5.845,1.85,335.95,54.889832,9.794987,0.000000,0.000000
1386877195,1,0,485.9,0,9,16,0,409,425,-0.0292,492.6929,6.8213,0.4212,54.889645,9.795067,108.3,5.845,1.85,335.95,54.889832,9.794987,0.000000,0.000000
1386877195,1,0,485.9,0,7,12,0,409,400,-0.0292,490.8262,6.8213,0.4212,54.889633,9.795091,108.3,5.845,1.85,335.95,54.889832,9.794987,0.000000,0.000000
1386877195,1,0,485.9,0,5,8,0,409,425,-0.0292,489.4929,6.8213,0.4212,54.889626,9.795115,108.3,5.845,1.85,335.95,54.889832,9.794987,0.000000,0.000000
1386877196,1,0,485.9,0,4,4,0,409,400,-0.0292,488.4262,6.8213,0.4212,54.889614,9.795139,108.3,5.845,1.85,335.95,54.889832,9.794987,0.000000,0.000000
1386877196,0,0,485.9,0,4,4,0,409,400,-0.0292,488.4262,6.8213,0.4212,54.889614,9.795139,108.3,5.845,1.85,335.95,54.889832,9.794987,0.000000,0.000000
1386877196,0,0,485.9,0,4,4,0,409,400,-0.0292,488.4262,6.8213,0.4212,54.889614,9.795139,108.3,5.845,1.85,335.95,54.889832,9.794987,0.000000,0.000000
1386877196,0,0,485.9,0,4,4,0,409,400,-0.0292,488.4262,6.8213,0.4212,54.889614,9.795139,108.3,5.845,1.85,335.95,54.889832,9.794987,0.000000,0.000000
1386877197,0,0,485.9,0,4,4,0,409,400,-0.0292,488.4262,6.8213,0.4212,54.889614,9.795139,108.3,5.845,1.85,335.95,54.889832,9.794987,0.000000,0.000000
1386877197,4,0,485.9,0,4,4,0,409,400,-0.0292,488.4262,6.8213,0.4212,54.889614,9.795139,108.3,5.845,1.85,335.95,54.889832,9.794987,0.000000,0.000000
1386877197,1,0,485.9,0,2,0,0,409,425,-0.0292,487.8929,6.8213,0.4212,54.889603,9.795164,108.3,5.845,1.85,335.95,54.889614,9.795139,54.895069,9.793790
1386877197,1,0,485.9,0,2,4,0,409,400,-0.0292,487.3595,6.8213,0.4212,54.889591,9.795189,108.3,5.845,1.85,335.95,54.889614,9.795139,54.895069,9.793790
1386877198,1,0,485.9,0,1,0,0,409,425,-0.0292,487.0929,6.8213,0.4212,54.889580,9.795214,108.3,5.845,1.85,335.95,54.889614,9.795139,54.895069,9.793790
1386877198,1,0,485.9,0,1,4,0,409,400,-0.0292,486.8262,6.8213,0.4212,54.889572,9.795238,108.3,5.845,1.85,335.95,54.889614,9.795139,54.895069,9.793790
1386877198,1,0,485.9,0,1,0,0,409,425,-0.0292,486.5595,6.8213,0.4212,54.889561,9.795264,108.3,5.845,1.85,335.95,54.889614,9.795139,54.895069,9.793790
1386877198,1,0,485.9,0,1,4,0,0,400,-0.0292,486.2929,6.8213,0.4212,54.889549,9.795289,108.3,5.845,1.85,335.95,54.889614,9.795139,54.895069,9.793790
1386877199,1,0,485.9,0,0,0,0,0,375,-0.0292,486.2929,6.8213,0.4212,54.889538,9.795314,108.3,5.845,1.85,335.95,54.889614,9.795139,54.895069,9.793790
1386877199,1,0,485.9,0,0,4,0,0,350,-0.0292,486.2929,6.8213,0.4212,54.889526,9.795339,108.3,5.845,1.85,335.95,54.889614,9.795139,54.895069,9.793790
1386877199,1,0,485.9,0,0,0,0,0,325,-0.0292,486.2929,6.8213,0.4212,54.889515,9.795363,108.3,5.845,1.85,335.95,54.889614,9.795139,54.895069,9.793790
1386877199,1,0,485.9,0,0,4,0,0,300,-0.0292,486.2929,6.8213,0.4212,54.889503,9.795389,108.3,5.845,1.85,335.95,54.889614,9.795139,54.895069,9.793790
1386877200,1,0,485.9,0,0,0,0,0,275,-0.0292,486.2929,6.8213,0.4212,54.889492,9.795414,108.3,5.845,1.85,335.95,54.889614,9.795139,54.895069,9.793790
1386877200,1,0,485.9,0,0,4,0,0,250,-0.0292,486.2929,6.8213,0.4212,54.889481,9.795440,108.3,5.845,1.85,335.95,54.889614,9.795139,54.895069,9.793790
1386877200,1,0,485.9,0,0,0,0,0,225,-0.0292,486.2929,6.8213,0.4212,54.889473,9.795465,108.3,5.845,1.85,335.95,54.889614,9.795139,54.895069,9.793790
1386877200,1,0,485.9,0,0,4,0,0,200,-0.0292,486.2929,6.8213,0.4212,54.889462,9.795489,108.3,5.845,1.85,335.95,54.889614,9.795139,54.895069,9.793790
1386877201,1,0,485.9,0,0,0,0,0,175,-0.0292,486.2929,6.8213,0.4212,54.889450,9.795515,108.3,5.845,1.85,335.95,54.889614,9.795139,54.895069,9.793790
1386877201,1,0,485.9,0,0,4,0,0,150,-0.0292,486.2929,6.8213,0.4212,54.889439,9.795540,108.3,5.845,1.85,335.95,54.889614,9.795139,54.895069,9.793790
1386877201,1,0,485.9,0,0,0,0,0,125,-0.0292,486.2929,6.8213,0.4212,54.889427,9.795566,108.3,5.845,1.85,335.95,54.889614,9.795139,54.895069,9.793790
1386877201,1,0,485.9,0,0,4,0,0,100,-0.0292,486.2929,6.8213,0.4212,54.889416,9.795590,108.3,5.845,1.85,335.95,54.889614,9.795139,54.895069,9.793790
1386877202,1,0,485.9,0,0,0,0,0,75,-0.0292,486.2929,6.8213,0.4212,54.889404,9.795615,108.3,5.845,1.85,335.95,54.889614,9.795139,54.895069,9.793790
1386877202,1,0,485.9,0,0,4,0,0,50,-0.0292,486.2929,6.8213,0.4212,54.889393,9.795640,108.3,5.845,1.85,335.95,54.889614,9.795139,54.895069,9.793790
1386877202,1,0,485.9,0,0,0,0,0,25,-0.0292,486.2929,6.8213,0.4212,54.889381,9.795665,108.3,5.845,1.85,335.95,54.889614,9.795139,54.895069,9.793790
1386877202,1,0,485.9,0,0,4,0,0,0,-0.0292,486.2929,6.8213,0.4212,54.889370,9.795691,108.3,5.845,1.85,335.95,54.889614,9.795139,54.895069,9.793790
1386877203,1,0,485.9,0,0,0,0,0,25,-0.0292,486.2929,6.8213,0.4212,54.889359,9.795715,108.3,5.845,1.85,335.95,54.889614,9.795139,54.895069,9.793790
1386877203,1,0,545.9,0,-35,-4,0,0,0,-0.0292,495.6262,6.8213,0.4212,54.889347,9.795737,108.3,5.845,1.85,335.95,54.889614,9.795139,54.895069,9.793790
1386877203,1,0,545.9,0,-35,-8,0,0,25,-0.0292,504.9596,6.8213,0.4212,54.889332,9.795755,108.3,5.845,1.85,335.95,54.889614,9.795139,54.895069,9.793790
1386877203,1,0,545.9,0,-35,-12,0,0,0,-0.0292,514.2929,6.8213,0.4212,54.889317,9.795770,108.3,5.845,1.85,335.95,54.889614,9.795139,54.895069,9.793790
1386877204,1,0,545.9,0,-32,-16,0,0,25,-0.0292,522.8262,6.8213,0.4212,54.889297,9.795778,108.3,5.845,1.85,335.95,54.889614,9.795139,54.895069,9.793790
1386877204,1,0,545.9,0,-23,-20,0,0,0,-0.0292,528.9596,6.8213,0.4212,54.889278,9.795784,108.3,5.845,1.85,335.95,54.889614,9.795139,54.895069,9.793790
1386877204,1,0,545.9,0,-17,-16,0,0,25,-0.0292,533.4929,6.8213,0.4212,54.889259,9.795788,108.3,5.845,1.85,335.95,54.889614,9.795139,54.895069,9.793790
1386877204,1,0,545.9,0,-12,-12,0,0,0,-0.0292,536.6929,6.8213,0.4212,54.889244,9.795790,108.3,5.845,1.85,335.95,54.889614,9.795139,54.895069,9.793790
1386877205,1,0,545.9,0,-9,-8,0,0,25,-0.0292,539.0930,6.8213,0.4212,54.889225,9.795791,108.3,5.845,1.85,335.95,54.889614,9.795139,54.895069,9.793790
1386877205,1,0,545.9,0,-7,-4,0,409,50,-0.0292,540.9596,6.8213,0.4212,54.889206,9.795791,108.3,5.845,1.85,335.95,54.889614,9.795139,54.895069,9.793790
1386877205,1,0,545.9,0,-5,-8,0,409,75,-0.0292,542.2929,6.8213,0.4212,54.889187,9.795790,108.3,5.845,1.85,335.95,54.889614,9.795139,54.895069,9.793790
1386877205,1,0,545.9,0,-4,-4,0,409,100,-0.0292,543.3596,6.8213,0.4212,54.889172,9.795788,108.3,5.845,1.85,335.95,54.889614,9.795139,54.895069,9.793790
1386877206,1,0,545.9,0,-3,0,0,409,125,-0.0292,544.1595,6.8213,0.4212,54.889153,9.795786,108.3,5.845,1.85,335.95,54.889614,9.795139,54.895069,9.793790
1386877206,1,0,545.9,0,-2,-4,0,409,150,-0.0292,544.6929,6.8213,0.4212,54.889133,9.795783,108.3,5.845,1.85,335.95,54.889614,9.795139,54.895069,9.793790
1386877206,1,0,545.9,0,-1,0,0,409,175,-0.0292,544.9595,6.8213,0.4212,54.889114,9.795780,108.3,5.845,1.85,335.95,54.889614,9.795139,54.895069,9.793790
1386877206,1,0,545.9,0,-1,-4,0,409,200,-0.0292,545.2262,6.8213,0.4212,54.889099,9.795777,108.3,5.845,1.85,335.95,54.889614,9.795139,54.895069,9.793790
1386877207,1,0,545.9,0,-1,0,0,409,225,-0.0292,545.4929,6.8213,0.4212,54.889080,9.795774,108.3,5.845,1.85,335.95,54.889614,9.795139,54.895069,9.793790
1386877207,1,0,545.9,0,0,4,0,409,250,-0.0292,545.4929,6.8213,0.4212,54.889061,9.795772,108.3,5.845,1.85,335.95,54.889614,9.795139,54.895069,9.793790
1386877207,1,0,545.9,0,0,0,0,409,275,-0.0292,545.4929,6.8213,0.4212,54.889046,9.795769,108.3,5.845,1.85,335.95,54.889614,9.795139,54.895069,9.793790
1386877207,1,0,545.9,0,0,4,0,409,300,-0.0292,545.4929,6.8213,0.4212,54.889027,9.795766,108.3,5.845,1.85,335.95,54.889614,9.795139,54.895069,9.793790
1386877208,1,0,545.9,0,0,0,0,409,325,-0.0292,545.4929,6.8213,0.4212,54.889008,9.795762,108.3,5.845,1.85,335.95,54.889614,9.795139,54.895069,9.793790
1386877208,1,0,545.9,0,0,4,0,409,350,-0.0292,545.4929,6.8213,0.4212,54.888988,9.795758,108.3,5.845,1.85,335.95,54.889614,9.795139,54.895069,9.793790
1386877208,1,0,545.9,0,0,0,0,409,375,-0.0292,545.4929,6.8213,0.4212,54.888973,9.795755,108.3,5.845,1.85,335.95,54.889614,9.795139,54.895069,9.793790
1386877208,1,0,545.9,0,0,4,0,0,350,-0.0292,545.4929,6.8213,0.4212,54.888954,9.795753,108.3,5.845,1.85,335.95,54.889614,9.795139,54.895069,9.793790
1386877209,1,0,545.9,0,0,0,0,0,325,-0.0292,545.4929,6.8213,0.4212,54.888935,9.795750,108.3,5.845,1.85,335.95,54.889614,9.795139,54.895069,9.793790
1386877209,1,0,545.9,0,0,4,0,0,300,-0.0292,545.4929,6.8213,0.4212,54.888916,9.795747,108.3,5.845,1.85,335.95,54.889614,9.795139,54.895069,9.793790
1386877209,1,0,545.9,0,0,0,0,0,275,-0.0292,545.4929,6.8213,0.4212,54.888901,9.795744,108.3,5.845,1.85,335.95,54.889614,9.795139,54.895069,9.793790
1386877209,1,0,545.9,0,0,4,0,0,250,-0.0292,545.4929,6.8213,0.4212,54.888882,9.795741,108.3,5.845,1.85,335.95,54.889614,9.795139,54.895069,9.793790
1386877210,1,0,545.9,0,0,0,0,0,225,-0.0292,545.4929,6.8213,0.4212,54.888863,9.795738,108.3,5.845,1.85,335.95,54.889614,9.795139,54.895069,9.793790
1386877210,1,0,545.9,0,0,4,0,0,200,-0.0292,545.4929,6.8213,0.4212,54.888844,9.795735,108.3,5.845,1.85,335.95,54.889614,9.795139,54.895069,9.793790
1386877210,1,0,545.9,0,0,0,0,0,175,-0.0292,545.4929,6.8213,0.4212,54.888828,9.795732,108.3,5.845,1.85,335.95,54.889614,9.795139,54.895069,9.793790
1386877210,1,0,545.9,0,0,4,0,0,150,-0.0292,545.4929,6.8213,0.4212,54.888809,9.795730,108.3,5.845,1.85,335.95,54.889614,9.795139,54.895069,9.793790
1386877211,1,0,545.9,0,0,0,0,0,125,-0.0292,545.4929,6.8213,0.4212,54.888790,9.795727,108.3,5.845,1.85,335.95,54.889614,9.795139,54.895069,9.793790
1386877211,1,0,545.9,0,0,4,0,0,100,-0.0292,545.4929,6.8213,0.4212,54.888775,9.795724,108.3,5.845,1.85,335.95,54.889614,9.795139,54.895069,9.793790
1386877211,1,0,545.9,0,0,0,0,0,75,-0.0292,545.4929,6.8213,0.4212,54.888756,9.795721,108.3,5.845,1.85,335.95,54.889614,9.795139,54.895069,9.793790
1386877211,1,0,545.9,0,0,4,0,0,50,-0.0292,545.4929,6.8213,0.4212,54.888737,9.795717,108.3,5.845,1.85,335.95,54.889614,9.795139,54.895069,9.793790
1386877212,1,0,545.9,0,0,0,0,0,25,-0.0292,545.4929,6.8213,0.4212,54.888718,9.795714,108.3,5.845,1.85,335.95,54.889614,9.795139,54.895069,9.793790
1386877212,1,0,545.9,0,0,4,0,0,0,-0.0292,545.4929,6.8213,0.4212,54.888702,9.795712,108.3,5.845,1.85,335.95,54.889614,9.795139,54.895069,9.793790
1386877212,1,0,545.9,0,0,0,0,0,25,-0.0292,545.4929,6.8213,0.4212,54.888683,9.795709,108.3,5.845,1.85,335.95,54.889614,9.795139,54.895069,9.793790
1386877212,1,0,485.9,0,35,4,0,0,0,-0.0292,536.1595,6.8213,0.4212,54.888664,9.795711,108.3,5.845,1.85,335.95,54.889614,9.795139,54.895069,9.793790
1386877213,1,0,485.9,0,35,8,0,0,25,-0.0292,526.8262,6.8213,0.4212,54.888645,9.795718,108.3,5.845,1.85,335.95,54.889614,9.795139,54.895069,9.793790
1386877213,1,0,485.9,0,35,12,0,0,0,-0.0292,517.4929,6.8213,0.4212,54.888630,9.795730,108.3,5.845,1.85,335.95,54.889614,9.795139,54.895069,9.793790
1386877213,1,0,485.9,0,32,16,0,0,25,-0.0292,508.9596,6.8213,0.4212,54.888615,9.795746,108.3,5.845,1.85,335.95,54.889614,9.795139,54.895069,9.793790
1386877213,1,0,485.9,0,23,20,0,0,0,-0.0292,502.8263,6.8213,0.4212,54.888599,9.795765,108.3,5.845,1.85,335.95,54.889614,9.795139,54.895069,9.793790
1386877214,1,0,485.9,0,17,16,0,0,25,-0.0292,498.2929,6.8213,0.4212,54.888588,9.795785,108.3,5.845,1.85,335.95,54.889614,9.795139,54.895069,9.793790
1386877214,1,0,485.9,0,12,12,0,0,0,-0.0292,495.0929,6.8213,0.4212,54.888577,9.795807,108.3,5.845,1.85,335.95,54.889614,9.795139,54.895069,9.793790
1386877214,1,0,485.9,0,9,8,0,0,25,-0.0292,492.6929,6.8213,0.4212,54.888561,9.795830,108.3,5.845,1.85,335.95,54.889614,9.795139,54.895069,9.793790
1386877214,1,0,485.9,0,7,4,0,409,50,-0.0292,490.8263,6.8213,0.4212,54.888550,9.795854,108.3,5.845,1.85,335.95,54.889614,9.795139,54.895069,9.793790
1386877215,1,0,485.9,0,5,8,0,409,75,-0.0292,489.4929,6.8213,0.4212,54.888542,9.795877,108.3,5.845,1.85,335.95,54.889614,9.795139,54.895069,9.793790
1386877215,1,0,485.9,0,4,4,0,409,100,-0.0292,488.4262,6.8213,0.4212,54.888531,9.795902,108.3,5.845,1.85,335.95,54.889614,9.795139,54.895069,9.793790
1386877215,1,0,485.9,0,2,0,0,409,125,-0.0292,487.8929,6.8213,0.4212,54.888519,9.795927,108.3,5.845,1.85,335.95,54.889614,9.795139,54.895069,9.793790
1386877215,1,0,485.9,0,2,4,0,409,150,-0.0292,487.3596,6.8213,0.4212,54.888508,9.795952,108.3,5.845,1.85,335.95,54.889614,9.795139,54.895069,9.793790
1386877216,1,0,485.9,0,1,0,0,409,175,-0.0292,487.0929,6.8213,0.4212,54.888496,9.795977,108.3,5.845,1.85,335.95,54.889614,9.795139,54.895069,9.793790
1386877216,1,0,485.9,0,1,4,0,409,200,-0.0292,486.8263,6.8213,0.4212,54.888485,9.796001,108.3,5.845,1.85,335.95,54.889614,9.795139,54.895069,9.793790
1386877216,1,0,485.9,0,1,0,0,409,225,-0.0292,486.5596,6.8213,0.4212,54.888474,9.796026,108.3,5.845,1.85,335.95,54.889614,9.795139,54.895069,9.793790
1386877216,1,0,485.9,0,1,4,0,409,250,-0.0292,486.2929,6.8213,0.4212,54.888466,9.796051,108.3,5.845,1.85,335.95,54.889614,9.795139,54.895069,9.793790
1386877217,1,0,485.9,0,0,0,0,409,275,-0.0292,486.2929,6.8213,0.4212,54.888454,9.796077,108.3,5.845,1.85,335.95,54.889614,9.795139,54.895069,9.793790
1386877217,1,0,485.9,0,0,4,0,409,300,-0.0292,486.2929,6.8213,0.4212,54.888443,9.796102,108.3,5.845,1.85,335.95,54.889614,9.795139,54.895069,9.793790
1386877217,1,0,485.9,0,0,0,0,409,325,-0.0292,486.2929,6.8213,0.4212,54.888432,9.796127,108.3,5.845,1.85,335.95,54.889614,9.795139,54.895069,9.793790
1386877217,1,0,390.9,0,35,4,0,409,350,-0.0292,476.9596,6.8213,0.4212,54.888420,9.796155,108.3,5.845,1.85,335.95,54.889614,9.795139,54.895069,9.793790
1386877218,1,0,390.9,0,35,8,0,409,375,-0.0292,467.6263,6.8213,0.4212,54.888416,9.796185,108.3,5.845,1.85,335.95,54.889614,9.795139,54.895069,9.793790
1386877218,1,0,390.9,0,35,12,0,500,400,-0.0292,458.2929,6.8213,0.4212,54.888412,9.796216,108.3,5.845,1.85,335.95,54.889614,9.795139,54.895069,9.793790
1386877218,1,0,485.9,0,-28,8,0,500,425,-0.0292,465.7596,6.8213,0.4212,54.888409,9.796247,108.3,5.845,1.85,335.95,54.889614,9.795139,54.895069,9.793790
1386877218,1,0,485.9,0,-20,4,0,500,450,-0.0292,471.0929,6.8213,0.4212,54.888401,9.796275,108.3,5.845,1.85,335.95,54.889614,9.795139,54.895069,9.793790
1386877219,1,0,485.9,0,-15,0,0,409,425,-0.0292,475.0929,6.8213,0.4212,54.888393,9.796303,108.3,5.845,1.85,335.95,54.889614,9.795139,54.895069,9.793790
1386877219,1,0,485.9,0,-11,-4,0,409,400,-0.0292,478.0262,6.8213,0.4212,54.888386,9.796330,108.3,5.845,1.85,335.95,54.889614,9.795139,54.895069,9.793790
1386877219,1,0,485.9,0,-8,-8,0,409,425,-0.0292,480.1596,6.8213,0.4212,54.888374,9.796357,108.3,5.845,1.85,335.95,54.889614,9.795139,54.895069,9.793790
1386877220,1,0,485.9,0,-6,-4,0,0,400,-0.0292,481.7596,6.8213,0.4212,54.888367,9.796384,108.3,5.845,1.85,335.95,54.889614,9.795139,54.895069,9.793790
1386877220,1,0,485.9,0,-4,0,0,0,375,-0.0292,482.8263,6.8213,0.4212,54.888355,9.796411,108.3,5.845,1.85,335.95,54.889614,9.795139,54.895069,9.793790
1386877220,1,0,485.9,0,-3,-4,0,0,350,-0.0292,483.6263,6.8213,0.4212,54.888344,9.796436,108.3,5.845,1.85,335.95,54.889614,9.795139,54.895069,9.793790
1386877220,1,0,485.9,0,-2,0,0,0,325,-0.0292,484.1596,6.8213,0.4212,54.888332,9.796462,108.3,5.845,1.85,335.95,54.889614,9.795139,54.895069,9.793790
1386877221,1,0,485.9,0,-2,-4,0,0,300,-0.0292,484.6929,6.8213,0.4212,54.888321,9.796488,108.3,5.845,1.85,335.95,54.889614,9.795139,54.895069,9.793790
1386877221,1,0,485.9,0,-1,0,0,0,275,-0.0292,484.9596,6.8213,0.4212,54.888309,9.796514,108.3,5.845,1.85,335.95,54.889614,9.795139,54.895069,9.793790
1386877221,1,0,485.9,0,-1,-4,0,0,250,-0.0292,485.2262,6.8213,0.4212,54.888298,9.796539,108.3,5.845,1.85,335.95,54.889614,9.795139,54.895069,9.793790
1386877221,1,0,485.9,0,-1,0,0,0,225,-0.0292,485.4929,6.8213,0.4212,54.888287,9.796564,108.3,5.845,1.85,335.95,54.889614,9.795139,54.895069,9.793790
1386877222,1,0,485.9,0,0,4,0,0,200,-0.0292,485.4929,6.8213,0.4212,54.888275,9.796590,108.3,5.845,1.85,335.95,54.889614,9.795139,54.895069,9.793790
1386877222,1,0,485.9,0,0,0,0,0,175,-0.0292,485.4929,6.8213,0.4212,54.888268,9.796615,108.3,5.845,1.85,335.95,54.889614,9.795139,54.895069,9.793790
1386877222,1,0,485.9,0,0,4,0,0,150,-0.0292,485.4929,6.8213,0.4212,54.888256,9.796640,108.3,5.845,1.85,335.95,54.889614,9.795139,54.895069,9.793790
1386877222,1,0,485.9,0,0,0,0,0,125,-0.0292,485.4929,6.8213,0.4212,54.888248,9.796666,108.3,5.845,1.85,335.95,54.889614,9.795139,54.895069,9.793790
1386877223,1,0,485.9,0,0,4,0,0,100,-0.0292,485.4929,6.8213,0.4212,54.888237,9.796691,108.3,5.845,1.85,335.95,54.889614,9.795139,54.895069,9.793790
1386877223,1,0,485.9,0,0,0,0,0,75,-0.0292,485.4929,6.8213,0.4212,54.888226,9.796717,108.3,5.845,1.85,335.95,54.889614,9.795139,54.895069,9.793790
1386877223,1,0,485.9,0,0,4,0,0,50,-0.0292,485.4929,6.8213,0.4212,54.888218,9.796741,108.3,5.845,1.85,335.95,54.889614,9.795139,54.895069,9.793790
1386877223,1,0,485.9,0,0,0,0,0,25,-0.0292,485.4929,6.8213,0.4212,54.888206,9.796767,108.3,5.845,1.85,335.95,54.889614,9.795139,54.895069,9.793790
1386877224,1,0,485.9,0,0,4,0,0,0,-0.0292,485.4929,6.8213,0.4212,54.888199,9.796793,108.3,5.845,1.85,335.95,54.889614,9.795139,54.895069,9.793790
1386877224,1,0,485.9,0,0,0,0,0,25,-0.0292,485.4929,6.8213,0.4212,54.888187,9.796818,108.3,5.845,1.85,335.95,54.889614,9.795139,54.895069,9.793790
1386877224,1,0,545.9,0,-35,-4,0,0,0,-0.0292,494.8262,6.8213,0.4212,54.888172,9.796840,108.3,5.845,1.85,335.95,54.889614,9.795139,54.895069,9.793790
1386877224,1,0,545.9,0,-35,-8,0,0,25,-0.0292,504.1596,6.8213,0.4212,54.888157,9.796858,108.3,5.845,1.85,335.95,54.889614,9.795139,54.895069,9.793790
1386877225,1,0,545.9,0,-35,-12,0,0,0,-0.0292,513.4929,6.8213,0.4212,54.888142,9.796872,108.3,5.845,1.85,335.95,54.889614,9.795139,54.895069,9.793790
1386877225,1,0,545.9,0,-32,-16,0,0,25,-0.0292,522.0262,6.8213,0.4212,54.888123,9.796883,108.3,5.845,1.85,335.95,54.889614,9.795139,54.895069,9.793790
1386877225,1,0,545.9,0,-24,-20,0,0,0,-0.0292,528.4263,6.8213,0.4212,54.888103,9.796888,108.3,5.845,1.85,335.95,54.889614,9.795139,54.895069,9.793790
1386877225,1,0,545.9,0,-18,-16,0,0,25,-0.0292,533.2263,6.8213,0.4212,54.888088,9.796892,108.3,5.845,1.85,335.95,54.889614,9.795139,54.895069,9.793790
1386877226,1,0,545.9,0,-13,-12,0,0,0,-0.0292,536.6929,6.8213,0.4212,54.888069,9.796894,108.3,5.845,1.85,335.95,54.889614,9.795139,54.895069,9.793790
1386877226,1,0,545.9,0,-9,-8,0,0,25,-0.0292,539.0930,6.8213,0.4212,54.888050,9.796894,108.3,5.845,1.85,335.95,54.889614,9.795139,54.895069,9.793790
1386877226,1,0,545.9,0,-7,-4,0,409,50,-0.0292,540.9596,6.8213,0.4212,54.888031,9.796893,108.3,5.845,1.85,335.95,54.889614,9.795139,54.895069,9.793790
1386877226,1,0,545.9,0,-5,-8,0,409,75,-0.0292,542.2929,6.8213,0.4212,54.888016,9.796892,108.3,5.845,1.85,335.95,54.889614,9.795139,54.895069,9.793790
1386877227,1,0,545.9,0,-4,-4,0,409,100,-0.0292,543.3596,6.8213,0.4212,54.887997,9.796890,108.3,5.845,1.85,335.95,54.889614,9.795139,54.895069,9.793790
1386877227,1,0,545.9,0,-3,0,0,409,125,-0.0292,544.1595,6.8213,0.4212,54.887978,9.796887,108.3,5.845,1.85,335.95,54.889614,9.795139,54.895069,9.793790
1386877227,1,0,545.9,0,-2,-4,0,409,150,-0.0292,544.6929,6.8213,0.4212,54.887959,9.796885,108.3,5.845,1.85,335.95,54.889614,9.795139,54.895069,9.793790
1386877227,1,0,545.9,0,-1,0,0,409,175,-0.0292,544.9595,6.8213,0.4212,54.887943,9.796882,108.3,5.845,1.85,335.95,54.889614,9.795139,54.895069,9.793790
1386877228,1,0,545.9,0,-1,-4,0,409,200,-0.0292,545.2262,6.8213,0.4212,54.887924,9.796879,108.3,5.845,1.85,335.95,54.889614,9.795139,54.895069,9.793790
1386877228,1,0,545.9,0,-1,0,0,409,225,-0.0292,545.4929,6.8213,0.4212,54.887905,9.796875,108.3,5.845,1.85,335.95,54.889614,9.795139,54.895069,9.793790
1386877228,1,0,545.9,0,0,4,0,409,250,-0.0292,545.4929,6.8213,0.4212,54.887890,9.796871,108.3,5.845,1.85,335.95,54.889614,9.795139,54.895069,9.793790
1386877228,1,0,545.9,0,0,0,0,409,275,-0.0292,545.4929,6.8213,0.4212,54.887871,9.796868,108.3,5.845,1.85,335.95,54.889614,9.795139,54.895069,9.793790
1386877229,1,0,545.9,0,0,4,0,409,300,-0.0292,545.4929,6.8213,0.4212,54.887852,9.796865,108.3,5.845,1.85,335.95,54.889614,9.795139,54.895069,9.793790
1386877229,1,0,545.9,0,0,0,0,409,325,-0.0292,545.4929,6.8213,0.4212,54.887833,9.796863,108.3,5.845,1.85,335.95,54.889614,9.795139,54.895069,9.793790
1386877229,1,0,280.9,0,-35,-4,0,409,350,-0.0292,554.8262,6.8213,0.4212,54.887817,9.796855,108.3,5.845,1.85,335.95,54.889614,9.795139,54.895069,9.793790
1386877229,1,0,280.9,0,-35,-8,0,409,375,-0.0292,564.1595,6.8213,0.4212,54.887798,9.796843,108.3,5.845,1.85,335.95,54.889614,9.795139,54.895069,9.793790
1386877230,1,0,280.9,0,-35,-12,0,500,400,-0.0292,573.4928,6.8213,0.4212,54.887783,9.796825,108.3,5.845,1.85,335.95,54.889614,9.795139,54.895069,9.793790
1386877230,1,0,280.9,0,-35,-16,0,500,425,-0.0292,582.8261,6.8213,0.4212,54.887772,9.796804,108.3,5.845,1.85,335.95,54.889614,9.795139,54.895069,9.793790
1386877230,1,0,280.9,0,-35,-20,0,436,450,-0.0292,592.1594,6.8213,0.4212,54.887760,9.796780,108.3,5.845,1.85,335.95,54.889614,9.795139,54.895069,9.793790
1386877230,1,0,280.9,0,-35,-24,0,355,425,-0.0292,601.4927,6.8213,0.4212,54.887753,9.796753,108.3,5.845,1.85,335.95,54.889614,9.795139,54.895069,9.793790
1386877231,1,0,280.9,0,-35,-28,0,270,400,-0.0292,610.8260,6.8213,0.4212,54.887745,9.796723,108.3,5.845,1.85,335.95,54.889614,9.795139,54.895069,9.793790
1386877231,1,0,280.9,0,-30,-32,0,184,375,-0.0292,618.8260,6.8213,0.4212,54.887741,9.796693,108.3,5.845,1.85,335.95,54.889614,9.795139,54.895069,9.793790
1386877231,1,0,280.9,0,-22,-28,0,114,350,-0.0292,624.6927,6.8213,0.4212,54.887737,9.796662,108.3,5.845,1.85,335.95,54.889614,9.795139,54.895069,9.793790
1386877231,1,0,280.9,0,-16,-24,0,68,325,-0.0292,628.9594,6.8213,0.4212,54.887737,9.796631,108.3,5.845,1.85,335.95,54.889614,9.795139,54.895069,9.793790
1386877232,1,0,280.9,0,-12,-20,0,39,300,-0.0292,632.1594,6.8213,0.4212,54.887741,9.796599,108.3,5.845,1.85,335.95,54.889614,9.795139,54.895069,9.793790
1386877232,1,0,280.9,0,-9,-16,0,22,275,-0.0292,634.5594,6.8213,0.4212,54.887741,9.796568,108.3,5.845,1.85,335.95,54.889614,9.795139,54.895069,9.793790
1386877232,1,0,280.9,0,-6,-12,0,12,250,-0.0292,636.1594,6.8213,0.4212,54.887741,9.796537,108.3,5.845,1.85,335.95,54.889614,9.795139,54.895069,9.793790
1386877232,1,0,280.9,0,-5,-8,0,6,225,-0.0292,637.4927,6.8213,0.4212,54.887741,9.796506,108.3,5.845,1.85,335.95,54.889614,9.795139,54.895069,9.793790
1386877233,1,0,280.9,0,-3,-4,0,3,200,-0.0292,638.2927,6.8213,0.4212,54.887741,9.796475,108.3,5.845,1.85,335.95,54.889614,9.795139,54.895069,9.793790
1386877233,1,0,280.9,0,-3,0,0,2,175,-0.0292,639.0927,6.8213,0.4212,54.887741,9.796445,108.3,5.845,1.85,335.95,54.889614,9.795139,54.895069,9.793790
1386877233,1,0,280.9,0,-2,-4,0,1,150,-0.0292,639.6260,6.8213,0.4212,54.887741,9.796414,108.3,5.845,1.85,335.95,54.889614,9.795139,54.895069,9.793790
1386877233,1,0,280.9,0,-1,0,0,0,125,-0.0292,639.8926,6.8213,0.4212,54.887741,9.796384,108.3,5.845,1.85,335.95,54.889614,9.795139,54.895069,9.793790
1386877234,1,0,280.9,0,-1,-4,0,0,100,-0.0292,640.1593,6.8213,0.4212,54.887741,9.796353,108.3,5.845,1.85,335.95,54.889614,9.795139,54.895069,9.793790
1386877234,1,0,280.9,0,-1,0,0,0,75,-0.0292,640.4260,6.8213,0.4212,54.887741,9.796323,108.3,5.845,1.85,335.95,54.889614,9.795139,54.895069,9.793790
1386877234,1,0,280.9,0,-1,-4,0,0,50,-0.0292,640.6926,6.8213,0.4212,54.887741,9.796291,108.3,5.845,1.85,335.95,54.889614,9.795139,54.895069,9.793790
1386877234,1,0,280.9,0,0,0,0,0,25,-0.0292,640.6926,6.8213,0.4212,54.887741,9.796261,108.3,5.845,1.85,335.95,54.889614,9.795139,54.895069,9.793790
1386877235,1,0,280.9,0,0,4,0,0,0,-0.0292,640.6926,6.8213,0.4212,54.887741,9.796230,108.3,5.845,1.85,335.95,54.889614,9.795139,54.895069,9.793790
1386877235,1,0,280.9,0,0,0,0,0,25,-0.0292,640.6926,6.8213,0.4212,54.887741,9.796200,108.3,5.845,1.85,335.95,54.889614,9.795139,54.895069,9.793790
1386877235,1,0,280.9,0,0,4,0,0,0,-0.0292,640.6926,6.8213,0.4212,54.887741,9.796169,108.3,5.845,1.85,335.95,54.889614,9.795139,54.895069,9.793790
1386877235,1,0,280.9,0,0,0,0,0,25,-0.0292,640.6926,6.8213,0.4212,54.887741,9.796139,108.3,5.845,1.85,335.95,54.889614,9.795139,54.895069,9.793790
1386877236,1,0,280.9,0,0,4,0,0,0,-0.0292,640.6926,6.8213,0.4212,54.887741,9.796108,108.3,5.845,1.85,335.95,54.889614,9.795139,54.895069,9.793790
1386877236,1,0,280.9,0,0,0,0,0,25,-0.0292,640.6926,6.8213,0.4212,54.887741,9.796077,108.3,5.845,1.85,335.95,54.889614,9.795139,54.895069,9.793790
1386877236,1,0,280.9,0,0,4,0,0,0,-0.0292,640.6926,6.8213,0.4212,54.887741,9.796046,108.3,5.845,1.85,335.95,54.889614,9.795139,54.895069,9.793790
1386877236,1,0,280.9,0,0,0,0,0,25,-0.0292,640.6926,6.8213,0.4212,54.887741,9.796016,108.3,5.845,1.85,335.95,54.889614,9.795139,54.895069,9.793790
1386877237,1,0,280.9,0,0,4,0,0,0,-0.0292,640.6926,6.8213,0.4212,54.887741,9.795985,108.3,5.845,1.85,335.95,54.889614,9.795139,54.895069,9.793790
1386877237,1,0,280.9,0,0,0,0,0,25,-0.0292,640.6926,6.8213,0.4212,54.887741,9.795955,108.3,5.845,1.85,335.95,54.889614,9.795139,54.895069,9.793790
1386877237,1,0,280.9,0,0,4,0,0,0,-0.0292,640.6926,6.8213,0.4212,54.887741,9.795924,108.3,5.845,1.85,335.95,54.889614,9.795139,54.895069,9.793790
1386877237,1,0,280.9,0,0,0,0,0,25,-0.0292,640.6926,6.8213,0.4212,54.887741,9.795894,108.3,5.845,1.85,335.95,54.889614,9.795139,54.895069,9.793790
1386877238,1,0,280.9,0,0,4,0,0,0,-0.0292,640.6926,6.8213,0.4212,54.887741,9.795862,108.3,5.845,1.85,335.95,54.889614,9.795139,54.895069,9.793790
1386877238,1,0,280.9,0,0,0,0,0,25,-0.0292,640.6926,6.8213,0.4212,54.887741,9.795832,108.3,5.845,1.85,335.95,54.889614,9.795139,54.895069,9.793790
1386877238,1,0,280.9,0,0,4,0,0,0,-0.0292,640.6926,6.8213,0.4212,54.887741,9.795801,108.3,5.845,1.85,335.95,54.889614,9.795139,54.895069,9.793790
1386877238,1,0,280.9,0,0,0,0,0,25,-0.0292,640.6926,6.8213,0.4212,54.887741,9.795771,108.3,5.845,1.85,335.95,54.889614,9.795139,54.895069,9.793790
1386877239,1,0,280.9,0,0,4,0,0,0,-0.0292,640.6926,6.8213,0.4212,54.887741,9.795740,108.3,5.845,1.85,335.95,54.889614,9.795139,54.895069,9.793790
1386877239,1,0,280.9,0,0,0,0,0,25,-0.0292,640.6926,6.8213,0.4212,54.887741,9.795710,108.3,5.845,1.85,335.95,54.889614,9.795139,54.895069,9.793790
1386877239,1,0,280.9,0,0,4,0,0,0,-0.0292,640.6926,6.8213,0.4212,54.887741,9.795679,108.3,5.845,1.85,335.95,54.889614,9.795139,54.895069,9.793790
1386877239,1,0,280.9,0,0,0,0,0,25,-0.0292,640.6926,6.8213,0.4212,54.887741,9.795648,108.3,5.845,1.85,335.95,54.889614,9.795139,54.895069,9.793790
1386877240,1,0,280.9,0,0,4,0,0,0,-0.0292,640.6926,6.8213,0.4212,54.887741,9.795617,108.3,5.845,1.85,335.95,54.889614,9.795139,54.895069,9.793790
1386877240,1,0,280.9,0,0,0,0,0,25,-0.0292,640.6926,6.8213,0.4212,54.887741,9.795587,108.3,5.845,1.85,335.95,54.889614,9.795139,54.895069,9.793790
1386877240,1,0,280.9,0,0,4,0,0,0,-0.0292,640.6926,6.8213,0.4212,54.887741,9.795556,108.3,5.845,1.85,335.95,54.889614,9.795139,54.895069,9.793790
1386877240,1,0,280.9,0,0,0,0,0,25,-0.0292,640.6926,6.8213,0.4212,54.887741,9.795526,108.3,5.845,1.85,335.95,54.889614,9.795139,54.895069,9.793790
1386877241,1,0,280.9,0,0,4,0,0,0,-0.0292,640.6926,6.8213,0.4212,54.887741,9.795495,108.3,5.845,1.85,335.95,54.889614,9.795139,54.895069,9.793790
1386877241,1,0,280.9,0,0,0,0,0,25,-0.0292,640.6926,6.8213,0.4212,54.887741,9.795465,108.3,5.845,1.85,335.95,54.889614,9.795139,54.895069,9.793790
1386877241,1,0,280.9,0,0,4,0,0,0,-0.0292,640.6926,6.8213,0.4212,54.887741,9.795433,108.3,5.845,1.85,335.95,54.889614,9.795139,54.895069,9.793790
1386877241,1,0,280.9,0,0,0,0,0,25,-0.0292,640.6926,6.8213,0.4212,54.887741,9.795403,108.3,5.845,1.85,335.95,54.889614,9.795139,54.895069,9.793790
1386877242,1,0,280.9,0,0,4,0,0,0,-0.0292,640.6926,6.8213,0.4212,54.887741,9.795372,108.3,5.845,1.85,335.95,54.889614,9.795139,54.895069,9.793790
1386877242,1,0,280.9,0,0,0,0,0,25,-0.0292,640.6926,6.8213,0.4212,54.887741,9.795341,108.3,5.845,1.85,335.95,54.889614,9.795139,54.895069,9.793790
1386877242,1,0,280.9,0,0,4,0,0,0,-0.0292,640.6926,6.8213,0.4212,54.887741,9.795311,108.3,5.845,1.85,335.95,54.889614,9.795139,54.895069,9.793790
1386877242,1,0,280.9,0,0,0,0,0,25,-0.0292,640.6926,6.8213,0.4212,54.887741,9.795280,108.3,5.845,1.85,335.95,54.889614,9.795139,54.895069,9.793790
1386877243,1,0,280.9,0,0,4,0,0,0,-0.0292,640.6926,6.8213,0.4212,54.887741,9.795250,108.3,5.845,1.85,335.95,54.889614,9.795139,54.895069,9.793790
1386877243,1,0,280.9,0,0,0,0,0,25,-0.0292,640.6926,6.8213,0.4212,54.887741,9.795218,108.3,5.845,1.85,335.95,54.889614,9.795139,54.895069,9.793790
1386877243,1,0,280.9,0,0,4,0,0,0,-0.0292,640.6926,6.8213,0.4212,54.887741,9.795188,108.3,5.845,1.85,335.95,54.889614,9.795139,54.895069,9.793790
1386877243,1,0,280.9,0,0,0,0,0,25,-0.0292,640.6926,6.8213,0.4212,54.887741,9.795157,108.3,5.845,1.85,335.95,54.889614,9.795139,54.895069,9.793790
1386877244,1,0,280.9,0,0,4,0,0,0,-0.0292,640.6926,6.8213,0.4212,54.887741,9.795127,108.3,5.845,1.85,335.95,54.889614,9.795139,54.895069,9.793790
1386877244,1,0,280.9,0,0,0,0,0,25,-0.0292,640.6926,6.8213,0.4212,54.887741,9.795096,108.3,5.845,1.85,335.95,54.889614,9.795139,54.895069,9.793790
1386877244,1,0,280.9,0,0,4,0,0,0,-0.0292,640.6926,6.8213,0.4212,54.887741,9.795066,108.3,5.845,1.85,335.95,54.889614,9.795139,54.895069,9.793790
1386877245,1,0,280.9,0,0,0,0,0,25,-0.0292,640.6926,6.8213,0.4212,54.887741,9.795035,108.3,5.845,1.85,335.95,54.889614,9.795139,54.895069,9.793790
1386877245,1,0,280.9,0,0,4,0,0,0,-0.0292,640.6926,6.8213,0.4212,54.887741,9.795004,108.3,5.845,1.85,335.95,54.889614,9.795139,54.895069,9.793790
1386877245,1,0,280.9,0,0,0,0,0,25,-0.0292,640.6926,6.8213,0.4212,54.887741,9.794973,108.3,5.845,1.85,335.95,54.889614,9.795139,54.895069,9.793790
1386877245,1,0,280.9,0,0,4,0,0,0,-0.0292,640.6926,6.8213,0.4212,54.887741,9.794943,108.3,5.845,1.85,335.95,54.889614,9.795139,54.895069,9.793790
1386877246,1,0,280.9,0,0,0,0,0,25,-0.0292,640.6926,6.8213,0.4212,54.887741,9.794912,108.3,5.845,1.85,335.95,54.889614,9.795139,54.895069,9.793790
1386877246,1,0,280.9,0,0,4,0,0,0,-0.0292,640.6926,6.8213,0.4212,54.887741,9.794882,108.3,5.845,1.85,335.95,54.889614,9.795139,54.895069,9.793790
1386877246,1,0,280.9,0,0,0,0,0,25,-0.0292,640.6926,6.8213,0.4212,54.887741,9.794851,108.3,5.845,1.85,335.95,54.889614,9.795139,54.895069,9.793790
1386877246,1,0,280.9,0,0,4,0,0,0,-0.0292,640.6926,6.8213,0.4212,54.887741,9.794821,108.3,5.845,1.85,335.95,54.889614,9.795139,54.895069,9.793790
1386877247,1,0,280.9,0,0,0,0,0,25,-0.0292,640.6926,6.8213,0.4212,54.887741,9.794789,108.3,5.845,1.85,335.95,54.889614,9.795139,54.895069,9.793790
1386877247,1,0,545.9,0,35,4,0,0,0,-0.0292,631.3593,6.8213,0.4212,54.887741,9.794758,108.3,5.845,1.85,335.95,54.889614,9.795139,54.895069,9.793790
1386877247,1,0,545.9,0,35,8,0,26,25,-0.0292,622.0260,6.8213,0.4212,54.887737,9.794727,108.3,5.845,1.85,335.95,54.889614,9.795139,54.895069,9.793790
1386877247,1,0,545.9,0,35,12,0,88,50,-0.0292,612.6927,6.8213,0.4212,54.887733,9.794698,108.3,5.845,1.85,335.95,54.889614,9.795139,54.895069,9.793790
1386877248,1,0,545.9,0,35,16,0,168,75,-0.0292,603.3594,6.8213,0.4212,54.887726,9.794669,108.3,5.845,1.85,335.95,54.889614,9.795139,54.895069,9.793790
1386877248,1,0,545.9,0,35,20,0,253,100,-0.0292,594.0261,6.8213,0.4212,54.887714,9.794644,108.3,5.845,1.85,335.95,54.889614,9.795139,54.895069,9.793790
1386877248,1,0,545.9,0,35,24,0,338,125,-0.0292,584.6927,6.8213,0.4212,54.887703,9.794622,108.3,5.845,1.85,335.95,54.889614,9.795139,54.895069,9.793790
1386877248,1,0,545.9,0,35,28,0,420,150,-0.0292,575.3594,6.8213,0.4212,54.887688,9.794604,108.3,5.845,1.85,335.95,54.889614,9.795139,54.895069,9.793790
1386877249,1,0,545.9,0,29,32,0,498,175,-0.0292,567.6261,6.8213,0.4212,54.887672,9.794589,108.3,5.845,1.85,335.95,54.889614,9.795139,54.895069,9.793790
1386877249,1,0,545.9,0,22,28,0,500,200,-0.0292,561.7595,6.8213,0.4212,54.887653,9.794578,108.3,5.845,1.85,335.95,54.889614,9.795139,54.895069,9.793790
1386877249,1,0,545.9,0,16,24,0,500,225,-0.0292,557.4928,6.8213,0.4212,54.887634,9.794568,108.3,5.845,1.85,335.95,54.889614,9.795139,54.895069,9.793790
1386877249,1,0,545.9,0,12,20,0,409,250,-0.0292,554.2928,6.8213,0.4212,54.887619,9.794560,108.3,5.845,1.85,335.95,54.889614,9.795139,54.895069,9.793790
1386877250,1,0,545.9,0,8,16,0,409,275,-0.0292,552.1594,6.8213,0.4212,54.887600,9.794554,108.3,5.845,1.85,335.95,54.889614,9.795139,54.895069,9.793790
1386877250,1,0,545.9,0,6,12,0,0,250,-0.0292,550.5594,6.8213,0.4212,54.887581,9.794548,108.3,5.845,1.85,335.95,54.889614,9.795139,54.895069,9.793790
1386877250,1,0,545.9,0,5,8,0,0,225,-0.0292,549.2261,6.8213,0.4212,54.887562,9.794543,108.3,5.845,1.85,335.95,54.889614,9.795139,54.895069,9.793790
1386877250,1,0,545.9,0,3,4,0,0,200,-0.0292,548.4261,6.8213,0.4212,54.887547,9.794538,108.3,5.845,1.85,335.95,54.889614,9.795139,54.895069,9.793790
1386877251,1,0,545.9,0,2,0,0,0,175,-0.0292,547.8928,6.8213,0.4212,54.887527,9.794534,108.3,5.845,1.85,335.95,54.889614,9.795139,54.895069,9.793790
1386877251,1,0,545.9,0,2,4,0,0,150,-0.0292,547.3595,6.8213,0.4212,54.887508,9.794530,108.3,5.845,1.85,335.95,54.889614,9.795139,54.895069,9.793790
1386877251,1,0,545.9,0,1,0,0,0,125,-0.0292,547.0928,6.8213,0.4212,54.887489,9.794526,108.3,5.845,1.85,335.95,54.889614,9.795139,54.895069,9.793790
1386877251,1,0,545.9,0,1,4,0,0,100,-0.0292,546.8262,6.8213,0.4212,54.887474,9.794522,108.3,5.845,1.85,335.95,54.889614,9.795139,54.895069,9.793790
1386877252,1,0,545.9,0,1,0,0,0,75,-0.0292,546.5595,6.8213,0.4212,54.887455,9.794518,108.3,5.845,1.85,335.95,54.889614,9.795139,54.895069,9.793790
1386877252,1,0,545.9,0,1,4,0,0,50,-0.0292,546.2928,6.8213,0.4212,54.887436,9.794515,108.3,5.845,1.85,335.95,54.889614,9.795139,54.895069,9.793790
1386877252,1,0,545.9,0,0,0,0,0,25,-0.0292,546.2928,6.8213,0.4212,54.887417,9.794512,108.3,5.845,1.85,335.95,54.889614,9.795139,54.895069,9.793790
1386877252,1,0,545.9,0,0,4,0,0,0,-0.0292,546.2928,6.8213,0.4212,54.887402,9.794509,108.3,5.845,1.85,335.95,54.889614,9.795139,54.895069,9.793790
1386877253,1,0,545.9,0,0,0,0,0,25,-0.0292,546.2928,6.8213,0.4212,54.887383,9.794506,108.3,5.845,1.85,335.95,54.889614,9.795139,54.895069,9.793790
1386877253,1,0,485.9,0,35,4,0,0,0,-0.0292,536.9595,6.8213,0.4212,54.887363,9.794508,108.3,5.845,1.85,335.95,54.889614,9.795139,54.895069,9.793790
1386877253,1,0,485.9,0,35,8,0,0,25,-0.0292,527.6262,6.8213,0.4212,54.887348,9.794515,108.3,5.845,1.85,335.95,54.889614,9.795139,54.895069,9.793790
1386877253,1,0,485.9,0,35,12,0,0,0,-0.0292,518.2929,6.8213,0.4212,54.887329,9.794527,108.3,5.845,1.85,335.95,54.889614,9.795139,54.895069,9.793790
1386877254,1,0,485.9,0,32,16,0,0,25,-0.0292,509.7596,6.8213,0.4212,54.887314,9.794542,108.3,5.845,1.85,335.95,54.889614,9.795139,54.895069,9.793790
1386877254,1,0,485.9,0,24,20,0,0,0,-0.0292,503.3596,6.8213,0.4212,54.887299,9.794561,108.3,5.845,1.85,335.95,54.889614,9.795139,54.895069,9.793790
1386877254,1,0,485.9,0,17,16,0,0,25,-0.0292,498.8263,6.8213,0.4212,54.887283,9.794581,108.3,5.845,1.85,335.95,54.889614,9.795139,54.895069,9.793790
1386877254,1,0,485.9,0,13,12,0,0,0,-0.0292,495.3596,6.8213,0.4212,54.887272,9.794603,108.3,5.845,1.85,335.95,54.889614,9.795139,54.895069,9.793790
1386877255,1,0,485.9,0,9,8,0,0,25,-0.0292,492.9596,6.8213,0.4212,54.887260,9.794625,108.3,5.845,1.85,335.95,54.889614,9.795139,54.895069,9.793790
1386877255,1,0,485.9,0,7,4,0,409,50,-0.0292,491.0929,6.8213,0.4212,54.887249,9.794649,108.3,5.845,1.85,335.95,54.889614,9.795139,54.895069,9.793790
1386877255,1,0,485.9,0,5,8,0,409,75,-0.0292,489.7596,6.8213,0.4212,54.887234,9.794673,108.3,5.845,1.85,335.95,54.889614,9.795139,54.895069,9.793790
1386877255,1,0,485.9,0,4,4,0,409,100,-0.0292,488.6929,6.8213,0.4212,54.887222,9.794698,108.3,5.845,1.85,335.95,54.889614,9.795139,54.895069,9.793790
1386877256,1,0,485.9,0,3,0,0,409,125,-0.0292,487.8929,6.8213,0.4212,54.887215,9.794723,108.3,5.845,1.85,335.95,54.889614,9.795139,54.895069,9.793790
1386877256,1,0,485.9,0,2,4,0,409,150,-0.0292,487.3596,6.8213,0.4212,54.887203,9.794747,108.3,5.845,1.85,335.95,54.889614,9.795139,54.895069,9.793790
1386877256,1,0,485.9,0,1,0,0,409,175,-0.0292,487.0929,6.8213,0.4212,54.887192,9.794772,108.3,5.845,1.85,335.95,54.889614,9.795139,54.895069,9.793790
1386877256,1,0,485.9,0,1,4,0,409,200,-0.0292,486.8263,6.8213,0.4212,54.887180,9.794798,108.3,5.845,1.85,335.95,54.889614,9.795139,54.895069,9.793790
1386877257,1,0,485.9,0,1,0,0,409,225,-0.0292,486.5596,6.8213,0.4212,54.887169,9.794823,108.3,5.845,1.85,335.95,54.889614,9.795139,54.895069,9.793790
1386877257,1,0,485.9,0,1,4,0,409,250,-0.0292,486.2929,6.8213,0.4212,54.887161,9.794847,108.3,5.845,1.85,335.95,54.889614,9.795139,54.895069,9.793790
1386877257,1,0,485.9,0,0,0,0,409,275,-0.0292,486.2929,6.8213,0.4212,54.887150,9.794873,108.3,5.845,1.85,335.95,54.889614,9.795139,54.895069,9.793790
1386877257,1,0,485.9,0,0,4,0,409,300,-0.0292,486.2929,6.8213,0.4212,54.887138,9.794898,108.3,5.845,1.85,335.95,54.889614,9.795139,54.895069,9.793790
1386877258,1,0,485.9,0,0,0,0,409,325,-0.0292,486.2929,6.8213,0.4212,54.887127,9.794924,108.3,5.845,1.85,335.95,54.889614,9.795139,54.895069,9.793790
1386877258,1,0,390.9,0,35,4,0,409,350,-0.0292,476.9596,6.8213,0.4212,54.887115,9.794951,108.3,5.845,1.85,335.95,54.889614,9.795139,54.895069,9.793790
1386877258,1,0,390.9,0,35,8,0,409,375,-0.0292,467.6263,6.8213,0.4212,54.887112,9.794981,108.3,5.845,1.85,335.95,54.889614,9.795139,54.895069,9.793790
1386877258,1,0,390.9,0,35,12,0,500,400,-0.0292,458.2929,6.8213,0.4212,54.887108,9.795012,108.3,5.845,1.85,335.95,54.889614,9.795139,54.895069,9.793790
1386877259,1,0,390.9,0,35,16,0,500,425,-0.0292,448.9596,6.8213,0.4212,54.887108,9.795044,108.3,5.845,1.85,335.95,54.889614,9.795139,54.895069,9.793790
1386877259,1,0,390.9,0,35,20,0,435,450,-0.0292,439.6262,6.8213,0.4212,54.887112,9.795074,108.3,5.845,1.85,335.95,54.889614,9.795139,54.895069,9.793790
1386877259,1,0,390.9,0,35,24,0,354,425,-0.0292,430.2929,6.8213,0.4212,54.887119,9.795104,108.3,5.845,1.85,335.95,54.889614,9.795139,54.895069,9.793790
1386877259,1,0,390.9,0,35,28,0,269,400,-0.0292,420.9595,6.8213,0.4212,54.887131,9.795132,108.3,5.845,1.85,335.95,54.889614,9.795139,54.895069,9.793790
1386877260,1,0,390.9,0,30,32,0,183,375,-0.0292,412.9595,6.8213,0.4212,54.887142,9.795156,108.3,5.845,1.85,335.95,54.889614,9.795139,54.895069,9.793790
1386877260,1,0,390.9,0,22,28,0,113,350,-0.0292,407.0929,6.8213,0.4212,54.887154,9.795179,108.3,5.845,1.85,335.95,54.889614,9.795139,54.895069,9.793790
1386877260,1,0,390.9,0,16,24,0,67,325,-0.0292,402.8262,6.8213,0.4212,54.887165,9.795200,108.3,5.845,1.85,335.95,54.889614,9.795139,54.895069,9.793790
1386877260,1,0,390.9,0,12,20,0,39,300,-0.0292,399.6262,6.8213,0.4212,54.887180,9.795220,108.3,5.845,1.85,335.95,54.889614,9.795139,54.895069,9.793790
1386877261,1,0,390.9,0,9,16,0,21,275,-0.0292,397.2262,6.8213,0.4212,54.887192,9.795239,108.3,5.845,1.85,335.95,54.889614,9.795139,54.895069,9.793790
