MCU_timestamp,Navigation_System,Manual_Control,Guidance_Heading,Manual_Ctrl_Rudder,Rudder_Desired_Angle,Rudder_Feedback,Manual_Ctrl_Sail,Sail_Desired_Pos,Sail_Feedback,Rate,Heading,Pitch,Roll,Latitude,Longitude,COG,SOG,Wind_Speed,Wind_Angle,Point_Start_Lat,Point_Start_Lon,Point_End_Lat,Point_End_Lon
1386876736,0,0,0.0,0,0,4,0,0,0,-0.0292,486.2926,6.8213,0.4212,54.878361,9.819404,108.3,5.845,1.85,335.95,0.000000,0.000000,0.000000,0.000000
1386876736,0,0,0.0,0,0,4,0,0,0,-0.0292,486.2926,6.8213,0.4212,54.878361,9.819404,108.3,5.845,1.85,335.95,0.000000,0.000000,0.000000,0.000000
1386876737,0,0,0.0,0,0,4,0,0,0,-0.0292,486.2926,6.8213,0.4212,54.878361,9.819404,108.3,5.845,1.85,335.95,0.000000,0.000000,0.000000,0.000000
1386876737,0,0,0.0,0,0,4,0,0,0,-0.0292,486.2926,6.8213,0.4212,54.878361,9.819404,108.3,5.845,1.85,335.95,0.000000,0.000000,0.000000,0.000000
1386876737,0,0,0.0,0,0,4,0,0,0,-0.0292,486.2926,6.8213,0.4212,54.878361,9.819404,108.3,5.845,1.85,335.95,0.000000,0.000000,0.000000,0.000000
1386876737,0,0,0.0,0,0,4,0,0,0,-0.0292,486.2926,6.8213,0.4212,54.878361,9.819404,108.3,5.845,1.85,335.95,0.000000,0.000000,0.000000,0.000000
1386876738,0,0,0.0,0,0,4,0,0,0,-0.0292,486.2926,6.8213,0.4212,54.878361,9.819404,108.3,5.845,1.85,335.95,0.000000,0.000000,0.000000,0.000000
1386876738,0,0,0.0,0,0,4,0,0,0,-0.0292,486.2926,6.8213,0.4212,54.878361,9.819404,108.3,5.845,1.85,335.95,0.000000,0.000000,0.000000,0.000000
1386876738,4,0,0.0,0,0,4,0,0,0,-0.0292,486.2926,6.8213,0.4212,54.878361,9.819404,108.3,5.845,1.85,335.95,0.000000,0.000000,0.000000,0.000000
1386876738,1,0,485.9,0,0,0,0,409,375,-0.0292,486.2926,6.8213,0.4212,54.878349,9.819428,108.3,5.845,1.85,335.95,54.878361,9.819404,54.895069,9.793790
1386876739,1,0,485.9,0,0,4,0,409,400,-0.0292,486.2926,6.8213,0.4212,54.878338,9.819453,108.3,5.845,1.85,335.95,54.878361,9.819404,54.895069,9.793790
1386876739,1,0,485.9,0,0,0,0,409,425,-0.0292,486.2926,6.8213,0.4212,54.878326,9.819479,108.3,5.845,1.85,335.95,54.878361,9.819404,54.895069,9.793790
1386876739,1,0,485.9,0,0,4,0,409,400,-0.0292,486.2926,6.8213,0.4212,54.878315,9.819504,108.3,5.845,1.85,335.95,54.878361,9.819404,54.895069,9.793790
1386876739,1,0,485.9,0,0,0,0,409,425,-0.0292,486.2926,6.8213,0.4212,54.878307,9.819530,108.3,5.845,1.85,335.95,54.878361,9.819404,54.895069,9.793790
1386876740,1,0,485.9,0,0,4,0,409,400,-0.0292,486.2926,6.8213,0.4212,54.878296,9.819554,108.3,5.845,1.85,335.95,54.878361,9.819404,54.895069,9.793790
1386876740,1,0,485.9,0,0,0,0,409,425,-0.0292,486.2926,6.8213,0.4212,54.878284,9.819579,108.3,5.845,1.85,335.95,54.878361,9.819404,54.895069,9.793790
1386876740,1,0,485.9,0,0,4,0,409,400,-0.0292,486.2926,6.8213,0.4212,54.878273,9.819605,108.3,5.845,1.85,335.95,54.878361,9.819404,54.895069,9.793790
1386876740,1,0,485.9,0,0,0,0,409,425,-0.0292,486.2926,6.8213,0.4212,54.878262,9.819630,108.3,5.845,1.85,335.95,54.878361,9.819404,54.895069,9.793790
1386876741,1,0,485.9,0,0,4,0,409,400,-0.0292,486.2926,6.8213,0.4212,54.878250,9.819655,108.3,5.845,1.85,335.95,54.878361,9.819404,54.895069,9.793790
1386876741,1,0,485.9,0,0,0,0,409,425,-0.0292,486.2926,6.8213,0.4212,54.878239,9.819680,108.3,5.845,1.85,335.95,54.878361,9.819404,54.895069,9.793790
1386876741,1,0,485.9,0,0,4,0,409,400,-0.0292,486.2926,6.8213,0.4212,54.878227,9.819705,108.3,5.845,1.85,335.95,54.878361,9.819404,54.895069,9.793790
1386876741,1,0,485.9,0,0,0,0,409,425,-0.0292,486.2926,6.8213,0.4212,54.878216,9.819730,108.3,5.845,1.85,335.95,54.878361,9.819404,54.895069,9.793790
1386876742,1,0,485.9,0,0,4,0,409,400,-0.0292,486.2926,6.8213,0.4212,54.878204,9.819755,108.3,5.845,1.85,335.95,54.878361,9.819404,54.895069,9.793790
1386876742,1,0,485.9,0,0,0,0,409,425,-0.0292,486.2926,6.8213,0.4212,54.878193,9.819780,108.3,5.845,1.85,335.95,54.878361,9.819404,54.895069,9.793790
1386876742,1,0,485.9,0,0,4,0,409,400,-0.0292,486.2926,6.8213,0.4212,54.878185,9.819805,108.3,5.845,1.85,335.95,54.878361,9.819404,54.895069,9.793790
1386876742,1,0,485.9,0,0,0,0,409,425,-0.0292,486.2926,6.8213,0.4212,54.878174,9.819831,108.3,5.845,1.85,335.95,54.878361,9.819404,54.895069,9.793790
1386876743,1,0,485.9,0,0,4,0,409,400,-0.0292,486.2926,6.8213,0.4212,54.878162,9.819856,108.3,5.845,1.85,335.95,54.878361,9.819404,54.895069,9.793790
1386876743,1,0,485.9,0,0,0,0,409,425,-0.0292,486.2926,6.8213,0.4212,54.878151,9.819880,108.3,5.845,1.85,335.95,54.878361,9.819404,54.895069,9.793790
1386876743,1,0,485.9,0,0,4,0,409,400,-0.0292,486.2926,6.8213,0.4212,54.878139,9.819906,108.3,5.845,1.85,335.95,54.878361,9.819404,54.895069,9.793790
1386876743,1,0,485.9,0,0,0,0,0,375,-0.0292,486.2926,6.8213,0.4212,54.878128,9.819931,108.3,5.845,1.85,335.95,54.878361,9.819404,54.895069,9.793790
1386876744,1,0,485.9,0,0,4,0,0,350,-0.0292,486.2926,6.8213,0.4212,54.878117,9.819957,108.3,5.845,1.85,335.95,54.878361,9.819404,54.895069,9.793790
1386876744,1,0,485.9,0,0,0,0,0,325,-0.0292,486.2926,6.8213,0.4212,54.878105,9.819982,108.3,5.845,1.85,335.95,54.878361,9.819404,54.895069,9.793790
1386876744,1,0,485.9,0,0,4,0,0,300,-0.0292,486.2926,6.8213,0.4212,54.878094,9.820006,108.3,5.845,1.85,335.95,54.878361,9.819404,54.895069,9.793790
1386876744,1,0,485.9,0,0,0,0,0,275,-0.0292,486.2926,6.8213,0.4212,54.878086,9.820031,108.3,5.845,1.85,335.95,54.878361,9.819404,54.895069,9.793790
1386876745,1,0,485.9,0,0,4,0,0,250,-0.0292,486.2926,6.8213,0.4212,54.878075,9.820056,108.3,5.845,1.85,335.95,54.878361,9.819404,54.895069,9.793790
1386876745,1,0,485.9,0,0,0,0,0,225,-0.0292,486.2926,6.8213,0.4212,54.878063,9.820082,108.3,5.845,1.85,335.95,54.878361,9.819404,54.895069,9.793790
1386876745,1,0,485.9,0,0,4,0,0,200,-0.0292,486.2926,6.8213,0.4212,54.878052,9.820107,108.3,5.845,1.85,335.95,54.878361,9.819404,54.895069,9.793790
1386876745,1,0,485.9,0,0,0,0,0,175,-0.0292,486.2926,6.8213,0.4212,54.878040,9.820132,108.3,5.845,1.85,335.95,54.878361,9.819404,54.895069,9.793790
1386876746,1,0,485.9,0,0,4,0,0,150,-0.0292,486.2926,6.8213,0.4212,54.878029,9.820157,108.3,5.845,1.85,335.95,54.878361,9.819404,54.895069,9.793790
1386876746,1,0,485.9,0,0,0,0,0,125,-0.0292,486.2926,6.8213,0.4212,54.878017,9.820182,108.3,5.845,1.85,335.95,54.878361,9.819404,54.895069,9.793790
1386876746,1,0,485.9,0,0,4,0,0,100,-0.0292,486.2926,6.8213,0.4212,54.878006,9.820208,108.3,5.845,1.85,335.95,54.878361,9.819404,54.895069,9.793790
1386876746,1,0,485.9,0,0,0,0,0,75,-0.0292,486.2926,6.8213,0.4212,54.877995,9.820232,108.3,5.845,1.85,335.95,54.878361,9.819404,54.895069,9.793790
1386876747,1,0,485.9,0,0,4,0,0,50,-0.0292,486.2926,6.8213,0.4212,54.877987,9.820258,108.3,5.845,1.85,335.95,54.878361,9.819404,54.895069,9.793790
1386876747,1,0,485.9,0,0,0,0,0,25,-0.0292,486.2926,6.8213,0.4212,54.877975,9.820283,108.3,5.845,1.85,335.95,54.878361,9.819404,54.895069,9.793790
1386876747,1,0,485.9,0,0,4,0,0,0,-0.0292,486.2926,6.8213,0.4212,54.877968,9.820308,108.3,5.845,1.85,335.95,54.878361,9.819404,54.895069,9.793790
1386876747,1,0,485.9,0,0,0,0,0,25,-0.0292,486.2926,6.8213,0.4212,54.877956,9.820333,108.3,5.845,1.85,335.95,54.878361,9.819404,54.895069,9.793790
1386876748,1,0,545.9,0,-35,-4,0,0,0,-0.0292,495.6259,6.8213,0.4212,54.877941,9.820355,108.3,5.845,1.85,335.95,54.878361,9.819404,54.895069,9.793790
1386876748,1,0,545.9,0,-35,-8,0,0,25,-0.0292,504.9593,6.8213,0.4212,54.877926,9.820374,108.3,5.845,1.85,335.95,54.878361,9.819404,54.895069,9.793790
1386876748,1,0,545.9,0,-35,-12,0,0,0,-0.0292,514.2926,6.8213,0.4212,54.877911,9.820387,108.3,5.845,1.85,335.95,54.878361,9.819404,54.895069,9.793790
1386876748,1,0,545.9,0,-32,-16,0,0,25,-0.0292,522.8259,6.8213,0.4212,54.877892,9.820396,108.3,5.845,1.85,335.95,54.878361,9.819404,54.895069,9.793790
1386876749,1,0,545.9,0,-23,-20,0,0,0,-0.0292,528.9593,6.8213,0.4212,54.877872,9.820402,108.3,5.845,1.85,335.95,54.878361,9.819404,54.895069,9.793790
1386876749,1,0,545.9,0,-17,-16,0,0,25,-0.0292,533.4926,6.8213,0.4212,54.877857,9.820406,108.3,5.845,1.85,335.95,54.878361,9.819404,54.895069,9.793790
1386876749,1,0,545.9,0,-12,-12,0,0,0,-0.0292,536.6926,6.8213,0.4212,54.877838,9.820408,108.3,5.845,1.85,335.95,54.878361,9.819404,54.895069,9.793790
1386876749,1,0,545.9,0,-9,-8,0,0,25,-0.0292,539.0927,6.8213,0.4212,54.877819,9.820409,108.3,5.845,1.85,335.95,54.878361,9.819404,54.895069,9.793790
1386876750,1,0,545.9,0,-7,-4,0,409,50,-0.0292,540.9593,6.8213,0.4212,54.877800,9.820409,108.3,5.845,1.85,335.95,54.878361,9.819404,54.895069,9.793790
1386876750,1,0,545.9,0,-5,-8,0,409,75,-0.0292,542.2926,6.8213,0.4212,54.877785,9.820408,108.3,5.845,1.85,335.95,54.878361,9.819404,54.895069,9.793790
