MCU_timestamp,Navigation_System,Manual_Control,Guidance_Heading,Manual_Ctrl_Rudder,Rudder_Desired_Angle,Rudder_Feedback,Manual_Ctrl_Sail,Sail_Desired_Pos,Sail_Feedback,Rate,Heading,Pitch,Roll,Latitude,Longitude,COG,SOG,Wind_Speed,Wind_Angle,Point_Start_Lat,Point_Start_Lon,Point_End_Lat,Point_End_Lon
1386792773,0,0,0.0,0,0,0,0,0,0,-0.0292,126.2902,6.8213,0.4212,54.896736,9.793596,108.3,5.845,1.85,335.95,0.000000,0.000000,0.000000,0.000000
1386792773,0,0,0.0,0,0,0,0,0,0,-0.0292,126.2902,6.8213,0.4212,54.896736,9.793596,108.3,5.845,1.85,335.95,0.000000,0.000000,0.000000,0.000000
1386792773,0,0,0.0,0,0,0,0,0,0,-0.0292,126.2902,6.8213,0.4212,54.896736,9.793596,108.3,5.845,1.85,335.95,0.000000,0.000000,0.000000,0.000000
1386792774,0,0,0.0,0,0,0,0,0,0,-0.0292,126.2902,6.8213,0.4212,54.896736,9.793596,108.3,5.845,1.85,335.95,0.000000,0.000000,0.000000,0.000000
1386792774,0,0,0.0,0,0,0,0,0,0,-0.0292,126.2902,6.8213,0.4212,54.896736,9.793596,108.3,5.845,1.85,335.95,0.000000,0.000000,0.000000,0.000000
1386792774,0,0,0.0,0,0,0,0,0,0,-0.0292,126.2902,6.8213,0.4212,54.896736,9.793596,108.3,5.845,1.85,335.95,0.000000,0.000000,0.000000,0.000000
1386792774,0,0,0.0,0,0,0,0,0,0,-0.0292,126.2902,6.8213,0.4212,54.896736,9.793596,108.3,5.845,1.85,335.95,0.000000,0.000000,0.000000,0.000000
1386792775,0,0,0.0,0,0,0,0,0,0,-0.0292,126.2902,6.8213,0.4212,54.896736,9.793596,108.3,5.845,1.85,335.95,0.000000,0.000000,0.000000,0.000000
1386792775,0,0,0.0,0,0,0,0,0,0,-0.0292,126.2902,6.8213,0.4212,54.896736,9.793596,108.3,5.845,1.85,335.95,0.000000,0.000000,0.000000,0.000000
1386792775,0,0,0.0,0,0,0,0,0,0,-0.0292,126.2902,6.8213,0.4212,54.896736,9.793596,108.3,5.845,1.85,335.95,0.000000,0.000000,0.000000,0.000000
1386792775,0,0,0.0,0,0,0,0,0,0,-0.0292,126.2902,6.8213,0.4212,54.896736,9.793596,108.3,5.845,1.85,335.95,0.000000,0.000000,0.000000,0.000000
1386792776,0,0,0.0,0,0,0,0,0,0,-0.0292,126.2902,6.8213,0.4212,54.896736,9.793596,108.3,5.845,1.85,335.95,0.000000,0.000000,0.000000,0.000000
1386792776,0,0,0.0,0,0,0,0,0,0,-0.0292,126.2902,6.8213,0.4212,54.896736,9.793596,108.3,5.845,1.85,335.95,0.000000,0.000000,0.000000,0.000000
1386792776,0,0,0.0,0,0,0,0,0,0,-0.0292,126.2902,6.8213,0.4212,54.896736,9.793596,108.3,5.845,1.85,335.95,0.000000,0.000000,0.000000,0.000000
1386792776,0,0,0.0,0,0,0,0,0,0,-0.0292,126.2902,6.8213,0.4212,54.896736,9.793596,108.3,5.845,1.85,335.95,0.000000,0.000000,0.000000,0.000000
1386792777,4,0,0.0,0,0,0,0,0,0,-0.0292,126.2902,6.8213,0.4212,54.896736,9.793596,108.3,5.845,1.85,335.95,0.000000,0.000000,0.000000,0.000000
1386792777,1,0,485.9,0,0,4,0,409,420,-0.0292,126.2902,6.8213,0.4212,54.896729,9.793621,108.3,5.845,1.85,335.95,54.896736,9.793596,54.895069,9.793790
1386792777,1,0,485.9,0,0,0,0,409,415,-0.0292,126.2902,6.8213,0.4212,54.896717,9.793646,108.3,5.845,1.85,335.95,54.896736,9.793596,54.895069,9.793790
1386792777,1,0,485.9,0,0,4,0,409,410,-0.0292,126.2902,6.8213,0.4212,54.896706,9.793672,108.3,5.845,1.85,335.95,54.896736,9.793596,54.895069,9.793790
1386792778,1,0,485.9,0,0,0,0,409,405,-0.0292,126.2902,6.8213,0.4212,54.896694,9.793696,108.3,5.845,1.85,335.95,54.896736,9.793596,54.895069,9.793790
1386792778,1,0,485.9,0,0,4,0,409,410,-0.0292,126.2902,6.8213,0.4212,54.896683,9.793722,108.3,5.845,1.85,335.95,54.896736,9.793596,54.895069,9.793790
1386792778,1,0,485.9,0,0,0,0,409,405,-0.0292,126.2902,6.8213,0.4212,54.896671,9.793747,108.3,5.845,1.85,335.95,54.896736,9.793596,54.895069,9.793790
1386792778,1,0,485.9,0,0,4,0,409,410,-0.0292,126.2902,6.8213,0.4212,54.896660,9.793772,108.3,5.845,1.85,335.95,54.896736,9.793596,54.895069,9.793790
1386792779,1,0,485.9,0,0,0,0,409,405,-0.0292,126.2902,6.8213,0.4212,54.896648,9.793797,108.3,5.845,1.85,335.95,54.896736,9.793596,54.895069,9.793790
1386792779,1,0,485.9,0,0,4,0,409,410,-0.0292,126.2902,6.8213,0.4212,54.896637,9.793821,108.3,5.845,1.85,335.95,54.896736,9.793596,54.895069,9.793790
1386792779,1,0,485.9,0,0,0,0,409,405,-0.0292,126.2902,6.8213,0.4212,54.896629,9.793847,108.3,5.845,1.85,335.95,54.896736,9.793596,54.895069,9.793790
1386792779,1,0,485.9,0,0,4,0,409,410,-0.0292,126.2902,6.8213,0.4212,54.896618,9.793872,108.3,5.845,1.85,335.95,54.896736,9.793596,54.895069,9.793790
1386792780,1,0,485.9,0,0,0,0,409,405,-0.0292,126.2902,6.8213,0.4212,54.896610,9.793898,108.3,5.845,1.85,335.95,54.896736,9.793596,54.895069,9.793790
1386792780,1,0,485.9,0,0,4,0,409,410,-0.0292,126.2902,6.8213,0.4212,54.896599,9.793922,108.3,5.845,1.85,335.95,54.896736,9.793596,54.895069,9.793790
1386792780,1,0,485.9,0,0,0,0,409,405,-0.0292,126.2902,6.8213,0.4212,54.896587,9.793947,108.3,5.845,1.85,335.95,54.896736,9.793596,54.895069,9.793790
1386792780,1,0,485.9,0,0,4,0,409,410,-0.0292,126.2902,6.8213,0.4212,54.896576,9.793973,108.3,5.845,1.85,335.95,54.896736,9.793596,54.895069,9.793790
1386792781,1,0,485.9,0,0,0,0,409,405,-0.0292,126.2902,6.8213,0.4212,54.896564,9.793998,108.3,5.845,1.85,335.95,54.896736,9.793596,54.895069,9.793790
1386792781,1,0,485.9,0,0,4,0,409,410,-0.0292,126.2902,6.8213,0.4212,54.896557,9.794024,108.3,5.845,1.85,335.95,54.896736,9.793596,54.895069,9.793790
1386792781,1,0,485.9,0,0,0,0,409,405,-0.0292,126.2902,6.8213,0.4212,54.896545,9.794048,108.3,5.845,1.85,335.95,54.896736,9.793596,54.895069,9.793790
1386792781,1,0,485.9,0,0,4,0,409,410,-0.0292,126.2902,6.8213,0.4212,54.896534,9.794073,108.3,5.845,1.85,335.95,54.896736,9.793596,54.895069,9.793790
1386792782,1,0,485.9,0,0,0,0,409,405,-0.0292,126.2902,6.8213,0.4212,54.896523,9.794099,108.3,5.845,1.85,335.95,54.896736,9.793596,54.895069,9.793790
1386792782,1,0,485.9,0,0,4,0,0,400,-0.0292,126.2902,6.8213,0.4212,54.896511,9.794124,108.3,5.845,1.85,335.95,54.896736,9.793596,54.895069,9.793790
1386792782,1,0,485.9,0,0,0,0,0,395,-0.0292,126.2902,6.8213,0.4212,54.896500,9.794149,108.3,5.845,1.85,335.95,54.896736,9.793596,54.895069,9.793790
1386792782,1,0,485.9,0,0,4,0,0,390,-0.0292,126.2902,6.8213,0.4212,54.896488,9.794174,108.3,5.845,1.85,335.95,54.896736,9.793596,54.895069,9.793790
1386792783,1,0,485.9,0,0,0,0,0,385,-0.0292,126.2902,6.8213,0.4212,54.896477,9.794200,108.3,5.845,1.85,335.95,54.896736,9.793596,54.895069,9.793790
1386792783,1,0,485.9,0,0,4,0,0,380,-0.0292,126.2902,6.8213,0.4212,54.896465,9.794225,108.3,5.845,1.85,335.95,54.896736,9.793596,54.895069,9.793790
1386792783,1,0,485.9,0,0,0,0,0,375,-0.0292,126.2902,6.8213,0.4212,54.896458,9.794250,108.3,5.845,1.85,335.95,54.896736,9.793596,54.895069,9.793790
1386792783,1,0,485.9,0,0,4,0,0,370,-0.0292,126.2902,6.8213,0.4212,54.896446,9.794275,108.3,5.845,1.85,335.95,54.896736,9.793596,54.895069,9.793790
1386792784,1,0,485.9,0,0,0,0,0,365,-0.0292,126.2902,6.8213,0.4212,54.896435,9.794300,108.3,5.845,1.85,335.95,54.896736,9.793596,54.895069,9.793790
1386792784,1,0,485.9,0,0,4,0,0,360,-0.0292,126.2902,6.8213,0.4212,54.896423,9.794326,108.3,5.845,1.85,335.95,54.896736,9.793596,54.895069,9.793790
1386792784,1,0,485.9,0,0,0,0,0,355,-0.0292,126.2902,6.8213,0.4212,54.896412,9.794351,108.3,5.845,1.85,335.95,54.896736,9.793596,54.895069,9.793790
1386792784,1,0,485.9,0,0,4,0,0,350,-0.0292,126.2902,6.8213,0.4212,54.896400,9.794375,108.3,5.845,1.85,335.95,54.896736,9.793596,54.895069,9.793790
1386792785,1,0,485.9,0,0,0,0,0,345,-0.0292,126.2902,6.8213,0.4212,54.896389,9.794401,108.3,5.845,1.85,335.95,54.896736,9.793596,54.895069,9.793790
1386792785,1,0,485.9,0,0,4,0,0,340,-0.0292,126.2902,6.8213,0.4212,54.896378,9.794426,108.3,5.845,1.85,335.95,54.896736,9.793596,54.895069,9.793790
1386792785,1,0,485.9,0,0,0,0,0,335,-0.0292,126.2902,6.8213,0.4212,54.896366,9.794452,108.3,5.845,1.85,335.95,54.896736,9.793596,54.895069,9.793790
1386792785,1,0,485.9,0,0,4,0,0,330,-0.0292,126.2902,6.8213,0.4212,54.896355,9.794477,108.3,5.845,1.85,335.95,54.896736,9.793596,54.895069,9.793790
1386792786,1,0,485.9,0,0,0,0,0,325,-0.0292,126.2902,6.8213,0.4212,54.896343,9.794501,108.3,5.845,1.85,335.95,54.896736,9.793596,54.895069,9.793790
1386792786,1,0,485.9,0,0,4,0,0,320,-0.0292,126.2902,6.8213,0.4212,54.896336,9.794527,108.3,5.845,1.85,335.95,54.896736,9.793596,54.895069,9.793790
1386792786,1,0,485.9,0,0,0,0,0,315,-0.0292,126.2902,6.8213,0.4212,54.896324,9.794552,108.3,5.845,1.85,335.95,54.896736,9.793596,54.895069,9.793790
1386792787,1,0,485.9,0,0,4,0,0,310,-0.0292,126.2902,6.8213,0.4212,54.896313,9.794578,108.3,5.845,1.85,335.95,54.896736,9.793596,54.895069,9.793790
1386792787,1,0,485.9,0,0,0,0,0,305,-0.0292,126.2902,6.8213,0.4212,54.896301,9.794602,108.3,5.845,1.85,335.95,54.896736,9.793596,54.895069,9.793790
1386792787,1,0,485.9,0,0,4,0,0,300,-0.0292,126.2902,6.8213,0.4212,54.896290,9.794628,108.3,5.845,1.85,335.95,54.896736,9.793596,54.895069,9.793790
1386792787,1,0,485.9,0,0,0,0,0,295,-0.0292,126.2902,6.8213,0.4212,54.896278,9.794653,108.3,5.845,1.85,335.95,54.896736,9.793596,54.895069,9.793790
1386792788,1,0,485.9,0,0,4,0,0,290,-0.0292,126.2902,6.8213,0.4212,54.896267,9.794678,108.3,5.845,1.85,335.95,54.896736,9.793596,54.895069,9.793790
1386792788,1,0,485.9,0,0,0,0,0,285,-0.0292,126.2902,6.8213,0.4212,54.896255,9.794703,108.3,5.845,1.85,335.95,54.896736,9.793596,54.895069,9.793790
1386792788,1,0,485.9,0,0,4,0,0,280,-0.0292,126.2902,6.8213,0.4212,54.896244,9.794728,108.3,5.845,1.85,335.95,54.896736,9.793596,54.895069,9.793790
1386792788,1,0,485.9,0,0,0,0,0,275,-0.0292,126.2902,6.8213,0.4212,54.896236,9.794754,108.3,5.845,1.85,335.95,54.896736,9.793596,54.895069,9.793790
1386792789,1,0,485.9,0,0,4,0,0,270,-0.0292,126.2902,6.8213,0.4212,54.896225,9.794779,108.3,5.845,1.85,335.95,54.896736,9.793596,54.895069,9.793790
1386792789,1,0,485.9,0,0,0,0,0,265,-0.0292,126.2902,6.8213,0.4212,54.896214,9.794804,108.3,5.845,1.85,335.95,54.896736,9.793596,54.895069,9.793790
1386792789,1,0,485.9,0,0,4,0,0,260,-0.0292,126.2902,6.8213,0.4212,54.896202,9.794829,108.3,5.845,1.85,335.95,54.896736,9.793596,54.895069,9.793790
1386792789,1,0,485.9,0,0,0,0,0,255,-0.0292,126.2902,6.8213,0.4212,54.896191,9.794854,108.3,5.845,1.85,335.95,54.896736,9.793596,54.895069,9.793790
1386792790,1,0,485.9,0,0,4,0,0,250,-0.0292,126.2902,6.8213,0.4212,54.896179,9.794880,108.3,5.845,1.85,335.95,54.896736,9.793596,54.895069,9.793790
1386792790,1,0,485.9,0,0,0,0,0,245,-0.0292,126.2902,6.8213,0.4212,54.896168,9.794905,108.3,5.845,1.85,335.95,54.896736,9.793596,54.895069,9.793790
1386792790,1,0,485.9,0,0,4,0,0,240,-0.0292,126.2902,6.8213,0.4212,54.896156,9.794930,108.3,5.845,1.85,335.95,54.896736,9.793596,54.895069,9.793790
1386792790,1,0,485.9,0,0,0,0,0,235,-0.0292,126.2902,6.8213,0.4212,54.896145,9.794954,108.3,5.845,1.85,335.95,54.896736,9.793596,54.895069,9.793790
1386792791,1,0,485.9,0,0,4,0,0,230,-0.0292,126.2902,6.8213,0.4212,54.896133,9.794979,108.3,5.845,1.85,335.95,54.896736,9.793596,54.895069,9.793790
1386792791,1,0,485.9,0,0,0,0,0,225,-0.0292,126.2902,6.8213,0.4212,54.896122,9.795005,108.3,5.845,1.85,335.95,54.896736,9.793596,54.895069,9.793790
1386792791,1,0,485.9,0,0,4,0,0,220,-0.0292,126.2902,6.8213,0.4212,54.896114,9.795030,108.3,5.845,1.85,335.95,54.896736,9.793596,54.895069,9.793790
1386792791,1,0,485.9,0,0,0,0,0,215,-0.0292,126.2902,6.8213,0.4212,54.896103,9.795055,108.3,5.845,1.85,335.95,54.896736,9.793596,54.895069,9.793790
1386792792,1,0,485.9,0,0,4,0,0,210,-0.0292,126.2902,6.8213,0.4212,54.896091,9.795080,108.3,5.845,1.85,335.95,54.896736,9.793596,54.895069,9.793790
1386792792,1,0,485.9,0,0,0,0,0,205,-0.0292,126.2902,6.8213,0.4212,54.896080,9.795105,108.3,5.845,1.85,335.95,54.896736,9.793596,54.895069,9.793790
1386792792,1,0,485.9,0,0,4,0,0,200,-0.0292,126.2902,6.8213,0.4212,54.896069,9.795131,108.3,5.845,1.85,335.95,54.896736,9.793596,54.895069,9.793790
1386792792,1,0,485.9,0,0,0,0,0,195,-0.0292,126.2902,6.8213,0.4212,54.896057,9.795156,108.3,5.845,1.85,335.95,54.896736,9.793596,54.895069,9.793790
1386792793,1,0,485.9,0,0,4,0,0,190,-0.0292,126.2902,6.8213,0.4212,54.896046,9.795181,108.3,5.845,1.85,335.95,54.896736,9.793596,54.895069,9.793790
1386792793,1,0,485.9,0,0,0,0,0,185,-0.0292,126.2902,6.8213,0.4212,54.896034,9.795206,108.3,5.845,1.85,335.95,54.896736,9.793596,54.895069,9.793790
1386792793,1,0,485.9,0,0,4,0,0,180,-0.0292,126.2902,6.8213,0.4212,54.896023,9.795231,108.3,5.845,1.85,335.95,54.896736,9.793596,54.895069,9.793790
1386792793,1,0,485.9,0,0,0,0,0,175,-0.0292,126.2902,6.8213,0.4212,54.896015,9.795257,108.3,5.845,1.85,335.95,54.896736,9.793596,54.895069,9.793790
1386792794,1,0,485.9,0,0,4,0,0,170,-0.0292,126.2902,6.8213,0.4212,54.896004,9.795281,108.3,5.845,1.85,335.95,54.896736,9.793596,54.895069,9.793790
1386792794,1,0,485.9,0,0,0,0,0,165,-0.0292,126.2902,6.8213,0.4212,54.895992,9.795307,108.3,5.845,1.85,335.95,54.896736,9.793596,54.895069,9.793790
1386792794,1,0,485.9,0,0,4,0,0,160,-0.0292,126.2902,6.8213,0.4212,54.895981,9.795332,108.3,5.845,1.85,335.95,54.896736,9.793596,54.895069,9.793790
1386792794,1,0,485.9,0,0,0,0,0,155,-0.0292,126.2902,6.8213,0.4212,54.895969,9.795357,108.3,5.845,1.85,335.95,54.896736,9.793596,54.895069,9.793790
1386792795,1,0,485.9,0,0,4,0,0,150,-0.0292,126.2902,6.8213,0.4212,54.895958,9.795382,108.3,5.845,1.85,335.95,54.896736,9.793596,54.895069,9.793790
1386792795,1,0,485.9,0,0,0,0,0,145,-0.0292,126.2902,6.8213,0.4212,54.895947,9.795406,108.3,5.845,1.85,335.95,54.896736,9.793596,54.895069,9.793790
1386792795,1,0,485.9,0,0,4,0,0,140,-0.0292,126.2902,6.8213,0.4212,54.895935,9.795432,108.3,5.845,1.85,335.95,54.896736,9.793596,54.895069,9.793790
1386792795,1,0,485.9,0,0,0,0,0,135,-0.0292,126.2902,6.8213,0.4212,54.895924,9.795457,108.3,5.845,1.85,335.95,54.896736,9.793596,54.895069,9.793790
1386792796,1,0,485.9,0,0,4,0,0,130,-0.0292,126.2902,6.8213,0.4212,54.895912,9.795483,108.3,5.845,1.85,335.95,54.896736,9.793596,54.895069,9.793790
1386792796,1,0,485.9,0,0,0,0,0,125,-0.0292,126.2902,6.8213,0.4212,54.895901,9.795507,108.3,5.845,1.85,335.95,54.896736,9.793596,54.895069,9.793790
1386792796,1,0,485.9,0,0,4,0,0,120,-0.0292,126.2902,6.8213,0.4212,54.895893,9.795532,108.3,5.845,1.85,335.95,54.896736,9.793596,54.895069,9.793790
1386792796,1,0,485.9,0,0,0,0,0,115,-0.0292,126.2902,6.8213,0.4212,54.895882,9.795558,108.3,5.845,1.85,335.95,54.896736,9.793596,54.895069,9.793790
1386792797,1,0,485.9,0,0,4,0,0,110,-0.0292,126.2902,6.8213,0.4212,54.895870,9.795583,108.3,5.845,1.85,335.95,54.896736,9.793596,54.895069,9.793790
1386792797,1,0,485.9,0,0,0,0,0,105,-0.0292,126.2902,6.8213,0.4212,54.895859,9.795609,108.3,5.845,1.85,335.95,54.896736,9.793596,54.895069,9.793790
1386792797,1,0,485.9,0,0,4,0,0,100,-0.0292,126.2902,6.8213,0.4212,54.895847,9.795633,108.3,5.845,1.85,335.95,54.896736,9.793596,54.895069,9.793790
1386792797,1,0,485.9,0,0,0,0,0,95,-0.0292,126.2902,6.8213,0.4212,54.895836,9.795658,108.3,5.845,1.85,335.95,54.896736,9.793596,54.895069,9.793790
1386792798,1,0,485.9,0,0,4,0,0,90,-0.0292,126.2902,6.8213,0.4212,54.895824,9.795683,108.3,5.845,1.85,335.95,54.896736,9.793596,54.895069,9.793790
1386792798,1,0,485.9,0,0,0,0,0,85,-0.0292,126.2902,6.8213,0.4212,54.895813,9.795708,108.3,5.845,1.85,335.95,54.896736,9.793596,54.895069,9.793790
1386792798,1,0,485.9,0,0,4,0,0,80,-0.0292,126.2902,6.8213,0.4212,54.895802,9.795733,108.3,5.845,1.85,335.95,54.896736,9.793596,54.895069,9.793790
1386792798,1,0,485.9,0,0,0,0,0,75,-0.0292,126.2902,6.8213,0.4212,54.895794,9.795758,108.3,5.845,1.85,335.95,54.896736,9.793596,54.895069,9.793790
1386792799,1,0,485.9,0,0,4,0,0,70,-0.0292,126.2902,6.8213,0.4212,54.895782,9.795784,108.3,5.845,1.85,335.95,54.896736,9.793596,54.895069,9.793790
1386792799,1,0,485.9,0,0,0,0,0,65,-0.0292,126.2902,6.8213,0.4212,54.895771,9.795809,108.3,5.845,1.85,335.95,54.896736,9.793596,54.895069,9.793790
1386792799,1,0,485.9,0,0,4,0,0,60,-0.0292,126.2902,6.8213,0.4212,54.895760,9.795834,108.3,5.845,1.85,335.95,54.896736,9.793596,54.895069,9.793790
1386792799,1,0,485.9,0,0,0,0,0,55,-0.0292,126.2902,6.8213,0.4212,54.895748,9.795859,108.3,5.845,1.85,335.95,54.896736,9.793596,54.895069,9.793790
1386792800,1,0,485.9,0,0,4,0,0,50,-0.0292,126.2902,6.8213,0.4212,54.895737,9.795884,108.3,5.845,1.85,335.95,54.896736,9.793596,54.895069,9.793790
1386792800,1,0,485.9,0,0,0,0,0,45,-0.0292,126.2902,6.8213,0.4212,54.895725,9.795910,108.3,5.845,1.85,335.95,54.896736,9.793596,54.895069,9.793790
1386792800,1,0,485.9,0,0,4,0,0,40,-0.0292,126.2902,6.8213,0.4212,54.895714,9.795935,108.3,5.845,1.85,335.95,54.896736,9.793596,54.895069,9.793790
1386792800,1,0,485.9,0,0,0,0,0,35,-0.0292,126.2902,6.8213,0.4212,54.895702,9.795959,108.3,5.845,1.85,335.95,54.896736,9.793596,54.895069,9.793790
1386792801,1,0,485.9,0,0,4,0,0,30,-0.0292,126.2902,6.8213,0.4212,54.895695,9.795985,108.3,5.845,1.85,335.95,54.896736,9.793596,54.895069,9.793790
1386792801,1,0,485.9,0,0,0,0,0,25,-0.0292,126.2902,6.8213,0.4212,54.895683,9.796010,108.3,5.845,1.85,335.95,54.896736,9.793596,54.895069,9.793790
1386792801,1,0,485.9,0,0,4,0,0,20,-0.0292,126.2902,6.8213,0.4212,54.895676,9.796036,108.3,5.845,1.85,335.95,54.896736,9.793596,54.895069,9.793790
1386792801,1,0,485.9,0,0,0,0,0,15,-0.0292,126.2902,6.8213,0.4212,54.895664,9.796061,108.3,5.845,1.85,335.95,54.896736,9.793596,54.895069,9.793790
1386792802,1,0,485.9,0,0,4,0,0,10,-0.0292,126.2902,6.8213,0.4212,54.895653,9.796085,108.3,5.845,1.85,335.95,54.896736,9.793596,54.895069,9.793790
1386792802,1,0,485.9,0,0,0,0,0,5,-0.0292,126.2902,6.8213,0.4212,54.895641,9.796110,108.3,5.845,1.85,335.95,54.896736,9.793596,54.895069,9.793790
1386792802,1,0,485.9,0,0,4,0,0,0,-0.0292,126.2902,6.8213,0.4212,54.895630,9.796135,108.3,5.845,1.85,335.95,54.896736,9.793596,54.895069,9.793790
1386792802,1,0,545.9,0,-35,0,0,0,5,-0.0292,135.6236,6.8213,0.4212,54.895618,9.796157,108.3,5.845,1.85,335.95,54.896736,9.793596,54.895069,9.793790
1386792803,1,0,545.9,0,-35,-4,0,0,0,-0.0292,144.9569,6.8213,0.4212,54.895603,9.796175,108.3,5.845,1.85,335.95,54.896736,9.793596,54.895069,9.793790
1386792803,1,0,545.9,0,-35,-8,0,0,5,-0.0292,154.2902,6.8213,0.4212,54.895588,9.796188,108.3,5.845,1.85,335.95,54.896736,9.793596,54.895069,9.793790
1386792803,1,0,545.9,0,-32,-12,0,0,0,-0.0292,162.8236,6.8213,0.4212,54.895569,9.796198,108.3,5.845,1.85,335.95,54.896736,9.793596,54.895069,9.793790
1386792803,1,0,545.9,0,-23,-16,0,0,5,-0.0292,168.9569,6.8213,0.4212,54.895550,9.796204,108.3,5.845,1.85,335.95,54.896736,9.793596,54.895069,9.793790
1386792804,1,0,545.9,0,-17,-20,0,0,0,-0.0292,173.4902,6.8213,0.4212,54.895531,9.796207,108.3,5.845,1.85,335.95,54.896736,9.793596,54.895069,9.793790
1386792804,1,0,545.9,0,-12,-16,0,0,5,-0.0292,176.6902,6.8213,0.4212,54.895515,9.796209,108.3,5.845,1.85,335.95,54.896736,9.793596,54.895069,9.793790
1386792804,1,0,545.9,0,-9,-12,0,0,0,-0.0292,179.0902,6.8213,0.4212,54.895496,9.796209,108.3,5.845,1.85,335.95,54.896736,9.793596,54.895069,9.793790
1386792804,1,0,545.9,0,-7,-8,0,409,5,-0.0292,180.9569,6.8213,0.4212,54.895477,9.796208,108.3,5.845,1.85,335.95,54.896736,9.793596,54.895069,9.793790
1386792805,1,0,545.9,0,-5,-4,0,409,10,-0.0292,182.2902,6.8213,0.4212,54.895458,9.796207,108.3,5.845,1.85,335.95,54.896736,9.793596,54.895069,9.793790
1386792805,1,0,545.9,0,-4,0,0,409,15,-0.0292,183.3569,6.8213,0.4212,54.895443,9.796206,108.3,5.845,1.85,335.95,54.896736,9.793596,54.895069,9.793790
1386792805,1,0,545.9,0,-3,-4,0,409,20,-0.0292,184.1569,6.8213,0.4212,54.895424,9.796204,108.3,5.845,1.85,335.95,54.896736,9.793596,54.895069,9.793790
1386792805,1,0,545.9,0,-2,0,0,409,25,-0.0292,184.6902,6.8213,0.4212,54.895405,9.796201,108.3,5.845,1.85,335.95,54.896736,9.793596,54.895069,9.793790
1386792806,1,0,545.9,0,-1,-4,0,409,30,-0.0292,184.9569,6.8213,0.4212,54.895386,9.796198,108.3,5.845,1.85,335.95,54.896736,9.793596,54.895069,9.793790
1386792806,1,0,545.9,0,-1,0,0,409,35,-0.0292,185.2236,6.8213,0.4212,54.895370,9.796195,108.3,5.845,1.85,335.95,54.896736,9.793596,54.895069,9.793790
1386792806,1,0,545.9,0,-1,-4,0,409,40,-0.0292,185.4902,6.8213,0.4212,54.895351,9.796191,108.3,5.845,1.85,335.95,54.896736,9.793596,54.895069,9.793790
1386792806,1,0,545.9,0,0,0,0,409,45,-0.0292,185.4902,6.8213,0.4212,54.895332,9.796187,108.3,5.845,1.85,335.95,54.896736,9.793596,54.895069,9.793790
1386792807,1,0,545.9,0,0,4,0,409,50,-0.0292,185.4902,6.8213,0.4212,54.895317,9.796185,108.3,5.845,1.85,335.95,54.896736,9.793596,54.895069,9.793790
1386792807,1,0,545.9,0,0,0,0,409,55,-0.0292,185.4902,6.8213,0.4212,54.895298,9.796182,108.3,5.845,1.85,335.95,54.896736,9.793596,54.895069,9.793790
1386792807,1,0,545.9,0,0,4,0,409,60,-0.0292,185.4902,6.8213,0.4212,54.895279,9.796179,108.3,5.845,1.85,335.95,54.896736,9.793596,54.895069,9.793790
1386792807,1,0,545.9,0,0,0,0,409,65,-0.0292,185.4902,6.8213,0.4212,54.895260,9.796176,108.3,5.845,1.85,335.95,54.896736,9.793596,54.895069,9.793790
1386792808,1,0,545.9,0,0,4,0,409,70,-0.0292,185.4902,6.8213,0.4212,54.895245,9.796173,108.3,5.845,1.85,335.95,54.896736,9.793596,54.895069,9.793790
1386792808,1,0,545.9,0,0,0,0,409,75,-0.0292,185.4902,6.8213,0.4212,54.895226,9.796170,108.3,5.845,1.85,335.95,54.896736,9.793596,54.895069,9.793790
1386792808,1,0,545.9,0,0,4,0,409,80,-0.0292,185.4902,6.8213,0.4212,54.895206,9.796167,108.3,5.845,1.85,335.95,54.896736,9.793596,54.895069,9.793790
1386792808,1,0,545.9,0,0,0,0,409,85,-0.0292,185.4902,6.8213,0.4212,54.895187,9.796165,108.3,5.845,1.85,335.95,54.896736,9.793596,54.895069,9.793790
1386792809,1,0,545.9,0,0,4,0,409,90,-0.0292,185.4902,6.8213,0.4212,54.895172,9.796162,108.3,5.845,1.85,335.95,54.896736,9.793596,54.895069,9.793790
1386792809,1,0,545.9,0,0,0,0,409,95,-0.0292,185.4902,6.8213,0.4212,54.895153,9.796159,108.3,5.845,1.85,335.95,54.896736,9.793596,54.895069,9.793790
1386792809,1,0,545.9,0,0,4,0,409,100,-0.0292,185.4902,6.8213,0.4212,54.895134,9.796156,108.3,5.845,1.85,335.95,54.896736,9.793596,54.895069,9.793790
1386792809,1,0,545.9,0,0,0,0,409,105,-0.0292,185.4902,6.8213,0.4212,54.895115,9.796153,108.3,5.845,1.85,335.95,54.896736,9.793596,54.895069,9.793790
1386792810,1,0,545.9,0,0,4,0,409,110,-0.0292,185.4902,6.8213,0.4212,54.895100,9.796150,108.3,5.845,1.85,335.95,54.896736,9.793596,54.895069,9.793790
1386792810,1,0,545.9,0,0,0,0,409,115,-0.0292,185.4902,6.8213,0.4212,54.895081,9.796146,108.3,5.845,1.85,335.95,54.896736,9.793596,54.895069,9.793790
1386792810,1,0,545.9,0,0,4,0,409,120,-0.0292,185.4902,6.8213,0.4212,54.895061,9.796143,108.3,5.845,1.85,335.95,54.896736,9.793596,54.895069,9.793790
1386792810,1,0,545.9,0,0,0,0,409,125,-0.0292,185.4902,6.8213,0.4212,54.895046,9.796140,108.3,5.845,1.85,335.95,54.896736,9.793596,54.895069,9.793790
1386792811,1,0,545.9,0,0,4,0,409,130,-0.0292,185.4902,6.8213,0.4212,54.895027,9.796137,108.3,5.845,1.85,335.95,54.896736,9.793596,54.895069,9.793790
1386792811,1,0,545.9,0,0,0,0,409,135,-0.0292,185.4902,6.8213,0.4212,54.895008,9.796134,108.3,5.845,1.85,335.95,54.896736,9.793596,54.895069,9.793790
1386792811,1,0,545.9,0,0,4,0,409,140,-0.0292,185.4902,6.8213,0.4212,54.894989,9.796131,108.3,5.845,1.85,335.95,54.896736,9.793596,54.895069,9.793790
1386792811,1,0,545.9,0,0,0,0,409,145,-0.0292,185.4902,6.8213,0.4212,54.894974,9.796128,108.3,5.845,1.85,335.95,54.896736,9.793596,54.895069,9.793790
1386792812,1,0,545.9,0,0,4,0,409,150,-0.0292,185.4902,6.8213,0.4212,54.894955,9.796125,108.3,5.845,1.85,335.95,54.896736,9.793596,54.895069,9.793790
1386792812,1,0,545.9,0,0,0,0,409,155,-0.0292,185.4902,6.8213,0.4212,54.894936,9.796123,108.3,5.845,1.85,335.95,54.896736,9.793596,54.895069,9.793790
1386792812,1,0,545.9,0,0,4,0,409,160,-0.0292,185.4902,6.8213,0.4212,54.894917,9.796120,108.3,5.845,1.85,335.95,54.896736,9.793596,54.895069,9.793790
1386792812,1,0,545.9,0,0,0,0,409,165,-0.0292,185.4902,6.8213,0.4212,54.894901,9.796117,108.3,5.845,1.85,335.95,54.896736,9.793596,54.895069,9.793790
1386792813,1,0,545.9,0,0,4,0,409,170,-0.0292,185.4902,6.8213,0.4212,54.894882,9.796114,108.3,5.845,1.85,335.95,54.896736,9.793596,54.895069,9.793790
1386792813,1,0,545.9,0,0,0,0,409,175,-0.0292,185.4902,6.8213,0.4212,54.894863,9.796111,108.3,5.845,1.85,335.95,54.896736,9.793596,54.895069,9.793790
1386792813,1,0,545.9,0,0,4,0,409,180,-0.0292,185.4902,6.8213,0.4212,54.894844,9.796108,108.3,5.845,1.85,335.95,54.896736,9.793596,54.895069,9.793790
1386792813,1,0,545.9,0,0,0,0,409,185,-0.0292,185.4902,6.8213,0.4212,54.894829,9.796104,108.3,5.845,1.85,335.95,54.896736,9.793596,54.895069,9.793790
1386792814,1,0,545.9,0,0,4,0,409,190,-0.0292,185.4902,6.8213,0.4212,54.894810,9.796101,108.3,5.845,1.85,335.95,54.896736,9.793596,54.895069,9.793790
1386792814,1,0,545.9,0,0,0,0,409,195,-0.0292,185.4902,6.8213,0.4212,54.894791,9.796098,108.3,5.845,1.85,335.95,54.896736,9.793596,54.895069,9.793790
1386792814,1,0,545.9,0,0,4,0,409,200,-0.0292,185.4902,6.8213,0.4212,54.894775,9.796095,108.3,5.845,1.85,335.95,54.896736,9.793596,54.895069,9.793790
1386792814,1,0,545.9,0,0,0,0,409,205,-0.0292,185.4902,6.8213,0.4212,54.894756,9.796092,108.3,5.845,1.85,335.95,54.896736,9.793596,54.895069,9.793790
1386792815,1,0,545.9,0,0,4,0,409,210,-0.0292,185.4902,6.8213,0.4212,54.894737,9.796089,108.3,5.845,1.85,335.95,54.896736,9.793596,54.895069,9.793790
1386792815,1,0,545.9,0,0,0,0,409,215,-0.0292,185.4902,6.8213,0.4212,54.894718,9.796086,108.3,5.845,1.85,335.95,54.896736,9.793596,54.895069,9.793790
1386792815,1,0,545.9,0,0,4,0,409,220,-0.0292,185.4902,6.8213,0.4212,54.894703,9.796083,108.3,5.845,1.85,335.95,54.896736,9.793596,54.895069,9.793790
1386792816,1,0,545.9,0,0,0,0,409,225,-0.0292,185.4902,6.8213,0.4212,54.894684,9.796081,108.3,5.845,1.85,335.95,54.896736,9.793596,54.895069,9.793790
1386792816,1,0,545.9,0,0,4,0,409,230,-0.0292,185.4902,6.8213,0.4212,54.894665,9.796078,108.3,5.845,1.85,335.95,54.896736,9.793596,54.895069,9.793790
1386792816,1,0,545.9,0,0,0,0,409,235,-0.0292,185.4902,6.8213,0.4212,54.894646,9.796075,108.3,5.845,1.85,335.95,54.896736,9.793596,54.895069,9.793790
1386792816,1,0,545.9,0,0,4,0,409,240,-0.0292,185.4902,6.8213,0.4212,54.894630,9.796072,108.3,5.845,1.85,335.95,54.896736,9.793596,54.895069,9.793790
1386792817,1,0,545.9,0,0,0,0,409,245,-0.0292,185.4902,6.8213,0.4212,54.894611,9.796069,108.3,5.845,1.85,335.95,54.896736,9.793596,54.895069,9.793790
1386792817,1,0,545.9,0,0,4,0,409,250,-0.0292,185.4902,6.8213,0.4212,54.894592,9.796066,108.3,5.845,1.85,335.95,54.896736,9.793596,54.895069,9.793790
1386792817,1,0,545.9,0,0,0,0,409,255,-0.0292,185.4902,6.8213,0.4212,54.894573,9.796062,108.3,5.845,1.85,335.95,54.896736,9.793596,54.895069,9.793790
1386792817,1,0,545.9,0,0,4,0,409,260,-0.0292,185.4902,6.8213,0.4212,54.894558,9.796059,108.3,5.845,1.85,335.95,54.896736,9.793596,54.895069,9.793790
1386792818,1,0,545.9,0,0,0,0,409,265,-0.0292,185.4902,6.8213,0.4212,54.894539,9.796056,108.3,5.845,1.85,335.95,54.896736,9.793596,54.895069,9.793790
1386792818,1,0,545.9,0,0,4,0,409,270,-0.0292,185.4902,6.8213,0.4212,54.894520,9.796053,108.3,5.845,1.85,335.95,54.896736,9.793596,54.895069,9.793790
1386792818,1,0,545.9,0,0,0,0,409,275,-0.0292,185.4902,6.8213,0.4212,54.894501,9.796050,108.3,5.845,1.85,335.95,54.896736,9.793596,54.895069,9.793790
1386792818,1,0,545.9,0,0,4,0,409,280,-0.0292,185.4902,6.8213,0.4212,54.894485,9.796047,108.3,5.845,1.85,335.95,54.896736,9.793596,54.895069,9.793790
1386792819,1,0,545.9,0,0,0,0,409,285,-0.0292,185.4902,6.8213,0.4212,54.894466,9.796044,108.3,5.845,1.85,335.95,54.896736,9.793596,54.895069,9.793790
1386792819,1,0,545.9,0,0,4,0,409,290,-0.0292,185.4902,6.8213,0.4212,54.894447,9.796041,108.3,5.845,1.85,335.95,54.896736,9.793596,54.895069,9.793790
1386792819,1,0,545.9,0,0,0,0,409,295,-0.0292,185.4902,6.8213,0.4212,54.894432,9.796039,108.3,5.845,1.85,335.95,54.896736,9.793596,54.895069,9.793790
1386792819,1,0,545.9,0,0,4,0,409,300,-0.0292,185.4902,6.8213,0.4212,54.894413,9.796036,108.3,5.845,1.85,335.95,54.896736,9.793596,54.895069,9.793790
1386792820,1,0,545.9,0,0,0,0,409,305,-0.0292,185.4902,6.8213,0.4212,54.894394,9.796033,108.3,5.845,1.85,335.95,54.896736,9.793596,54.895069,9.793790
1386792820,1,0,545.9,0,0,4,0,409,310,-0.0292,185.4902,6.8213,0.4212,54.894375,9.796030,108.3,5.845,1.85,335.95,54.896736,9.793596,54.895069,9.793790
1386792820,1,0,545.9,0,0,0,0,409,315,-0.0292,185.4902,6.8213,0.4212,54.894360,9.796027,108.3,5.845,1.85,335.95,54.896736,9.793596,54.895069,9.793790
1386792820,1,0,545.9,0,0,4,0,409,320,-0.0292,185.4902,6.8213,0.4212,54.894341,9.796024,108.3,5.845,1.85,335.95,54.896736,9.793596,54.895069,9.793790
1386792821,1,0,545.9,0,0,0,0,409,325,-0.0292,185.4902,6.8213,0.4212,54.894321,9.796021,108.3,5.845,1.85,335.95,54.896736,9.793596,54.895069,9.793790
1386792821,1,0,545.9,0,0,4,0,409,330,-0.0292,185.4902,6.8213,0.4212,54.894302,9.796018,108.3,5.845,1.85,335.95,54.896736,9.793596,54.895069,9.793790
1386792821,1,0,545.9,0,0,0,0,409,335,-0.0292,185.4902,6.8213,0.4212,54.894287,9.796015,108.3,5.845,1.85,335.95,54.896736,9.793596,54.895069,9.793790
1386792821,1,0,545.9,0,0,4,0,409,340,-0.0292,185.4902,6.8213,0.4212,54.894268,9.796012,108.3,5.845,1.85,335.95,54.896736,9.793596,54.895069,9.793790
1386792822,1,0,545.9,0,0,0,0,409,345,-0.0292,185.4902,6.8213,0.4212,54.894249,9.796009,108.3,5.845,1.85,335.95,54.896736,9.793596,54.895069,9.793790
1386792822,1,0,545.9,0,0,4,0,409,350,-0.0292,185.4902,6.8213,0.4212,54.894230,9.796006,108.3,5.845,1.85,335.95,54.896736,9.793596,54.895069,9.793790
1386792822,1,0,545.9,0,0,0,0,409,355,-0.0292,185.4902,6.8213,0.4212,54.894215,9.796003,108.3,5.845,1.85,335.95,54.896736,9.793596,54.895069,9.793790
1386792822,1,0,545.9,0,0,4,0,409,360,-0.0292,185.4902,6.8213,0.4212,54.894196,9.796000,108.3,5.845,1.85,335.95,54.896736,9.793596,54.895069,9.793790
1386792823,1,0,545.9,0,0,0,0,409,365,-0.0292,185.4902,6.8213,0.4212,54.894176,9.795998,108.3,5.845,1.85,335.95,54.896736,9.793596,54.895069,9.793790
1386792823,1,0,545.9,0,0,4,0,409,370,-0.0292,185.4902,6.8213,0.4212,54.894161,9.795995,108.3,5.845,1.85,335.95,54.896736,9.793596,54.895069,9.793790
1386792823,1,0,545.9,0,0,0,0,409,375,-0.0292,185.4902,6.8213,0.4212,54.894142,9.795992,108.3,5.845,1.85,335.95,54.896736,9.793596,54.895069,9.793790
1386792823,1,0,545.9,0,0,4,0,409,380,-0.0292,185.4902,6.8213,0.4212,54.894123,9.795989,108.3,5.845,1.85,335.95,54.896736,9.793596,54.895069,9.793790
1386792824,1,0,545.9,0,0,0,0,409,385,-0.0292,185.4902,6.8213,0.4212,54.894104,9.795986,108.3,5.845,1.85,335.95,54.896736,9.793596,54.895069,9.793790
1386792824,1,0,545.9,0,0,4,0,409,390,-0.0292,185.4902,6.8213,0.4212,54.894089,9.795983,108.3,5.845,1.85,335.95,54.896736,9.793596,54.895069,9.793790
1386792824,1,0,545.9,0,0,0,0,409,395,-0.0292,185.4902,6.8213,0.4212,54.894070,9.795980,108.3,5.845,1.85,335.95,54.896736,9.793596,54.895069,9.793790
1386792824,1,0,545.9,0,0,4,0,409,400,-0.0292,185.4902,6.8213,0.4212,54.894051,9.795977,108.3,5.845,1.85,335.95,54.896736,9.793596,54.895069,9.793790
1386792825,1,0,545.9,0,0,0,0,409,405,-0.0292,185.4902,6.8213,0.4212,54.894032,9.795973,108.3,5.845,1.85,335.95,54.896736,9.793596,54.895069,9.793790
1386792825,1,0,545.9,0,0,4,0,409,410,-0.0292,185.4902,6.8213,0.4212,54.894016,9.795970,108.3,5.845,1.85,335.95,54.896736,9.793596,54.895069,9.793790
1386792825,1,0,545.9,0,0,0,0,409,405,-0.0292,185.4902,6.8213,0.4212,54.893997,9.795967,108.3,5.845,1.85,335.95,54.896736,9.793596,54.895069,9.793790
1386792825,1,0,545.9,0,0,4,0,409,410,-0.0292,185.4902,6.8213,0.4212,54.893978,9.795964,108.3,5.845,1.85,335.95,54.896736,9.793596,54.895069,9.793790
1386792826,1,0,545.9,0,0,0,0,409,405,-0.0292,185.4902,6.8213,0.4212,54.893959,9.795961,108.3,5.845,1.85,335.95,54.896736,9.793596,54.895069,9.793790
1386792826,1,0,545.9,0,0,4,0,409,410,-0.0292,185.4902,6.8213,0.4212,54.893944,9.795959,108.3,5.845,1.85,335.95,54.896736,9.793596,54.895069,9.793790
1386792826,1,0,545.9,0,0,0,0,409,405,-0.0292,185.4902,6.8213,0.4212,54.893925,9.795956,108.3,5.845,1.85,335.95,54.896736,9.793596,54.895069,9.793790
1386792826,1,0,545.9,0,0,4,0,409,410,-0.0292,185.4902,6.8213,0.4212,54.893906,9.795953,108.3,5.845,1.85,335.95,54.896736,9.793596,54.895069,9.793790
1386792827,1,0,545.9,0,0,0,0,409,405,-0.0292,185.4902,6.8213,0.4212,54.893890,9.795950,108.3,5.845,1.85,335.95,54.896736,9.793596,54.895069,9.793790
1386792827,1,0,545.9,0,0,4,0,409,410,-0.0292,185.4902,6.8213,0.4212,54.893871,9.795947,108.3,5.845,1.85,335.95,54.896736,9.793596,54.895069,9.793790
1386792827,1,0,545.9,0,0,0,0,409,405,-0.0292,185.4902,6.8213,0.4212,54.893852,9.795944,108.3,5.845,1.85,335.95,54.896736,9.793596,54.895069,9.793790
1386792827,1,0,545.9,0,0,4,0,409,410,-0.0292,185.4902,6.8213,0.4212,54.893833,9.795941,108.3,5.845,1.85,335.95,54.896736,9.793596,54.895069,9.793790
1386792828,1,0,545.9,0,0,0,0,409,405,-0.0292,185.4902,6.8213,0.4212,54.893818,9.795938,108.3,5.845,1.85,335.95,54.896736,9.793596,54.895069,9.793790
1386792828,1,0,545.9,0,0,4,0,409,410,-0.0292,185.4902,6.8213,0.4212,54.893799,9.795936,108.3,5.845,1.85,335.95,54.896736,9.793596,54.895069,9.793790
1386792828,1,0,545.9,0,0,0,0,409,405,-0.0292,185.4902,6.8213,0.4212,54.893780,9.795932,108.3,5.845,1.85,335.95,54.896736,9.793596,54.895069,9.793790
1386792828,1,0,545.9,0,0,4,0,409,410,-0.0292,185.4902,6.8213,0.4212,54.893761,9.795929,108.3,5.845,1.85,335.95,54.896736,9.793596,54.895069,9.793790
1386792829,1,0,545.9,0,0,0,0,409,405,-0.0292,185.4902,6.8213,0.4212,54.893745,9.795926,108.3,5.845,1.85,335.95,54.896736,9.793596,54.895069,9.793790
1386792829,1,0,545.9,0,0,4,0,409,410,-0.0292,185.4902,6.8213,0.4212,54.893726,9.795923,108.3,5.845,1.85,335.95,54.896736,9.793596,54.895069,9.793790
1386792829,1,0,545.9,0,0,0,0,409,405,-0.0292,185.4902,6.8213,0.4212,54.893707,9.795920,108.3,5.845,1.85,335.95,54.896736,9.793596,54.895069,9.793790
1386792829,1,0,545.9,0,0,4,0,409,410,-0.0292,185.4902,6.8213,0.4212,54.893688,9.795918,108.3,5.845,1.85,335.95,54.896736,9.793596,54.895069,9.793790
1386792830,1,0,545.9,0,0,0,0,409,405,-0.0292,185.4902,6.8213,0.4212,54.893673,9.795915,108.3,5.845,1.85,335.95,54.896736,9.793596,54.895069,9.793790
1386792830,1,0,545.9,0,0,4,0,409,410,-0.0292,185.4902,6.8213,0.4212,54.893654,9.795912,108.3,5.845,1.85,335.95,54.896736,9.793596,54.895069,9.793790
1386792830,1,0,545.9,0,0,0,0,409,405,-0.0292,185.4902,6.8213,0.4212,54.893635,9.795909,108.3,5.845,1.85,335.95,54.896736,9.793596,54.895069,9.793790
1386792830,1,0,545.9,0,0,4,0,409,410,-0.0292,185.4902,6.8213,0.4212,54.893620,9.795906,108.3,5.845,1.85,335.95,54.896736,9.793596,54.895069,9.793790
1386792831,1,0,545.9,0,0,0,0,409,405,-0.0292,185.4902,6.8213,0.4212,54.893600,9.795903,108.3,5.845,1.85,335.95,54.896736,9.793596,54.895069,9.793790
1386792831,1,0,545.9,0,0,4,0,409,410,-0.0292,185.4902,6.8213,0.4212,54.893581,9.795900,108.3,5.845,1.85,335.95,54.896736,9.793596,54.895069,9.793790
1386792831,1,0,545.9,0,0,0,0,409,405,-0.0292,185.4902,6.8213,0.4212,54.893562,9.795897,108.3,5.845,1.85,335.95,54.896736,9.793596,54.895069,9.793790
1386792831,1,0,545.9,0,0,4,0,409,410,-0.0292,185.4902,6.8213,0.4212,54.893547,9.795895,108.3,5.845,1.85,335.95,54.896736,9.793596,54.895069,9.793790
1386792832,1,0,545.9,0,0,0,0,409,405,-0.0292,185.4902,6.8213,0.4212,54.893528,9.795891,108.3,5.845,1.85,335.95,54.896736,9.793596,54.895069,9.793790
1386792832,1,0,545.9,0,0,4,0,409,410,-0.0292,185.4902,6.8213,0.4212,54.893509,9.795887,108.3,5.845,1.85,335.95,54.896736,9.793596,54.895069,9.793790
1386792832,1,0,545.9,0,0,0,0,409,405,-0.0292,185.4902,6.8213,0.4212,54.893490,9.795884,108.3,5.845,1.85,335.95,54.896736,9.793596,54.895069,9.793790
1386792832,1,0,545.9,0,0,4,0,409,410,-0.0292,185.4902,6.8213,0.4212,54.893475,9.795881,108.3,5.845,1.85,335.95,54.896736,9.793596,54.895069,9.793790
1386792833,1,0,545.9,0,0,0,0,409,405,-0.0292,185.4902,6.8213,0.4212,54.893456,9.795878,108.3,5.845,1.85,335.95,54.896736,9.793596,54.895069,9.793790
1386792833,1,0,545.9,0,0,4,0,409,410,-0.0292,185.4902,6.8213,0.4212,54.893436,9.795876,108.3,5.845,1.85,335.95,54.896736,9.793596,54.895069,9.793790
1386792833,1,0,545.9,0,0,0,0,409,405,-0.0292,185.4902,6.8213,0.4212,54.893417,9.795873,108.3,5.845,1.85,335.95,54.896736,9.793596,54.895069,9.793790
1386792833,1,0,545.9,0,0,4,0,409,410,-0.0292,185.4902,6.8213,0.4212,54.893402,9.795870,108.3,5.845,1.85,335.95,54.896736,9.793596,54.895069,9.793790
1386792834,1,0,545.9,0,0,0,0,409,405,-0.0292,185.4902,6.8213,0.4212,54.893383,9.795867,108.3,5.845,1.85,335.95,54.896736,9.793596,54.895069,9.793790
1386792834,1,0,545.9,0,0,4,0,409,410,-0.0292,185.4902,6.8213,0.4212,54.893364,9.795864,108.3,5.845,1.85,335.95,54.896736,9.793596,54.895069,9.793790
1386792834,1,0,545.9,0,0,0,0,409,405,-0.0292,185.4902,6.8213,0.4212,54.893345,9.795861,108.3,5.845,1.85,335.95,54.896736,9.793596,54.895069,9.793790
1386792834,1,0,545.9,0,0,4,0,409,410,-0.0292,185.4902,6.8213,0.4212,54.893330,9.795858,108.3,5.845,1.85,335.95,54.896736,9.793596,54.895069,9.793790
1386792835,1,0,545.9,0,0,0,0,409,405,-0.0292,185.4902,6.8213,0.4212,54.893311,9.795856,108.3,5.845,1.85,335.95,54.896736,9.793596,54.895069,9.793790
1386792835,1,0,545.9,0,0,4,0,409,410,-0.0292,185.4902,6.8213,0.4212,54.893291,9.795853,108.3,5.845,1.85,335.95,54.896736,9.793596,54.895069,9.793790
1386792835,1,0,545.9,0,0,0,0,409,405,-0.0292,185.4902,6.8213,0.4212,54.893276,9.795850,108.3,5.845,1.85,335.95,54.896736,9.793596,54.895069,9.793790
1386792835,1,0,545.9,0,0,4,0,409,410,-0.0292,185.4902,6.8213,0.4212,54.893257,9.795846,108.3,5.845,1.85,335.95,54.896736,9.793596,54.895069,9.793790
1386792836,1,0,545.9,0,0,0,0,409,405,-0.0292,185.4902,6.8213,0.4212,54.893238,9.795843,108.3,5.845,1.85,335.95,54.896736,9.793596,54.895069,9.793790
1386792836,1,0,545.9,0,0,4,0,409,410,-0.0292,185.4902,6.8213,0.4212,54.893219,9.795840,108.3,5.845,1.85,335.95,54.896736,9.793596,54.895069,9.793790
1386792836,1,0,545.9,0,0,0,0,409,405,-0.0292,185.4902,6.8213,0.4212,54.893204,9.795837,108.3,5.845,1.85,335.95,54.896736,9.793596,54.895069,9.793790
1386792836,1,0,545.9,0,0,4,0,409,410,-0.0292,185.4902,6.8213,0.4212,54.893185,9.795835,108.3,5.845,1.85,335.95,54.896736,9.793596,54.895069,9.793790
1386792837,1,0,545.9,0,0,0,0,409,405,-0.0292,185.4902,6.8213,0.4212,54.893166,9.795832,108.3,5.845,1.85,335.95,54.896736,9.793596,54.895069,9.793790
1386792837,1,0,545.9,0,0,4,0,409,410,-0.0292,185.4902,6.8213,0.4212,54.893147,9.795829,108.3,5.845,1.85,335.95,54.896736,9.793596,54.895069,9.793790
1386792837,1,0,545.9,0,0,0,0,409,405,-0.0292,185.4902,6.8213,0.4212,54.893131,9.795826,108.3,5.845,1.85,335.95,54.896736,9.793596,54.895069,9.793790
1386792837,1,0,545.9,0,0,4,0,409,410,-0.0292,185.4902,6.8213,0.4212,54.893112,9.795823,108.3,5.845,1.85,335.95,54.896736,9.793596,54.895069,9.793790
1386792838,1,0,545.9,0,0,0,0,409,405,-0.0292,185.4902,6.8213,0.4212,54.893093,9.795820,108.3,5.845,1.85,335.95,54.896736,9.793596,54.895069,9.793790
1386792838,1,0,545.9,0,0,4,0,409,410,-0.0292,185.4902,6.8213,0.4212,54.893074,9.795817,108.3,5.845,1.85,335.95,54.896736,9.793596,54.895069,9.793790
1386792838,1,0,545.9,0,0,0,0,409,405,-0.0292,185.4902,6.8213,0.4212,54.893059,9.795815,108.3,5.845,1.85,335.95,54.896736,9.793596,54.895069,9.793790
1386792838,1,0,545.9,0,0,4,0,409,410,-0.0292,185.4902,6.8213,0.4212,54.893040,9.795812,108.3,5.845,1.85,335.95,54.896736,9.793596,54.895069,9.793790
1386792839,1,0,545.9,0,0,0,0,409,405,-0.0292,185.4902,6.8213,0.4212,54.893021,9.795809,108.3,5.845,1.85,335.95,54.896736,9.793596,54.895069,9.793790
1386792839,1,0,545.9,0,0,4,0,409,410,-0.0292,185.4902,6.8213,0.4212,54.893005,9.795805,108.3,5.845,1.85,335.95,54.896736,9.793596,54.895069,9.793790
1386792839,1,0,545.9,0,0,0,0,409,405,-0.0292,185.4902,6.8213,0.4212,54.892986,9.795801,108.3,5.845,1.85,335.95,54.896736,9.793596,54.895069,9.793790
1386792839,1,0,545.9,0,0,4,0,409,410,-0.0292,185.4902,6.8213,0.4212,54.892967,9.795798,108.3,5.845,1.85,335.95,54.896736,9.793596,54.895069,9.793790
1386792840,1,0,545.9,0,0,0,0,409,405,-0.0292,185.4902,6.8213,0.4212,54.892948,9.795795,108.3,5.845,1.85,335.95,54.896736,9.793596,54.895069,9.793790
1386792840,1,0,545.9,0,0,4,0,409,410,-0.0292,185.4902,6.8213,0.4212,54.892933,9.795793,108.3,5.845,1.85,335.95,54.896736,9.793596,54.895069,9.793790
1386792840,1,0,545.9,0,0,0,0,409,405,-0.0292,185.4902,6.8213,0.4212,54.892914,9.795790,108.3,5.845,1.85,335.95,54.896736,9.793596,54.895069,9.793790
1386792840,1,0,545.9,0,0,4,0,409,410,-0.0292,185.4902,6.8213,0.4212,54.892895,9.795787,108.3,5.845,1.85,335.95,54.896736,9.793596,54.895069,9.793790
1386792841,1,0,545.9,0,0,0,0,409,405,-0.0292,185.4902,6.8213,0.4212,54.892876,9.795784,108.3,5.845,1.85,335.95,54.896736,9.793596,54.895069,9.793790
1386792841,1,0,545.9,0,0,4,0,409,410,-0.0292,185.4902,6.8213,0.4212,54.892860,9.795781,108.3,5.845,1.85,335.95,54.896736,9.793596,54.895069,9.793790
1386792841,1,0,545.9,0,0,0,0,409,405,-0.0292,185.4902,6.8213,0.4212,54.892841,9.795778,108.3,5.845,1.85,335.95,54.896736,9.793596,54.895069,9.793790
1386792841,1,0,545.9,0,0,4,0,409,410,-0.0292,185.4902,6.8213,0.4212,54.892822,9.795775,108.3,5.845,1.85,335.95,54.896736,9.793596,54.895069,9.793790
1386792842,1,0,545.9,0,0,0,0,409,405,-0.0292,185.4902,6.8213,0.4212,54.892803,9.795773,108.3,5.845,1.85,335.95,54.896736,9.793596,54.895069,9.793790
1386792842,1,0,545.9,0,0,4,0,409,410,-0.0292,185.4902,6.8213,0.4212,54.892788,9.795770,108.3,5.845,1.85,335.95,54.896736,9.793596,54.895069,9.793790
1386792842,1,0,545.9,0,0,0,0,409,405,-0.0292,185.4902,6.8213,0.4212,54.892769,9.795767,108.3,5.845,1.85,335.95,54.896736,9.793596,54.895069,9.793790
1386792842,1,0,545.9,0,0,4,0,409,410,-0.0292,185.4902,6.8213,0.4212,54.892750,9.795764,108.3,5.845,1.85,335.95,54.896736,9.793596,54.895069,9.793790
1386792843,1,0,545.9,0,0,0,0,409,405,-0.0292,185.4902,6.8213,0.4212,54.892735,9.795760,108.3,5.845,1.85,335.95,54.896736,9.793596,54.895069,9.793790
1386792843,1,0,545.9,0,0,4,0,409,410,-0.0292,185.4902,6.8213,0.4212,54.892715,9.795757,108.3,5.845,1.85,335.95,54.896736,9.793596,54.895069,9.793790
1386792843,1,0,545.9,0,0,0,0,409,405,-0.0292,185.4902,6.8213,0.4212,54.892696,9.795754,108.3,5.845,1.85,335.95,54.896736,9.793596,54.895069,9.793790
1386792843,1,0,545.9,0,0,4,0,409,410,-0.0292,185.4902,6.8213,0.4212,54.892677,9.795752,108.3,5.845,1.85,335.95,54.896736,9.793596,54.895069,9.793790
1386792844,1,0,545.9,0,0,0,0,409,405,-0.0292,185.4902,6.8213,0.4212,54.892662,9.795749,108.3,5.845,1.85,335.95,54.896736,9.793596,54.895069,9.793790
1386792844,1,0,545.9,0,0,4,0,409,410,-0.0292,185.4902,6.8213,0.4212,54.892643,9.795746,108.3,5.845,1.85,335.95,54.896736,9.793596,54.895069,9.793790
1386792844,1,0,545.9,0,0,0,0,409,405,-0.0292,185.4902,6.8213,0.4212,54.892624,9.795743,108.3,5.845,1.85,335.95,54.896736,9.793596,54.895069,9.793790
1386792845,1,0,545.9,0,0,4,0,409,410,-0.0292,185.4902,6.8213,0.4212,54.892605,9.795740,108.3,5.845,1.85,335.95,54.896736,9.793596,54.895069,9.793790
1386792845,1,0,545.9,0,0,0,0,409,405,-0.0292,185.4902,6.8213,0.4212,54.892590,9.795737,108.3,5.845,1.85,335.95,54.896736,9.793596,54.895069,9.793790
1386792845,1,0,545.9,0,0,4,0,409,410,-0.0292,185.4902,6.8213,0.4212,54.892570,9.795734,108.3,5.845,1.85,335.95,54.896736,9.793596,54.895069,9.793790
1386792845,1,0,545.9,0,0,0,0,409,405,-0.0292,185.4902,6.8213,0.4212,54.892551,9.795732,108.3,5.845,1.85,335.95,54.896736,9.793596,54.895069,9.793790
1386792846,1,0,545.9,0,0,4,0,409,410,-0.0292,185.4902,6.8213,0.4212,54.892532,9.795729,108.3,5.845,1.85,335.95,54.896736,9.793596,54.895069,9.793790
1386792846,1,0,545.9,0,0,0,0,409,405,-0.0292,185.4902,6.8213,0.4212,54.892517,9.795726,108.3,5.845,1.85,335.95,54.896736,9.793596,54.895069,9.793790
1386792846,1,0,545.9,0,0,4,0,409,410,-0.0292,185.4902,6.8213,0.4212,54.892498,9.795723,108.3,5.845,1.85,335.95,54.896736,9.793596,54.895069,9.793790
1386792846,1,0,545.9,0,0,0,0,409,405,-0.0292,185.4902,6.8213,0.4212,54.892479,9.795719,108.3,5.845,1.85,335.95,54.896736,9.793596,54.895069,9.793790
1386792847,1,0,545.9,0,0,4,0,409,410,-0.0292,185.4902,6.8213,0.4212,54.892464,9.795715,108.3,5.845,1.85,335.95,54.896736,9.793596,54.895069,9.793790
1386792847,1,0,545.9,0,0,0,0,409,405,-0.0292,185.4902,6.8213,0.4212,54.892445,9.795712,108.3,5.845,1.85,335.95,54.896736,9.793596,54.895069,9.793790
1386792847,1,0,545.9,0,0,4,0,409,410,-0.0292,185.4902,6.8213,0.4212,54.892426,9.795710,108.3,5.845,1.85,335.95,54.896736,9.793596,54.895069,9.793790
1386792847,1,0,545.9,0,0,0,0,409,405,-0.0292,185.4902,6.8213,0.4212,54.892406,9.795707,108.3,5.845,1.85,335.95,54.896736,9.793596,54.895069,9.793790
1386792848,1,0,545.9,0,0,4,0,409,410,-0.0292,185.4902,6.8213,0.4212,54.892391,9.795704,108.3,5.845,1.85,335.95,54.896736,9.793596,54.895069,9.793790
1386792848,1,0,545.9,0,0,0,0,409,405,-0.0292,185.4902,6.8213,0.4212,54.892372,9.795701,108.3,5.845,1.85,335.95,54.896736,9.793596,54.895069,9.793790
1386792848,1,0,545.9,0,0,4,0,409,410,-0.0292,185.4902,6.8213,0.4212,54.892353,9.795698,108.3,5.845,1.85,335.95,54.896736,9.793596,54.895069,9.793790
1386792848,1,0,545.9,0,0,0,0,409,405,-0.0292,185.4902,6.8213,0.4212,54.892334,9.795695,108.3,5.845,1.85,335.95,54.896736,9.793596,54.895069,9.793790
1386792849,1,0,545.9,0,0,4,0,409,410,-0.0292,185.4902,6.8213,0.4212,54.892319,9.795692,108.3,5.845,1.85,335.95,54.896736,9.793596,54.895069,9.793790
1386792849,1,0,545.9,0,0,0,0,409,405,-0.0292,185.4902,6.8213,0.4212,54.892300,9.795690,108.3,5.845,1.85,335.95,54.896736,9.793596,54.895069,9.793790
1386792849,1,0,545.9,0,0,4,0,409,410,-0.0292,185.4902,6.8213,0.4212,54.892281,9.795687,108.3,5.845,1.85,335.95,54.896736,9.793596,54.895069,9.793790
1386792849,1,0,545.9,0,0,0,0,409,405,-0.0292,185.4902,6.8213,0.4212,54.892262,9.795684,108.3,5.845,1.85,335.95,54.896736,9.793596,54.895069,9.793790
1386792850,1,0,545.9,0,0,4,0,409,410,-0.0292,185.4902,6.8213,0.4212,54.892246,9.795681,108.3,5.845,1.85,335.95,54.896736,9.793596,54.895069,9.793790
1386792850,1,0,545.9,0,0,0,0,409,405,-0.0292,185.4902,6.8213,0.4212,54.892227,9.795678,108.3,5.845,1.85,335.95,54.896736,9.793596,54.895069,9.793790
1386792850,1,0,545.9,0,0,4,0,409,410,-0.0292,185.4902,6.8213,0.4212,54.892208,9.795674,108.3,5.845,1.85,335.95,54.896736,9.793596,54.895069,9.793790
1386792850,1,0,545.9,0,0,0,0,409,405,-0.0292,185.4902,6.8213,0.4212,54.892193,9.795671,108.3,5.845,1.85,335.95,54.896736,9.793596,54.895069,9.793790
1386792851,1,0,545.9,0,0,4,0,409,410,-0.0292,185.4902,6.8213,0.4212,54.892174,9.795669,108.3,5.845,1.85,335.95,54.896736,9.793596,54.895069,9.793790
1386792851,1,0,545.9,0,0,0,0,409,405,-0.0292,185.4902,6.8213,0.4212,54.892155,9.795666,108.3,5.845,1.85,335.95,54.896736,9.793596,54.895069,9.793790
1386792851,1,0,545.9,0,0,4,0,409,410,-0.0292,185.4902,6.8213,0.4212,54.892136,9.795663,108.3,5.845,1.85,335.95,54.896736,9.793596,54.895069,9.793790
1386792851,1,0,545.9,0,0,0,0,409,405,-0.0292,185.4902,6.8213,0.4212,54.892120,9.795660,108.3,5.845,1.85,335.95,54.896736,9.793596,54.895069,9.793790
1386792852,1,0,545.9,0,0,4,0,409,410,-0.0292,185.4902,6.8213,0.4212,54.892101,9.795657,108.3,5.845,1.85,335.95,54.896736,9.793596,54.895069,9.793790
1386792852,1,0,545.9,0,0,0,0,409,405,-0.0292,185.4902,6.8213,0.4212,54.892082,9.795654,108.3,5.845,1.85,335.95,54.896736,9.793596,54.895069,9.793790
1386792852,1,0,545.9,0,0,4,0,409,410,-0.0292,185.4902,6.8213,0.4212,54.892063,9.795651,108.3,5.845,1.85,335.95,54.896736,9.793596,54.895069,9.793790
1386792852,1,0,545.9,0,0,0,0,409,405,-0.0292,185.4902,6.8213,0.4212,54.892048,9.795649,108.3,5.845,1.85,335.95,54.896736,9.793596,54.895069,9.793790
1386792853,1,0,545.9,0,0,4,0,409,410,-0.0292,185.4902,6.8213,0.4212,54.892029,9.795646,108.3,5.845,1.85,335.95,54.896736,9.793596,54.895069,9.793790
1386792853,1,0,545.9,0,0,0,0,409,405,-0.0292,185.4902,6.8213,0.4212,54.892010,9.795643,108.3,5.845,1.85,335.95,54.896736,9.793596,54.895069,9.793790
1386792853,1,0,545.9,0,0,4,0,409,410,-0.0292,185.4902,6.8213,0.4212,54.891991,9.795640,108.3,5.845,1.85,335.95,54.896736,9.793596,54.895069,9.793790
1386792853,1,0,545.9,0,0,0,0,409,405,-0.0292,185.4902,6.8213,0.4212,54.891975,9.795637,108.3,5.845,1.85,335.95,54.896736,9.793596,54.895069,9.793790
1386792854,1,0,545.9,0,0,4,0,409,410,-0.0292,185.4902,6.8213,0.4212,54.891956,9.795633,108.3,5.845,1.85,335.95,54.896736,9.793596,54.895069,9.793790
1386792854,1,0,545.9,0,0,0,0,409,405,-0.0292,185.4902,6.8213,0.4212,54.891937,9.795630,108.3,5.845,1.85,335.95,54.896736,9.793596,54.895069,9.793790
1386792854,1,0,545.9,0,0,4,0,409,410,-0.0292,185.4902,6.8213,0.4212,54.891918,9.795627,108.3,5.845,1.85,335.95,54.896736,9.793596,54.895069,9.793790
1386792854,1,0,545.9,0,0,0,0,409,405,-0.0292,185.4902,6.8213,0.4212,54.891903,9.795624,108.3,5.845,1.85,335.95,54.896736,9.793596,54.895069,9.793790
1386792855,1,0,545.9,0,0,4,0,409,410,-0.0292,185.4902,6.8213,0.4212,54.891884,9.795621,108.3,5.845,1.85,335.95,54.896736,9.793596,54.895069,9.793790
1386792855,1,0,545.9,0,0,0,0,409,405,-0.0292,185.4902,6.8213,0.4212,54.891865,9.795618,108.3,5.845,1.85,335.95,54.896736,9.793596,54.895069,9.793790
1386792855,1,0,545.9,0,0,4,0,409,410,-0.0292,185.4902,6.8213,0.4212,54.891850,9.795615,108.3,5.845,1.85,335.95,54.896736,9.793596,54.895069,9.793790
1386792855,1,0,545.9,0,0,0,0,409,405,-0.0292,185.4902,6.8213,0.4212,54.891830,9.795612,108.3,5.845,1.85,335.95,54.896736,9.793596,54.895069,9.793790
1386792856,1,0,545.9,0,0,4,0,409,410,-0.0292,185.4902,6.8213,0.4212,54.891811,9.795609,108.3,5.845,1.85,335.95,54.896736,9.793596,54.895069,9.793790
1386792856,1,0,545.9,0,0,0,0,409,405,-0.0292,185.4902,6.8213,0.4212,54.891792,9.795607,108.3,5.845,1.85,335.95,54.896736,9.793596,54.895069,9.793790
1386792856,1,0,545.9,0,0,4,0,409,410,-0.0292,185.4902,6.8213,0.4212,54.891777,9.795604,108.3,5.845,1.85,335.95,54.896736,9.793596,54.895069,9.793790
1386792856,1,0,545.9,0,0,0,0,409,405,-0.0292,185.4902,6.8213,0.4212,54.891758,9.795601,108.3,5.845,1.85,335.95,54.896736,9.793596,54.895069,9.793790
1386792857,1,0,545.9,0,0,4,0,409,410,-0.0292,185.4902,6.8213,0.4212,54.891739,9.795598,108.3,5.845,1.85,335.95,54.896736,9.793596,54.895069,9.793790
1386792857,1,0,545.9,0,0,0,0,409,405,-0.0292,185.4902,6.8213,0.4212,54.891720,9.795595,108.3,5.845,1.85,335.95,54.896736,9.793596,54.895069,9.793790
1386792857,1,0,545.9,0,0,4,0,409,410,-0.0292,185.4902,6.8213,0.4212,54.891705,9.795592,108.3,5.845,1.85,335.95,54.896736,9.793596,54.895069,9.793790
1386792857,1,0,545.9,0,0,0,0,409,405,-0.0292,185.4902,6.8213,0.4212,54.891685,9.795588,108.3,5.845,1.85,335.95,54.896736,9.793596,54.895069,9.793790
1386792858,1,0,545.9,0,0,4,0,409,410,-0.0292,185.4902,6.8213,0.4212,54.891666,9.795586,108.3,5.845,1.85,335.95,54.896736,9.793596,54.895069,9.793790
1386792858,1,0,545.9,0,0,0,0,409,405,-0.0292,185.4902,6.8213,0.4212,54.891647,9.795583,108.3,5.845,1.85,335.95,54.896736,9.793596,54.895069,9.793790
1386792858,1,0,545.9,0,0,4,0,409,410,-0.0292,185.4902,6.8213,0.4212,54.891632,9.795580,108.3,5.845,1.85,335.95,54.896736,9.793596,54.895069,9.793790
1386792858,1,0,545.9,0,0,0,0,409,405,-0.0292,185.4902,6.8213,0.4212,54.891613,9.795577,108.3,5.845,1.85,335.95,54.896736,9.793596,54.895069,9.793790
1386792859,1,0,545.9,0,0,4,0,409,410,-0.0292,185.4902,6.8213,0.4212,54.891594,9.795574,108.3,5.845,1.85,335.95,54.896736,9.793596,54.895069,9.793790
1386792859,1,0,545.9,0,0,0,0,409,405,-0.0292,185.4902,6.8213,0.4212,54.891579,9.795571,108.3,5.845,1.85,335.95,54.896736,9.793596,54.895069,9.793790
1386792859,1,0,545.9,0,0,4,0,409,410,-0.0292,185.4902,6.8213,0.4212,54.891560,9.795568,108.3,5.845,1.85,335.95,54.896736,9.793596,54.895069,9.793790
1386792859,1,0,545.9,0,0,0,0,409,405,-0.0292,185.4902,6.8213,0.4212,54.891541,9.795566,108.3,5.845,1.85,335.95,54.896736,9.793596,54.895069,9.793790
1386792860,1,0,545.9,0,0,4,0,409,410,-0.0292,185.4902,6.8213,0.4212,54.891521,9.795563,108.3,5.845,1.85,335.95,54.896736,9.793596,54.895069,9.793790
1386792860,1,0,545.9,0,0,0,0,409,405,-0.0292,185.4902,6.8213,0.4212,54.891506,9.795560,108.3,5.845,1.85,335.95,54.896736,9.793596,54.895069,9.793790
1386792860,1,0,545.9,0,0,4,0,409,410,-0.0292,185.4902,6.8213,0.4212,54.891487,9.795557,108.3,5.845,1.85,335.95,54.896736,9.793596,54.895069,9.793790
1386792860,1,0,545.9,0,0,0,0,409,405,-0.0292,185.4902,6.8213,0.4212,54.891468,9.795554,108.3,5.845,1.85,335.95,54.896736,9.793596,54.895069,9.793790
1386792861,1,0,545.9,0,0,4,0,409,410,-0.0292,185.4902,6.8213,0.4212,54.891449,9.795551,108.3,5.845,1.85,335.95,54.896736,9.793596,54.895069,9.793790
1386792861,1,0,545.9,0,0,0,0,409,405,-0.0292,185.4902,6.8213,0.4212,54.891434,9.795547,108.3,5.845,1.85,335.95,54.896736,9.793596,54.895069,9.793790
1386792861,1,0,545.9,0,0,4,0,409,410,-0.0292,185.4902,6.8213,0.4212,54.891415,9.795544,108.3,5.845,1.85,335.95,54.896736,9.793596,54.895069,9.793790
1386792861,1,0,545.9,0,0,0,0,409,405,-0.0292,185.4902,6.8213,0.4212,54.891396,9.795541,108.3,5.845,1.85,335.95,54.896736,9.793596,54.895069,9.793790
1386792862,1,0,545.9,0,0,4,0,409,410,-0.0292,185.4902,6.8213,0.4212,54.891376,9.795538,108.3,5.845,1.85,335.95,54.896736,9.793596,54.895069,9.793790
1386792862,1,0,545.9,0,0,0,0,409,405,-0.0292,185.4902,6.8213,0.4212,54.891361,9.795535,108.3,5.845,1.85,335.95,54.896736,9.793596,54.895069,9.793790
1386792862,1,0,545.9,0,0,4,0,409,410,-0.0292,185.4902,6.8213,0.4212,54.891342,9.795532,108.3,5.845,1.85,335.95,54.896736,9.793596,54.895069,9.793790
1386792862,1,0,545.9,0,0,0,0,409,405,-0.0292,185.4902,6.8213,0.4212,54.891323,9.795529,108.3,5.845,1.85,335.95,54.896736,9.793596,54.895069,9.793790
1386792863,1,0,545.9,0,0,4,0,409,410,-0.0292,185.4902,6.8213,0.4212,54.891308,9.795527,108.3,5.845,1.85,335.95,54.896736,9.793596,54.895069,9.793790
1386792863,1,0,545.9,0,0,0,0,409,405,-0.0292,185.4902,6.8213,0.4212,54.891289,9.795524,108.3,5.845,1.85,335.95,54.896736,9.793596,54.895069,9.793790
1386792863,1,0,545.9,0,0,4,0,409,410,-0.0292,185.4902,6.8213,0.4212,54.891270,9.795521,108.3,5.845,1.85,335.95,54.896736,9.793596,54.895069,9.793790
1386792863,1,0,545.9,0,0,0,0,409,405,-0.0292,185.4902,6.8213,0.4212,54.891251,9.795518,108.3,5.845,1.85,335.95,54.896736,9.793596,54.895069,9.793790
1386792864,1,0,545.9,0,0,4,0,409,410,-0.0292,185.4902,6.8213,0.4212,54.891235,9.795515,108.3,5.845,1.85,335.95,54.896736,9.793596,54.895069,9.793790
1386792864,1,0,545.9,0,0,0,0,409,405,-0.0292,185.4902,6.8213,0.4212,54.891216,9.795512,108.3,5.845,1.85,335.95,54.896736,9.793596,54.895069,9.793790
1386792864,1,0,545.9,0,0,4,0,409,410,-0.0292,185.4902,6.8213,0.4212,54.891197,9.795509,108.3,5.845,1.85,335.95,54.896736,9.793596,54.895069,9.793790
1386792864,1,0,545.9,0,0,0,0,409,405,-0.0292,185.4902,6.8213,0.4212,54.891178,9.795506,108.3,5.845,1.85,335.95,54.896736,9.793596,54.895069,9.793790
1386792865,1,0,545.9,0,0,4,0,409,410,-0.0292,185.4902,6.8213,0.4212,54.891163,9.795503,108.3,5.845,1.85,335.95,54.896736,9.793596,54.895069,9.793790
1386792865,1,0,545.9,0,0,0,0,409,405,-0.0292,185.4902,6.8213,0.4212,54.891144,9.795500,108.3,5.845,1.85,335.95,54.896736,9.793596,54.895069,9.793790
1386792865,1,0,545.9,0,0,4,0,409,410,-0.0292,185.4902,6.8213,0.4212,54.891125,9.795497,108.3,5.845,1.85,335.95,54.896736,9.793596,54.895069,9.793790
1386792865,1,0,545.9,0,0,0,0,409,405,-0.0292,185.4902,6.8213,0.4212,54.891106,9.795494,108.3,5.845,1.85,335.95,54.896736,9.793596,54.895069,9.793790
1386792866,1,0,545.9,0,0,4,0,409,410,-0.0292,185.4902,6.8213,0.4212,54.891090,9.795491,108.3,5.845,1.85,335.95,54.896736,9.793596,54.895069,9.793790
1386792866,1,0,545.9,0,0,0,0,409,405,-0.0292,185.4902,6.8213,0.4212,54.891071,9.795488,108.3,5.845,1.85,335.95,54.896736,9.793596,54.895069,9.793790
1386792866,1,0,545.9,0,0,4,0,409,410,-0.0292,185.4902,6.8213,0.4212,54.891052,9.795485,108.3,5.845,1.85,335.95,54.896736,9.793596,54.895069,9.793790
1386792866,1,0,545.9,0,0,0,0,409,405,-0.0292,185.4902,6.8213,0.4212,54.891037,9.795483,108.3,5.845,1.85,335.95,54.896736,9.793596,54.895069,9.793790
1386792867,1,0,545.9,0,0,4,0,409,410,-0.0292,185.4902,6.8213,0.4212,54.891018,9.795480,108.3,5.845,1.85,335.95,54.896736,9.793596,54.895069,9.793790
1386792867,1,0,545.9,0,0,0,0,409,405,-0.0292,185.4902,6.8213,0.4212,54.890999,9.795477,108.3,5.845,1.85,335.95,54.896736,9.793596,54.895069,9.793790
1386792867,1,0,545.9,0,0,4,0,409,410,-0.0292,185.4902,6.8213,0.4212,54.890980,9.795474,108.3,5.845,1.85,335.95,54.896736,9.793596,54.895069,9.793790
1386792867,1,0,545.9,0,0,0,0,409,405,-0.0292,185.4902,6.8213,0.4212,54.890965,9.795471,108.3,5.845,1.85,335.95,54.896736,9.793596,54.895069,9.793790
1386792868,1,0,545.9,0,0,4,0,409,410,-0.0292,185.4902,6.8213,0.4212,54.890945,9.795468,108.3,5.845,1.85,335.95,54.896736,9.793596,54.895069,9.793790
1386792868,1,0,545.9,0,0,0,0,409,405,-0.0292,185.4902,6.8213,0.4212,54.890926,9.795465,108.3,5.845,1.85,335.95,54.896736,9.793596,54.895069,9.793790
1386792868,1,0,545.9,0,0,4,0,409,410,-0.0292,185.4902,6.8213,0.4212,54.890907,9.795462,108.3,5.845,1.85,335.95,54.896736,9.793596,54.895069,9.793790
1386792868,1,0,545.9,0,0,0,0,409,405,-0.0292,185.4902,6.8213,0.4212,54.890892,9.795458,108.3,5.845,1.85,335.95,54.896736,9.793596,54.895069,9.793790
1386792869,1,0,545.9,0,0,4,0,409,410,-0.0292,185.4902,6.8213,0.4212,54.890873,9.795455,108.3,5.845,1.85,335.95,54.896736,9.793596,54.895069,9.793790
1386792869,1,0,545.9,0,0,0,0,409,405,-0.0292,185.4902,6.8213,0.4212,54.890854,9.795452,108.3,5.845,1.85,335.95,54.896736,9.793596,54.895069,9.793790
1386792869,1,0,545.9,0,0,4,0,409,410,-0.0292,185.4902,6.8213,0.4212,54.890835,9.795449,108.3,5.845,1.85,335.95,54.896736,9.793596,54.895069,9.793790
1386792869,1,0,545.9,0,0,0,0,409,405,-0.0292,185.4902,6.8213,0.4212,54.890820,9.795446,108.3,5.845,1.85,335.95,54.896736,9.793596,54.895069,9.793790
1386792870,1,0,545.9,0,0,4,0,409,410,-0.0292,185.4902,6.8213,0.4212,54.890800,9.795444,108.3,5.845,1.85,335.95,54.896736,9.793596,54.895069,9.793790
1386792870,1,0,545.9,0,0,0,0,409,405,-0.0292,185.4902,6.8213,0.4212,54.890781,9.795441,108.3,5.845,1.85,335.95,54.896736,9.793596,54.895069,9.793790
1386792870,1,0,545.9,0,0,4,0,409,410,-0.0292,185.4902,6.8213,0.4212,54.890762,9.795438,108.3,5.845,1.85,335.95,54.896736,9.793596,54.895069,9.793790
1386792871,1,0,545.9,0,0,0,0,409,405,-0.0292,185.4902,6.8213,0.4212,54.890747,9.795435,108.3,5.845,1.85,335.95,54.896736,9.793596,54.895069,9.793790
1386792871,1,0,545.9,0,0,4,0,409,410,-0.0292,185.4902,6.8213,0.4212,54.890728,9.795432,108.3,5.845,1.85,335.95,54.896736,9.793596,54.895069,9.793790
1386792871,1,0,545.9,0,0,0,0,409,405,-0.0292,185.4902,6.8213,0.4212,54.890709,9.795429,108.3,5.845,1.85,335.95,54.896736,9.793596,54.895069,9.793790
1386792871,1,0,545.9,0,0,4,0,409,410,-0.0292,185.4902,6.8213,0.4212,54.890694,9.795426,108.3,5.845,1.85,335.95,54.896736,9.793596,54.895069,9.793790
1386792872,1,0,545.9,0,0,0,0,409,405,-0.0292,185.4902,6.8213,0.4212,54.890675,9.795424,108.3,5.845,1.85,335.95,54.896736,9.793596,54.895069,9.793790
1386792872,0,0,545.9,0,0,0,0,409,405,-0.0292,185.4902,6.8213,0.4212,54.890675,9.795424,108.3,5.845,1.85,335.95,54.896736,9.793596,54.895069,9.793790
1386792872,0,0,545.9,0,0,0,0,409,405,-0.0292,185.4902,6.8213,0.4212,54.890675,9.795424,108.3,5.845,1.85,335.95,54.896736,9.793596,54.895069,9.793790
1386792872,0,0,545.9,0,0,0,0,409,405,-0.0292,185.4902,6.8213,0.4212,54.890675,9.795424,108.3,5.845,1.85,335.95,54.896736,9.793596,54.895069,9.793790
1386792873,0,0,545.9,0,0,0,0,409,405,-0.0292,185.4902,6.8213,0.4212,54.890675,9.795424,108.3,5.845,1.85,335.95,54.896736,9.793596,54.895069,9.793790
1386792873,0,0,545.9,0,0,0,0,409,405,-0.0292,185.4902,6.8213,0.4212,54.890675,9.795424,108.3,5.845,1.85,335.95,54.896736,9.793596,54.895069,9.793790
1386792873,0,0,545.9,0,0,0,0,409,405,-0.0292,185.4902,6.8213,0.4212,54.890675,9.795424,108.3,5.845,1.85,335.95,54.896736,9.793596,54.895069,9.793790
1386792873,0,0,545.9,0,0,0,0,409,405,-0.0292,185.4902,6.8213,0.4212,54.890675,9.795424,108.3,5.845,1.85,335.95,54.896736,9.793596,54.895069,9.793790
1386792874,0,0,545.9,0,0,0,0,409,405,-0.0292,185.4902,6.8213,0.4212,54.890675,9.795424,108.3,5.845,1.85,335.95,54.896736,9.793596,54.895069,9.793790
1386792874,0,0,545.9,0,0,0,0,409,405,-0.0292,185.4902,6.8213,0.4212,54.890675,9.795424,108.3,5.845,1.85,335.95,54.896736,9.793596,54.895069,9.793790
1386792874,0,0,545.9,0,0,0,0,409,405,-0.0292,185.4902,6.8213,0.4212,54.890675,9.795424,108.3,5.845,1.85,335.95,54.896736,9.793596,54.895069,9.793790
