MCU_timestamp,Navigation_System,Manual_Control,Guidance_Heading,Manual_Ctrl_Rudder,Rudder_Desired_Angle,Rudder_Feedback,Manual_Ctrl_Sail,Sail_Desired_Pos,Sail_Feedback,Rate,Heading,Pitch,Roll,Latitude,Longitude,COG,SOG,Wind_Speed,Wind_Angle,Point_Start_Lat,Point_Start_Lon,Point_End_Lat,Point_End_Lon
1386770315,0,0,0.0,0,0,4,0,0,0,-0.0292,130.2921,6.8213,0.4212,54.900867,9.792483,108.3,5.845,1.85,335.95,0.000000,0.000000,0.000000,0.000000
1386770315,0,0,0.0,0,0,4,0,0,0,-0.0292,130.2921,6.8213,0.4212,54.900867,9.792483,108.3,5.845,1.85,335.95,0.000000,0.000000,0.000000,0.000000
1386770315,0,0,0.0,0,0,4,0,0,0,-0.0292,130.2921,6.8213,0.4212,54.900867,9.792483,108.3,5.845,1.85,335.95,0.000000,0.000000,0.000000,0.000000
1386770316,0,0,0.0,0,0,4,0,0,0,-0.0292,130.2921,6.8213,0.4212,54.900867,9.792483,108.3,5.845,1.85,335.95,0.000000,0.000000,0.000000,0.000000
1386770316,0,0,0.0,0,0,4,0,0,0,-0.0292,130.2921,6.8213,0.4212,54.900867,9.792483,108.3,5.845,1.85,335.95,0.000000,0.000000,0.000000,0.000000
1386770316,0,0,0.0,0,0,4,0,0,0,-0.0292,130.2921,6.8213,0.4212,54.900867,9.792483,108.3,5.845,1.85,335.95,0.000000,0.000000,0.000000,0.000000
1386770316,0,0,0.0,0,0,4,0,0,0,-0.0292,130.2921,6.8213,0.4212,54.900867,9.792483,108.3,5.845,1.85,335.95,0.000000,0.000000,0.000000,0.000000
1386770317,0,0,0.0,0,0,4,0,0,0,-0.0292,130.2921,6.8213,0.4212,54.900867,9.792483,108.3,5.845,1.85,335.95,0.000000,0.000000,0.000000,0.000000
1386770317,0,0,0.0,0,0,4,0,0,0,-0.0292,130.2921,6.8213,0.4212,54.900867,9.792483,108.3,5.845,1.85,335.95,0.000000,0.000000,0.000000,0.000000
1386770317,0,0,0.0,0,0,4,0,0,0,-0.0292,130.2921,6.8213,0.4212,54.900867,9.792483,108.3,5.845,1.85,335.95,0.000000,0.000000,0.000000,0.000000
1386770317,0,0,0.0,0,0,4,0,0,0,-0.0292,130.2921,6.8213,0.4212,54.900867,9.792483,108.3,5.845,1.85,335.95,0.000000,0.000000,0.000000,0.000000
1386770318,0,0,0.0,0,0,4,0,0,0,-0.0292,130.2921,6.8213,0.4212,54.900867,9.792483,108.3,5.845,1.85,335.95,0.000000,0.000000,0.000000,0.000000
1386770318,0,0,0.0,0,0,4,0,0,0,-0.0292,130.2921,6.8213,0.4212,54.900867,9.792483,108.3,5.845,1.85,335.95,0.000000,0.000000,0.000000,0.000000
1386770318,0,0,0.0,0,0,4,0,0,0,-0.0292,130.2921,6.8213,0.4212,54.900867,9.792483,108.3,5.845,1.85,335.95,0.000000,0.000000,0.000000,0.000000
1386770318,0,0,0.0,0,0,4,0,0,0,-0.0292,130.2921,6.8213,0.4212,54.900867,9.792483,108.3,5.845,1.85,335.95,0.000000,0.000000,0.000000,0.000000
1386770319,0,0,0.0,0,0,4,0,0,0,-0.0292,130.2921,6.8213,0.4212,54.900867,9.792483,108.3,5.845,1.85,335.95,0.000000,0.000000,0.000000,0.000000
1386770319,0,0,0.0,0,0,4,0,0,0,-0.0292,130.2921,6.8213,0.4212,54.900867,9.792483,108.3,5.845,1.85,335.95,0.000000,0.000000,0.000000,0.000000
1386770319,0,0,0.0,0,0,4,0,0,0,-0.0292,130.2921,6.8213,0.4212,54.900867,9.792483,108.3,5.845,1.85,335.95,0.000000,0.000000,0.000000,0.000000
1386770319,0,0,0.0,0,0,4,0,0,0,-0.0292,130.2921,6.8213,0.4212,54.900867,9.792483,108.3,5.845,1.85,335.95,0.000000,0.000000,0.000000,0.000000
1386770320,0,0,0.0,0,0,4,0,0,0,-0.0292,130.2921,6.8213,0.4212,54.900867,9.792483,108.3,5.845,1.85,335.95,0.000000,0.000000,0.000000,0.000000
1386770320,0,0,0.0,0,0,4,0,0,0,-0.0292,130.2921,6.8213,0.4212,54.900867,9.792483,108.3,5.845,1.85,335.95,0.000000,0.000000,0.000000,0.000000
1386770320,0,0,0.0,0,0,4,0,0,0,-0.0292,130.2921,6.8213,0.4212,54.900867,9.792483,108.3,5.845,1.85,335.95,0.000000,0.000000,0.000000,0.000000
1386770320,0,0,0.0,0,0,4,0,0,0,-0.0292,130.2921,6.8213,0.4212,54.900867,9.792483,108.3,5.845,1.85,335.95,0.000000,0.000000,0.000000,0.000000
1386770321,0,0,0.0,0,0,4,0,0,0,-0.0292,130.2921,6.8213,0.4212,54.900867,9.792483,108.3,5.845,1.85,335.95,0.000000,0.000000,0.000000,0.000000
1386770321,0,0,0.0,0,0,4,0,0,0,-0.0292,130.2921,6.8213,0.4212,54.900867,9.792483,108.3,5.845,1.85,335.95,0.000000,0.000000,0.000000,0.000000
1386770321,0,0,0.0,0,0,4,0,0,0,-0.0292,130.2921,6.8213,0.4212,54.900867,9.792483,108.3,5.845,1.85,335.95,0.000000,0.000000,0.000000,0.000000
1386770321,4,0,0.0,0,0,4,0,0,0,-0.0292,130.2921,6.8213,0.4212,54.900867,9.792483,108.3,5.845,1.85,335.95,0.000000,0.000000,0.000000,0.000000
1386770322,1,0,485.9,0,4,8,0,291,275,-0.0292,129.2254,6.8213,0.4212,54.900856,9.792507,108.3,5.845,1.85,335.95,54.900867,9.792483,54.895069,9.793790
1386770322,1,0,545.9,0,-35,4,0,291,300,-0.0292,138.5588,6.8213,0.4212,54.900841,9.792527,108.3,5.845,1.85,335.95,54.900867,9.792483,54.895069,9.793790
1386770322,1,0,545.9,0,-35,0,0,291,275,-0.0292,147.8921,6.8213,0.4212,54.900826,9.792543,108.3,5.845,1.85,335.95,54.900867,9.792483,54.895069,9.793790
1386770322,1,0,545.9,0,-35,-4,0,496,300,-0.0292,157.2254,6.8213,0.4212,54.900806,9.792556,108.3,5.845,1.85,335.95,54.900867,9.792483,54.895069,9.793790
1386770323,1,0,545.9,0,-29,-8,0,496,325,-0.0292,164.9588,6.8213,0.4212,54.900787,9.792563,108.3,5.845,1.85,335.95,54.900867,9.792483,54.895069,9.793790
1386770323,1,0,545.9,0,-21,-12,0,496,350,-0.0292,170.5588,6.8213,0.4212,54.900768,9.792568,108.3,5.845,1.85,335.95,54.900867,9.792483,54.895069,9.793790
1386770323,1,0,545.9,0,-15,-16,0,291,325,-0.0292,174.5588,6.8213,0.4212,54.900753,9.792571,108.3,5.845,1.85,335.95,54.900867,9.792483,54.895069,9.793790
1386770323,1,0,545.9,0,-11,-12,0,291,300,-0.0292,177.4921,6.8213,0.4212,54.900734,9.792573,108.3,5.845,1.85,335.95,54.900867,9.792483,54.895069,9.793790
1386770324,1,0,545.9,0,-8,-8,0,291,275,-0.0292,179.6254,6.8213,0.4212,54.900715,9.792573,108.3,5.845,1.85,335.95,54.900867,9.792483,54.895069,9.793790
1386770324,1,0,545.9,0,-6,-4,0,291,300,-0.0292,181.2254,6.8213,0.4212,54.900696,9.792572,108.3,5.845,1.85,335.95,54.900867,9.792483,54.895069,9.793790
1386770324,1,0,545.9,0,-5,-8,0,291,275,-0.0292,182.5588,6.8213,0.4212,54.900681,9.792571,108.3,5.845,1.85,335.95,54.900867,9.792483,54.895069,9.793790
1386770324,1,0,545.9,0,-3,-4,0,291,300,-0.0292,183.3588,6.8213,0.4212,54.900661,9.792569,108.3,5.845,1.85,335.95,54.900867,9.792483,54.895069,9.793790
1386770325,1,0,545.9,0,-3,0,0,291,275,-0.0292,184.1588,6.8213,0.4212,54.900642,9.792567,108.3,5.845,1.85,335.95,54.900867,9.792483,54.895069,9.793790
1386770325,1,0,545.9,0,-2,-4,0,291,300,-0.0292,184.6921,6.8213,0.4212,54.900623,9.792564,108.3,5.845,1.85,335.95,54.900867,9.792483,54.895069,9.793790
1386770325,1,0,545.9,0,-1,0,0,291,275,-0.0292,184.9588,6.8213,0.4212,54.900608,9.792562,108.3,5.845,1.85,335.95,54.900867,9.792483,54.895069,9.793790
1386770325,1,0,545.9,0,-1,-4,0,291,300,-0.0292,185.2254,6.8213,0.4212,54.900589,9.792559,108.3,5.845,1.85,335.95,54.900867,9.792483,54.895069,9.793790
1386770326,1,0,545.9,0,-1,0,0,291,275,-0.0292,185.4921,6.8213,0.4212,54.900570,9.792556,108.3,5.845,1.85,335.95,54.900867,9.792483,54.895069,9.793790
1386770326,1,0,545.9,0,0,4,0,291,300,-0.0292,185.4921,6.8213,0.4212,54.900551,9.792553,108.3,5.845,1.85,335.95,54.900867,9.792483,54.895069,9.793790
1386770326,1,0,545.9,0,0,0,0,291,275,-0.0292,185.4921,6.8213,0.4212,54.900536,9.792550,108.3,5.845,1.85,335.95,54.900867,9.792483,54.895069,9.793790
1386770326,1,0,545.9,0,0,4,0,291,300,-0.0292,185.4921,6.8213,0.4212,54.900517,9.792546,108.3,5.845,1.85,335.95,54.900867,9.792483,54.895069,9.793790
1386770327,1,0,545.9,0,0,0,0,291,275,-0.0292,185.4921,6.8213,0.4212,54.900497,9.792542,108.3,5.845,1.85,335.95,54.900867,9.792483,54.895069,9.793790
1386770327,1,0,545.9,0,0,4,0,291,300,-0.0292,185.4921,6.8213,0.4212,54.900482,9.792540,108.3,5.845,1.85,335.95,54.900867,9.792483,54.895069,9.793790
1386770327,1,0,545.9,0,0,0,0,291,275,-0.0292,185.4921,6.8213,0.4212,54.900463,9.792537,108.3,5.845,1.85,335.95,54.900867,9.792483,54.895069,9.793790
1386770327,1,0,545.9,0,0,4,0,291,300,-0.0292,185.4921,6.8213,0.4212,54.900444,9.792534,108.3,5.845,1.85,335.95,54.900867,9.792483,54.895069,9.793790
1386770328,1,0,545.9,0,0,0,0,291,275,-0.0292,185.4921,6.8213,0.4212,54.900425,9.792531,108.3,5.845,1.85,335.95,54.900867,9.792483,54.895069,9.793790
1386770328,1,0,545.9,0,0,4,0,291,300,-0.0292,185.4921,6.8213,0.4212,54.900410,9.792528,108.3,5.845,1.85,335.95,54.900867,9.792483,54.895069,9.793790
1386770328,1,0,545.9,0,0,0,0,291,275,-0.0292,185.4921,6.8213,0.4212,54.900391,9.792525,108.3,5.845,1.85,335.95,54.900867,9.792483,54.895069,9.793790
1386770329,1,0,545.9,0,0,4,0,291,300,-0.0292,185.4921,6.8213,0.4212,54.900372,9.792522,108.3,5.845,1.85,335.95,54.900867,9.792483,54.895069,9.793790
1386770329,1,0,545.9,0,0,0,0,291,275,-0.0292,185.4921,6.8213,0.4212,54.900352,9.792520,108.3,5.845,1.85,335.95,54.900867,9.792483,54.895069,9.793790
1386770329,1,0,545.9,0,0,4,0,291,300,-0.0292,185.4921,6.8213,0.4212,54.900337,9.792517,108.3,5.845,1.85,335.95,54.900867,9.792483,54.895069,9.793790
1386770329,1,0,545.9,0,0,0,0,291,275,-0.0292,185.4921,6.8213,0.4212,54.900318,9.792514,108.3,5.845,1.85,335.95,54.900867,9.792483,54.895069,9.793790
1386770330,1,0,545.9,0,0,4,0,291,300,-0.0292,185.4921,6.8213,0.4212,54.900299,9.792511,108.3,5.845,1.85,335.95,54.900867,9.792483,54.895069,9.793790
1386770330,1,0,545.9,0,0,0,0,291,275,-0.0292,185.4921,6.8213,0.4212,54.900280,9.792508,108.3,5.845,1.85,335.95,54.900867,9.792483,54.895069,9.793790
1386770330,1,0,545.9,0,0,4,0,291,300,-0.0292,185.4921,6.8213,0.4212,54.900265,9.792504,108.3,5.845,1.85,335.95,54.900867,9.792483,54.895069,9.793790
1386770330,1,0,545.9,0,0,0,0,291,275,-0.0292,185.4921,6.8213,0.4212,54.900246,9.792500,108.3,5.845,1.85,335.95,54.900867,9.792483,54.895069,9.793790
1386770331,1,0,545.9,0,0,4,0,291,300,-0.0292,185.4921,6.8213,0.4212,54.900227,9.792498,108.3,5.845,1.85,335.95,54.900867,9.792483,54.895069,9.793790
1386770331,1,0,545.9,0,0,0,0,291,275,-0.0292,185.4921,6.8213,0.4212,54.900211,9.792495,108.3,5.845,1.85,335.95,54.900867,9.792483,54.895069,9.793790
1386770331,1,0,545.9,0,0,4,0,291,300,-0.0292,185.4921,6.8213,0.4212,54.900192,9.792492,108.3,5.845,1.85,335.95,54.900867,9.792483,54.895069,9.793790
1386770331,1,0,545.9,0,0,0,0,291,275,-0.0292,185.4921,6.8213,0.4212,54.900173,9.792489,108.3,5.845,1.85,335.95,54.900867,9.792483,54.895069,9.793790
1386770332,1,0,545.9,0,0,4,0,291,300,-0.0292,185.4921,6.8213,0.4212,54.900154,9.792486,108.3,5.845,1.85,335.95,54.900867,9.792483,54.895069,9.793790
1386770332,1,0,545.9,0,0,0,0,291,275,-0.0292,185.4921,6.8213,0.4212,54.900139,9.792483,108.3,5.845,1.85,335.95,54.900867,9.792483,54.895069,9.793790
1386770332,1,0,545.9,0,0,4,0,291,300,-0.0292,185.4921,6.8213,0.4212,54.900120,9.792480,108.3,5.845,1.85,335.95,54.900867,9.792483,54.895069,9.793790
1386770332,1,0,545.9,0,0,0,0,291,275,-0.0292,185.4921,6.8213,0.4212,54.900101,9.792478,108.3,5.845,1.85,335.95,54.900867,9.792483,54.895069,9.793790
1386770333,1,0,545.9,0,0,4,0,291,300,-0.0292,185.4921,6.8213,0.4212,54.900082,9.792475,108.3,5.845,1.85,335.95,54.900867,9.792483,54.895069,9.793790
1386770333,1,0,545.9,0,0,0,0,291,275,-0.0292,185.4921,6.8213,0.4212,54.900066,9.792472,108.3,5.845,1.85,335.95,54.900867,9.792483,54.895069,9.793790
1386770333,1,0,545.9,0,0,4,0,291,300,-0.0292,185.4921,6.8213,0.4212,54.900047,9.792469,108.3,5.845,1.85,335.95,54.900867,9.792483,54.895069,9.793790
1386770333,1,0,545.9,0,0,0,0,291,275,-0.0292,185.4921,6.8213,0.4212,54.900028,9.792466,108.3,5.845,1.85,335.95,54.900867,9.792483,54.895069,9.793790
1386770334,1,0,545.9,0,0,4,0,291,300,-0.0292,185.4921,6.8213,0.4212,54.900009,9.792463,108.3,5.845,1.85,335.95,54.900867,9.792483,54.895069,9.793790
1386770334,1,0,545.9,0,0,0,0,291,275,-0.0292,185.4921,6.8213,0.4212,54.899994,9.792459,108.3,5.845,1.85,335.95,54.900867,9.792483,54.895069,9.793790
1386770334,1,0,545.9,0,0,4,0,291,300,-0.0292,185.4921,6.8213,0.4212,54.899975,9.792457,108.3,5.845,1.85,335.95,54.900867,9.792483,54.895069,9.793790
1386770334,1,0,545.9,0,0,0,0,291,275,-0.0292,185.4921,6.8213,0.4212,54.899956,9.792454,108.3,5.845,1.85,335.95,54.900867,9.792483,54.895069,9.793790
1386770335,1,0,545.9,0,0,4,0,291,300,-0.0292,185.4921,6.8213,0.4212,54.899940,9.792451,108.3,5.845,1.85,335.95,54.900867,9.792483,54.895069,9.793790
1386770335,1,0,545.9,0,0,0,0,291,275,-0.0292,185.4921,6.8213,0.4212,54.899921,9.792448,108.3,5.845,1.85,335.95,54.900867,9.792483,54.895069,9.793790
1386770335,1,0,545.9,0,0,4,0,291,300,-0.0292,185.4921,6.8213,0.4212,54.899902,9.792445,108.3,5.845,1.85,335.95,54.900867,9.792483,54.895069,9.793790
1386770335,1,0,545.9,0,0,0,0,291,275,-0.0292,185.4921,6.8213,0.4212,54.899883,9.792442,108.3,5.845,1.85,335.95,54.900867,9.792483,54.895069,9.793790
1386770336,1,0,545.9,0,0,4,0,291,300,-0.0292,185.4921,6.8213,0.4212,54.899868,9.792439,108.3,5.845,1.85,335.95,54.900867,9.792483,54.895069,9.793790
1386770336,1,0,545.9,0,0,0,0,291,275,-0.0292,185.4921,6.8213,0.4212,54.899849,9.792437,108.3,5.845,1.85,335.95,54.900867,9.792483,54.895069,9.793790
1386770336,1,0,545.9,0,0,4,0,291,300,-0.0292,185.4921,6.8213,0.4212,54.899830,9.792434,108.3,5.845,1.85,335.95,54.900867,9.792483,54.895069,9.793790
1386770336,1,0,545.9,0,0,0,0,291,275,-0.0292,185.4921,6.8213,0.4212,54.899811,9.792431,108.3,5.845,1.85,335.95,54.900867,9.792483,54.895069,9.793790
1386770337,1,0,545.9,0,0,4,0,291,300,-0.0292,185.4921,6.8213,0.4212,54.899796,9.792428,108.3,5.845,1.85,335.95,54.900867,9.792483,54.895069,9.793790
1386770337,1,0,545.9,0,0,0,0,291,275,-0.0292,185.4921,6.8213,0.4212,54.899776,9.792425,108.3,5.845,1.85,335.95,54.900867,9.792483,54.895069,9.793790
1386770337,1,0,545.9,0,0,4,0,291,300,-0.0292,185.4921,6.8213,0.4212,54.899757,9.792422,108.3,5.845,1.85,335.95,54.900867,9.792483,54.895069,9.793790
1386770337,1,0,545.9,0,0,0,0,291,275,-0.0292,185.4921,6.8213,0.4212,54.899738,9.792418,108.3,5.845,1.85,335.95,54.900867,9.792483,54.895069,9.793790
1386770338,1,0,545.9,0,0,4,0,291,300,-0.0292,185.4921,6.8213,0.4212,54.899723,9.792415,108.3,5.845,1.85,335.95,54.900867,9.792483,54.895069,9.793790
1386770338,1,0,545.9,0,0,0,0,291,275,-0.0292,185.4921,6.8213,0.4212,54.899704,9.792412,108.3,5.845,1.85,335.95,54.900867,9.792483,54.895069,9.793790
1386770338,1,0,545.9,0,0,4,0,291,300,-0.0292,185.4921,6.8213,0.4212,54.899685,9.792409,108.3,5.845,1.85,335.95,54.900867,9.792483,54.895069,9.793790
1386770338,1,0,545.9,0,0,0,0,291,275,-0.0292,185.4921,6.8213,0.4212,54.899670,9.792406,108.3,5.845,1.85,335.95,54.900867,9.792483,54.895069,9.793790
1386770339,1,0,545.9,0,0,4,0,291,300,-0.0292,185.4921,6.8213,0.4212,54.899651,9.792403,108.3,5.845,1.85,335.95,54.900867,9.792483,54.895069,9.793790
1386770339,1,0,545.9,0,0,0,0,291,275,-0.0292,185.4921,6.8213,0.4212,54.899632,9.792400,108.3,5.845,1.85,335.95,54.900867,9.792483,54.895069,9.793790
1386770339,1,0,545.9,0,0,4,0,291,300,-0.0292,185.4921,6.8213,0.4212,54.899612,9.792397,108.3,5.845,1.85,335.95,54.900867,9.792483,54.895069,9.793790
1386770339,1,0,545.9,0,0,0,0,291,275,-0.0292,185.4921,6.8213,0.4212,54.899597,9.792395,108.3,5.845,1.85,335.95,54.900867,9.792483,54.895069,9.793790
1386770340,1,0,545.9,0,0,4,0,291,300,-0.0292,185.4921,6.8213,0.4212,54.899578,9.792392,108.3,5.845,1.85,335.95,54.900867,9.792483,54.895069,9.793790
1386770340,1,0,545.9,0,0,0,0,291,275,-0.0292,185.4921,6.8213,0.4212,54.899559,9.792389,108.3,5.845,1.85,335.95,54.900867,9.792483,54.895069,9.793790
1386770340,1,0,545.9,0,0,4,0,291,300,-0.0292,185.4921,6.8213,0.4212,54.899540,9.792386,108.3,5.845,1.85,335.95,54.900867,9.792483,54.895069,9.793790
1386770340,1,0,545.9,0,0,0,0,291,275,-0.0292,185.4921,6.8213,0.4212,54.899525,9.792383,108.3,5.845,1.85,335.95,54.900867,9.792483,54.895069,9.793790
1386770341,1,0,545.9,0,0,4,0,291,300,-0.0292,185.4921,6.8213,0.4212,54.899506,9.792380,108.3,5.845,1.85,335.95,54.900867,9.792483,54.895069,9.793790
1386770341,1,0,545.9,0,0,0,0,291,275,-0.0292,185.4921,6.8213,0.4212,54.899487,9.792377,108.3,5.845,1.85,335.95,54.900867,9.792483,54.895069,9.793790
1386770341,1,0,545.9,0,0,4,0,291,300,-0.0292,185.4921,6.8213,0.4212,54.899467,9.792374,108.3,5.845,1.85,335.95,54.900867,9.792483,54.895069,9.793790
1386770341,1,0,545.9,0,0,0,0,291,275,-0.0292,185.4921,6.8213,0.4212,54.899452,9.792371,108.3,5.845,1.85,335.95,54.900867,9.792483,54.895069,9.793790
1386770342,1,0,545.9,0,0,4,0,291,300,-0.0292,185.4921,6.8213,0.4212,54.899433,9.792368,108.3,5.845,1.85,335.95,54.900867,9.792483,54.895069,9.793790
1386770342,1,0,545.9,0,0,0,0,291,275,-0.0292,185.4921,6.8213,0.4212,54.899414,9.792365,108.3,5.845,1.85,335.95,54.900867,9.792483,54.895069,9.793790
1386770342,1,0,545.9,0,0,4,0,291,300,-0.0292,185.4921,6.8213,0.4212,54.899395,9.792362,108.3,5.845,1.85,335.95,54.900867,9.792483,54.895069,9.793790
1386770342,1,0,545.9,0,0,0,0,291,275,-0.0292,185.4921,6.8213,0.4212,54.899380,9.792359,108.3,5.845,1.85,335.95,54.900867,9.792483,54.895069,9.793790
1386770343,1,0,545.9,0,0,4,0,291,300,-0.0292,185.4921,6.8213,0.4212,54.899361,9.792356,108.3,5.845,1.85,335.95,54.900867,9.792483,54.895069,9.793790
1386770343,1,0,545.9,0,0,0,0,291,275,-0.0292,185.4921,6.8213,0.4212,54.899342,9.792354,108.3,5.845,1.85,335.95,54.900867,9.792483,54.895069,9.793790
1386770343,1,0,545.9,0,0,4,0,291,300,-0.0292,185.4921,6.8213,0.4212,54.899326,9.792351,108.3,5.845,1.85,335.95,54.900867,9.792483,54.895069,9.793790
1386770343,1,0,545.9,0,0,0,0,291,275,-0.0292,185.4921,6.8213,0.4212,54.899307,9.792348,108.3,5.845,1.85,335.95,54.900867,9.792483,54.895069,9.793790
1386770344,1,0,545.9,0,0,4,0,291,300,-0.0292,185.4921,6.8213,0.4212,54.899288,9.792345,108.3,5.845,1.85,335.95,54.900867,9.792483,54.895069,9.793790
1386770344,1,0,545.9,0,0,0,0,291,275,-0.0292,185.4921,6.8213,0.4212,54.899269,9.792342,108.3,5.845,1.85,335.95,54.900867,9.792483,54.895069,9.793790
1386770344,1,0,545.9,0,0,4,0,291,300,-0.0292,185.4921,6.8213,0.4212,54.899254,9.792339,108.3,5.845,1.85,335.95,54.900867,9.792483,54.895069,9.793790
1386770344,1,0,545.9,0,0,0,0,291,275,-0.0292,185.4921,6.8213,0.4212,54.899235,9.792336,108.3,5.845,1.85,335.95,54.900867,9.792483,54.895069,9.793790
1386770345,1,0,545.9,0,0,4,0,291,300,-0.0292,185.4921,6.8213,0.4212,54.899216,9.792333,108.3,5.845,1.85,335.95,54.900867,9.792483,54.895069,9.793790
1386770345,1,0,545.9,0,0,0,0,291,275,-0.0292,185.4921,6.8213,0.4212,54.899197,9.792329,108.3,5.845,1.85,335.95,54.900867,9.792483,54.895069,9.793790
1386770345,1,0,545.9,0,0,4,0,291,300,-0.0292,185.4921,6.8213,0.4212,54.899181,9.792326,108.3,5.845,1.85,335.95,54.900867,9.792483,54.895069,9.793790
1386770345,1,0,545.9,0,0,0,0,291,275,-0.0292,185.4921,6.8213,0.4212,54.899162,9.792323,108.3,5.845,1.85,335.95,54.900867,9.792483,54.895069,9.793790
1386770346,1,0,545.9,0,0,4,0,291,300,-0.0292,185.4921,6.8213,0.4212,54.899143,9.792320,108.3,5.845,1.85,335.95,54.900867,9.792483,54.895069,9.793790
1386770346,1,0,545.9,0,0,0,0,291,275,-0.0292,185.4921,6.8213,0.4212,54.899124,9.792317,108.3,5.845,1.85,335.95,54.900867,9.792483,54.895069,9.793790
1386770346,1,0,545.9,0,0,4,0,291,300,-0.0292,185.4921,6.8213,0.4212,54.899109,9.792315,108.3,5.845,1.85,335.95,54.900867,9.792483,54.895069,9.793790
1386770346,1,0,545.9,0,0,0,0,291,275,-0.0292,185.4921,6.8213,0.4212,54.899090,9.792312,108.3,5.845,1.85,335.95,54.900867,9.792483,54.895069,9.793790
1386770347,1,0,545.9,0,0,4,0,291,300,-0.0292,185.4921,6.8213,0.4212,54.899071,9.792309,108.3,5.845,1.85,335.95,54.900867,9.792483,54.895069,9.793790
1386770347,1,0,545.9,0,0,0,0,291,275,-0.0292,185.4921,6.8213,0.4212,54.899055,9.792306,108.3,5.845,1.85,335.95,54.900867,9.792483,54.895069,9.793790
1386770347,1,0,545.9,0,0,4,0,291,300,-0.0292,185.4921,6.8213,0.4212,54.899036,9.792303,108.3,5.845,1.85,335.95,54.900867,9.792483,54.895069,9.793790
1386770347,1,0,545.9,0,0,0,0,291,275,-0.0292,185.4921,6.8213,0.4212,54.899017,9.792300,108.3,5.845,1.85,335.95,54.900867,9.792483,54.895069,9.793790
1386770348,1,0,545.9,0,0,4,0,291,300,-0.0292,185.4921,6.8213,0.4212,54.898998,9.792297,108.3,5.845,1.85,335.95,54.900867,9.792483,54.895069,9.793790
1386770348,1,0,545.9,0,0,0,0,291,275,-0.0292,185.4921,6.8213,0.4212,54.898983,9.792295,108.3,5.845,1.85,335.95,54.900867,9.792483,54.895069,9.793790
1386770348,1,0,545.9,0,0,4,0,291,300,-0.0292,185.4921,6.8213,0.4212,54.898964,9.792292,108.3,5.845,1.85,335.95,54.900867,9.792483,54.895069,9.793790
1386770348,1,0,545.9,0,0,0,0,291,275,-0.0292,185.4921,6.8213,0.4212,54.898945,9.792288,108.3,5.845,1.85,335.95,54.900867,9.792483,54.895069,9.793790
1386770349,1,0,545.9,0,0,4,0,291,300,-0.0292,185.4921,6.8213,0.4212,54.898926,9.792285,108.3,5.845,1.85,335.95,54.900867,9.792483,54.895069,9.793790
1386770349,1,0,545.9,0,0,0,0,291,275,-0.0292,185.4921,6.8213,0.4212,54.898911,9.792282,108.3,5.845,1.85,335.95,54.900867,9.792483,54.895069,9.793790
1386770349,1,0,545.9,0,0,4,0,291,300,-0.0292,185.4921,6.8213,0.4212,54.898891,9.792279,108.3,5.845,1.85,335.95,54.900867,9.792483,54.895069,9.793790
1386770349,1,0,545.9,0,0,0,0,291,275,-0.0292,185.4921,6.8213,0.4212,54.898872,9.792276,108.3,5.845,1.85,335.95,54.900867,9.792483,54.895069,9.793790
1386770350,1,0,545.9,0,0,4,0,291,300,-0.0292,185.4921,6.8213,0.4212,54.898853,9.792274,108.3,5.845,1.85,335.95,54.900867,9.792483,54.895069,9.793790
1386770350,1,0,545.9,0,0,0,0,291,275,-0.0292,185.4921,6.8213,0.4212,54.898838,9.792271,108.3,5.845,1.85,335.95,54.900867,9.792483,54.895069,9.793790
1386770350,1,0,545.9,0,0,4,0,291,300,-0.0292,185.4921,6.8213,0.4212,54.898819,9.792268,108.3,5.845,1.85,335.95,54.900867,9.792483,54.895069,9.793790
1386770350,1,0,545.9,0,0,0,0,291,275,-0.0292,185.4921,6.8213,0.4212,54.898800,9.792265,108.3,5.845,1.85,335.95,54.900867,9.792483,54.895069,9.793790
1386770351,1,0,545.9,0,0,4,0,291,300,-0.0292,185.4921,6.8213,0.4212,54.898785,9.792262,108.3,5.845,1.85,335.95,54.900867,9.792483,54.895069,9.793790
1386770351,1,0,545.9,0,0,0,0,291,275,-0.0292,185.4921,6.8213,0.4212,54.898766,9.792259,108.3,5.845,1.85,335.95,54.900867,9.792483,54.895069,9.793790
1386770351,1,0,545.9,0,0,4,0,291,300,-0.0292,185.4921,6.8213,0.4212,54.898746,9.792256,108.3,5.845,1.85,335.95,54.900867,9.792483,54.895069,9.793790
1386770351,1,0,545.9,0,0,0,0,291,275,-0.0292,185.4921,6.8213,0.4212,54.898727,9.792253,108.3,5.845,1.85,335.95,54.900867,9.792483,54.895069,9.793790
1386770352,1,0,545.9,0,0,4,0,291,300,-0.0292,185.4921,6.8213,0.4212,54.898712,9.792251,108.3,5.845,1.85,335.95,54.900867,9.792483,54.895069,9.793790
1386770352,1,0,545.9,0,0,0,0,291,275,-0.0292,185.4921,6.8213,0.4212,54.898693,9.792247,108.3,5.845,1.85,335.95,54.900867,9.792483,54.895069,9.793790
1386770352,1,0,545.9,0,0,4,0,291,300,-0.0292,185.4921,6.8213,0.4212,54.898674,9.792243,108.3,5.845,1.85,335.95,54.900867,9.792483,54.895069,9.793790
1386770352,1,0,545.9,0,0,0,0,291,275,-0.0292,185.4921,6.8213,0.4212,54.898655,9.792240,108.3,5.845,1.85,335.95,54.900867,9.792483,54.895069,9.793790
1386770353,1,0,545.9,0,0,4,0,291,300,-0.0292,185.4921,6.8213,0.4212,54.898640,9.792237,108.3,5.845,1.85,335.95,54.900867,9.792483,54.895069,9.793790
1386770353,1,0,545.9,0,0,0,0,291,275,-0.0292,185.4921,6.8213,0.4212,54.898621,9.792234,108.3,5.845,1.85,335.95,54.900867,9.792483,54.895069,9.793790
1386770353,1,0,545.9,0,0,4,0,291,300,-0.0292,185.4921,6.8213,0.4212,54.898602,9.792232,108.3,5.845,1.85,335.95,54.900867,9.792483,54.895069,9.793790
1386770353,1,0,545.9,0,0,0,0,291,275,-0.0292,185.4921,6.8213,0.4212,54.898582,9.792229,108.3,5.845,1.85,335.95,54.900867,9.792483,54.895069,9.793790
1386770354,1,0,545.9,0,0,4,0,291,300,-0.0292,185.4921,6.8213,0.4212,54.898567,9.792226,108.3,5.845,1.85,335.95,54.900867,9.792483,54.895069,9.793790
1386770354,1,0,545.9,0,0,0,0,291,275,-0.0292,185.4921,6.8213,0.4212,54.898548,9.792223,108.3,5.845,1.85,335.95,54.900867,9.792483,54.895069,9.793790
1386770354,1,0,545.9,0,0,4,0,291,300,-0.0292,185.4921,6.8213,0.4212,54.898529,9.792220,108.3,5.845,1.85,335.95,54.900867,9.792483,54.895069,9.793790
1386770354,1,0,545.9,0,0,0,0,291,275,-0.0292,185.4921,6.8213,0.4212,54.898514,9.792217,108.3,5.845,1.85,335.95,54.900867,9.792483,54.895069,9.793790
1386770355,1,0,545.9,0,0,4,0,291,300,-0.0292,185.4921,6.8213,0.4212,54.898495,9.792214,108.3,5.845,1.85,335.95,54.900867,9.792483,54.895069,9.793790
1386770355,1,0,545.9,0,0,0,0,291,275,-0.0292,185.4921,6.8213,0.4212,54.898476,9.792212,108.3,5.845,1.85,335.95,54.900867,9.792483,54.895069,9.793790
1386770355,1,0,545.9,0,0,4,0,291,300,-0.0292,185.4921,6.8213,0.4212,54.898457,9.792209,108.3,5.845,1.85,335.95,54.900867,9.792483,54.895069,9.793790
1386770355,1,0,545.9,0,0,0,0,291,275,-0.0292,185.4921,6.8213,0.4212,54.898441,9.792206,108.3,5.845,1.85,335.95,54.900867,9.792483,54.895069,9.793790
1386770356,1,0,545.9,0,0,4,0,291,300,-0.0292,185.4921,6.8213,0.4212,54.898422,9.792202,108.3,5.845,1.85,335.95,54.900867,9.792483,54.895069,9.793790
1386770356,1,0,545.9,0,0,0,0,291,275,-0.0292,185.4921,6.8213,0.4212,54.898403,9.792199,108.3,5.845,1.85,335.95,54.900867,9.792483,54.895069,9.793790
1386770356,1,0,545.9,0,0,4,0,291,300,-0.0292,185.4921,6.8213,0.4212,54.898384,9.792196,108.3,5.845,1.85,335.95,54.900867,9.792483,54.895069,9.793790
1386770356,1,0,545.9,0,0,0,0,291,275,-0.0292,185.4921,6.8213,0.4212,54.898369,9.792193,108.3,5.845,1.85,335.95,54.900867,9.792483,54.895069,9.793790
1386770357,1,0,545.9,0,0,4,0,291,300,-0.0292,185.4921,6.8213,0.4212,54.898350,9.792191,108.3,5.845,1.85,335.95,54.900867,9.792483,54.895069,9.793790
1386770357,1,0,545.9,0,0,0,0,291,275,-0.0292,185.4921,6.8213,0.4212,54.898331,9.792188,108.3,5.845,1.85,335.95,54.900867,9.792483,54.895069,9.793790
1386770357,1,0,545.9,0,0,4,0,291,300,-0.0292,185.4921,6.8213,0.4212,54.898312,9.792185,108.3,5.845,1.85,335.95,54.900867,9.792483,54.895069,9.793790
1386770357,1,0,545.9,0,0,0,0,291,275,-0.0292,185.4921,6.8213,0.4212,54.898296,9.792182,108.3,5.845,1.85,335.95,54.900867,9.792483,54.895069,9.793790
1386770358,1,0,545.9,0,0,4,0,291,300,-0.0292,185.4921,6.8213,0.4212,54.898277,9.792179,108.3,5.845,1.85,335.95,54.900867,9.792483,54.895069,9.793790
1386770358,1,0,545.9,0,0,0,0,291,275,-0.0292,185.4921,6.8213,0.4212,54.898258,9.792176,108.3,5.845,1.85,335.95,54.900867,9.792483,54.895069,9.793790
1386770358,1,0,545.9,0,0,4,0,291,300,-0.0292,185.4921,6.8213,0.4212,54.898239,9.792173,108.3,5.845,1.85,335.95,54.900867,9.792483,54.895069,9.793790
1386770358,1,0,545.9,0,0,0,0,291,275,-0.0292,185.4921,6.8213,0.4212,54.898224,9.792171,108.3,5.845,1.85,335.95,54.900867,9.792483,54.895069,9.793790
1386770359,1,0,545.9,0,0,4,0,291,300,-0.0292,185.4921,6.8213,0.4212,54.898205,9.792168,108.3,5.845,1.85,335.95,54.900867,9.792483,54.895069,9.793790
1386770359,1,0,545.9,0,0,0,0,291,275,-0.0292,185.4921,6.8213,0.4212,54.898186,9.792165,108.3,5.845,1.85,335.95,54.900867,9.792483,54.895069,9.793790
1386770359,1,0,545.9,0,0,4,0,291,300,-0.0292,185.4921,6.8213,0.4212,54.898170,9.792161,108.3,5.845,1.85,335.95,54.900867,9.792483,54.895069,9.793790
1386770360,1,0,545.9,0,0,0,0,291,275,-0.0292,185.4921,6.8213,0.4212,54.898151,9.792157,108.3,5.845,1.85,335.95,54.900867,9.792483,54.895069,9.793790
1386770360,1,0,545.9,0,0,4,0,291,300,-0.0292,185.4921,6.8213,0.4212,54.898132,9.792154,108.3,5.845,1.85,335.95,54.900867,9.792483,54.895069,9.793790
1386770360,1,0,545.9,0,0,0,0,291,275,-0.0292,185.4921,6.8213,0.4212,54.898113,9.792151,108.3,5.845,1.85,335.95,54.900867,9.792483,54.895069,9.793790
1386770360,1,0,545.9,0,0,4,0,291,300,-0.0292,185.4921,6.8213,0.4212,54.898098,9.792149,108.3,5.845,1.85,335.95,54.900867,9.792483,54.895069,9.793790
1386770361,1,0,545.9,0,0,0,0,291,275,-0.0292,185.4921,6.8213,0.4212,54.898079,9.792146,108.3,5.845,1.85,335.95,54.900867,9.792483,54.895069,9.793790
1386770361,1,0,545.9,0,0,4,0,291,300,-0.0292,185.4921,6.8213,0.4212,54.898060,9.792143,108.3,5.845,1.85,335.95,54.900867,9.792483,54.895069,9.793790
1386770361,1,0,545.9,0,0,0,0,291,275,-0.0292,185.4921,6.8213,0.4212,54.898041,9.792140,108.3,5.845,1.85,335.95,54.900867,9.792483,54.895069,9.793790
1386770361,1,0,545.9,0,0,4,0,291,300,-0.0292,185.4921,6.8213,0.4212,54.898026,9.792137,108.3,5.845,1.85,335.95,54.900867,9.792483,54.895069,9.793790
1386770362,1,0,545.9,0,0,0,0,291,275,-0.0292,185.4921,6.8213,0.4212,54.898006,9.792134,108.3,5.845,1.85,335.95,54.900867,9.792483,54.895069,9.793790
1386770362,1,0,545.9,0,0,4,0,291,300,-0.0292,185.4921,6.8213,0.4212,54.897987,9.792131,108.3,5.845,1.85,335.95,54.900867,9.792483,54.895069,9.793790
1386770362,1,0,545.9,0,0,0,0,291,275,-0.0292,185.4921,6.8213,0.4212,54.897968,9.792129,108.3,5.845,1.85,335.95,54.900867,9.792483,54.895069,9.793790
1386770362,1,0,545.9,0,0,4,0,291,300,-0.0292,185.4921,6.8213,0.4212,54.897953,9.792126,108.3,5.845,1.85,335.95,54.900867,9.792483,54.895069,9.793790
1386770363,1,0,545.9,0,0,0,0,291,275,-0.0292,185.4921,6.8213,0.4212,54.897934,9.792123,108.3,5.845,1.85,335.95,54.900867,9.792483,54.895069,9.793790
1386770363,1,0,545.9,0,0,4,0,291,300,-0.0292,185.4921,6.8213,0.4212,54.897915,9.792120,108.3,5.845,1.85,335.95,54.900867,9.792483,54.895069,9.793790
1386770363,1,0,545.9,0,0,0,0,291,275,-0.0292,185.4921,6.8213,0.4212,54.897900,9.792116,108.3,5.845,1.85,335.95,54.900867,9.792483,54.895069,9.793790
1386770363,1,0,545.9,0,0,4,0,291,300,-0.0292,185.4921,6.8213,0.4212,54.897881,9.792113,108.3,5.845,1.85,335.95,54.900867,9.792483,54.895069,9.793790
1386770364,1,0,545.9,0,0,0,0,291,275,-0.0292,185.4921,6.8213,0.4212,54.897861,9.792110,108.3,5.845,1.85,335.95,54.900867,9.792483,54.895069,9.793790
1386770364,1,0,545.9,0,0,4,0,291,300,-0.0292,185.4921,6.8213,0.4212,54.897842,9.792108,108.3,5.845,1.85,335.95,54.900867,9.792483,54.895069,9.793790
1386770364,1,0,545.9,0,0,0,0,291,275,-0.0292,185.4921,6.8213,0.4212,54.897827,9.792105,108.3,5.845,1.85,335.95,54.900867,9.792483,54.895069,9.793790
1386770364,1,0,545.9,0,0,4,0,291,300,-0.0292,185.4921,6.8213,0.4212,54.897808,9.792102,108.3,5.845,1.85,335.95,54.900867,9.792483,54.895069,9.793790
1386770365,1,0,545.9,0,0,0,0,291,275,-0.0292,185.4921,6.8213,0.4212,54.897789,9.792099,108.3,5.845,1.85,335.95,54.900867,9.792483,54.895069,9.793790
1386770365,1,0,545.9,0,0,4,0,291,300,-0.0292,185.4921,6.8213,0.4212,54.897770,9.792096,108.3,5.845,1.85,335.95,54.900867,9.792483,54.895069,9.793790
1386770365,1,0,545.9,0,0,0,0,291,275,-0.0292,185.4921,6.8213,0.4212,54.897755,9.792093,108.3,5.845,1.85,335.95,54.900867,9.792483,54.895069,9.793790
1386770365,1,0,545.9,0,0,4,0,291,300,-0.0292,185.4921,6.8213,0.4212,54.897736,9.792090,108.3,5.845,1.85,335.95,54.900867,9.792483,54.895069,9.793790
1386770366,1,0,545.9,0,0,0,0,291,275,-0.0292,185.4921,6.8213,0.4212,54.897717,9.792088,108.3,5.845,1.85,335.95,54.900867,9.792483,54.895069,9.793790
1386770366,1,0,545.9,0,0,4,0,291,300,-0.0292,185.4921,6.8213,0.4212,54.897697,9.792085,108.3,5.845,1.85,335.95,54.900867,9.792483,54.895069,9.793790
1386770366,1,0,545.9,0,0,0,0,291,275,-0.0292,185.4921,6.8213,0.4212,54.897682,9.792082,108.3,5.845,1.85,335.95,54.900867,9.792483,54.895069,9.793790
1386770366,1,0,545.9,0,0,4,0,291,300,-0.0292,185.4921,6.8213,0.4212,54.897663,9.792079,108.3,5.845,1.85,335.95,54.900867,9.792483,54.895069,9.793790
1386770367,1,0,545.9,0,0,0,0,291,275,-0.0292,185.4921,6.8213,0.4212,54.897644,9.792075,108.3,5.845,1.85,335.95,54.900867,9.792483,54.895069,9.793790
1386770367,1,0,545.9,0,0,4,0,291,300,-0.0292,185.4921,6.8213,0.4212,54.897629,9.792071,108.3,5.845,1.85,335.95,54.900867,9.792483,54.895069,9.793790
1386770367,1,0,545.9,0,0,0,0,291,275,-0.0292,185.4921,6.8213,0.4212,54.897610,9.792068,108.3,5.845,1.85,335.95,54.900867,9.792483,54.895069,9.793790
1386770367,1,0,545.9,0,0,4,0,291,300,-0.0292,185.4921,6.8213,0.4212,54.897591,9.792066,108.3,5.845,1.85,335.95,54.900867,9.792483,54.895069,9.793790
1386770368,1,0,545.9,0,0,0,0,291,275,-0.0292,185.4921,6.8213,0.4212,54.897572,9.792063,108.3,5.845,1.85,335.95,54.900867,9.792483,54.895069,9.793790
1386770368,1,0,545.9,0,0,4,0,291,300,-0.0292,185.4921,6.8213,0.4212,54.897556,9.792060,108.3,5.845,1.85,335.95,54.900867,9.792483,54.895069,9.793790
1386770368,1,0,545.9,0,0,0,0,291,275,-0.0292,185.4921,6.8213,0.4212,54.897537,9.792057,108.3,5.845,1.85,335.95,54.900867,9.792483,54.895069,9.793790
1386770368,1,0,545.9,0,0,4,0,291,300,-0.0292,185.4921,6.8213,0.4212,54.897518,9.792054,108.3,5.845,1.85,335.95,54.900867,9.792483,54.895069,9.793790
1386770369,1,0,545.9,0,0,0,0,291,275,-0.0292,185.4921,6.8213,0.4212,54.897499,9.792051,108.3,5.845,1.85,335.95,54.900867,9.792483,54.895069,9.793790
1386770369,1,0,545.9,0,0,4,0,291,300,-0.0292,185.4921,6.8213,0.4212,54.897484,9.792048,108.3,5.845,1.85,335.95,54.900867,9.792483,54.895069,9.793790
1386770369,1,0,545.9,0,0,0,0,291,275,-0.0292,185.4921,6.8213,0.4212,54.897465,9.792046,108.3,5.845,1.85,335.95,54.900867,9.792483,54.895069,9.793790
1386770369,1,0,545.9,0,0,4,0,291,300,-0.0292,185.4921,6.8213,0.4212,54.897446,9.792043,108.3,5.845,1.85,335.95,54.900867,9.792483,54.895069,9.793790
1386770370,1,0,545.9,0,0,0,0,291,275,-0.0292,185.4921,6.8213,0.4212,54.897427,9.792040,108.3,5.845,1.85,335.95,54.900867,9.792483,54.895069,9.793790
1386770370,1,0,545.9,0,0,4,0,291,300,-0.0292,185.4921,6.8213,0.4212,54.897411,9.792037,108.3,5.845,1.85,335.95,54.900867,9.792483,54.895069,9.793790
1386770370,1,0,545.9,0,0,0,0,291,275,-0.0292,185.4921,6.8213,0.4212,54.897392,9.792033,108.3,5.845,1.85,335.95,54.900867,9.792483,54.895069,9.793790
1386770370,1,0,545.9,0,0,4,0,291,300,-0.0292,185.4921,6.8213,0.4212,54.897373,9.792029,108.3,5.845,1.85,335.95,54.900867,9.792483,54.895069,9.793790
1386770371,1,0,545.9,0,0,0,0,291,275,-0.0292,185.4921,6.8213,0.4212,54.897358,9.792027,108.3,5.845,1.85,335.95,54.900867,9.792483,54.895069,9.793790
1386770371,1,0,545.9,0,0,4,0,291,300,-0.0292,185.4921,6.8213,0.4212,54.897339,9.792024,108.3,5.845,1.85,335.95,54.900867,9.792483,54.895069,9.793790
1386770371,1,0,545.9,0,0,0,0,291,275,-0.0292,185.4921,6.8213,0.4212,54.897320,9.792021,108.3,5.845,1.85,335.95,54.900867,9.792483,54.895069,9.793790
1386770371,1,0,545.9,0,0,4,0,291,300,-0.0292,185.4921,6.8213,0.4212,54.897301,9.792018,108.3,5.845,1.85,335.95,54.900867,9.792483,54.895069,9.793790
1386770372,1,0,545.9,0,0,0,0,291,275,-0.0292,185.4921,6.8213,0.4212,54.897285,9.792015,108.3,5.845,1.85,335.95,54.900867,9.792483,54.895069,9.793790
1386770372,1,0,545.9,0,0,4,0,291,300,-0.0292,185.4921,6.8213,0.4212,54.897266,9.792012,108.3,5.845,1.85,335.95,54.900867,9.792483,54.895069,9.793790
1386770372,1,0,545.9,0,0,0,0,291,275,-0.0292,185.4921,6.8213,0.4212,54.897247,9.792009,108.3,5.845,1.85,335.95,54.900867,9.792483,54.895069,9.793790
1386770372,1,0,545.9,0,0,4,0,291,300,-0.0292,185.4921,6.8213,0.4212,54.897228,9.792006,108.3,5.845,1.85,335.95,54.900867,9.792483,54.895069,9.793790
1386770373,1,0,545.9,0,0,0,0,291,275,-0.0292,185.4921,6.8213,0.4212,54.897213,9.792004,108.3,5.845,1.85,335.95,54.900867,9.792483,54.895069,9.793790
1386770373,1,0,545.9,0,0,4,0,291,300,-0.0292,185.4921,6.8213,0.4212,54.897194,9.792001,108.3,5.845,1.85,335.95,54.900867,9.792483,54.895069,9.793790
1386770373,1,0,545.9,0,0,0,0,291,275,-0.0292,185.4921,6.8213,0.4212,54.897175,9.791998,108.3,5.845,1.85,335.95,54.900867,9.792483,54.895069,9.793790
1386770373,1,0,545.9,0,0,4,0,291,300,-0.0292,185.4921,6.8213,0.4212,54.897156,9.791995,108.3,5.845,1.85,335.95,54.900867,9.792483,54.895069,9.793790
1386770374,1,0,545.9,0,0,0,0,291,275,-0.0292,185.4921,6.8213,0.4212,54.897141,9.791992,108.3,5.845,1.85,335.95,54.900867,9.792483,54.895069,9.793790
1386770374,1,0,545.9,0,0,4,0,291,300,-0.0292,185.4921,6.8213,0.4212,54.897121,9.791988,108.3,5.845,1.85,335.95,54.900867,9.792483,54.895069,9.793790
1386770374,1,0,545.9,0,0,0,0,291,275,-0.0292,185.4921,6.8213,0.4212,54.897102,9.791985,108.3,5.845,1.85,335.95,54.900867,9.792483,54.895069,9.793790
1386770374,1,0,545.9,0,0,4,0,291,300,-0.0292,185.4921,6.8213,0.4212,54.897087,9.791982,108.3,5.845,1.85,335.95,54.900867,9.792483,54.895069,9.793790
1386770375,1,0,545.9,0,0,0,0,291,275,-0.0292,185.4921,6.8213,0.4212,54.897068,9.791979,108.3,5.845,1.85,335.95,54.900867,9.792483,54.895069,9.793790
1386770375,1,0,545.9,0,0,4,0,291,300,-0.0292,185.4921,6.8213,0.4212,54.897049,9.791976,108.3,5.845,1.85,335.95,54.900867,9.792483,54.895069,9.793790
1386770375,1,0,545.9,0,0,0,0,291,275,-0.0292,185.4921,6.8213,0.4212,54.897030,9.791973,108.3,5.845,1.85,335.95,54.900867,9.792483,54.895069,9.793790
1386770375,1,0,545.9,0,0,4,0,291,300,-0.0292,185.4921,6.8213,0.4212,54.897015,9.791970,108.3,5.845,1.85,335.95,54.900867,9.792483,54.895069,9.793790
1386770376,1,0,545.9,0,0,0,0,291,275,-0.0292,185.4921,6.8213,0.4212,54.896996,9.791967,108.3,5.845,1.85,335.95,54.900867,9.792483,54.895069,9.793790
1386770376,1,0,545.9,0,0,4,0,291,300,-0.0292,185.4921,6.8213,0.4212,54.896976,9.791965,108.3,5.845,1.85,335.95,54.900867,9.792483,54.895069,9.793790
1386770376,1,0,545.9,0,0,0,0,291,275,-0.0292,185.4921,6.8213,0.4212,54.896957,9.791962,108.3,5.845,1.85,335.95,54.900867,9.792483,54.895069,9.793790
1386770376,1,0,545.9,0,0,4,0,291,300,-0.0292,185.4921,6.8213,0.4212,54.896942,9.791959,108.3,5.845,1.85,335.95,54.900867,9.792483,54.895069,9.793790
1386770377,1,0,545.9,0,0,0,0,291,275,-0.0292,185.4921,6.8213,0.4212,54.896923,9.791956,108.3,5.845,1.85,335.95,54.900867,9.792483,54.895069,9.793790
1386770377,1,0,545.9,0,0,4,0,291,300,-0.0292,185.4921,6.8213,0.4212,54.896904,9.791953,108.3,5.845,1.85,335.95,54.900867,9.792483,54.895069,9.793790
1386770377,1,0,545.9,0,0,0,0,291,275,-0.0292,185.4921,6.8213,0.4212,54.896885,9.791950,108.3,5.845,1.85,335.95,54.900867,9.792483,54.895069,9.793790
1386770377,1,0,545.9,0,0,4,0,291,300,-0.0292,185.4921,6.8213,0.4212,54.896870,9.791946,108.3,5.845,1.85,335.95,54.900867,9.792483,54.895069,9.793790
1386770378,1,0,545.9,0,0,0,0,291,275,-0.0292,185.4921,6.8213,0.4212,54.896851,9.791943,108.3,5.845,1.85,335.95,54.900867,9.792483,54.895069,9.793790
1386770378,1,0,545.9,0,0,4,0,291,300,-0.0292,185.4921,6.8213,0.4212,54.896832,9.791940,108.3,5.845,1.85,335.95,54.900867,9.792483,54.895069,9.793790
1386770378,1,0,545.9,0,0,0,0,291,275,-0.0292,185.4921,6.8213,0.4212,54.896812,9.791937,108.3,5.845,1.85,335.95,54.900867,9.792483,54.895069,9.793790
1386770378,1,0,545.9,0,0,4,0,291,300,-0.0292,185.4921,6.8213,0.4212,54.896797,9.791934,108.3,5.845,1.85,335.95,54.900867,9.792483,54.895069,9.793790
1386770379,1,0,545.9,0,0,0,0,291,275,-0.0292,185.4921,6.8213,0.4212,54.896778,9.791931,108.3,5.845,1.85,335.95,54.900867,9.792483,54.895069,9.793790
1386770379,1,0,545.9,0,0,4,0,291,300,-0.0292,185.4921,6.8213,0.4212,54.896759,9.791928,108.3,5.845,1.85,335.95,54.900867,9.792483,54.895069,9.793790
1386770379,1,0,545.9,0,0,0,0,291,275,-0.0292,185.4921,6.8213,0.4212,54.896744,9.791925,108.3,5.845,1.85,335.95,54.900867,9.792483,54.895069,9.793790
1386770379,1,0,545.9,0,0,4,0,291,300,-0.0292,185.4921,6.8213,0.4212,54.896725,9.791923,108.3,5.845,1.85,335.95,54.900867,9.792483,54.895069,9.793790
1386770380,1,0,545.9,0,0,0,0,291,275,-0.0292,185.4921,6.8213,0.4212,54.896706,9.791920,108.3,5.845,1.85,335.95,54.900867,9.792483,54.895069,9.793790
1386770380,1,0,545.9,0,0,4,0,291,300,-0.0292,185.4921,6.8213,0.4212,54.896687,9.791917,108.3,5.845,1.85,335.95,54.900867,9.792483,54.895069,9.793790
1386770380,1,0,545.9,0,0,0,0,291,275,-0.0292,185.4921,6.8213,0.4212,54.896671,9.791914,108.3,5.845,1.85,335.95,54.900867,9.792483,54.895069,9.793790
1386770380,1,0,545.9,0,0,4,0,291,300,-0.0292,185.4921,6.8213,0.4212,54.896652,9.791911,108.3,5.845,1.85,335.95,54.900867,9.792483,54.895069,9.793790
1386770381,1,0,545.9,0,0,0,0,291,275,-0.0292,185.4921,6.8213,0.4212,54.896633,9.791908,108.3,5.845,1.85,335.95,54.900867,9.792483,54.895069,9.793790
1386770381,1,0,545.9,0,0,4,0,291,300,-0.0292,185.4921,6.8213,0.4212,54.896614,9.791904,108.3,5.845,1.85,335.95,54.900867,9.792483,54.895069,9.793790
1386770381,1,0,545.9,0,0,0,0,291,275,-0.0292,185.4921,6.8213,0.4212,54.896599,9.791901,108.3,5.845,1.85,335.95,54.900867,9.792483,54.895069,9.793790
1386770381,1,0,545.9,0,0,4,0,291,300,-0.0292,185.4921,6.8213,0.4212,54.896580,9.791898,108.3,5.845,1.85,335.95,54.900867,9.792483,54.895069,9.793790
1386770382,1,0,545.9,0,0,0,0,291,275,-0.0292,185.4921,6.8213,0.4212,54.896561,9.791895,108.3,5.845,1.85,335.95,54.900867,9.792483,54.895069,9.793790
1386770382,1,0,545.9,0,0,4,0,291,300,-0.0292,185.4921,6.8213,0.4212,54.896542,9.791892,108.3,5.845,1.85,335.95,54.900867,9.792483,54.895069,9.793790
1386770382,1,0,545.9,0,0,0,0,291,275,-0.0292,185.4921,6.8213,0.4212,54.896526,9.791889,108.3,5.845,1.85,335.95,54.900867,9.792483,54.895069,9.793790
1386770382,1,0,545.9,0,0,4,0,291,300,-0.0292,185.4921,6.8213,0.4212,54.896507,9.791886,108.3,5.845,1.85,335.95,54.900867,9.792483,54.895069,9.793790
1386770383,1,0,545.9,0,0,0,0,291,275,-0.0292,185.4921,6.8213,0.4212,54.896488,9.791883,108.3,5.845,1.85,335.95,54.900867,9.792483,54.895069,9.793790
1386770383,1,0,545.9,0,0,4,0,291,300,-0.0292,185.4921,6.8213,0.4212,54.896473,9.791881,108.3,5.845,1.85,335.95,54.900867,9.792483,54.895069,9.793790
1386770383,1,0,545.9,0,0,0,0,291,275,-0.0292,185.4921,6.8213,0.4212,54.896454,9.791878,108.3,5.845,1.85,335.95,54.900867,9.792483,54.895069,9.793790
1386770383,1,0,545.9,0,0,4,0,291,300,-0.0292,185.4921,6.8213,0.4212,54.896435,9.791875,108.3,5.845,1.85,335.95,54.900867,9.792483,54.895069,9.793790
1386770384,1,0,545.9,0,0,0,0,291,275,-0.0292,185.4921,6.8213,0.4212,54.896416,9.791872,108.3,5.845,1.85,335.95,54.900867,9.792483,54.895069,9.793790
1386770384,1,0,545.9,0,0,4,0,291,300,-0.0292,185.4921,6.8213,0.4212,54.896400,9.791869,108.3,5.845,1.85,335.95,54.900867,9.792483,54.895069,9.793790
1386770384,1,0,545.9,0,0,0,0,291,275,-0.0292,185.4921,6.8213,0.4212,54.896381,9.791866,108.3,5.845,1.85,335.95,54.900867,9.792483,54.895069,9.793790
1386770384,1,0,545.9,0,0,4,0,291,300,-0.0292,185.4921,6.8213,0.4212,54.896362,9.791863,108.3,5.845,1.85,335.95,54.900867,9.792483,54.895069,9.793790
1386770385,1,0,545.9,0,0,0,0,291,275,-0.0292,185.4921,6.8213,0.4212,54.896343,9.791860,108.3,5.845,1.85,335.95,54.900867,9.792483,54.895069,9.793790
1386770385,1,0,545.9,0,0,4,0,291,300,-0.0292,185.4921,6.8213,0.4212,54.896328,9.791856,108.3,5.845,1.85,335.95,54.900867,9.792483,54.895069,9.793790
1386770385,1,0,545.9,0,0,0,0,291,275,-0.0292,185.4921,6.8213,0.4212,54.896309,9.791853,108.3,5.845,1.85,335.95,54.900867,9.792483,54.895069,9.793790
1386770385,1,0,545.9,0,0,4,0,291,300,-0.0292,185.4921,6.8213,0.4212,54.896290,9.791850,108.3,5.845,1.85,335.95,54.900867,9.792483,54.895069,9.793790
1386770386,1,0,545.9,0,0,0,0,291,275,-0.0292,185.4921,6.8213,0.4212,54.896271,9.791847,108.3,5.845,1.85,335.95,54.900867,9.792483,54.895069,9.793790
1386770386,1,0,545.9,0,0,4,0,291,300,-0.0292,185.4921,6.8213,0.4212,54.896255,9.791844,108.3,5.845,1.85,335.95,54.900867,9.792483,54.895069,9.793790
1386770386,1,0,545.9,0,0,0,0,291,275,-0.0292,185.4921,6.8213,0.4212,54.896236,9.791842,108.3,5.845,1.85,335.95,54.900867,9.792483,54.895069,9.793790
1386770386,1,0,545.9,0,0,4,0,291,300,-0.0292,185.4921,6.8213,0.4212,54.896217,9.791839,108.3,5.845,1.85,335.95,54.900867,9.792483,54.895069,9.793790
1386770387,1,0,545.9,0,0,0,0,291,275,-0.0292,185.4921,6.8213,0.4212,54.896202,9.791836,108.3,5.845,1.85,335.95,54.900867,9.792483,54.895069,9.793790
1386770387,1,0,545.9,0,0,4,0,291,300,-0.0292,185.4921,6.8213,0.4212,54.896183,9.791833,108.3,5.845,1.85,335.95,54.900867,9.792483,54.895069,9.793790
1386770387,1,0,545.9,0,0,0,0,291,275,-0.0292,185.4921,6.8213,0.4212,54.896164,9.791830,108.3,5.845,1.85,335.95,54.900867,9.792483,54.895069,9.793790
1386770387,1,0,545.9,0,0,4,0,291,300,-0.0292,185.4921,6.8213,0.4212,54.896145,9.791827,108.3,5.845,1.85,335.95,54.900867,9.792483,54.895069,9.793790
1386770388,1,0,545.9,0,0,0,0,291,275,-0.0292,185.4921,6.8213,0.4212,54.896130,9.791824,108.3,5.845,1.85,335.95,54.900867,9.792483,54.895069,9.793790
1386770388,1,0,545.9,0,0,4,0,291,300,-0.0292,185.4921,6.8213,0.4212,54.896111,9.791821,108.3,5.845,1.85,335.95,54.900867,9.792483,54.895069,9.793790
1386770388,1,0,545.9,0,0,0,0,291,275,-0.0292,185.4921,6.8213,0.4212,54.896091,9.791818,108.3,5.845,1.85,335.95,54.900867,9.792483,54.895069,9.793790
1386770388,1,0,545.9,0,0,4,0,291,300,-0.0292,185.4921,6.8213,0.4212,54.896072,9.791814,108.3,5.845,1.85,335.95,54.900867,9.792483,54.895069,9.793790
1386770389,1,0,545.9,0,0,0,0,291,275,-0.0292,185.4921,6.8213,0.4212,54.896057,9.791811,108.3,5.845,1.85,335.95,54.900867,9.792483,54.895069,9.793790
1386770389,1,0,545.9,0,0,4,0,291,300,-0.0292,185.4921,6.8213,0.4212,54.896038,9.791808,108.3,5.845,1.85,335.95,54.900867,9.792483,54.895069,9.793790
1386770389,1,0,545.9,0,0,0,0,291,275,-0.0292,185.4921,6.8213,0.4212,54.896019,9.791805,108.3,5.845,1.85,335.95,54.900867,9.792483,54.895069,9.793790
1386770389,1,0,545.9,0,0,4,0,291,300,-0.0292,185.4921,6.8213,0.4212,54.896000,9.791802,108.3,5.845,1.85,335.95,54.900867,9.792483,54.895069,9.793790
1386770390,1,0,545.9,0,0,0,0,291,275,-0.0292,185.4921,6.8213,0.4212,54.895985,9.791800,108.3,5.845,1.85,335.95,54.900867,9.792483,54.895069,9.793790
1386770390,1,0,545.9,0,0,4,0,291,300,-0.0292,185.4921,6.8213,0.4212,54.895966,9.791797,108.3,5.845,1.85,335.95,54.900867,9.792483,54.895069,9.793790
1386770390,1,0,545.9,0,0,0,0,291,275,-0.0292,185.4921,6.8213,0.4212,54.895947,9.791794,108.3,5.845,1.85,335.95,54.900867,9.792483,54.895069,9.793790
1386770390,1,0,545.9,0,0,4,0,291,300,-0.0292,185.4921,6.8213,0.4212,54.895931,9.791791,108.3,5.845,1.85,335.95,54.900867,9.792483,54.895069,9.793790
1386770391,1,0,545.9,0,0,0,0,291,275,-0.0292,185.4921,6.8213,0.4212,54.895912,9.791788,108.3,5.845,1.85,335.95,54.900867,9.792483,54.895069,9.793790
1386770391,1,0,545.9,0,0,4,0,291,300,-0.0292,185.4921,6.8213,0.4212,54.895893,9.791785,108.3,5.845,1.85,335.95,54.900867,9.792483,54.895069,9.793790
1386770391,1,0,545.9,0,0,0,0,291,275,-0.0292,185.4921,6.8213,0.4212,54.895874,9.791782,108.3,5.845,1.85,335.95,54.900867,9.792483,54.895069,9.793790
1386770391,1,0,485.9,0,35,4,0,291,300,-0.0292,176.1588,6.8213,0.4212,54.895859,9.791784,108.3,5.845,1.85,335.95,54.900867,9.792483,54.895069,9.793790
1386770392,1,0,485.9,0,35,8,0,291,275,-0.0292,166.8255,6.8213,0.4212,54.895840,9.791791,108.3,5.845,1.85,335.95,54.900867,9.792483,54.895069,9.793790
1386770392,1,0,485.9,0,35,12,0,291,300,-0.0292,157.4921,6.8213,0.4212,54.895821,9.791802,108.3,5.845,1.85,335.95,54.900867,9.792483,54.895069,9.793790
1386770392,1,0,485.9,0,32,16,0,496,325,-0.0292,148.9588,6.8213,0.4212,54.895805,9.791819,108.3,5.845,1.85,335.95,54.900867,9.792483,54.895069,9.793790
1386770392,1,0,485.9,0,23,20,0,496,350,-0.0292,142.8255,6.8213,0.4212,54.895794,9.791837,108.3,5.845,1.85,335.95,54.900867,9.792483,54.895069,9.793790
1386770393,1,0,485.9,0,17,16,0,291,325,-0.0292,138.2921,6.8213,0.4212,54.895779,9.791858,108.3,5.845,1.85,335.95,54.900867,9.792483,54.895069,9.793790
1386770393,1,0,485.9,0,12,12,0,291,300,-0.0292,135.0921,6.8213,0.4212,54.895767,9.791881,108.3,5.845,1.85,335.95,54.900867,9.792483,54.895069,9.793790
1386770393,1,0,485.4,0,10,8,0,291,275,-0.0292,132.4254,6.8213,0.4212,54.895756,9.791903,108.3,5.845,1.85,335.95,54.900867,9.792483,54.895069,9.793790
1386770393,1,0,482.2,0,10,12,0,291,300,-0.0292,129.7588,6.8213,0.4212,54.895744,9.791927,108.3,5.845,1.85,335.95,54.900867,9.792483,54.895069,9.793790
1386770394,1,0,482.1,0,8,8,0,291,275,-0.0292,127.6254,6.8213,0.4212,54.895733,9.791952,108.3,5.845,1.85,335.95,54.900867,9.792483,54.895069,9.793790
1386770394,1,0,482.0,0,6,4,0,291,300,-0.0292,126.0254,6.8213,0.4212,54.895725,9.791977,108.3,5.845,1.85,335.95,54.900867,9.792483,54.895069,9.793790
1386770394,1,0,482.0,0,4,8,0,291,275,-0.0292,124.9588,6.8213,0.4212,54.895718,9.792003,108.3,5.845,1.85,335.95,54.900867,9.792483,54.895069,9.793790
1386770395,1,0,482.1,0,3,4,0,291,300,-0.0292,124.1588,6.8213,0.4212,54.895706,9.792028,108.3,5.845,1.85,335.95,54.900867,9.792483,54.895069,9.793790
1386770395,1,0,482.0,0,2,0,0,291,275,-0.0292,123.6254,6.8213,0.4212,54.895699,9.792055,108.3,5.845,1.85,335.95,54.900867,9.792483,54.895069,9.793790
1386770395,1,0,482.1,0,2,4,0,291,300,-0.0292,123.0921,6.8213,0.4212,54.895691,9.792081,108.3,5.845,1.85,335.95,54.900867,9.792483,54.895069,9.793790
1386770395,1,0,482.2,0,1,0,0,291,275,-0.0292,122.8254,6.8213,0.4212,54.895679,9.792107,108.3,5.845,1.85,335.95,54.900867,9.792483,54.895069,9.793790
1386770396,1,0,482.1,0,1,4,0,291,300,-0.0292,122.5588,6.8213,0.4212,54.895672,9.792133,108.3,5.845,1.85,335.95,54.900867,9.792483,54.895069,9.793790
1386770396,1,0,482.2,0,0,0,0,291,275,-0.0292,122.5588,6.8213,0.4212,54.895660,9.792159,108.3,5.845,1.85,335.95,54.900867,9.792483,54.895069,9.793790
1386770396,1,0,482.1,0,0,4,0,291,300,-0.0292,122.5588,6.8213,0.4212,54.895649,9.792186,108.3,5.845,1.85,335.95,54.900867,9.792483,54.895069,9.793790
1386770396,1,0,482.0,0,1,0,0,291,275,-0.0292,122.2921,6.8213,0.4212,54.895641,9.792212,108.3,5.845,1.85,335.95,54.900867,9.792483,54.895069,9.793790
1386770397,1,0,482.1,0,0,4,0,291,300,-0.0292,122.2921,6.8213,0.4212,54.895630,9.792238,108.3,5.845,1.85,335.95,54.900867,9.792483,54.895069,9.793790
1386770397,1,0,482.0,0,0,0,0,291,275,-0.0292,122.2921,6.8213,0.4212,54.895622,9.792265,108.3,5.845,1.85,335.95,54.900867,9.792483,54.895069,9.793790
1386770397,1,0,482.1,0,0,4,0,291,300,-0.0292,122.2921,6.8213,0.4212,54.895611,9.792292,108.3,5.845,1.85,335.95,54.900867,9.792483,54.895069,9.793790
1386770397,1,0,482.0,0,0,0,0,291,275,-0.0292,122.2921,6.8213,0.4212,54.895599,9.792317,108.3,5.845,1.85,335.95,54.900867,9.792483,54.895069,9.793790
1386770398,1,0,481.9,0,0,4,0,291,300,-0.0292,122.2921,6.8213,0.4212,54.895592,9.792344,108.3,5.845,1.85,335.95,54.900867,9.792483,54.895069,9.793790
1386770398,1,0,482.0,0,0,0,0,291,275,-0.0292,122.2921,6.8213,0.4212,54.895580,9.792370,108.3,5.845,1.85,335.95,54.900867,9.792483,54.895069,9.793790
1386770398,1,0,481.9,0,0,4,0,291,300,-0.0292,122.2921,6.8213,0.4212,54.895573,9.792397,108.3,5.845,1.85,335.95,54.900867,9.792483,54.895069,9.793790
1386770398,1,0,482.0,0,0,0,0,291,275,-0.0292,122.2921,6.8213,0.4212,54.895561,9.792423,108.3,5.845,1.85,335.95,54.900867,9.792483,54.895069,9.793790
1386770399,1,0,481.9,0,0,4,0,291,300,-0.0292,122.2921,6.8213,0.4212,54.895550,9.792449,108.3,5.845,1.85,335.95,54.900867,9.792483,54.895069,9.793790
1386770399,1,0,481.8,0,1,0,0,291,275,-0.0292,122.0254,6.8213,0.4212,54.895542,9.792476,108.3,5.845,1.85,335.95,54.900867,9.792483,54.895069,9.793790
1386770399,1,0,481.9,0,0,4,0,291,300,-0.0292,122.0254,6.8213,0.4212,54.895531,9.792502,108.3,5.845,1.85,335.95,54.900867,9.792483,54.895069,9.793790
1386770399,1,0,481.8,0,0,0,0,291,275,-0.0292,122.0254,6.8213,0.4212,54.895523,9.792529,108.3,5.845,1.85,335.95,54.900867,9.792483,54.895069,9.793790
1386770400,1,0,481.9,0,0,4,0,291,300,-0.0292,122.0254,6.8213,0.4212,54.895512,9.792556,108.3,5.845,1.85,335.95,54.900867,9.792483,54.895069,9.793790
1386770400,1,0,481.8,0,0,0,0,291,275,-0.0292,122.0254,6.8213,0.4212,54.895500,9.792582,108.3,5.845,1.85,335.95,54.900867,9.792483,54.895069,9.793790
1386770400,1,0,481.7,0,0,4,0,291,300,-0.0292,122.0254,6.8213,0.4212,54.895493,9.792608,108.3,5.845,1.85,335.95,54.900867,9.792483,54.895069,9.793790
1386770400,1,0,481.8,0,0,0,0,291,275,-0.0292,122.0254,6.8213,0.4212,54.895481,9.792635,108.3,5.845,1.85,335.95,54.900867,9.792483,54.895069,9.793790
1386770401,1,0,481.7,0,0,4,0,291,300,-0.0292,122.0254,6.8213,0.4212,54.895473,9.792661,108.3,5.845,1.85,335.95,54.900867,9.792483,54.895069,9.793790
1386770401,1,0,481.8,0,0,0,0,291,275,-0.0292,122.0254,6.8213,0.4212,54.895462,9.792687,108.3,5.845,1.85,335.95,54.900867,9.792483,54.895069,9.793790
1386770401,1,0,481.6,0,0,4,0,291,300,-0.0292,122.0254,6.8213,0.4212,54.895454,9.792714,108.3,5.845,1.85,335.95,54.900867,9.792483,54.895069,9.793790
1386770401,1,0,481.8,0,0,0,0,291,275,-0.0292,122.0254,6.8213,0.4212,54.895447,9.792741,108.3,5.845,1.85,335.95,54.900867,9.792483,54.895069,9.793790
1386770402,1,0,481.9,0,0,4,0,291,300,-0.0292,122.0254,6.8213,0.4212,54.895435,9.792768,108.3,5.845,1.85,335.95,54.900867,9.792483,54.895069,9.793790
1386770402,1,0,481.8,0,0,0,0,291,275,-0.0292,122.0254,6.8213,0.4212,54.895428,9.792793,108.3,5.845,1.85,335.95,54.900867,9.792483,54.895069,9.793790
1386770402,1,0,481.9,0,0,4,0,291,300,-0.0292,122.0254,6.8213,0.4212,54.895420,9.792820,108.3,5.845,1.85,335.95,54.900867,9.792483,54.895069,9.793790
1386770402,1,0,482.0,0,0,0,0,291,275,-0.0292,122.0254,6.8213,0.4212,54.895409,9.792847,108.3,5.845,1.85,335.95,54.900867,9.792483,54.895069,9.793790
1386770403,1,0,481.9,0,0,4,0,291,300,-0.0292,122.0254,6.8213,0.4212,54.895401,9.792872,108.3,5.845,1.85,335.95,54.900867,9.792483,54.895069,9.793790
1386770403,1,0,482.0,0,0,0,0,291,275,-0.0292,122.0254,6.8213,0.4212,54.895390,9.792899,108.3,5.845,1.85,335.95,54.900867,9.792483,54.895069,9.793790
1386770403,1,0,481.9,0,0,4,0,291,300,-0.0292,122.0254,6.8213,0.4212,54.895378,9.792925,108.3,5.845,1.85,335.95,54.900867,9.792483,54.895069,9.793790
1386770403,1,0,481.7,0,0,0,0,291,275,-0.0292,122.0254,6.8213,0.4212,54.895370,9.792952,108.3,5.845,1.85,335.95,54.900867,9.792483,54.895069,9.793790
1386770404,1,0,481.9,0,0,4,0,291,300,-0.0292,122.0254,6.8213,0.4212,54.895359,9.792978,108.3,5.845,1.85,335.95,54.900867,9.792483,54.895069,9.793790
1386770404,1,0,481.7,0,0,0,0,291,275,-0.0292,122.0254,6.8213,0.4212,54.895351,9.793004,108.3,5.845,1.85,335.95,54.900867,9.792483,54.895069,9.793790
1386770404,1,0,481.8,0,0,4,0,291,300,-0.0292,122.0254,6.8213,0.4212,54.895340,9.793031,108.3,5.845,1.85,335.95,54.900867,9.792483,54.895069,9.793790
1386770404,1,0,481.7,0,0,0,0,291,275,-0.0292,122.0254,6.8213,0.4212,54.895329,9.793057,108.3,5.845,1.85,335.95,54.900867,9.792483,54.895069,9.793790
1386770405,1,0,481.5,0,1,4,0,291,300,-0.0292,121.7588,6.8213,0.4212,54.895321,9.793084,108.3,5.845,1.85,335.95,54.900867,9.792483,54.895069,9.793790
1386770405,1,0,481.7,0,0,0,0,291,275,-0.0292,121.7588,6.8213,0.4212,54.895309,9.793111,108.3,5.845,1.85,335.95,54.900867,9.792483,54.895069,9.793790
1386770405,1,0,481.5,0,0,4,0,291,300,-0.0292,121.7588,6.8213,0.4212,54.895302,9.793138,108.3,5.845,1.85,335.95,54.900867,9.792483,54.895069,9.793790
1386770405,1,0,481.7,0,0,0,0,291,275,-0.0292,121.7588,6.8213,0.4212,54.895290,9.793164,108.3,5.845,1.85,335.95,54.900867,9.792483,54.895069,9.793790
1386770406,1,0,481.4,0,0,4,0,291,300,-0.0292,121.7588,6.8213,0.4212,54.895279,9.793191,108.3,5.845,1.85,335.95,54.900867,9.792483,54.895069,9.793790
1386770406,1,0,481.2,0,1,0,0,291,275,-0.0292,121.4921,6.8213,0.4212,54.895271,9.793217,108.3,5.845,1.85,335.95,54.900867,9.792483,54.895069,9.793790
1386770406,1,0,481.4,0,0,4,0,291,300,-0.0292,121.4921,6.8213,0.4212,54.895260,9.793243,108.3,5.845,1.85,335.95,54.900867,9.792483,54.895069,9.793790
1386770406,1,0,481.1,0,0,0,0,291,275,-0.0292,121.4921,6.8213,0.4212,54.895252,9.793270,108.3,5.845,1.85,335.95,54.900867,9.792483,54.895069,9.793790
1386770407,1,0,481.3,0,0,4,0,291,300,-0.0292,121.4921,6.8213,0.4212,54.895241,9.793297,108.3,5.845,1.85,335.95,54.900867,9.792483,54.895069,9.793790
1386770407,1,0,481.0,0,0,0,0,291,275,-0.0292,121.4921,6.8213,0.4212,54.895233,9.793324,108.3,5.845,1.85,335.95,54.900867,9.792483,54.895069,9.793790
1386770407,1,0,481.3,0,0,4,0,291,300,-0.0292,121.4921,6.8213,0.4212,54.895226,9.793350,108.3,5.845,1.85,335.95,54.900867,9.792483,54.895069,9.793790
1386770407,1,0,481.6,0,0,0,0,291,275,-0.0292,121.4921,6.8213,0.4212,54.895214,9.793377,108.3,5.845,1.85,335.95,54.900867,9.792483,54.895069,9.793790
1386770408,1,0,481.2,0,0,4,0,291,300,-0.0292,121.4921,6.8213,0.4212,54.895206,9.793404,108.3,5.845,1.85,335.95,54.900867,9.792483,54.895069,9.793790
1386770408,1,0,481.6,0,0,0,0,291,275,-0.0292,121.4921,6.8213,0.4212,54.895199,9.793429,108.3,5.845,1.85,335.95,54.900867,9.792483,54.895069,9.793790
1386770408,1,0,481.9,0,0,4,0,291,300,-0.0292,121.4921,6.8213,0.4212,54.895187,9.793456,108.3,5.845,1.85,335.95,54.900867,9.792483,54.895069,9.793790
1386770408,1,0,481.5,0,0,0,0,291,275,-0.0292,121.4921,6.8213,0.4212,54.895180,9.793483,108.3,5.845,1.85,335.95,54.900867,9.792483,54.895069,9.793790
1386770409,1,0,481.9,0,0,4,0,291,300,-0.0292,121.4921,6.8213,0.4212,54.895172,9.793509,108.3,5.845,1.85,335.95,54.900867,9.792483,54.895069,9.793790
1386770409,1,0,482.4,0,-1,0,0,291,275,-0.0292,121.7588,6.8213,0.4212,54.895161,9.793536,108.3,5.845,1.85,335.95,54.900867,9.792483,54.895069,9.793790
1386770409,1,0,482.0,0,0,4,0,291,300,-0.0292,121.7588,6.8213,0.4212,54.895153,9.793562,108.3,5.845,1.85,335.95,54.900867,9.792483,54.895069,9.793790
1386770409,1,0,482.5,0,-1,0,0,291,275,-0.0292,122.0254,6.8213,0.4212,54.895142,9.793589,108.3,5.845,1.85,335.95,54.900867,9.792483,54.895069,9.793790
1386770410,1,0,481.9,0,0,4,0,291,300,-0.0292,122.0254,6.8213,0.4212,54.895134,9.793615,108.3,5.845,1.85,335.95,54.900867,9.792483,54.895069,9.793790
1386770410,1,0,482.7,0,-1,0,0,291,275,-0.0292,122.2921,6.8213,0.4212,54.895126,9.793642,108.3,5.845,1.85,335.95,54.900867,9.792483,54.895069,9.793790
1386770410,1,0,483.8,0,-1,-4,0,291,300,-0.0292,122.5588,6.8213,0.4212,54.895115,9.793669,108.3,5.845,1.85,335.95,54.900867,9.792483,54.895069,9.793790
1386770410,1,0,483.2,0,-1,0,0,291,275,-0.0292,122.8254,6.8213,0.4212,54.895107,9.793694,108.3,5.845,1.85,335.95,54.900867,9.792483,54.895069,9.793790
1386770411,1,0,484.7,0,-2,-4,0,291,300,-0.0292,123.3588,6.8213,0.4212,54.895096,9.793721,108.3,5.845,1.85,335.95,54.900867,9.792483,54.895069,9.793790
1386770411,1,0,483.9,0,-1,0,0,291,275,-0.0292,123.6254,6.8213,0.4212,54.895084,9.793747,108.3,5.845,1.85,335.95,54.900867,9.792483,54.895069,9.793790
1386770411,1,0,483.9,0,0,4,0,291,300,-0.0292,123.6254,6.8213,0.4212,54.895077,9.793773,108.3,5.845,1.85,335.95,54.895069,9.793790,54.895348,9.797490
1386770411,1,0,442.8,0,35,8,0,291,275,-0.0292,114.2921,6.8213,0.4212,54.895069,9.793801,108.3,5.845,1.85,335.95,54.895069,9.793790,54.895348,9.797490
1386770412,1,0,442.6,0,32,12,0,291,300,-0.0292,105.7588,6.8213,0.4212,54.895061,9.793831,108.3,5.845,1.85,335.95,54.895069,9.793790,54.895348,9.797490
1386770412,1,0,442.3,0,23,16,0,493,325,-0.0292,99.6254,6.8213,0.4212,54.895058,9.793862,108.3,5.845,1.85,335.95,54.895069,9.793790,54.895348,9.797490
1386770412,1,0,442.1,0,17,20,0,484,350,-0.0292,95.0921,6.8213,0.4212,54.895058,9.793894,108.3,5.845,1.85,335.95,54.895069,9.793790,54.895348,9.797490
1386770412,1,0,442.1,0,13,16,0,475,375,-0.0292,91.6254,6.8213,0.4212,54.895058,9.793925,108.3,5.845,1.85,335.95,54.895069,9.793790,54.895348,9.797490
1386770413,1,0,442.0,0,10,12,0,466,400,-0.0292,88.9588,6.8213,0.4212,54.895058,9.793956,108.3,5.845,1.85,335.95,54.895069,9.793790,54.895348,9.797490
1386770413,1,0,441.9,0,7,8,0,458,425,-0.0292,87.0921,6.8213,0.4212,54.895058,9.793987,108.3,5.845,1.85,335.95,54.895069,9.793790,54.895348,9.797490
1386770413,1,0,441.9,0,5,4,0,453,450,-0.0292,85.7588,6.8213,0.4212,54.895058,9.794019,108.3,5.845,1.85,335.95,54.895069,9.793790,54.895348,9.797490
1386770413,1,0,441.8,0,4,8,0,448,425,-0.0292,84.6921,6.8213,0.4212,54.895058,9.794049,108.3,5.845,1.85,335.95,54.895069,9.793790,54.895348,9.797490
1386770414,1,0,441.7,0,3,4,0,445,450,-0.0292,83.8921,6.8213,0.4212,54.895061,9.794080,108.3,5.845,1.85,335.95,54.895069,9.793790,54.895348,9.797490
1386770414,1,0,441.8,0,2,0,0,443,425,-0.0292,83.3588,6.8213,0.4212,54.895065,9.794111,108.3,5.845,1.85,335.95,54.895069,9.793790,54.895348,9.797490
1386770414,1,0,441.8,0,2,4,0,441,450,-0.0292,82.8254,6.8213,0.4212,54.895069,9.794142,108.3,5.845,1.85,335.95,54.895069,9.793790,54.895348,9.797490
1386770414,1,0,441.8,0,1,0,0,439,425,-0.0292,82.5588,6.8213,0.4212,54.895069,9.794172,108.3,5.845,1.85,335.95,54.895069,9.793790,54.895348,9.797490
1386770415,1,0,441.7,0,1,4,0,438,450,-0.0292,82.2921,6.8213,0.4212,54.895069,9.794204,108.3,5.845,1.85,335.95,54.895069,9.793790,54.895348,9.797490
1386770415,1,0,441.7,0,1,0,0,437,425,-0.0292,82.0254,6.8213,0.4212,54.895069,9.794235,108.3,5.845,1.85,335.95,54.895069,9.793790,54.895348,9.797490
1386770415,1,0,441.6,0,0,4,0,436,450,-0.0292,82.0254,6.8213,0.4212,54.895069,9.794266,108.3,5.845,1.85,335.95,54.895069,9.793790,54.895348,9.797490
1386770415,1,0,441.5,0,1,0,0,436,425,-0.0292,81.7588,6.8213,0.4212,54.895069,9.794296,108.3,5.845,1.85,335.95,54.895069,9.793790,54.895348,9.797490
1386770416,1,0,441.4,0,0,4,0,436,450,-0.0292,81.7588,6.8213,0.4212,54.895069,9.794328,108.3,5.845,1.85,335.95,54.895069,9.793790,54.895348,9.797490
