MCU_timestamp,Navigation_System,Manual_Control,Guidance_Heading,Manual_Ctrl_Rudder,Rudder_Desired_Angle,Rudder_Feedback,Manual_Ctrl_Sail,Sail_Desired_Pos,Sail_Feedback,Rate,Heading,Pitch,Roll,Latitude,Longitude,COG,SOG,Wind_Speed,Wind_Angle,Point_Start_Lat,Point_Start_Lon,Point_End_Lat,Point_End_Lon
1390063857,0,0,0.0,0,0,20,0,0,0,-0.0292,95.6255,6.8213,0.4212,54.896885,9.784269,108.3,5.845,1.85,335.95,0.000000,0.000000,0.000000,0.000000
1390063858,0,0,0.0,0,0,20,0,0,0,-0.0292,95.6255,6.8213,0.4212,54.896885,9.784269,108.3,5.845,1.85,335.95,0.000000,0.000000,0.000000,0.000000
1390063858,0,0,0.0,0,0,20,0,0,0,-0.0292,95.6255,6.8213,0.4212,54.896885,9.784269,108.3,5.845,1.85,335.95,0.000000,0.000000,0.000000,0.000000
1390063858,0,0,0.0,0,0,20,0,0,0,-0.0292,95.6255,6.8213,0.4212,54.896885,9.784269,108.3,5.845,1.85,335.95,0.000000,0.000000,0.000000,0.000000
1390063858,0,0,0.0,0,0,20,0,0,0,-0.0292,95.6255,6.8213,0.4212,54.896885,9.784269,108.3,5.845,1.85,335.95,0.000000,0.000000,0.000000,0.000000
1390063859,0,0,0.0,0,0,20,0,0,0,-0.0292,95.6255,6.8213,0.4212,54.896885,9.784269,108.3,5.845,1.85,335.95,0.000000,0.000000,0.000000,0.000000
1390063859,0,0,0.0,0,0,20,0,0,0,-0.0292,95.6255,6.8213,0.4212,54.896885,9.784269,108.3,5.845,1.85,335.95,0.000000,0.000000,0.000000,0.000000
1390063859,0,0,0.0,0,0,20,0,0,0,-0.0292,95.6255,6.8213,0.4212,54.896885,9.784269,108.3,5.845,1.85,335.95,0.000000,0.000000,0.000000,0.000000
1390063859,0,0,0.0,0,0,20,0,0,0,-0.0292,95.6255,6.8213,0.4212,54.896885,9.784269,108.3,5.845,1.85,335.95,0.000000,0.000000,0.000000,0.000000
1390063860,0,0,0.0,0,0,20,0,0,0,-0.0292,95.6255,6.8213,0.4212,54.896885,9.784269,108.3,5.845,1.85,335.95,0.000000,0.000000,0.000000,0.000000
1390063860,0,0,0.0,0,0,20,0,0,0,-0.0292,95.6255,6.8213,0.4212,54.896885,9.784269,108.3,5.845,1.85,335.95,0.000000,0.000000,0.000000,0.000000
1390063860,0,0,0.0,0,0,20,0,0,0,-0.0292,95.6255,6.8213,0.4212,54.896885,9.784269,108.3,5.845,1.85,335.95,0.000000,0.000000,0.000000,0.000000
1390063860,0,0,0.0,0,0,20,0,0,0,-0.0292,95.6255,6.8213,0.4212,54.896885,9.784269,108.3,5.845,1.85,335.95,0.000000,0.000000,0.000000,0.000000
1390063861,0,0,0.0,0,0,20,0,0,0,-0.0292,95.6255,6.8213,0.4212,54.896885,9.784269,108.3,5.845,1.85,335.95,0.000000,0.000000,0.000000,0.000000
1390063861,0,0,0.0,0,0,20,0,0,0,-0.0292,95.6255,6.8213,0.4212,54.896885,9.784269,108.3,5.845,1.85,335.95,0.000000,0.000000,0.000000,0.000000
1390063861,0,0,0.0,0,0,20,0,0,0,-0.0292,95.6255,6.8213,0.4212,54.896885,9.784269,108.3,5.845,1.85,335.95,0.000000,0.000000,0.000000,0.000000
1390063861,0,0,0.0,0,0,20,0,0,0,-0.0292,95.6255,6.8213,0.4212,54.896885,9.784269,108.3,5.845,1.85,335.95,0.000000,0.000000,0.000000,0.000000
1390063862,0,0,0.0,0,0,20,0,0,0,-0.0292,95.6255,6.8213,0.4212,54.896885,9.784269,108.3,5.845,1.85,335.95,0.000000,0.000000,0.000000,0.000000
1390063862,0,0,0.0,0,0,20,0,0,0,-0.0292,95.6255,6.8213,0.4212,54.896885,9.784269,108.3,5.845,1.85,335.95,0.000000,0.000000,0.000000,0.000000
1390063862,0,0,0.0,0,0,20,0,0,0,-0.0292,95.6255,6.8213,0.4212,54.896885,9.784269,108.3,5.845,1.85,335.95,0.000000,0.000000,0.000000,0.000000
1390063862,0,0,0.0,0,0,20,0,0,0,-0.0292,95.6255,6.8213,0.4212,54.896885,9.784269,108.3,5.845,1.85,335.95,0.000000,0.000000,0.000000,0.000000
1390063863,0,0,0.0,0,0,20,0,0,0,-0.0292,95.6255,6.8213,0.4212,54.896885,9.784269,108.3,5.845,1.85,335.95,0.000000,0.000000,0.000000,0.000000
1390063863,0,0,0.0,0,0,20,0,0,0,-0.0292,95.6255,6.8213,0.4212,54.896885,9.784269,108.3,5.845,1.85,335.95,0.000000,0.000000,0.000000,0.000000
1390063863,0,0,0.0,0,0,20,0,0,0,-0.0292,95.6255,6.8213,0.4212,54.896885,9.784269,108.3,5.845,1.85,335.95,0.000000,0.000000,0.000000,0.000000
1390063863,0,0,0.0,0,0,20,0,0,0,-0.0292,95.6255,6.8213,0.4212,54.896885,9.784269,108.3,5.845,1.85,335.95,0.000000,0.000000,0.000000,0.000000
1390063864,0,0,0.0,0,0,20,0,0,0,-0.0292,95.6255,6.8213,0.4212,54.896885,9.784269,108.3,5.845,1.85,335.95,0.000000,0.000000,0.000000,0.000000
1390063864,0,0,0.0,0,0,20,0,0,0,-0.0292,95.6255,6.8213,0.4212,54.896885,9.784269,108.3,5.845,1.85,335.95,0.000000,0.000000,0.000000,0.000000
1390063864,0,0,0.0,0,0,20,0,0,0,-0.0292,95.6255,6.8213,0.4212,54.896885,9.784269,108.3,5.845,1.85,335.95,0.000000,0.000000,0.000000,0.000000
1390063864,0,0,0.0,0,0,20,0,0,0,-0.0292,95.6255,6.8213,0.4212,54.896885,9.784269,108.3,5.845,1.85,335.95,0.000000,0.000000,0.000000,0.000000
1390063865,0,0,0.0,0,0,20,0,0,0,-0.0292,95.6255,6.8213,0.4212,54.896885,9.784269,108.3,5.845,1.85,335.95,0.000000,0.000000,0.000000,0.000000
1390063865,0,0,0.0,0,0,20,0,0,0,-0.0292,95.6255,6.8213,0.4212,54.896885,9.784269,108.3,5.845,1.85,335.95,0.000000,0.000000,0.000000,0.000000
1390063865,0,0,0.0,0,0,20,0,0,0,-0.0292,95.6255,6.8213,0.4212,54.896885,9.784269,108.3,5.845,1.85,335.95,0.000000,0.000000,0.000000,0.000000
1390063865,0,0,0.0,0,0,20,0,0,0,-0.0292,95.6255,6.8213,0.4212,54.896885,9.784269,108.3,5.845,1.85,335.95,0.000000,0.000000,0.000000,0.000000
1390063866,0,0,0.0,0,0,20,0,0,0,-0.0292,95.6255,6.8213,0.4212,54.896885,9.784269,108.3,5.845,1.85,335.95,0.000000,0.000000,0.000000,0.000000
1390063866,0,0,0.0,0,0,20,0,0,0,-0.0292,95.6255,6.8213,0.4212,54.896885,9.784269,108.3,5.845,1.85,335.95,0.000000,0.000000,0.000000,0.000000
1390063866,0,0,0.0,0,0,20,0,0,0,-0.0292,95.6255,6.8213,0.4212,54.896885,9.784269,108.3,5.845,1.85,335.95,0.000000,0.000000,0.000000,0.000000
1390063866,0,0,0.0,0,0,20,0,0,0,-0.0292,95.6255,6.8213,0.4212,54.896885,9.784269,108.3,5.845,1.85,335.95,0.000000,0.000000,0.000000,0.000000
1390063867,0,0,0.0,0,0,20,0,0,0,-0.0292,95.6255,6.8213,0.4212,54.896885,9.784269,108.3,5.845,1.85,335.95,0.000000,0.000000,0.000000,0.000000
1390063867,0,0,0.0,0,0,20,0,0,0,-0.0292,95.6255,6.8213,0.4212,54.896885,9.784269,108.3,5.845,1.85,335.95,0.000000,0.000000,0.000000,0.000000
1390063867,0,0,0.0,0,0,20,0,0,0,-0.0292,95.6255,6.8213,0.4212,54.896885,9.784269,108.3,5.845,1.85,335.95,0.000000,0.000000,0.000000,0.000000
1390063867,0,0,0.0,0,0,20,0,0,0,-0.0292,95.6255,6.8213,0.4212,54.896885,9.784269,108.3,5.845,1.85,335.95,0.000000,0.000000,0.000000,0.000000
1390063868,0,0,0.0,0,0,20,0,0,0,-0.0292,95.6255,6.8213,0.4212,54.896885,9.784269,108.3,5.845,1.85,335.95,0.000000,0.000000,0.000000,0.000000
1390063868,0,0,0.0,0,0,20,0,0,0,-0.0292,95.6255,6.8213,0.4212,54.896885,9.784269,108.3,5.845,1.85,335.95,0.000000,0.000000,0.000000,0.000000
1390063868,0,0,0.0,0,0,20,0,0,0,-0.0292,95.6255,6.8213,0.4212,54.896885,9.784269,108.3,5.845,1.85,335.95,0.000000,0.000000,0.000000,0.000000
1390063868,0,0,0.0,0,0,20,0,0,0,-0.0292,95.6255,6.8213,0.4212,54.896885,9.784269,108.3,5.845,1.85,335.95,0.000000,0.000000,0.000000,0.000000
1390063869,0,0,0.0,0,0,20,0,0,0,-0.0292,95.6255,6.8213,0.4212,54.896885,9.784269,108.3,5.845,1.85,335.95,0.000000,0.000000,0.000000,0.000000
1390063869,0,0,0.0,0,0,20,0,0,0,-0.0292,95.6255,6.8213,0.4212,54.896885,9.784269,108.3,5.845,1.85,335.95,0.000000,0.000000,0.000000,0.000000
1390063869,0,0,0.0,0,0,20,0,0,0,-0.0292,95.6255,6.8213,0.4212,54.896885,9.784269,108.3,5.845,1.85,335.95,0.000000,0.000000,0.000000,0.000000
1390063869,0,0,0.0,0,0,20,0,0,0,-0.0292,95.6255,6.8213,0.4212,54.896885,9.784269,108.3,5.845,1.85,335.95,0.000000,0.000000,0.000000,0.000000
1390063870,0,0,0.0,0,0,20,0,0,0,-0.0292,95.6255,6.8213,0.4212,54.896885,9.784269,108.3,5.845,1.85,335.95,0.000000,0.000000,0.000000,0.000000
1390063870,0,0,0.0,0,0,20,0,0,0,-0.0292,95.6255,6.8213,0.4212,54.896885,9.784269,108.3,5.845,1.85,335.95,0.000000,0.000000,0.000000,0.000000
1390063870,0,0,0.0,0,0,20,0,0,0,-0.0292,95.6255,6.8213,0.4212,54.896885,9.784269,108.3,5.845,1.85,335.95,0.000000,0.000000,0.000000,0.000000
1390063870,0,0,0.0,0,0,20,0,0,0,-0.0292,95.6255,6.8213,0.4212,54.896885,9.784269,108.3,5.845,1.85,335.95,0.000000,0.000000,0.000000,0.000000
1390063871,0,0,0.0,0,0,20,0,0,0,-0.0292,95.6255,6.8213,0.4212,54.896885,9.784269,108.3,5.845,1.85,335.95,0.000000,0.000000,0.000000,0.000000
1390063871,0,0,0.0,0,0,20,0,0,0,-0.0292,95.6255,6.8213,0.4212,54.896885,9.784269,108.3,5.845,1.85,335.95,0.000000,0.000000,0.000000,0.000000
1390063871,0,0,0.0,0,0,20,0,0,0,-0.0292,95.6255,6.8213,0.4212,54.896885,9.784269,108.3,5.845,1.85,335.95,0.000000,0.000000,0.000000,0.000000
1390063871,0,0,0.0,0,0,20,0,0,0,-0.0292,95.6255,6.8213,0.4212,54.896885,9.784269,108.3,5.845,1.85,335.95,0.000000,0.000000,0.000000,0.000000
1390063872,0,0,0.0,0,0,20,0,0,0,-0.0292,95.6255,6.8213,0.4212,54.896885,9.784269,108.3,5.845,1.85,335.95,0.000000,0.000000,0.000000,0.000000
1390063872,0,0,0.0,0,0,20,0,0,0,-0.0292,95.6255,6.8213,0.4212,54.896885,9.784269,108.3,5.845,1.85,335.95,0.000000,0.000000,0.000000,0.000000
1390063872,0,0,0.0,0,0,20,0,0,0,-0.0292,95.6255,6.8213,0.4212,54.896885,9.784269,108.3,5.845,1.85,335.95,0.000000,0.000000,0.000000,0.000000
1390063872,0,0,0.0,0,0,20,0,0,0,-0.0292,95.6255,6.8213,0.4212,54.896885,9.784269,108.3,5.845,1.85,335.95,0.000000,0.000000,0.000000,0.000000
1390063873,0,0,0.0,0,0,20,0,0,0,-0.0292,95.6255,6.8213,0.4212,54.896885,9.784269,108.3,5.845,1.85,335.95,0.000000,0.000000,0.000000,0.000000
1390063873,0,0,0.0,0,0,20,0,0,0,-0.0292,95.6255,6.8213,0.4212,54.896885,9.784269,108.3,5.845,1.85,335.95,0.000000,0.000000,0.000000,0.000000
1390063873,0,0,0.0,0,0,20,0,0,0,-0.0292,95.6255,6.8213,0.4212,54.896885,9.784269,108.3,5.845,1.85,335.95,0.000000,0.000000,0.000000,0.000000
1390063873,0,0,0.0,0,0,20,0,0,0,-0.0292,95.6255,6.8213,0.4212,54.896885,9.784269,108.3,5.845,1.85,335.95,0.000000,0.000000,0.000000,0.000000
1390063874,0,0,0.0,0,0,20,0,0,0,-0.0292,95.6255,6.8213,0.4212,54.896885,9.784269,108.3,5.845,1.85,335.95,0.000000,0.000000,0.000000,0.000000
1390063874,0,0,0.0,0,0,20,0,0,0,-0.0292,95.6255,6.8213,0.4212,54.896885,9.784269,108.3,5.845,1.85,335.95,0.000000,0.000000,0.000000,0.000000
1390063874,0,0,0.0,0,0,20,0,0,0,-0.0292,95.6255,6.8213,0.4212,54.896885,9.784269,108.3,5.845,1.85,335.95,0.000000,0.000000,0.000000,0.000000
1390063874,0,0,0.0,0,0,20,0,0,0,-0.0292,95.6255,6.8213,0.4212,54.896885,9.784269,108.3,5.845,1.85,335.95,0.000000,0.000000,0.000000,0.000000
1390063875,0,0,0.0,0,0,20,0,0,0,-0.0292,95.6255,6.8213,0.4212,54.896885,9.784269,108.3,5.845,1.85,335.95,0.000000,0.000000,0.000000,0.000000
1390063875,0,0,0.0,0,0,20,0,0,0,-0.0292,95.6255,6.8213,0.4212,54.896885,9.784269,108.3,5.845,1.85,335.95,0.000000,0.000000,0.000000,0.000000
1390063875,0,0,0.0,0,0,20,0,0,0,-0.0292,95.6255,6.8213,0.4212,54.896885,9.784269,108.3,5.845,1.85,335.95,0.000000,0.000000,0.000000,0.000000
1390063875,0,0,0.0,0,0,20,0,0,0,-0.0292,95.6255,6.8213,0.4212,54.896885,9.784269,108.3,5.845,1.85,335.95,0.000000,0.000000,0.000000,0.000000
1390063876,0,0,0.0,0,0,20,0,0,0,-0.0292,95.6255,6.8213,0.4212,54.896885,9.784269,108.3,5.845,1.85,335.95,0.000000,0.000000,0.000000,0.000000
1390063876,0,0,0.0,0,0,20,0,0,0,-0.0292,95.6255,6.8213,0.4212,54.896885,9.784269,108.3,5.845,1.85,335.95,0.000000,0.000000,0.000000,0.000000
1390063876,0,0,0.0,0,0,20,0,0,0,-0.0292,95.6255,6.8213,0.4212,54.896885,9.784269,108.3,5.845,1.85,335.95,0.000000,0.000000,0.000000,0.000000
1390063876,0,0,0.0,0,0,20,0,0,0,-0.0292,95.6255,6.8213,0.4212,54.896885,9.784269,108.3,5.845,1.85,335.95,0.000000,0.000000,0.000000,0.000000
1390063877,0,0,0.0,0,0,20,0,0,0,-0.0292,95.6255,6.8213,0.4212,54.896885,9.784269,108.3,5.845,1.85,335.95,0.000000,0.000000,0.000000,0.000000
1390063877,0,0,0.0,0,0,20,0,0,0,-0.0292,95.6255,6.8213,0.4212,54.896885,9.784269,108.3,5.845,1.85,335.95,0.000000,0.000000,0.000000,0.000000
1390063877,0,0,0.0,0,0,20,0,0,0,-0.0292,95.6255,6.8213,0.4212,54.896885,9.784269,108.3,5.845,1.85,335.95,0.000000,0.000000,0.000000,0.000000
1390063877,0,0,0.0,0,0,20,0,0,0,-0.0292,95.6255,6.8213,0.4212,54.896885,9.784269,108.3,5.845,1.85,335.95,0.000000,0.000000,0.000000,0.000000
1390063878,0,0,0.0,0,0,20,0,0,0,-0.0292,95.6255,6.8213,0.4212,54.896885,9.784269,108.3,5.845,1.85,335.95,0.000000,0.000000,0.000000,0.000000
1390063878,0,0,0.0,0,0,20,0,0,0,-0.0292,95.6255,6.8213,0.4212,54.896885,9.784269,108.3,5.845,1.85,335.95,0.000000,0.000000,0.000000,0.000000
1390063878,0,0,0.0,0,0,20,0,0,0,-0.0292,95.6255,6.8213,0.4212,54.896885,9.784269,108.3,5.845,1.85,335.95,0.000000,0.000000,0.000000,0.000000
1390063878,0,0,0.0,0,0,20,0,0,0,-0.0292,95.6255,6.8213,0.4212,54.896885,9.784269,108.3,5.845,1.85,335.95,0.000000,0.000000,0.000000,0.000000
1390063879,0,0,0.0,0,0,20,0,0,0,-0.0292,95.6255,6.8213,0.4212,54.896885,9.784269,108.3,5.845,1.85,335.95,0.000000,0.000000,0.000000,0.000000
1390063879,0,0,0.0,0,0,20,0,0,0,-0.0292,95.6255,6.8213,0.4212,54.896885,9.784269,108.3,5.845,1.85,335.95,0.000000,0.000000,0.000000,0.000000
1390063879,0,0,0.0,0,0,20,0,0,0,-0.0292,95.6255,6.8213,0.4212,54.896885,9.784269,108.3,5.845,1.85,335.95,0.000000,0.000000,0.000000,0.000000
1390063879,0,0,0.0,0,0,20,0,0,0,-0.0292,95.6255,6.8213,0.4212,54.896885,9.784269,108.3,5.845,1.85,335.95,0.000000,0.000000,0.000000,0.000000
1390063880,0,0,0.0,0,0,20,0,0,0,-0.0292,95.6255,6.8213,0.4212,54.896885,9.784269,108.3,5.845,1.85,335.95,0.000000,0.000000,0.000000,0.000000
1390063880,0,0,0.0,0,0,20,0,0,0,-0.0292,95.6255,6.8213,0.4212,54.896885,9.784269,108.3,5.845,1.85,335.95,0.000000,0.000000,0.000000,0.000000
1390063880,0,0,0.0,0,0,20,0,0,0,-0.0292,95.6255,6.8213,0.4212,54.896885,9.784269,108.3,5.845,1.85,335.95,0.000000,0.000000,0.000000,0.000000
1390063880,0,0,0.0,0,0,20,0,0,0,-0.0292,95.6255,6.8213,0.4212,54.896885,9.784269,108.3,5.845,1.85,335.95,0.000000,0.000000,0.000000,0.000000
1390063881,0,0,0.0,0,0,20,0,0,0,-0.0292,95.6255,6.8213,0.4212,54.896885,9.784269,108.3,5.845,1.85,335.95,0.000000,0.000000,0.000000,0.000000
1390063881,0,0,0.0,0,0,20,0,0,0,-0.0292,95.6255,6.8213,0.4212,54.896885,9.784269,108.3,5.845,1.85,335.95,0.000000,0.000000,0.000000,0.000000
1390063881,0,0,0.0,0,0,20,0,0,0,-0.0292,95.6255,6.8213,0.4212,54.896885,9.784269,108.3,5.845,1.85,335.95,0.000000,0.000000,0.000000,0.000000
1390063881,0,0,0.0,0,0,20,0,0,0,-0.0292,95.6255,6.8213,0.4212,54.896885,9.784269,108.3,5.845,1.85,335.95,0.000000,0.000000,0.000000,0.000000
1390063882,0,0,0.0,0,0,20,0,0,0,-0.0292,95.6255,6.8213,0.4212,54.896885,9.784269,108.3,5.845,1.85,335.95,0.000000,0.000000,0.000000,0.000000
1390063882,0,0,0.0,0,0,20,0,0,0,-0.0292,95.6255,6.8213,0.4212,54.896885,9.784269,108.3,5.845,1.85,335.95,0.000000,0.000000,0.000000,0.000000
1390063882,0,0,0.0,0,0,20,0,0,0,-0.0292,95.6255,6.8213,0.4212,54.896885,9.784269,108.3,5.845,1.85,335.95,0.000000,0.000000,0.000000,0.000000
1390063882,0,0,0.0,0,0,20,0,0,0,-0.0292,95.6255,6.8213,0.4212,54.896885,9.784269,108.3,5.845,1.85,335.95,0.000000,0.000000,0.000000,0.000000
1390063883,0,0,0.0,0,0,20,0,0,0,-0.0292,95.6255,6.8213,0.4212,54.896885,9.784269,108.3,5.845,1.85,335.95,0.000000,0.000000,0.000000,0.000000
1390063883,0,0,0.0,0,0,20,0,0,0,-0.0292,95.6255,6.8213,0.4212,54.896885,9.784269,108.3,5.845,1.85,335.95,0.000000,0.000000,0.000000,0.000000
1390063883,0,0,0.0,0,0,20,0,0,0,-0.0292,95.6255,6.8213,0.4212,54.896885,9.784269,108.3,5.845,1.85,335.95,0.000000,0.000000,0.000000,0.000000
1390063883,0,0,0.0,0,0,20,0,0,0,-0.0292,95.6255,6.8213,0.4212,54.896885,9.784269,108.3,5.845,1.85,335.95,0.000000,0.000000,0.000000,0.000000
1390063884,0,0,0.0,0,0,20,0,0,0,-0.0292,95.6255,6.8213,0.4212,54.896885,9.784269,108.3,5.845,1.85,335.95,0.000000,0.000000,0.000000,0.000000
1390063884,0,0,0.0,0,0,20,0,0,0,-0.0292,95.6255,6.8213,0.4212,54.896885,9.784269,108.3,5.845,1.85,335.95,0.000000,0.000000,0.000000,0.000000
1390063884,0,0,0.0,0,0,20,0,0,0,-0.0292,95.6255,6.8213,0.4212,54.896885,9.784269,108.3,5.845,1.85,335.95,0.000000,0.000000,0.000000,0.000000
1390063884,0,0,0.0,0,0,20,0,0,0,-0.0292,95.6255,6.8213,0.4212,54.896885,9.784269,108.3,5.845,1.85,335.95,0.000000,0.000000,0.000000,0.000000
1390063885,0,0,0.0,0,0,20,0,0,0,-0.0292,95.6255,6.8213,0.4212,54.896885,9.784269,108.3,5.845,1.85,335.95,0.000000,0.000000,0.000000,0.000000
1390063885,0,0,0.0,0,0,20,0,0,0,-0.0292,95.6255,6.8213,0.4212,54.896885,9.784269,108.3,5.845,1.85,335.95,0.000000,0.000000,0.000000,0.000000
1390063885,0,0,0.0,0,0,20,0,0,0,-0.0292,95.6255,6.8213,0.4212,54.896885,9.784269,108.3,5.845,1.85,335.95,0.000000,0.000000,0.000000,0.000000
1390063885,0,0,0.0,0,0,20,0,0,0,-0.0292,95.6255,6.8213,0.4212,54.896885,9.784269,108.3,5.845,1.85,335.95,0.000000,0.000000,0.000000,0.000000
1390063886,0,0,0.0,0,0,20,0,0,0,-0.0292,95.6255,6.8213,0.4212,54.896885,9.784269,108.3,5.845,1.85,335.95,0.000000,0.000000,0.000000,0.000000
1390063886,0,0,0.0,0,0,20,0,0,0,-0.0292,95.6255,6.8213,0.4212,54.896885,9.784269,108.3,5.845,1.85,335.95,0.000000,0.000000,0.000000,0.000000
1390063886,0,0,0.0,0,0,20,0,0,0,-0.0292,95.6255,6.8213,0.4212,54.896885,9.784269,108.3,5.845,1.85,335.95,0.000000,0.000000,0.000000,0.000000
1390063886,0,0,0.0,0,0,20,0,0,0,-0.0292,95.6255,6.8213,0.4212,54.896885,9.784269,108.3,5.845,1.85,335.95,0.000000,0.000000,0.000000,0.000000
1390063887,0,0,0.0,0,0,20,0,0,0,-0.0292,95.6255,6.8213,0.4212,54.896885,9.784269,108.3,5.845,1.85,335.95,0.000000,0.000000,0.000000,0.000000
1390063887,0,0,0.0,0,0,20,0,0,0,-0.0292,95.6255,6.8213,0.4212,54.896885,9.784269,108.3,5.845,1.85,335.95,0.000000,0.000000,0.000000,0.000000
1390063887,0,0,0.0,0,0,20,0,0,0,-0.0292,95.6255,6.8213,0.4212,54.896885,9.784269,108.3,5.845,1.85,335.95,0.000000,0.000000,0.000000,0.000000
1390063887,0,0,0.0,0,0,20,0,0,0,-0.0292,95.6255,6.8213,0.4212,54.896885,9.784269,108.3,5.845,1.85,335.95,0.000000,0.000000,0.000000,0.000000
1390063888,0,0,0.0,0,0,20,0,0,0,-0.0292,95.6255,6.8213,0.4212,54.896885,9.784269,108.3,5.845,1.85,335.95,0.000000,0.000000,0.000000,0.000000
1390063888,0,0,0.0,0,0,20,0,0,0,-0.0292,95.6255,6.8213,0.4212,54.896885,9.784269,108.3,5.845,1.85,335.95,0.000000,0.000000,0.000000,0.000000
1390063888,0,0,0.0,0,0,20,0,0,0,-0.0292,95.6255,6.8213,0.4212,54.896885,9.784269,108.3,5.845,1.85,335.95,0.000000,0.000000,0.000000,0.000000
1390063888,0,0,0.0,0,0,20,0,0,0,-0.0292,95.6255,6.8213,0.4212,54.896885,9.784269,108.3,5.845,1.85,335.95,0.000000,0.000000,0.000000,0.000000
1390063889,0,0,0.0,0,0,20,0,0,0,-0.0292,95.6255,6.8213,0.4212,54.896885,9.784269,108.3,5.845,1.85,335.95,0.000000,0.000000,0.000000,0.000000
1390063889,0,0,0.0,0,0,20,0,0,0,-0.0292,95.6255,6.8213,0.4212,54.896885,9.784269,108.3,5.845,1.85,335.95,0.000000,0.000000,0.000000,0.000000
1390063889,0,0,0.0,0,0,20,0,0,0,-0.0292,95.6255,6.8213,0.4212,54.896885,9.784269,108.3,5.845,1.85,335.95,0.000000,0.000000,0.000000,0.000000
1390063889,0,0,0.0,0,0,20,0,0,0,-0.0292,95.6255,6.8213,0.4212,54.896885,9.784269,108.3,5.845,1.85,335.95,0.000000,0.000000,0.000000,0.000000
1390063890,0,0,0.0,0,0,20,0,0,0,-0.0292,95.6255,6.8213,0.4212,54.896885,9.784269,108.3,5.845,1.85,335.95,0.000000,0.000000,0.000000,0.000000
1390063890,0,0,0.0,0,0,20,0,0,0,-0.0292,95.6255,6.8213,0.4212,54.896885,9.784269,108.3,5.845,1.85,335.95,0.000000,0.000000,0.000000,0.000000
1390063890,0,0,0.0,0,0,20,0,0,0,-0.0292,95.6255,6.8213,0.4212,54.896885,9.784269,108.3,5.845,1.85,335.95,0.000000,0.000000,0.000000,0.000000
1390063890,0,0,0.0,0,0,20,0,0,0,-0.0292,95.6255,6.8213,0.4212,54.896885,9.784269,108.3,5.845,1.85,335.95,0.000000,0.000000,0.000000,0.000000
1390063891,0,0,0.0,0,0,20,0,0,0,-0.0292,95.6255,6.8213,0.4212,54.896885,9.784269,108.3,5.845,1.85,335.95,0.000000,0.000000,0.000000,0.000000
1390063891,0,0,0.0,0,0,20,0,0,0,-0.0292,95.6255,6.8213,0.4212,54.896885,9.784269,108.3,5.845,1.85,335.95,0.000000,0.000000,0.000000,0.000000
1390063891,0,0,0.0,0,0,20,0,0,0,-0.0292,95.6255,6.8213,0.4212,54.896885,9.784269,108.3,5.845,1.85,335.95,0.000000,0.000000,0.000000,0.000000
1390063891,0,0,0.0,0,0,20,0,0,0,-0.0292,95.6255,6.8213,0.4212,54.896885,9.784269,108.3,5.845,1.85,335.95,0.000000,0.000000,0.000000,0.000000
1390063892,0,0,0.0,0,0,20,0,0,0,-0.0292,95.6255,6.8213,0.4212,54.896885,9.784269,108.3,5.845,1.85,335.95,0.000000,0.000000,0.000000,0.000000
1390063892,0,0,0.0,0,0,20,0,0,0,-0.0292,95.6255,6.8213,0.4212,54.896885,9.784269,108.3,5.845,1.85,335.95,0.000000,0.000000,0.000000,0.000000
1390063892,0,0,0.0,0,0,20,0,0,0,-0.0292,95.6255,6.8213,0.4212,54.896885,9.784269,108.3,5.845,1.85,335.95,0.000000,0.000000,0.000000,0.000000
1390063892,0,0,0.0,0,0,20,0,0,0,-0.0292,95.6255,6.8213,0.4212,54.896885,9.784269,108.3,5.845,1.85,335.95,0.000000,0.000000,0.000000,0.000000
1390063893,0,0,0.0,0,0,20,0,0,0,-0.0292,95.6255,6.8213,0.4212,54.896885,9.784269,108.3,5.845,1.85,335.95,0.000000,0.000000,0.000000,0.000000
1390063893,0,0,0.0,0,0,20,0,0,0,-0.0292,95.6255,6.8213,0.4212,54.896885,9.784269,108.3,5.845,1.85,335.95,0.000000,0.000000,0.000000,0.000000
1390063893,0,0,0.0,0,0,20,0,0,0,-0.0292,95.6255,6.8213,0.4212,54.896885,9.784269,108.3,5.845,1.85,335.95,0.000000,0.000000,0.000000,0.000000
1390063893,0,0,0.0,0,0,20,0,0,0,-0.0292,95.6255,6.8213,0.4212,54.896885,9.784269,108.3,5.845,1.85,335.95,0.000000,0.000000,0.000000,0.000000
1390063894,0,0,0.0,0,0,20,0,0,0,-0.0292,95.6255,6.8213,0.4212,54.896885,9.784269,108.3,5.845,1.85,335.95,0.000000,0.000000,0.000000,0.000000
1390063894,0,0,0.0,0,0,20,0,0,0,-0.0292,95.6255,6.8213,0.4212,54.896885,9.784269,108.3,5.845,1.85,335.95,0.000000,0.000000,0.000000,0.000000
1390063894,0,0,0.0,0,0,20,0,0,0,-0.0292,95.6255,6.8213,0.4212,54.896885,9.784269,108.3,5.845,1.85,335.95,0.000000,0.000000,0.000000,0.000000
1390063894,0,0,0.0,0,0,20,0,0,0,-0.0292,95.6255,6.8213,0.4212,54.896885,9.784269,108.3,5.845,1.85,335.95,0.000000,0.000000,0.000000,0.000000
1390063895,0,0,0.0,0,0,20,0,0,0,-0.0292,95.6255,6.8213,0.4212,54.896885,9.784269,108.3,5.845,1.85,335.95,0.000000,0.000000,0.000000,0.000000
1390063895,0,0,0.0,0,0,20,0,0,0,-0.0292,95.6255,6.8213,0.4212,54.896885,9.784269,108.3,5.845,1.85,335.95,0.000000,0.000000,0.000000,0.000000
1390063895,0,0,0.0,0,0,20,0,0,0,-0.0292,95.6255,6.8213,0.4212,54.896885,9.784269,108.3,5.845,1.85,335.95,0.000000,0.000000,0.000000,0.000000
1390063895,0,0,0.0,0,0,20,0,0,0,-0.0292,95.6255,6.8213,0.4212,54.896885,9.784269,108.3,5.845,1.85,335.95,0.000000,0.000000,0.000000,0.000000
1390063896,0,0,0.0,0,0,20,0,0,0,-0.0292,95.6255,6.8213,0.4212,54.896885,9.784269,108.3,5.845,1.85,335.95,0.000000,0.000000,0.000000,0.000000
1390063896,0,0,0.0,0,0,20,0,0,0,-0.0292,95.6255,6.8213,0.4212,54.896885,9.784269,108.3,5.845,1.85,335.95,0.000000,0.000000,0.000000,0.000000
1390063896,0,0,0.0,0,0,20,0,0,0,-0.0292,95.6255,6.8213,0.4212,54.896885,9.784269,108.3,5.845,1.85,335.95,0.000000,0.000000,0.000000,0.000000
1390063896,0,0,0.0,0,0,20,0,0,0,-0.0292,95.6255,6.8213,0.4212,54.896885,9.784269,108.3,5.845,1.85,335.95,0.000000,0.000000,0.000000,0.000000
1390063897,0,0,0.0,0,0,20,0,0,0,-0.0292,95.6255,6.8213,0.4212,54.896885,9.784269,108.3,5.845,1.85,335.95,0.000000,0.000000,0.000000,0.000000
1390063897,4,0,0.0,0,0,20,0,0,0,-0.0292,95.6255,6.8213,0.4212,54.896885,9.784269,108.3,5.845,1.85,335.95,0.000000,0.000000,0.000000,0.000000
1390063897,1,0,0.0,0,-35,16,0,855,50,-0.0292,107.2922,6.8213,0.4212,54.896881,9.784294,108.3,5.845,1.85,335.95,54.895069,9.793790,54.895348,9.797490
1390063897,1,0,0.0,0,-35,12,0,870,100,-0.0292,118.9588,6.8213,0.4212,54.896873,9.784318,108.3,5.845,1.85,335.95,54.895348,9.797490,54.894039,9.801540
1390063898,1,0,0.0,0,-35,8,0,713,150,-0.0292,130.6255,6.8213,0.4212,54.896862,9.784339,108.3,5.845,1.85,335.95,54.894039,9.801540,54.893795,9.802299
1390063898,1,0,0.0,0,-35,4,0,713,200,-0.0292,142.2922,6.8213,0.4212,54.896851,9.784357,108.3,5.845,1.85,335.95,54.893795,9.802299,54.893364,9.803688
1390063898,1,0,0.0,0,-35,0,0,713,250,-0.0292,153.9588,6.8213,0.4212,54.896835,9.784371,108.3,5.845,1.85,335.95,54.893364,9.803688,54.892704,9.801139
1390063898,1,0,0.0,0,-35,-4,0,0,200,-0.0292,165.6255,6.8213,0.4212,54.896820,9.784379,108.3,5.845,1.85,335.95,54.892704,9.801139,54.891663,9.800174
1390063899,1,0,0.0,0,-24,-8,0,0,150,-0.0292,173.6255,6.8213,0.4212,54.896801,9.784383,108.3,5.845,1.85,335.95,54.891663,9.800174,54.892929,9.805077
1390063899,1,0,0.0,0,-16,-12,0,713,200,-0.0292,178.9588,6.8213,0.4212,54.896782,9.784384,108.3,5.845,1.85,335.95,54.892929,9.805077,54.892498,9.806466
1390063899,1,0,0.0,0,-11,-8,0,713,250,-0.0292,182.6255,6.8213,0.4212,54.896763,9.784383,108.3,5.845,1.85,335.95,54.892498,9.806466,54.891232,9.801563
1390063899,1,0,0.0,0,-7,-4,0,713,300,-0.0292,184.9588,6.8213,0.4212,54.896748,9.784380,108.3,5.845,1.85,335.95,54.891232,9.801563,54.890800,9.802953
1390063900,1,0,0.0,0,-5,-8,0,713,350,-0.0292,186.6255,6.8213,0.4212,54.896729,9.784376,108.3,5.845,1.85,335.95,54.890800,9.802953,54.891651,9.806246
1390063900,1,0,0.0,0,-3,-4,0,713,400,-0.0292,187.6255,6.8213,0.4212,54.896709,9.784372,108.3,5.845,1.85,335.95,54.891651,9.806246,54.890560,9.805087
1390063900,1,0,0.0,0,-2,0,0,713,450,-0.0292,188.2922,6.8213,0.4212,54.896694,9.784368,108.3,5.845,1.85,335.95,54.890560,9.805087,54.890366,9.804342
1390063900,1,0,0.0,0,-2,-4,0,713,500,-0.0292,188.9588,6.8213,0.4212,54.896675,9.784363,108.3,5.845,1.85,335.95,54.890366,9.804342,54.890846,9.801930
1390063901,1,0,0.0,0,-1,0,0,713,550,-0.0292,189.2922,6.8213,0.4212,54.896656,9.784357,108.3,5.845,1.85,335.95,54.890846,9.801930,54.889477,9.798280
1390063901,1,0,0.0,0,-1,-4,0,713,600,-0.0292,189.6255,6.8213,0.4212,54.896637,9.784352,108.3,5.845,1.85,335.95,54.889477,9.798280,54.891819,9.794550
1390063901,1,0,0.0,0,0,0,0,713,650,-0.0292,189.6255,6.8213,0.4212,54.896622,9.784348,108.3,5.845,1.85,335.95,54.891819,9.794550,54.895348,9.797490
1390063901,1,0,0.0,0,0,4,0,713,700,-0.0292,189.6255,6.8213,0.4212,54.896603,9.784343,108.3,5.845,1.85,335.95,54.895348,9.797490,54.895069,9.793790
1390063902,1,0,0.0,0,0,0,0,713,750,-0.0292,189.6255,6.8213,0.4212,54.896584,9.784338,108.3,5.845,1.85,335.95,54.895348,9.797490,54.895069,9.793790
1390063902,3,0,0.0,0,0,4,0,713,700,-0.0292,189.6255,6.8213,0.4212,54.896564,9.784333,108.3,5.845,1.85,335.95,54.895348,9.797490,54.896584,9.784338
1390063902,3,0,0.0,0,0,0,0,713,750,-0.0292,189.6255,6.8213,0.4212,54.896549,9.784328,108.3,5.845,1.85,335.95,54.895348,9.797490,54.896584,9.784338
1390063902,3,0,0.0,0,10,4,0,713,700,-0.0292,186.2922,6.8213,0.4212,54.896530,9.784324,108.3,5.845,1.85,335.95,54.895348,9.797490,54.896584,9.784338
1390063903,3,0,0.0,0,6,8,0,713,750,-0.0292,184.2922,6.8213,0.4212,54.896511,9.784321,108.3,5.845,1.85,335.95,54.895348,9.797490,54.896584,9.784338
1390063903,3,0,0.0,0,4,4,0,713,700,-0.0292,182.9588,6.8213,0.4212,54.896492,9.784319,108.3,5.845,1.85,335.95,54.895348,9.797490,54.896584,9.784338
1390063903,3,0,0.0,0,3,0,0,713,750,-0.0292,181.9588,6.8213,0.4212,54.896477,9.784317,108.3,5.845,1.85,335.95,54.895348,9.797490,54.896584,9.784338
1390063903,3,0,0.0,0,2,4,0,713,700,-0.0292,181.2922,6.8213,0.4212,54.896458,9.784316,108.3,5.845,1.85,335.95,54.895348,9.797490,54.896584,9.784338
1390063904,3,0,0.0,0,1,0,0,713,750,-0.0292,180.9588,6.8213,0.4212,54.896439,9.784315,108.3,5.845,1.85,335.95,54.895348,9.797490,54.896584,9.784338
1390063904,3,0,0.0,0,1,4,0,713,700,-0.0292,180.6255,6.8213,0.4212,54.896420,9.784314,108.3,5.845,1.85,335.95,54.895348,9.797490,54.896584,9.784338
1390063904,3,0,0.0,0,1,0,0,713,750,-0.0292,180.2922,6.8213,0.4212,54.896404,9.784314,108.3,5.845,1.85,335.95,54.895348,9.797490,54.896584,9.784338
1390063904,3,0,0.0,0,0,4,0,713,700,-0.0292,180.2922,6.8213,0.4212,54.896385,9.784314,108.3,5.845,1.85,335.95,54.895348,9.797490,54.896584,9.784338
1390063905,3,0,0.0,0,0,0,0,713,750,-0.0292,180.2922,6.8213,0.4212,54.896366,9.784314,108.3,5.845,1.85,335.95,54.895348,9.797490,54.896584,9.784338
1390063905,3,0,0.0,0,0,4,0,713,700,-0.0292,180.2922,6.8213,0.4212,54.896351,9.784314,108.3,5.845,1.85,335.95,54.895348,9.797490,54.896584,9.784338
1390063905,3,0,0.0,0,0,0,0,713,750,-0.0292,180.2922,6.8213,0.4212,54.896332,9.784314,108.3,5.845,1.85,335.95,54.895348,9.797490,54.896584,9.784338
1390063905,3,0,0.0,0,0,4,0,713,700,-0.0292,180.2922,6.8213,0.4212,54.896313,9.784314,108.3,5.845,1.85,335.95,54.895348,9.797490,54.896584,9.784338
1390063906,3,0,0.0,0,0,0,0,713,750,-0.0292,180.2922,6.8213,0.4212,54.896294,9.784314,108.3,5.845,1.85,335.95,54.895348,9.797490,54.896584,9.784338
1390063906,3,0,0.0,0,0,4,0,713,700,-0.0292,180.2922,6.8213,0.4212,54.896278,9.784314,108.3,5.845,1.85,335.95,54.895348,9.797490,54.896584,9.784338
1390063906,3,0,0.0,0,0,0,0,713,750,-0.0292,180.2922,6.8213,0.4212,54.896259,9.784314,108.3,5.845,1.85,335.95,54.895348,9.797490,54.896584,9.784338
1390063906,3,0,0.0,0,0,4,0,713,700,-0.0292,180.2922,6.8213,0.4212,54.896240,9.784314,108.3,5.845,1.85,335.95,54.895348,9.797490,54.896584,9.784338
1390063907,3,0,0.0,0,0,0,0,713,750,-0.0292,180.2922,6.8213,0.4212,54.896221,9.784314,108.3,5.845,1.85,335.95,54.895348,9.797490,54.896584,9.784338
1390063907,3,0,0.0,0,0,4,0,713,700,-0.0292,180.2922,6.8213,0.4212,54.896206,9.784314,108.3,5.845,1.85,335.95,54.895348,9.797490,54.896584,9.784338
1390063907,3,0,0.0,0,0,0,0,713,750,-0.0292,180.2922,6.8213,0.4212,54.896187,9.784314,108.3,5.845,1.85,335.95,54.895348,9.797490,54.896584,9.784338
1390063907,3,0,0.0,0,10,4,0,713,700,-0.0292,176.9589,6.8213,0.4212,54.896168,9.784316,108.3,5.845,1.85,335.95,54.895348,9.797490,54.896584,9.784338
1390063908,3,0,0.0,0,7,8,0,713,750,-0.0292,174.6255,6.8213,0.4212,54.896152,9.784319,108.3,5.845,1.85,335.95,54.895348,9.797490,54.896584,9.784338
1390063908,3,0,0.0,0,5,4,0,713,700,-0.0292,172.9589,6.8213,0.4212,54.896133,9.784323,108.3,5.845,1.85,335.95,54.895348,9.797490,54.896584,9.784338
1390063908,3,0,0.0,0,3,0,0,713,750,-0.0292,171.9589,6.8213,0.4212,54.896114,9.784327,108.3,5.845,1.85,335.95,54.895348,9.797490,54.896584,9.784338
1390063909,3,0,0.0,0,2,4,0,713,700,-0.0292,171.2922,6.8213,0.4212,54.896095,9.784331,108.3,5.845,1.85,335.95,54.895348,9.797490,54.896584,9.784338
1390063909,3,0,0.0,0,1,0,0,713,750,-0.0292,170.9589,6.8213,0.4212,54.896080,9.784336,108.3,5.845,1.85,335.95,54.895348,9.797490,54.896584,9.784338
1390063909,3,0,0.0,0,1,4,0,713,700,-0.0292,170.6255,6.8213,0.4212,54.896061,9.784341,108.3,5.845,1.85,335.95,54.895348,9.797490,54.896584,9.784338
1390063909,3,0,0.0,0,1,0,0,713,750,-0.0292,170.2922,6.8213,0.4212,54.896042,9.784347,108.3,5.845,1.85,335.95,54.895348,9.797490,54.896584,9.784338
1390063910,3,0,0.0,0,0,4,0,713,700,-0.0292,170.2922,6.8213,0.4212,54.896023,9.784352,108.3,5.845,1.85,335.95,54.895348,9.797490,54.896584,9.784338
1390063910,3,0,0.0,0,0,0,0,713,750,-0.0292,170.2922,6.8213,0.4212,54.896008,9.784358,108.3,5.845,1.85,335.95,54.895348,9.797490,54.896584,9.784338
1390063910,3,0,0.0,0,0,4,0,713,700,-0.0292,170.2922,6.8213,0.4212,54.895988,9.784363,108.3,5.845,1.85,335.95,54.895348,9.797490,54.896584,9.784338
1390063910,3,0,0.0,0,0,0,0,713,750,-0.0292,170.2922,6.8213,0.4212,54.895969,9.784368,108.3,5.845,1.85,335.95,54.895348,9.797490,54.896584,9.784338
1390063911,3,0,0.0,0,0,4,0,713,700,-0.0292,170.2922,6.8213,0.4212,54.895950,9.784372,108.3,5.845,1.85,335.95,54.895348,9.797490,54.896584,9.784338
1390063911,3,0,0.0,0,0,0,0,713,750,-0.0292,170.2922,6.8213,0.4212,54.895935,9.784377,108.3,5.845,1.85,335.95,54.895348,9.797490,54.896584,9.784338
1390063911,3,0,0.0,0,0,4,0,713,700,-0.0292,170.2922,6.8213,0.4212,54.895916,9.784382,108.3,5.845,1.85,335.95,54.895348,9.797490,54.896584,9.784338
1390063911,3,0,0.0,0,0,0,0,713,750,-0.0292,170.2922,6.8213,0.4212,54.895897,9.784388,108.3,5.845,1.85,335.95,54.895348,9.797490,54.896584,9.784338
1390063912,3,0,0.0,0,0,4,0,713,700,-0.0292,170.2922,6.8213,0.4212,54.895882,9.784393,108.3,5.845,1.85,335.95,54.895348,9.797490,54.896584,9.784338
1390063912,3,0,0.0,0,0,0,0,713,750,-0.0292,170.2922,6.8213,0.4212,54.895863,9.784399,108.3,5.845,1.85,335.95,54.895348,9.797490,54.896584,9.784338
1390063912,3,0,0.0,0,0,4,0,713,700,-0.0292,170.2922,6.8213,0.4212,54.895844,9.784405,108.3,5.845,1.85,335.95,54.895348,9.797490,54.896584,9.784338
1390063912,3,0,0.0,0,0,0,0,713,750,-0.0292,170.2922,6.8213,0.4212,54.895824,9.784410,108.3,5.845,1.85,335.95,54.895348,9.797490,54.896584,9.784338
1390063913,3,0,0.0,0,10,4,0,713,700,-0.0292,166.9589,6.8213,0.4212,54.895809,9.784416,108.3,5.845,1.85,335.95,54.895348,9.797490,54.896584,9.784338
1390063913,3,0,0.0,0,7,8,0,713,750,-0.0292,164.6255,6.8213,0.4212,54.895790,9.784424,108.3,5.845,1.85,335.95,54.895348,9.797490,54.896584,9.784338
1390063913,3,0,0.0,0,5,4,0,0,700,-0.0292,162.9589,6.8213,0.4212,54.895771,9.784433,108.3,5.845,1.85,335.95,54.895348,9.797490,54.896584,9.784338
1390063913,3,0,0.0,0,3,0,0,0,650,-0.0292,161.9589,6.8213,0.4212,54.895756,9.784443,108.3,5.845,1.85,335.95,54.895348,9.797490,54.896584,9.784338
1390063914,3,0,0.0,0,2,4,0,0,600,-0.0292,161.2922,6.8213,0.4212,54.895741,9.784453,108.3,5.845,1.85,335.95,54.895348,9.797490,54.896584,9.784338
1390063914,3,0,0.0,0,1,0,0,0,550,-0.0292,160.9589,6.8213,0.4212,54.895721,9.784463,108.3,5.845,1.85,335.95,54.895348,9.797490,54.896584,9.784338
1390063914,3,0,0.0,0,1,4,0,0,500,-0.0292,160.6255,6.8213,0.4212,54.895706,9.784473,108.3,5.845,1.85,335.95,54.895348,9.797490,54.896584,9.784338
1390063914,3,0,0.0,0,1,0,0,0,450,-0.0292,160.2922,6.8213,0.4212,54.895691,9.784484,108.3,5.845,1.85,335.95,54.895348,9.797490,54.896584,9.784338
1390063915,3,0,0.0,0,0,4,0,0,400,-0.0292,160.2922,6.8213,0.4212,54.895672,9.784494,108.3,5.845,1.85,335.95,54.895348,9.797490,54.896584,9.784338
1390063915,3,0,0.0,0,0,0,0,0,350,-0.0292,160.2922,6.8213,0.4212,54.895657,9.784505,108.3,5.845,1.85,335.95,54.895348,9.797490,54.896584,9.784338
1390063915,3,0,0.0,0,0,4,0,0,300,-0.0292,160.2922,6.8213,0.4212,54.895641,9.784515,108.3,5.845,1.85,335.95,54.895348,9.797490,54.896584,9.784338
1390063915,3,0,0.0,0,0,0,0,0,250,-0.0292,160.2922,6.8213,0.4212,54.895622,9.784526,108.3,5.845,1.85,335.95,54.895348,9.797490,54.896584,9.784338
1390063916,3,0,0.0,0,0,4,0,0,200,-0.0292,160.2922,6.8213,0.4212,54.895607,9.784536,108.3,5.845,1.85,335.95,54.895348,9.797490,54.896584,9.784338
1390063916,3,0,0.0,0,0,0,0,0,150,-0.0292,160.2922,6.8213,0.4212,54.895592,9.784547,108.3,5.845,1.85,335.95,54.895348,9.797490,54.896584,9.784338
1390063916,3,0,0.0,0,0,4,0,0,100,-0.0292,160.2922,6.8213,0.4212,54.895573,9.784557,108.3,5.845,1.85,335.95,54.895348,9.797490,54.896584,9.784338
1390063916,3,0,0.0,0,0,0,0,0,50,-0.0292,160.2922,6.8213,0.4212,54.895557,9.784568,108.3,5.845,1.85,335.95,54.895348,9.797490,54.896584,9.784338
1390063917,3,0,0.0,0,0,4,0,0,0,-0.0292,160.2922,6.8213,0.4212,54.895542,9.784578,108.3,5.845,1.85,335.95,54.895348,9.797490,54.896584,9.784338
1390063917,3,0,0.0,0,0,0,0,0,0,-0.0292,160.2922,6.8213,0.4212,54.895523,9.784589,108.3,5.845,1.85,335.95,54.895348,9.797490,54.896584,9.784338
1390063917,3,0,0.0,0,0,4,0,0,0,-0.0292,160.2922,6.8213,0.4212,54.895508,9.784599,108.3,5.845,1.85,335.95,54.895348,9.797490,54.896584,9.784338
1390063917,3,0,0.0,0,0,0,0,0,0,-0.0292,160.2922,6.8213,0.4212,54.895493,9.784610,108.3,5.845,1.85,335.95,54.895348,9.797490,54.896584,9.784338
1390063918,3,0,0.0,0,10,4,0,0,0,-0.0292,156.9589,6.8213,0.4212,54.895473,9.784622,108.3,5.845,1.85,335.95,54.895348,9.797490,54.896584,9.784338
1390063918,3,0,0.0,0,7,8,0,0,0,-0.0292,154.6256,6.8213,0.4212,54.895458,9.784635,108.3,5.845,1.85,335.95,54.895348,9.797490,54.896584,9.784338
1390063918,3,0,0.0,0,5,4,0,0,0,-0.0292,152.9589,6.8213,0.4212,54.895443,9.784648,108.3,5.845,1.85,335.95,54.895348,9.797490,54.896584,9.784338
1390063918,3,0,0.0,0,3,0,0,0,0,-0.0292,151.9589,6.8213,0.4212,54.895428,9.784662,108.3,5.845,1.85,335.95,54.895348,9.797490,54.896584,9.784338
1390063919,3,0,0.0,0,2,4,0,0,0,-0.0292,151.2922,6.8213,0.4212,54.895412,9.784677,108.3,5.845,1.85,335.95,54.895348,9.797490,54.896584,9.784338
1390063919,3,0,0.0,0,1,0,0,0,0,-0.0292,150.9589,6.8213,0.4212,54.895401,9.784691,108.3,5.845,1.85,335.95,54.895348,9.797490,54.896584,9.784338
1390063919,3,0,0.0,0,1,4,0,0,0,-0.0292,150.6256,6.8213,0.4212,54.895386,9.784706,108.3,5.845,1.85,335.95,54.895348,9.797490,54.896584,9.784338
1390063919,3,0,0.0,0,1,0,0,0,0,-0.0292,150.2922,6.8213,0.4212,54.895370,9.784720,108.3,5.845,1.85,335.95,54.895348,9.797490,54.896584,9.784338
1390063920,3,0,0.0,0,0,4,0,0,0,-0.0292,150.2922,6.8213,0.4212,54.895355,9.784736,108.3,5.845,1.85,335.95,54.895348,9.797490,54.896584,9.784338
1390063920,3,0,0.0,0,0,0,0,0,0,-0.0292,150.2922,6.8213,0.4212,54.895340,9.784751,108.3,5.845,1.85,335.95,54.895348,9.797490,54.896584,9.784338
1390063920,3,0,0.0,0,0,4,0,0,0,-0.0292,150.2922,6.8213,0.4212,54.895321,9.784765,108.3,5.845,1.85,335.95,54.895348,9.797490,54.896584,9.784338
1390063920,3,0,0.0,0,0,0,0,0,0,-0.0292,150.2922,6.8213,0.4212,54.895306,9.784781,108.3,5.845,1.85,335.95,54.895348,9.797490,54.896584,9.784338
1390063921,3,0,0.0,0,0,4,0,0,0,-0.0292,150.2922,6.8213,0.4212,54.895290,9.784796,108.3,5.845,1.85,335.95,54.895348,9.797490,54.896584,9.784338
1390063921,3,0,0.0,0,0,0,0,0,0,-0.0292,150.2922,6.8213,0.4212,54.895271,9.784810,108.3,5.845,1.85,335.95,54.895348,9.797490,54.896584,9.784338
1390063921,3,0,0.0,0,0,4,0,0,0,-0.0292,150.2922,6.8213,0.4212,54.895256,9.784825,108.3,5.845,1.85,335.95,54.895348,9.797490,54.896584,9.784338
1390063921,3,0,0.0,0,0,0,0,0,0,-0.0292,150.2922,6.8213,0.4212,54.895241,9.784841,108.3,5.845,1.85,335.95,54.895348,9.797490,54.896584,9.784338
1390063922,3,0,0.0,0,0,4,0,0,0,-0.0292,150.2922,6.8213,0.4212,54.895229,9.784855,108.3,5.845,1.85,335.95,54.895348,9.797490,54.896584,9.784338
1390063922,3,0,0.0,0,0,0,0,0,0,-0.0292,150.2922,6.8213,0.4212,54.895214,9.784870,108.3,5.845,1.85,335.95,54.895348,9.797490,54.896584,9.784338
1390063922,3,0,0.0,0,0,4,0,0,0,-0.0292,150.2922,6.8213,0.4212,54.895199,9.784885,108.3,5.845,1.85,335.95,54.895348,9.797490,54.896584,9.784338
1390063922,3,0,0.0,0,0,0,0,0,0,-0.0292,150.2922,6.8213,0.4212,54.895184,9.784901,108.3,5.845,1.85,335.95,54.895348,9.797490,54.896584,9.784338
1390063923,3,0,0.0,0,10,4,0,0,0,-0.0292,146.9589,6.8213,0.4212,54.895168,9.784917,108.3,5.845,1.85,335.95,54.895348,9.797490,54.896584,9.784338
1390063923,3,0,0.0,0,7,8,0,0,0,-0.0292,144.6256,6.8213,0.4212,54.895153,9.784934,108.3,5.845,1.85,335.95,54.895348,9.797490,54.896584,9.784338
1390063923,3,0,0.0,0,5,4,0,713,50,-0.0292,142.9589,6.8213,0.4212,54.895138,9.784952,108.3,5.845,1.85,335.95,54.895348,9.797490,54.896584,9.784338
1390063923,3,0,0.0,0,3,0,0,713,100,-0.0292,141.9589,6.8213,0.4212,54.895126,9.784971,108.3,5.845,1.85,335.95,54.895348,9.797490,54.896584,9.784338
1390063924,3,0,0.0,0,2,4,0,713,150,-0.0292,141.2922,6.8213,0.4212,54.895111,9.784989,108.3,5.845,1.85,335.95,54.895348,9.797490,54.896584,9.784338
1390063924,3,0,0.0,0,1,0,0,713,200,-0.0292,140.9589,6.8213,0.4212,54.895100,9.785008,108.3,5.845,1.85,335.95,54.895348,9.797490,54.896584,9.784338
1390063924,3,0,0.0,0,1,4,0,713,250,-0.0292,140.6256,6.8213,0.4212,54.895084,9.785027,108.3,5.845,1.85,335.95,54.895348,9.797490,54.896584,9.784338
1390063924,3,0,0.0,0,1,0,0,713,300,-0.0292,140.2923,6.8213,0.4212,54.895073,9.785046,108.3,5.845,1.85,335.95,54.895348,9.797490,54.896584,9.784338
1390063925,3,0,0.0,0,0,4,0,713,350,-0.0292,140.2923,6.8213,0.4212,54.895058,9.785064,108.3,5.845,1.85,335.95,54.895348,9.797490,54.896584,9.784338
1390063925,3,0,0.0,0,0,0,0,713,400,-0.0292,140.2923,6.8213,0.4212,54.895046,9.785083,108.3,5.845,1.85,335.95,54.895348,9.797490,54.896584,9.784338
1390063925,3,0,0.0,0,0,4,0,713,450,-0.0292,140.2923,6.8213,0.4212,54.895031,9.785102,108.3,5.845,1.85,335.95,54.895348,9.797490,54.896584,9.784338
1390063925,3,0,0.0,0,0,0,0,713,500,-0.0292,140.2923,6.8213,0.4212,54.895020,9.785121,108.3,5.845,1.85,335.95,54.895348,9.797490,54.896584,9.784338
1390063926,3,0,0.0,0,0,4,0,713,550,-0.0292,140.2923,6.8213,0.4212,54.895008,9.785140,108.3,5.845,1.85,335.95,54.895348,9.797490,54.896584,9.784338
1390063926,3,0,0.0,0,0,0,0,713,600,-0.0292,140.2923,6.8213,0.4212,54.894997,9.785159,108.3,5.845,1.85,335.95,54.895348,9.797490,54.896584,9.784338
1390063926,3,0,0.0,0,0,4,0,713,650,-0.0292,140.2923,6.8213,0.4212,54.894981,9.785178,108.3,5.845,1.85,335.95,54.895348,9.797490,54.896584,9.784338
1390063926,3,0,0.0,0,0,0,0,713,700,-0.0292,140.2923,6.8213,0.4212,54.894966,9.785196,108.3,5.845,1.85,335.95,54.895348,9.797490,54.896584,9.784338
1390063927,3,0,0.0,0,0,4,0,713,750,-0.0292,140.2923,6.8213,0.4212,54.894955,9.785215,108.3,5.845,1.85,335.95,54.895348,9.797490,54.896584,9.784338
1390063927,3,0,0.0,0,0,0,0,713,700,-0.0292,140.2923,6.8213,0.4212,54.894939,9.785233,108.3,5.845,1.85,335.95,54.895348,9.797490,54.896584,9.784338
1390063927,3,0,0.0,0,0,4,0,713,750,-0.0292,140.2923,6.8213,0.4212,54.894928,9.785253,108.3,5.845,1.85,335.95,54.895348,9.797490,54.896584,9.784338
1390063927,3,0,0.0,0,0,0,0,713,700,-0.0292,140.2923,6.8213,0.4212,54.894913,9.785272,108.3,5.845,1.85,335.95,54.895348,9.797490,54.896584,9.784338
1390063928,3,0,0.0,0,10,4,0,713,750,-0.0292,136.9589,6.8213,0.4212,54.894901,9.785292,108.3,5.845,1.85,335.95,54.895348,9.797490,54.896584,9.784338
1390063928,3,0,0.0,0,7,8,0,713,700,-0.0292,134.6256,6.8213,0.4212,54.894890,9.785313,108.3,5.845,1.85,335.95,54.895348,9.797490,54.896584,9.784338
1390063928,3,0,0.0,0,5,4,0,713,750,-0.0292,132.9589,6.8213,0.4212,54.894878,9.785334,108.3,5.845,1.85,335.95,54.895348,9.797490,54.896584,9.784338
1390063928,3,0,0.0,0,3,0,0,713,700,-0.0292,131.9589,6.8213,0.4212,54.894867,9.785356,108.3,5.845,1.85,335.95,54.895348,9.797490,54.896584,9.784338
1390063929,3,0,0.0,0,2,4,0,713,750,-0.0292,131.2923,6.8213,0.4212,54.894855,9.785377,108.3,5.845,1.85,335.95,54.895348,9.797490,54.896584,9.784338
1390063929,3,0,0.0,0,1,0,0,713,700,-0.0292,130.9589,6.8213,0.4212,54.894844,9.785398,108.3,5.845,1.85,335.95,54.895348,9.797490,54.896584,9.784338
1390063929,3,0,0.0,0,1,4,0,713,750,-0.0292,130.6256,6.8213,0.4212,54.894836,9.785420,108.3,5.845,1.85,335.95,54.895348,9.797490,54.896584,9.784338
1390063929,3,0,0.0,0,1,0,0,713,700,-0.0292,130.2923,6.8213,0.4212,54.894825,9.785442,108.3,5.845,1.85,335.95,54.895348,9.797490,54.896584,9.784338
1390063930,3,0,0.0,0,0,4,0,713,750,-0.0292,130.2923,6.8213,0.4212,54.894814,9.785464,108.3,5.845,1.85,335.95,54.895348,9.797490,54.896584,9.784338
1390063930,3,0,0.0,0,0,0,0,713,700,-0.0292,130.2923,6.8213,0.4212,54.894802,9.785486,108.3,5.845,1.85,335.95,54.895348,9.797490,54.896584,9.784338
1390063930,3,0,0.0,0,0,4,0,713,750,-0.0292,130.2923,6.8213,0.4212,54.894791,9.785508,108.3,5.845,1.85,335.95,54.895348,9.797490,54.896584,9.784338
1390063930,3,0,0.0,0,0,0,0,713,700,-0.0292,130.2923,6.8213,0.4212,54.894779,9.785530,108.3,5.845,1.85,335.95,54.895348,9.797490,54.896584,9.784338
1390063931,3,0,0.0,0,0,4,0,713,750,-0.0292,130.2923,6.8213,0.4212,54.894768,9.785552,108.3,5.845,1.85,335.95,54.895348,9.797490,54.896584,9.784338
1390063931,3,0,0.0,0,0,0,0,713,700,-0.0292,130.2923,6.8213,0.4212,54.894756,9.785574,108.3,5.845,1.85,335.95,54.895348,9.797490,54.896584,9.784338
1390063931,3,0,0.0,0,0,4,0,713,750,-0.0292,130.2923,6.8213,0.4212,54.894745,9.785596,108.3,5.845,1.85,335.95,54.895348,9.797490,54.896584,9.784338
1390063931,3,0,0.0,0,0,0,0,713,700,-0.0292,130.2923,6.8213,0.4212,54.894737,9.785618,108.3,5.845,1.85,335.95,54.895348,9.797490,54.896584,9.784338
1390063932,3,0,0.0,0,0,4,0,713,750,-0.0292,130.2923,6.8213,0.4212,54.894726,9.785640,108.3,5.845,1.85,335.95,54.895348,9.797490,54.896584,9.784338
1390063932,3,0,0.0,0,0,0,0,713,700,-0.0292,130.2923,6.8213,0.4212,54.894714,9.785662,108.3,5.845,1.85,335.95,54.895348,9.797490,54.896584,9.784338
1390063932,3,0,0.0,0,0,4,0,713,750,-0.0292,130.2923,6.8213,0.4212,54.894703,9.785684,108.3,5.845,1.85,335.95,54.895348,9.797490,54.896584,9.784338
1390063932,3,0,0.0,0,0,0,0,713,700,-0.0292,130.2923,6.8213,0.4212,54.894691,9.785706,108.3,5.845,1.85,335.95,54.895348,9.797490,54.896584,9.784338
1390063933,3,0,0.0,0,10,4,0,713,750,-0.0292,126.9589,6.8213,0.4212,54.894684,9.785728,108.3,5.845,1.85,335.95,54.895348,9.797490,54.896584,9.784338
1390063933,3,0,0.0,0,7,8,0,713,700,-0.0292,124.6256,6.8213,0.4212,54.894672,9.785752,108.3,5.845,1.85,335.95,54.895348,9.797490,54.896584,9.784338
1390063933,3,0,0.0,0,5,4,0,713,750,-0.0292,122.9589,6.8213,0.4212,54.894665,9.785776,108.3,5.845,1.85,335.95,54.895348,9.797490,54.896584,9.784338
1390063933,3,0,0.0,0,3,0,0,713,700,-0.0292,121.9589,6.8213,0.4212,54.894657,9.785799,108.3,5.845,1.85,335.95,54.895348,9.797490,54.896584,9.784338
1390063934,3,0,0.0,0,2,4,0,713,750,-0.0292,121.2923,6.8213,0.4212,54.894650,9.785823,108.3,5.845,1.85,335.95,54.895348,9.797490,54.896584,9.784338
1390063934,3,0,0.0,0,1,0,0,713,700,-0.0292,120.9589,6.8213,0.4212,54.894642,9.785847,108.3,5.845,1.85,335.95,54.895348,9.797490,54.896584,9.784338
1390063934,3,0,0.0,0,1,4,0,713,750,-0.0292,120.6256,6.8213,0.4212,54.894634,9.785871,108.3,5.845,1.85,335.95,54.895348,9.797490,54.896584,9.784338
1390063934,3,0,0.0,0,1,0,0,713,700,-0.0292,120.2923,6.8213,0.4212,54.894627,9.785894,108.3,5.845,1.85,335.95,54.895348,9.797490,54.896584,9.784338
1390063935,3,0,0.0,0,0,4,0,713,750,-0.0292,120.2923,6.8213,0.4212,54.894615,9.785918,108.3,5.845,1.85,335.95,54.895348,9.797490,54.896584,9.784338
1390063935,3,0,0.0,0,0,0,0,713,700,-0.0292,120.2923,6.8213,0.4212,54.894608,9.785942,108.3,5.845,1.85,335.95,54.895348,9.797490,54.896584,9.784338
1390063935,3,0,0.0,0,0,4,0,713,750,-0.0292,120.2923,6.8213,0.4212,54.894600,9.785966,108.3,5.845,1.85,335.95,54.895348,9.797490,54.896584,9.784338
1390063935,3,0,0.0,0,0,0,0,713,700,-0.0292,120.2923,6.8213,0.4212,54.894592,9.785990,108.3,5.845,1.85,335.95,54.895348,9.797490,54.896584,9.784338
1390063936,3,0,0.0,0,0,4,0,713,750,-0.0292,120.2923,6.8213,0.4212,54.894585,9.786014,108.3,5.845,1.85,335.95,54.895348,9.797490,54.896584,9.784338
1390063936,3,0,0.0,0,0,0,0,713,700,-0.0292,120.2923,6.8213,0.4212,54.894577,9.786037,108.3,5.845,1.85,335.95,54.895348,9.797490,54.896584,9.784338
1390063936,3,0,0.0,0,0,4,0,713,750,-0.0292,120.2923,6.8213,0.4212,54.894566,9.786061,108.3,5.845,1.85,335.95,54.895348,9.797490,54.896584,9.784338
1390063936,3,0,0.0,0,0,0,0,713,700,-0.0292,120.2923,6.8213,0.4212,54.894558,9.786085,108.3,5.845,1.85,335.95,54.895348,9.797490,54.896584,9.784338
1390063937,3,0,0.0,0,0,4,0,713,750,-0.0292,120.2923,6.8213,0.4212,54.894550,9.786109,108.3,5.845,1.85,335.95,54.895348,9.797490,54.896584,9.784338
1390063937,3,0,0.0,0,0,0,0,713,700,-0.0292,120.2923,6.8213,0.4212,54.894543,9.786133,108.3,5.845,1.85,335.95,54.895348,9.797490,54.896584,9.784338
1390063937,3,0,0.0,0,0,4,0,713,750,-0.0292,120.2923,6.8213,0.4212,54.894535,9.786157,108.3,5.845,1.85,335.95,54.895348,9.797490,54.896584,9.784338
1390063937,3,0,0.0,0,0,0,0,713,700,-0.0292,120.2923,6.8213,0.4212,54.894527,9.786180,108.3,5.845,1.85,335.95,54.895348,9.797490,54.896584,9.784338
1390063938,3,0,0.0,0,10,4,0,713,750,-0.0292,116.9589,6.8213,0.4212,54.894524,9.786204,108.3,5.845,1.85,335.95,54.895348,9.797490,54.896584,9.784338
1390063938,3,0,0.0,0,7,8,0,713,700,-0.0292,114.6256,6.8213,0.4212,54.894520,9.786228,108.3,5.845,1.85,335.95,54.895348,9.797490,54.896584,9.784338
1390063938,3,0,0.0,0,5,4,0,713,750,-0.0292,112.9589,6.8213,0.4212,54.894516,9.786253,108.3,5.845,1.85,335.95,54.895348,9.797490,54.896584,9.784338
1390063938,3,0,0.0,0,3,0,0,713,700,-0.0292,111.9589,6.8213,0.4212,54.894512,9.786278,108.3,5.845,1.85,335.95,54.895348,9.797490,54.896584,9.784338
1390063939,3,0,0.0,0,2,4,0,713,750,-0.0292,111.2923,6.8213,0.4212,54.894505,9.786303,108.3,5.845,1.85,335.95,54.895348,9.797490,54.896584,9.784338
1390063939,3,0,0.0,0,1,0,0,713,700,-0.0292,110.9589,6.8213,0.4212,54.894497,9.786327,108.3,5.845,1.85,335.95,54.895348,9.797490,54.896584,9.784338
1390063939,3,0,0.0,0,1,4,0,713,750,-0.0292,110.6256,6.8213,0.4212,54.894493,9.786352,108.3,5.845,1.85,335.95,54.895348,9.797490,54.896584,9.784338
1390063939,3,0,0.0,0,1,0,0,870,800,-0.0292,110.2923,6.8213,0.4212,54.894489,9.786377,108.3,5.845,1.85,335.95,54.895348,9.797490,54.896584,9.784338
1390063940,3,0,0.0,0,0,4,0,870,850,-0.0292,110.2923,6.8213,0.4212,54.894485,9.786402,108.3,5.845,1.85,335.95,54.895348,9.797490,54.896584,9.784338
1390063940,3,0,0.0,0,0,0,0,870,900,-0.0292,110.2923,6.8213,0.4212,54.894478,9.786427,108.3,5.845,1.85,335.95,54.895348,9.797490,54.896584,9.784338
1390063940,3,0,0.0,0,0,4,0,870,850,-0.0292,110.2923,6.8213,0.4212,54.894474,9.786451,108.3,5.845,1.85,335.95,54.895348,9.797490,54.896584,9.784338
1390063940,3,0,0.0,0,0,0,0,870,900,-0.0292,110.2923,6.8213,0.4212,54.894470,9.786476,108.3,5.845,1.85,335.95,54.895348,9.797490,54.896584,9.784338
1390063941,3,0,0.0,0,0,4,0,870,850,-0.0292,110.2923,6.8213,0.4212,54.894466,9.786501,108.3,5.845,1.85,335.95,54.895348,9.797490,54.896584,9.784338
1390063941,3,0,0.0,0,0,0,0,870,900,-0.0292,110.2923,6.8213,0.4212,54.894463,9.786526,108.3,5.845,1.85,335.95,54.895348,9.797490,54.896584,9.784338
1390063941,3,0,0.0,0,0,4,0,870,850,-0.0292,110.2923,6.8213,0.4212,54.894455,9.786551,108.3,5.845,1.85,335.95,54.895348,9.797490,54.896584,9.784338
1390063941,3,0,0.0,0,0,0,0,870,900,-0.0292,110.2923,6.8213,0.4212,54.894447,9.786575,108.3,5.845,1.85,335.95,54.895348,9.797490,54.896584,9.784338
1390063942,3,0,0.0,0,0,4,0,870,850,-0.0292,110.2923,6.8213,0.4212,54.894444,9.786600,108.3,5.845,1.85,335.95,54.895348,9.797490,54.896584,9.784338
1390063942,3,0,0.0,0,0,0,0,870,900,-0.0292,110.2923,6.8213,0.4212,54.894440,9.786625,108.3,5.845,1.85,335.95,54.895348,9.797490,54.896584,9.784338
1390063942,3,0,0.0,0,0,4,0,870,850,-0.0292,110.2923,6.8213,0.4212,54.894436,9.786650,108.3,5.845,1.85,335.95,54.895348,9.797490,54.896584,9.784338
1390063942,3,0,0.0,0,0,0,0,870,900,-0.0292,110.2923,6.8213,0.4212,54.894428,9.786674,108.3,5.845,1.85,335.95,54.895348,9.797490,54.896584,9.784338
1390063943,3,0,0.0,0,10,4,0,870,850,-0.0292,106.9589,6.8213,0.4212,54.894424,9.786699,108.3,5.845,1.85,335.95,54.895348,9.797490,54.896584,9.784338
1390063943,3,0,0.0,0,7,8,0,870,900,-0.0292,104.6256,6.8213,0.4212,54.894421,9.786724,108.3,5.845,1.85,335.95,54.895348,9.797490,54.896584,9.784338
1390063943,3,0,0.0,0,5,4,0,870,850,-0.0292,102.9589,6.8213,0.4212,54.894417,9.786749,108.3,5.845,1.85,335.95,54.895348,9.797490,54.896584,9.784338
1390063943,3,0,0.0,0,3,0,0,870,900,-0.0292,101.9589,6.8213,0.4212,54.894413,9.786774,108.3,5.845,1.85,335.95,54.895348,9.797490,54.896584,9.784338
1390063944,3,0,0.0,0,2,4,0,870,850,-0.0292,101.2923,6.8213,0.4212,54.894409,9.786798,108.3,5.845,1.85,335.95,54.895348,9.797490,54.896584,9.784338
1390063944,3,0,0.0,0,1,0,0,870,900,-0.0292,100.9589,6.8213,0.4212,54.894405,9.786823,108.3,5.845,1.85,335.95,54.895348,9.797490,54.896584,9.784338
1390063944,3,0,0.0,0,1,4,0,870,850,-0.0292,100.6256,6.8213,0.4212,54.894402,9.786848,108.3,5.845,1.85,335.95,54.895348,9.797490,54.896584,9.784338
1390063945,3,0,0.0,0,1,0,0,870,900,-0.0292,100.2922,6.8213,0.4212,54.894402,9.786872,108.3,5.845,1.85,335.95,54.895348,9.797490,54.896584,9.784338
1390063945,3,0,0.0,0,0,4,0,870,850,-0.0292,100.2922,6.8213,0.4212,54.894402,9.786897,108.3,5.845,1.85,335.95,54.895348,9.797490,54.896584,9.784338
1390063945,3,0,0.0,0,0,0,0,870,900,-0.0292,100.2922,6.8213,0.4212,54.894402,9.786921,108.3,5.845,1.85,335.95,54.895348,9.797490,54.896584,9.784338
1390063945,3,0,0.0,0,0,4,0,870,850,-0.0292,100.2922,6.8213,0.4212,54.894402,9.786945,108.3,5.845,1.85,335.95,54.895348,9.797490,54.896584,9.784338
1390063946,3,0,0.0,0,0,0,0,870,900,-0.0292,100.2922,6.8213,0.4212,54.894402,9.786970,108.3,5.845,1.85,335.95,54.895348,9.797490,54.896584,9.784338
1390063946,3,0,0.0,0,0,4,0,870,850,-0.0292,100.2922,6.8213,0.4212,54.894402,9.786995,108.3,5.845,1.85,335.95,54.895348,9.797490,54.896584,9.784338
1390063946,3,0,0.0,0,0,0,0,870,900,-0.0292,100.2922,6.8213,0.4212,54.894402,9.787020,108.3,5.845,1.85,335.95,54.895348,9.797490,54.896584,9.784338
1390063946,3,0,0.0,0,0,4,0,870,850,-0.0292,100.2922,6.8213,0.4212,54.894402,9.787044,108.3,5.845,1.85,335.95,54.895348,9.797490,54.896584,9.784338
1390063947,3,0,0.0,0,0,0,0,870,900,-0.0292,100.2922,6.8213,0.4212,54.894402,9.787068,108.3,5.845,1.85,335.95,54.895348,9.797490,54.896584,9.784338
1390063947,3,0,0.0,0,0,4,0,870,850,-0.0292,100.2922,6.8213,0.4212,54.894402,9.787092,108.3,5.845,1.85,335.95,54.895348,9.797490,54.896584,9.784338
1390063947,3,0,0.0,0,0,0,0,870,900,-0.0292,100.2922,6.8213,0.4212,54.894402,9.787117,108.3,5.845,1.85,335.95,54.895348,9.797490,54.896584,9.784338
1390063947,3,0,0.0,0,0,4,0,870,850,-0.0292,100.2922,6.8213,0.4212,54.894402,9.787142,108.3,5.845,1.85,335.95,54.895348,9.797490,54.896584,9.784338
1390063948,3,0,0.0,0,0,0,0,870,900,-0.0292,100.2922,6.8213,0.4212,54.894402,9.787167,108.3,5.845,1.85,335.95,54.895348,9.797490,54.896584,9.784338
1390063948,3,0,0.0,0,10,4,0,870,850,-0.0292,96.9589,6.8213,0.4212,54.894402,9.787190,108.3,5.845,1.85,335.95,54.895348,9.797490,54.896584,9.784338
1390063948,3,0,0.0,0,7,8,0,870,900,-0.0292,94.6256,6.8213,0.4212,54.894402,9.787214,108.3,5.845,1.85,335.95,54.895348,9.797490,54.896584,9.784338
1390063948,3,0,0.0,0,5,4,0,840,850,-0.0292,92.9589,6.8213,0.4212,54.894402,9.787238,108.3,5.845,1.85,335.95,54.895348,9.797490,54.896584,9.784338
1390063949,3,0,0.0,0,3,0,0,817,800,-0.0292,91.9589,6.8213,0.4212,54.894402,9.787261,108.3,5.845,1.85,335.95,54.895348,9.797490,54.896584,9.784338
1390063949,3,0,0.0,0,2,4,0,802,850,-0.0292,91.2922,6.8213,0.4212,54.894402,9.787285,108.3,5.845,1.85,335.95,54.895348,9.797490,54.896584,9.784338
1390063949,3,0,0.0,0,1,0,0,793,800,-0.0292,90.9589,6.8213,0.4212,54.894402,9.787308,108.3,5.845,1.85,335.95,54.895348,9.797490,54.896584,9.784338
1390063949,3,0,0.0,0,1,4,0,788,750,-0.0292,90.6256,6.8213,0.4212,54.894402,9.787332,108.3,5.845,1.85,335.95,54.895348,9.797490,54.896584,9.784338
1390063950,3,0,0.0,0,1,0,0,783,800,-0.0292,90.2922,6.8213,0.4212,54.894402,9.787354,108.3,5.845,1.85,335.95,54.895348,9.797490,54.896584,9.784338
1390063950,3,0,0.0,0,0,4,0,778,750,-0.0292,90.2922,6.8213,0.4212,54.894402,9.787378,108.3,5.845,1.85,335.95,54.895348,9.797490,54.896584,9.784338
1390063950,3,0,0.0,0,0,0,0,778,800,-0.0292,90.2922,6.8213,0.4212,54.894402,9.787401,108.3,5.845,1.85,335.95,54.895348,9.797490,54.896584,9.784338
1390063950,3,0,0.0,0,0,4,0,778,750,-0.0292,90.2922,6.8213,0.4212,54.894402,9.787425,108.3,5.845,1.85,335.95,54.895348,9.797490,54.896584,9.784338
1390063951,3,0,0.0,0,0,0,0,778,800,-0.0292,90.2922,6.8213,0.4212,54.894402,9.787448,108.3,5.845,1.85,335.95,54.895348,9.797490,54.896584,9.784338
1390063951,3,0,0.0,0,0,4,0,778,750,-0.0292,90.2922,6.8213,0.4212,54.894402,9.787471,108.3,5.845,1.85,335.95,54.895348,9.797490,54.896584,9.784338
1390063951,3,0,0.0,0,0,0,0,778,800,-0.0292,90.2922,6.8213,0.4212,54.894402,9.787495,108.3,5.845,1.85,335.95,54.895348,9.797490,54.896584,9.784338
1390063951,3,0,0.0,0,0,4,0,778,750,-0.0292,90.2922,6.8213,0.4212,54.894402,9.787518,108.3,5.845,1.85,335.95,54.895348,9.797490,54.896584,9.784338
1390063952,3,0,0.0,0,0,0,0,778,800,-0.0292,90.2922,6.8213,0.4212,54.894402,9.787541,108.3,5.845,1.85,335.95,54.895348,9.797490,54.896584,9.784338
1390063952,3,0,0.0,0,0,4,0,778,750,-0.0292,90.2922,6.8213,0.4212,54.894402,9.787564,108.3,5.845,1.85,335.95,54.895348,9.797490,54.896584,9.784338
1390063952,3,0,0.0,0,0,0,0,778,800,-0.0292,90.2922,6.8213,0.4212,54.894402,9.787588,108.3,5.845,1.85,335.95,54.895348,9.797490,54.896584,9.784338
1390063952,3,0,0.0,0,0,4,0,778,750,-0.0292,90.2922,6.8213,0.4212,54.894402,9.787611,108.3,5.845,1.85,335.95,54.895348,9.797490,54.896584,9.784338
1390063953,3,0,0.0,0,0,0,0,778,800,-0.0292,90.2922,6.8213,0.4212,54.894402,9.787635,108.3,5.845,1.85,335.95,54.895348,9.797490,54.896584,9.784338
1390063953,3,0,0.0,0,10,4,0,778,750,-0.0292,86.9589,6.8213,0.4212,54.894405,9.787658,108.3,5.845,1.85,335.95,54.895348,9.797490,54.896584,9.784338
1390063953,3,0,0.0,0,7,8,0,729,700,-0.0292,84.6256,6.8213,0.4212,54.894405,9.787681,108.3,5.845,1.85,335.95,54.895348,9.797490,54.896584,9.784338
1390063953,3,0,0.0,0,5,4,0,693,650,-0.0292,82.9589,6.8213,0.4212,54.894405,9.787703,108.3,5.845,1.85,335.95,54.895348,9.797490,54.896584,9.784338
1390063954,3,0,0.0,0,3,0,0,668,700,-0.0292,81.9589,6.8213,0.4212,54.894405,9.787724,108.3,5.845,1.85,335.95,54.895348,9.797490,54.896584,9.784338
1390063954,3,0,0.0,0,2,4,0,652,650,-0.0292,81.2922,6.8213,0.4212,54.894405,9.787745,108.3,5.845,1.85,335.95,54.895348,9.797490,54.896584,9.784338
1390063954,3,0,0.0,0,1,0,0,642,600,-0.0292,80.9589,6.8213,0.4212,54.894405,9.787766,108.3,5.845,1.85,335.95,54.895348,9.797490,54.896584,9.784338
1390063954,3,0,0.0,0,1,4,0,637,650,-0.0292,80.6256,6.8213,0.4212,54.894405,9.787786,108.3,5.845,1.85,335.95,54.895348,9.797490,54.896584,9.784338
1390063955,3,0,0.0,0,1,0,0,632,600,-0.0292,80.2922,6.8213,0.4212,54.894405,9.787808,108.3,5.845,1.85,335.95,54.895348,9.797490,54.896584,9.784338
1390063955,3,0,0.0,0,0,4,0,627,650,-0.0292,80.2922,6.8213,0.4212,54.894405,9.787829,108.3,5.845,1.85,335.95,54.895348,9.797490,54.896584,9.784338
1390063955,3,0,0.0,0,0,0,0,627,600,-0.0292,80.2922,6.8213,0.4212,54.894405,9.787851,108.3,5.845,1.85,335.95,54.895348,9.797490,54.896584,9.784338
1390063955,3,0,0.0,0,0,4,0,627,650,-0.0292,80.2922,6.8213,0.4212,54.894405,9.787872,108.3,5.845,1.85,335.95,54.895348,9.797490,54.896584,9.784338
1390063956,3,0,0.0,0,0,0,0,627,600,-0.0292,80.2922,6.8213,0.4212,54.894405,9.787894,108.3,5.845,1.85,335.95,54.895348,9.797490,54.896584,9.784338
1390063956,3,0,0.0,0,0,4,0,627,650,-0.0292,80.2922,6.8213,0.4212,54.894405,9.787915,108.3,5.845,1.85,335.95,54.895348,9.797490,54.896584,9.784338
1390063956,3,0,0.0,0,0,0,0,627,600,-0.0292,80.2922,6.8213,0.4212,54.894405,9.787937,108.3,5.845,1.85,335.95,54.895348,9.797490,54.896584,9.784338
1390063956,3,0,0.0,0,0,4,0,627,650,-0.0292,80.2922,6.8213,0.4212,54.894405,9.787958,108.3,5.845,1.85,335.95,54.895348,9.797490,54.896584,9.784338
1390063957,3,0,0.0,0,0,0,0,627,600,-0.0292,80.2922,6.8213,0.4212,54.894405,9.787980,108.3,5.845,1.85,335.95,54.895348,9.797490,54.896584,9.784338
1390063957,3,0,0.0,0,0,4,0,627,650,-0.0292,80.2922,6.8213,0.4212,54.894405,9.788001,108.3,5.845,1.85,335.95,54.895348,9.797490,54.896584,9.784338
1390063957,3,0,0.0,0,0,0,0,627,600,-0.0292,80.2922,6.8213,0.4212,54.894405,9.788023,108.3,5.845,1.85,335.95,54.895348,9.797490,54.896584,9.784338
1390063957,3,0,0.0,0,0,4,0,627,650,-0.0292,80.2922,6.8213,0.4212,54.894405,9.788044,108.3,5.845,1.85,335.95,54.895348,9.797490,54.896584,9.784338
1390063958,3,0,0.0,0,0,0,0,627,600,-0.0292,80.2922,6.8213,0.4212,54.894405,9.788066,108.3,5.845,1.85,335.95,54.895348,9.797490,54.896584,9.784338
1390063958,3,0,0.0,0,10,4,0,627,650,-0.0292,76.9589,6.8213,0.4212,54.894405,9.788086,108.3,5.845,1.85,335.95,54.895348,9.797490,54.896584,9.784338
1390063958,3,0,0.0,0,7,8,0,574,600,-0.0292,74.6256,6.8213,0.4212,54.894405,9.788106,108.3,5.845,1.85,335.95,54.895348,9.797490,54.896584,9.784338
1390063958,3,0,0.0,0,5,4,0,538,550,-0.0292,72.9589,6.8213,0.4212,54.894405,9.788125,108.3,5.845,1.85,335.95,54.895348,9.797490,54.896584,9.784338
1390063959,3,0,0.0,0,3,0,0,511,500,-0.0292,71.9589,6.8213,0.4212,54.894405,9.788144,108.3,5.845,1.85,335.95,54.895348,9.797490,54.896584,9.784338
1390063959,3,0,0.0,0,2,4,0,495,450,-0.0292,71.2922,6.8213,0.4212,54.894405,9.788162,108.3,5.845,1.85,335.95,54.895348,9.797490,54.896584,9.784338
1390063959,3,0,0.0,0,1,0,0,485,500,-0.0292,70.9589,6.8213,0.4212,54.894405,9.788181,108.3,5.845,1.85,335.95,54.895348,9.797490,54.896584,9.784338
1390063959,3,0,0.0,0,1,4,0,479,450,-0.0292,70.6256,6.8213,0.4212,54.894405,9.788199,108.3,5.845,1.85,335.95,54.895348,9.797490,54.896584,9.784338
1390063960,3,0,0.0,0,1,0,0,474,500,-0.0292,70.2922,6.8213,0.4212,54.894405,9.788218,108.3,5.845,1.85,335.95,54.895348,9.797490,54.896584,9.784338
1390063960,3,0,0.0,0,0,4,0,469,450,-0.0292,70.2922,6.8213,0.4212,54.894405,9.788236,108.3,5.845,1.85,335.95,54.895348,9.797490,54.896584,9.784338
1390063960,3,0,0.0,0,0,0,0,469,500,-0.0292,70.2922,6.8213,0.4212,54.894405,9.788254,108.3,5.845,1.85,335.95,54.895348,9.797490,54.896584,9.784338
1390063960,3,0,0.0,0,0,4,0,469,450,-0.0292,70.2922,6.8213,0.4212,54.894405,9.788273,108.3,5.845,1.85,335.95,54.895348,9.797490,54.896584,9.784338
1390063961,3,0,0.0,0,0,0,0,469,500,-0.0292,70.2922,6.8213,0.4212,54.894405,9.788291,108.3,5.845,1.85,335.95,54.895348,9.797490,54.896584,9.784338
1390063961,3,0,0.0,0,0,4,0,469,450,-0.0292,70.2922,6.8213,0.4212,54.894405,9.788309,108.3,5.845,1.85,335.95,54.895348,9.797490,54.896584,9.784338
