MCU_timestamp,Navigation_System,Manual_Control,Guidance_Heading,Manual_Ctrl_Rudder,Rudder_Desired_Angle,Rudder_Feedback,Manual_Ctrl_Sail,Sail_Desired_Pos,Sail_Feedback,Rate,Heading,Pitch,Roll,Latitude,Longitude,COG,SOG,Wind_Speed,Wind_Angle,Point_Start_Lat,Point_Start_Lon,Point_End_Lat,Point_End_Lon
1386789050,0,0,0.0,0,0,0,0,0,0,-0.0292,254.8241,6.8213,0.4212,54.892891,9.802320,108.3,5.845,1.85,335.95,0.000000,0.000000,0.000000,0.000000
1386789051,0,0,0.0,0,0,0,0,0,0,-0.0292,254.8241,6.8213,0.4212,54.892891,9.802320,108.3,5.845,1.85,335.95,0.000000,0.000000,0.000000,0.000000
1386789051,0,0,0.0,0,0,0,0,0,0,-0.0292,254.8241,6.8213,0.4212,54.892891,9.802320,108.3,5.845,1.85,335.95,0.000000,0.000000,0.000000,0.000000
1386789051,0,0,0.0,0,0,0,0,0,0,-0.0292,254.8241,6.8213,0.4212,54.892891,9.802320,108.3,5.845,1.85,335.95,0.000000,0.000000,0.000000,0.000000
1386789051,0,0,0.0,0,0,0,0,0,0,-0.0292,254.8241,6.8213,0.4212,54.892891,9.802320,108.3,5.845,1.85,335.95,0.000000,0.000000,0.000000,0.000000
1386789052,0,0,0.0,0,0,0,0,0,0,-0.0292,254.8241,6.8213,0.4212,54.892891,9.802320,108.3,5.845,1.85,335.95,0.000000,0.000000,0.000000,0.000000
1386789052,0,0,0.0,0,0,0,0,0,0,-0.0292,254.8241,6.8213,0.4212,54.892891,9.802320,108.3,5.845,1.85,335.95,0.000000,0.000000,0.000000,0.000000
1386789052,0,0,0.0,0,0,0,0,0,0,-0.0292,254.8241,6.8213,0.4212,54.892891,9.802320,108.3,5.845,1.85,335.95,0.000000,0.000000,0.000000,0.000000
1386789052,0,0,0.0,0,0,0,0,0,0,-0.0292,254.8241,6.8213,0.4212,54.892891,9.802320,108.3,5.845,1.85,335.95,0.000000,0.000000,0.000000,0.000000
1386789053,0,0,0.0,0,0,0,0,0,0,-0.0292,254.8241,6.8213,0.4212,54.892891,9.802320,108.3,5.845,1.85,335.95,0.000000,0.000000,0.000000,0.000000
1386789053,0,0,0.0,0,0,0,0,0,0,-0.0292,254.8241,6.8213,0.4212,54.892891,9.802320,108.3,5.845,1.85,335.95,0.000000,0.000000,0.000000,0.000000
1386789053,0,0,0.0,0,0,0,0,0,0,-0.0292,254.8241,6.8213,0.4212,54.892891,9.802320,108.3,5.845,1.85,335.95,0.000000,0.000000,0.000000,0.000000
1386789053,0,0,0.0,0,0,0,0,0,0,-0.0292,254.8241,6.8213,0.4212,54.892891,9.802320,108.3,5.845,1.85,335.95,0.000000,0.000000,0.000000,0.000000
1386789054,0,0,0.0,0,0,0,0,0,0,-0.0292,254.8241,6.8213,0.4212,54.892891,9.802320,108.3,5.845,1.85,335.95,0.000000,0.000000,0.000000,0.000000
1386789054,0,0,0.0,0,0,0,0,0,0,-0.0292,254.8241,6.8213,0.4212,54.892891,9.802320,108.3,5.845,1.85,335.95,0.000000,0.000000,0.000000,0.000000
1386789054,0,0,0.0,0,0,0,0,0,0,-0.0292,254.8241,6.8213,0.4212,54.892891,9.802320,108.3,5.845,1.85,335.95,0.000000,0.000000,0.000000,0.000000
1386789054,0,0,0.0,0,0,0,0,0,0,-0.0292,254.8241,6.8213,0.4212,54.892891,9.802320,108.3,5.845,1.85,335.95,0.000000,0.000000,0.000000,0.000000
1386789055,0,0,0.0,0,0,0,0,0,0,-0.0292,254.8241,6.8213,0.4212,54.892891,9.802320,108.3,5.845,1.85,335.95,0.000000,0.000000,0.000000,0.000000
1386789055,0,0,0.0,0,0,0,0,0,0,-0.0292,254.8241,6.8213,0.4212,54.892891,9.802320,108.3,5.845,1.85,335.95,0.000000,0.000000,0.000000,0.000000
1386789055,0,0,0.0,0,0,0,0,0,0,-0.0292,254.8241,6.8213,0.4212,54.892891,9.802320,108.3,5.845,1.85,335.95,0.000000,0.000000,0.000000,0.000000
1386789055,0,0,0.0,0,0,0,0,0,0,-0.0292,254.8241,6.8213,0.4212,54.892891,9.802320,108.3,5.845,1.85,335.95,0.000000,0.000000,0.000000,0.000000
1386789056,0,0,0.0,0,0,0,0,0,0,-0.0292,254.8241,6.8213,0.4212,54.892891,9.802320,108.3,5.845,1.85,335.95,0.000000,0.000000,0.000000,0.000000
1386789056,0,0,0.0,0,0,0,0,0,0,-0.0292,254.8241,6.8213,0.4212,54.892891,9.802320,108.3,5.845,1.85,335.95,0.000000,0.000000,0.000000,0.000000
1386789056,0,0,0.0,0,0,0,0,0,0,-0.0292,254.8241,6.8213,0.4212,54.892891,9.802320,108.3,5.845,1.85,335.95,0.000000,0.000000,0.000000,0.000000
1386789056,0,0,0.0,0,0,0,0,0,0,-0.0292,254.8241,6.8213,0.4212,54.892891,9.802320,108.3,5.845,1.85,335.95,0.000000,0.000000,0.000000,0.000000
1386789057,0,0,0.0,0,0,0,0,0,0,-0.0292,254.8241,6.8213,0.4212,54.892891,9.802320,108.3,5.845,1.85,335.95,0.000000,0.000000,0.000000,0.000000
1386789057,0,0,0.0,0,0,0,0,0,0,-0.0292,254.8241,6.8213,0.4212,54.892891,9.802320,108.3,5.845,1.85,335.95,0.000000,0.000000,0.000000,0.000000
1386789057,0,0,0.0,0,0,0,0,0,0,-0.0292,254.8241,6.8213,0.4212,54.892891,9.802320,108.3,5.845,1.85,335.95,0.000000,0.000000,0.000000,0.000000
1386789057,0,0,0.0,0,0,0,0,0,0,-0.0292,254.8241,6.8213,0.4212,54.892891,9.802320,108.3,5.845,1.85,335.95,0.000000,0.000000,0.000000,0.000000
1386789058,0,0,0.0,0,0,0,0,0,0,-0.0292,254.8241,6.8213,0.4212,54.892891,9.802320,108.3,5.845,1.85,335.95,0.000000,0.000000,0.000000,0.000000
1386789058,0,0,0.0,0,0,0,0,0,0,-0.0292,254.8241,6.8213,0.4212,54.892891,9.802320,108.3,5.845,1.85,335.95,0.000000,0.000000,0.000000,0.000000
1386789058,0,0,0.0,0,0,0,0,0,0,-0.0292,254.8241,6.8213,0.4212,54.892891,9.802320,108.3,5.845,1.85,335.95,0.000000,0.000000,0.000000,0.000000
1386789058,0,0,0.0,0,0,0,0,0,0,-0.0292,254.8241,6.8213,0.4212,54.892891,9.802320,108.3,5.845,1.85,335.95,0.000000,0.000000,0.000000,0.000000
1386789059,0,0,0.0,0,0,0,0,0,0,-0.0292,254.8241,6.8213,0.4212,54.892891,9.802320,108.3,5.845,1.85,335.95,0.000000,0.000000,0.000000,0.000000
1386789059,0,0,0.0,0,0,0,0,0,0,-0.0292,254.8241,6.8213,0.4212,54.892891,9.802320,108.3,5.845,1.85,335.95,0.000000,0.000000,0.000000,0.000000
1386789059,0,0,0.0,0,0,0,0,0,0,-0.0292,254.8241,6.8213,0.4212,54.892891,9.802320,108.3,5.845,1.85,335.95,0.000000,0.000000,0.000000,0.000000
1386789059,0,0,0.0,0,0,0,0,0,0,-0.0292,254.8241,6.8213,0.4212,54.892891,9.802320,108.3,5.845,1.85,335.95,0.000000,0.000000,0.000000,0.000000
1386789060,0,0,0.0,0,0,0,0,0,0,-0.0292,254.8241,6.8213,0.4212,54.892891,9.802320,108.3,5.845,1.85,335.95,0.000000,0.000000,0.000000,0.000000
1386789060,0,0,0.0,0,0,0,0,0,0,-0.0292,254.8241,6.8213,0.4212,54.892891,9.802320,108.3,5.845,1.85,335.95,0.000000,0.000000,0.000000,0.000000
1386789060,0,0,0.0,0,0,0,0,0,0,-0.0292,254.8241,6.8213,0.4212,54.892891,9.802320,108.3,5.845,1.85,335.95,0.000000,0.000000,0.000000,0.000000
1386789060,0,0,0.0,0,0,0,0,0,0,-0.0292,254.8241,6.8213,0.4212,54.892891,9.802320,108.3,5.845,1.85,335.95,0.000000,0.000000,0.000000,0.000000
1386789061,0,0,0.0,0,0,0,0,0,0,-0.0292,254.8241,6.8213,0.4212,54.892891,9.802320,108.3,5.845,1.85,335.95,0.000000,0.000000,0.000000,0.000000
1386789061,0,0,0.0,0,0,0,0,0,0,-0.0292,254.8241,6.8213,0.4212,54.892891,9.802320,108.3,5.845,1.85,335.95,0.000000,0.000000,0.000000,0.000000
1386789061,0,0,0.0,0,0,0,0,0,0,-0.0292,254.8241,6.8213,0.4212,54.892891,9.802320,108.3,5.845,1.85,335.95,0.000000,0.000000,0.000000,0.000000
1386789061,0,0,0.0,0,0,0,0,0,0,-0.0292,254.8241,6.8213,0.4212,54.892891,9.802320,108.3,5.845,1.85,335.95,0.000000,0.000000,0.000000,0.000000
1386789062,4,0,0.0,0,0,0,0,0,0,-0.0292,254.8241,6.8213,0.4212,54.892891,9.802320,108.3,5.845,1.85,335.95,0.000000,0.000000,0.000000,0.000000
1386789062,1,0,485.9,0,35,4,0,294,50,-0.0292,245.4908,6.8213,0.4212,54.892883,9.802292,108.3,5.845,1.85,335.95,54.892891,9.802320,54.895069,9.793790
1386789062,1,0,485.9,0,35,8,0,227,75,-0.0292,236.1575,6.8213,0.4212,54.892872,9.802266,108.3,5.845,1.85,335.95,54.892891,9.802320,54.895069,9.793790
1386789062,1,0,485.9,0,35,12,0,161,100,-0.0292,226.8241,6.8213,0.4212,54.892860,9.802243,108.3,5.845,1.85,335.95,54.892891,9.802320,54.895069,9.793790
1386789063,1,0,485.9,0,35,16,0,99,75,-0.0292,217.4908,6.8213,0.4212,54.892845,9.802224,108.3,5.845,1.85,335.95,54.892891,9.802320,54.895069,9.793790
1386789063,1,0,485.9,0,35,20,0,45,50,-0.0292,208.1575,6.8213,0.4212,54.892830,9.802210,108.3,5.845,1.85,335.95,54.892891,9.802320,54.895069,9.793790
1386789063,1,0,485.9,0,35,24,0,9,25,-0.0292,198.8241,6.8213,0.4212,54.892815,9.802199,108.3,5.845,1.85,335.95,54.892891,9.802320,54.895069,9.793790
1386789063,1,0,485.9,0,35,28,0,409,50,-0.0292,189.4908,6.8213,0.4212,54.892796,9.802194,108.3,5.845,1.85,335.95,54.892891,9.802320,54.895069,9.793790
1386789064,1,0,485.9,0,35,32,0,409,75,-0.0292,180.1575,6.8213,0.4212,54.892776,9.802193,108.3,5.845,1.85,335.95,54.892891,9.802320,54.895069,9.793790
1386789064,1,0,485.9,0,35,36,0,409,100,-0.0292,170.8242,6.8213,0.4212,54.892761,9.802197,108.3,5.845,1.85,335.95,54.892891,9.802320,54.895069,9.793790
1386789064,1,0,485.9,0,35,32,0,409,125,-0.0292,161.4908,6.8213,0.4212,54.892742,9.802207,108.3,5.845,1.85,335.95,54.892891,9.802320,54.895069,9.793790
1386789064,1,0,485.9,0,35,36,0,0,100,-0.0292,152.1575,6.8213,0.4212,54.892727,9.802221,108.3,5.845,1.85,335.95,54.892891,9.802320,54.895069,9.793790
1386789065,1,0,485.9,0,26,32,0,0,75,-0.0292,145.2242,6.8213,0.4212,54.892712,9.802239,108.3,5.845,1.85,335.95,54.892891,9.802320,54.895069,9.793790
1386789065,1,0,485.9,0,19,28,0,409,100,-0.0292,140.1575,6.8213,0.4212,54.892696,9.802259,108.3,5.845,1.85,335.95,54.892891,9.802320,54.895069,9.793790
1386789065,1,0,485.9,0,14,24,0,409,125,-0.0292,136.4242,6.8213,0.4212,54.892685,9.802281,108.3,5.845,1.85,335.95,54.892891,9.802320,54.895069,9.793790
1386789065,1,0,485.9,0,10,20,0,409,150,-0.0292,133.7575,6.8213,0.4212,54.892670,9.802303,108.3,5.845,1.85,335.95,54.892891,9.802320,54.895069,9.793790
1386789066,1,0,485.9,0,8,16,0,409,175,-0.0292,131.6242,6.8213,0.4212,54.892658,9.802327,108.3,5.845,1.85,335.95,54.892891,9.802320,54.895069,9.793790
1386789066,1,0,485.9,0,6,12,0,409,200,-0.0292,130.0242,6.8213,0.4212,54.892651,9.802351,108.3,5.845,1.85,335.95,54.892891,9.802320,54.895069,9.793790
1386789066,1,0,485.9,0,4,8,0,409,225,-0.0292,128.9575,6.8213,0.4212,54.892639,9.802376,108.3,5.845,1.85,335.95,54.892891,9.802320,54.895069,9.793790
1386789066,1,0,485.9,0,3,4,0,409,250,-0.0292,128.1575,6.8213,0.4212,54.892628,9.802401,108.3,5.845,1.85,335.95,54.892891,9.802320,54.895069,9.793790
1386789067,1,0,485.9,0,2,0,0,409,275,-0.0292,127.6242,6.8213,0.4212,54.892616,9.802425,108.3,5.845,1.85,335.95,54.892891,9.802320,54.895069,9.793790
1386789067,1,0,485.9,0,2,4,0,0,250,-0.0292,127.0908,6.8213,0.4212,54.892605,9.802450,108.3,5.845,1.85,335.95,54.892891,9.802320,54.895069,9.793790
1386789067,1,0,485.9,0,1,0,0,0,225,-0.0292,126.8242,6.8213,0.4212,54.892597,9.802475,108.3,5.845,1.85,335.95,54.892891,9.802320,54.895069,9.793790
1386789067,1,0,485.9,0,1,4,0,0,200,-0.0292,126.5575,6.8213,0.4212,54.892586,9.802500,108.3,5.845,1.85,335.95,54.892891,9.802320,54.895069,9.793790
1386789068,1,0,485.9,0,1,0,0,0,175,-0.0292,126.2908,6.8213,0.4212,54.892574,9.802525,108.3,5.845,1.85,335.95,54.892891,9.802320,54.895069,9.793790
1386789068,1,0,485.9,0,0,4,0,0,150,-0.0292,126.2908,6.8213,0.4212,54.892563,9.802550,108.3,5.845,1.85,335.95,54.892891,9.802320,54.895069,9.793790
1386789068,1,0,485.9,0,0,0,0,0,125,-0.0292,126.2908,6.8213,0.4212,54.892551,9.802575,108.3,5.845,1.85,335.95,54.892891,9.802320,54.895069,9.793790
1386789068,1,0,485.9,0,0,4,0,0,100,-0.0292,126.2908,6.8213,0.4212,54.892540,9.802601,108.3,5.845,1.85,335.95,54.892891,9.802320,54.895069,9.793790
1386789069,1,0,485.9,0,0,0,0,0,75,-0.0292,126.2908,6.8213,0.4212,54.892529,9.802626,108.3,5.845,1.85,335.95,54.892891,9.802320,54.895069,9.793790
1386789069,1,0,485.9,0,0,4,0,0,50,-0.0292,126.2908,6.8213,0.4212,54.892517,9.802650,108.3,5.845,1.85,335.95,54.892891,9.802320,54.895069,9.793790
1386789069,1,0,485.9,0,0,0,0,0,25,-0.0292,126.2908,6.8213,0.4212,54.892506,9.802676,108.3,5.845,1.85,335.95,54.892891,9.802320,54.895069,9.793790
1386789069,1,0,485.9,0,0,4,0,0,0,-0.0292,126.2908,6.8213,0.4212,54.892498,9.802701,108.3,5.845,1.85,335.95,54.892891,9.802320,54.895069,9.793790
1386789070,1,0,485.9,0,0,0,0,0,25,-0.0292,126.2908,6.8213,0.4212,54.892487,9.802727,108.3,5.845,1.85,335.95,54.892891,9.802320,54.895069,9.793790
1386789070,1,0,545.9,0,-35,-4,0,0,0,-0.0292,135.6241,6.8213,0.4212,54.892471,9.802749,108.3,5.845,1.85,335.95,54.892891,9.802320,54.895069,9.793790
1386789070,1,0,545.9,0,-35,-8,0,0,25,-0.0292,144.9575,6.8213,0.4212,54.892456,9.802766,108.3,5.845,1.85,335.95,54.892891,9.802320,54.895069,9.793790
1386789070,1,0,545.9,0,-35,-12,0,0,0,-0.0292,154.2908,6.8213,0.4212,54.892441,9.802779,108.3,5.845,1.85,335.95,54.892891,9.802320,54.895069,9.793790
1386789071,1,0,545.9,0,-32,-16,0,0,25,-0.0292,162.8241,6.8213,0.4212,54.892422,9.802789,108.3,5.845,1.85,335.95,54.892891,9.802320,54.895069,9.793790
1386789071,1,0,545.9,0,-23,-20,0,0,0,-0.0292,168.9575,6.8213,0.4212,54.892403,9.802795,108.3,5.845,1.85,335.95,54.892891,9.802320,54.895069,9.793790
1386789071,1,0,545.9,0,-17,-16,0,0,25,-0.0292,173.4908,6.8213,0.4212,54.892384,9.802798,108.3,5.845,1.85,335.95,54.892891,9.802320,54.895069,9.793790
1386789071,1,0,545.9,0,-12,-12,0,0,0,-0.0292,176.6908,6.8213,0.4212,54.892368,9.802800,108.3,5.845,1.85,335.95,54.892891,9.802320,54.895069,9.793790
1386789072,1,0,545.9,0,-9,-8,0,0,25,-0.0292,179.0908,6.8213,0.4212,54.892349,9.802800,108.3,5.845,1.85,335.95,54.892891,9.802320,54.895069,9.793790
1386789072,1,0,280.9,0,-35,-12,0,409,50,-0.0292,188.4241,6.8213,0.4212,54.892330,9.802795,108.3,5.845,1.85,335.95,54.892891,9.802320,54.895069,9.793790
1386789072,1,0,280.9,0,-35,-16,0,409,75,-0.0292,197.7575,6.8213,0.4212,54.892315,9.802786,108.3,5.845,1.85,335.95,54.892891,9.802320,54.895069,9.793790
1386789072,1,0,280.9,0,-35,-20,0,409,100,-0.0292,207.0908,6.8213,0.4212,54.892296,9.802772,108.3,5.845,1.85,335.95,54.892891,9.802320,54.895069,9.793790
1386789073,1,0,545.9,0,21,-16,0,6,75,-0.0292,201.4908,6.8213,0.4212,54.892277,9.802760,108.3,5.845,1.85,335.95,54.892891,9.802320,54.895069,9.793790
1386789073,1,0,545.9,0,16,-12,0,0,50,-0.0292,197.2241,6.8213,0.4212,54.892258,9.802751,108.3,5.845,1.85,335.95,54.892891,9.802320,54.895069,9.793790
1386789073,1,0,545.9,0,11,-8,0,409,75,-0.0292,194.2908,6.8213,0.4212,54.892242,9.802742,108.3,5.845,1.85,335.95,54.892891,9.802320,54.895069,9.793790
1386789073,1,0,545.9,0,8,-4,0,409,100,-0.0292,192.1575,6.8213,0.4212,54.892223,9.802735,108.3,5.845,1.85,335.95,54.892891,9.802320,54.895069,9.793790
1386789074,1,0,545.9,0,6,0,0,0,75,-0.0292,190.5574,6.8213,0.4212,54.892204,9.802730,108.3,5.845,1.85,335.95,54.892891,9.802320,54.895069,9.793790
1386789074,1,0,545.9,0,5,4,0,0,50,-0.0292,189.2241,6.8213,0.4212,54.892185,9.802725,108.3,5.845,1.85,335.95,54.892891,9.802320,54.895069,9.793790
1386789074,1,0,545.9,0,3,0,0,0,25,-0.0292,188.4241,6.8213,0.4212,54.892170,9.802720,108.3,5.845,1.85,335.95,54.892891,9.802320,54.895069,9.793790
1386789075,1,0,545.9,0,2,4,0,0,0,-0.0292,187.8908,6.8213,0.4212,54.892151,9.802715,108.3,5.845,1.85,335.95,54.892891,9.802320,54.895069,9.793790
1386789075,1,0,545.9,0,2,0,0,0,25,-0.0292,187.3574,6.8213,0.4212,54.892132,9.802711,108.3,5.845,1.85,335.95,54.892891,9.802320,54.895069,9.793790
1386789075,1,0,485.9,0,35,4,0,0,0,-0.0292,178.0241,6.8213,0.4212,54.892113,9.802712,108.3,5.845,1.85,335.95,54.892891,9.802320,54.895069,9.793790
1386789075,1,0,485.9,0,35,8,0,0,25,-0.0292,168.6908,6.8213,0.4212,54.892097,9.802718,108.3,5.845,1.85,335.95,54.892891,9.802320,54.895069,9.793790
1386789076,1,0,485.9,0,35,12,0,0,0,-0.0292,159.3575,6.8213,0.4212,54.892078,9.802729,108.3,5.845,1.85,335.95,54.892891,9.802320,54.895069,9.793790
1386789076,1,0,485.9,0,33,16,0,0,25,-0.0292,150.5574,6.8213,0.4212,54.892063,9.802744,108.3,5.845,1.85,335.95,54.892891,9.802320,54.895069,9.793790
1386789076,1,0,485.9,0,25,20,0,0,0,-0.0292,143.8908,6.8213,0.4212,54.892052,9.802763,108.3,5.845,1.85,335.95,54.892891,9.802320,54.895069,9.793790
1386789076,1,0,485.9,0,18,16,0,0,25,-0.0292,139.0908,6.8213,0.4212,54.892036,9.802783,108.3,5.845,1.85,335.95,54.892891,9.802320,54.895069,9.793790
1386789077,1,0,485.9,0,13,12,0,0,0,-0.0292,135.6241,6.8213,0.4212,54.892025,9.802805,108.3,5.845,1.85,335.95,54.892891,9.802320,54.895069,9.793790
1386789077,1,0,485.9,0,10,8,0,0,25,-0.0292,132.9574,6.8213,0.4212,54.892010,9.802828,108.3,5.845,1.85,335.95,54.892891,9.802320,54.895069,9.793790
1386789077,1,0,390.9,0,35,12,0,409,50,-0.0292,123.6241,6.8213,0.4212,54.892002,9.802855,108.3,5.845,1.85,335.95,54.892891,9.802320,54.895069,9.793790
1386789077,1,0,390.9,0,35,16,0,409,75,-0.0292,114.2908,6.8213,0.4212,54.891994,9.802883,108.3,5.845,1.85,335.95,54.892891,9.802320,54.895069,9.793790
1386789078,1,0,390.9,0,35,20,0,409,100,-0.0292,104.9574,6.8213,0.4212,54.891991,9.802913,108.3,5.845,1.85,335.95,54.892891,9.802320,54.895069,9.793790
1386789078,1,0,390.9,0,35,24,0,6,75,-0.0292,95.6241,6.8213,0.4212,54.891991,9.802944,108.3,5.845,1.85,335.95,54.892891,9.802320,54.895069,9.793790
1386789078,1,0,390.9,0,35,28,0,39,50,-0.0292,86.2908,6.8213,0.4212,54.891994,9.802976,108.3,5.845,1.85,335.95,54.892891,9.802320,54.895069,9.793790
1386789078,1,0,390.9,0,35,32,0,91,75,-0.0292,76.9574,6.8213,0.4212,54.892002,9.803006,108.3,5.845,1.85,335.95,54.892891,9.802320,54.895069,9.793790
1386789079,1,0,390.9,0,35,36,0,152,100,-0.0292,67.6241,6.8213,0.4212,54.892010,9.803035,108.3,5.845,1.85,335.95,54.892891,9.802320,54.895069,9.793790
1386789079,1,0,390.9,0,35,32,0,218,125,-0.0292,58.2908,6.8213,0.4212,54.892021,9.803061,108.3,5.845,1.85,335.95,54.892891,9.802320,54.895069,9.793790
1386789079,1,0,390.9,0,27,28,0,285,150,-0.0292,51.0908,6.8213,0.4212,54.892029,9.803085,108.3,5.845,1.85,335.95,54.892891,9.802320,54.895069,9.793790
1386789079,1,0,390.9,0,20,24,0,336,175,-0.0292,45.7574,6.8213,0.4212,54.892040,9.803108,108.3,5.845,1.85,335.95,54.892891,9.802320,54.895069,9.793790
1386789080,1,0,390.9,0,15,20,0,373,200,-0.0292,41.7574,6.8213,0.4212,54.892056,9.803129,108.3,5.845,1.85,335.95,54.892891,9.802320,54.895069,9.793790
1386789080,1,0,390.9,0,11,16,0,401,225,-0.0292,38.8241,6.8213,0.4212,54.892071,9.803149,108.3,5.845,1.85,335.95,54.892891,9.802320,54.895069,9.793790
1386789080,1,0,390.9,0,8,12,0,421,250,-0.0292,36.6908,6.8213,0.4212,54.892082,9.803167,108.3,5.845,1.85,335.95,54.892891,9.802320,54.895069,9.793790
1386789080,1,0,390.9,0,6,8,0,435,275,-0.0292,35.0908,6.8213,0.4212,54.892097,9.803185,108.3,5.845,1.85,335.95,54.892891,9.802320,54.895069,9.793790
1386789081,1,0,390.9,0,4,4,0,445,300,-0.0292,34.0241,6.8213,0.4212,54.892113,9.803203,108.3,5.845,1.85,335.95,54.892891,9.802320,54.895069,9.793790
1386789081,1,0,390.9,0,3,0,0,452,325,-0.0292,33.2241,6.8213,0.4212,54.892128,9.803220,108.3,5.845,1.85,335.95,54.892891,9.802320,54.895069,9.793790
1386789081,1,0,390.9,0,2,4,0,458,350,-0.0292,32.6908,6.8213,0.4212,54.892143,9.803236,108.3,5.845,1.85,335.95,54.892891,9.802320,54.895069,9.793790
1386789081,1,0,390.9,0,2,0,0,461,375,-0.0292,32.1574,6.8213,0.4212,54.892155,9.803252,108.3,5.845,1.85,335.95,54.892891,9.802320,54.895069,9.793790
1386789082,1,0,390.9,0,1,4,0,465,400,-0.0292,31.8908,6.8213,0.4212,54.892170,9.803269,108.3,5.845,1.85,335.95,54.892891,9.802320,54.895069,9.793790
1386789082,1,0,390.9,0,1,0,0,466,425,-0.0292,31.6241,6.8213,0.4212,54.892185,9.803286,108.3,5.845,1.85,335.95,54.892891,9.802320,54.895069,9.793790
1386789082,1,0,390.9,0,1,4,0,468,450,-0.0292,31.3574,6.8213,0.4212,54.892200,9.803302,108.3,5.845,1.85,335.95,54.892891,9.802320,54.895069,9.793790
1386789082,1,0,390.9,0,0,0,0,470,475,-0.0292,31.3574,6.8213,0.4212,54.892216,9.803318,108.3,5.845,1.85,335.95,54.892891,9.802320,54.895069,9.793790
1386789083,1,0,390.9,0,0,4,0,470,450,-0.0292,31.3574,6.8213,0.4212,54.892235,9.803334,108.3,5.845,1.85,335.95,54.892891,9.802320,54.895069,9.793790
1386789083,1,0,390.9,0,0,0,0,470,475,-0.0292,31.3574,6.8213,0.4212,54.892250,9.803350,108.3,5.845,1.85,335.95,54.892891,9.802320,54.895069,9.793790
1386789083,1,0,390.9,0,0,4,0,470,450,-0.0292,31.3574,6.8213,0.4212,54.892265,9.803367,108.3,5.845,1.85,335.95,54.892891,9.802320,54.895069,9.793790
1386789083,1,0,390.9,0,0,0,0,470,475,-0.0292,31.3574,6.8213,0.4212,54.892277,9.803383,108.3,5.845,1.85,335.95,54.892891,9.802320,54.895069,9.793790
1386789084,1,0,390.9,0,0,4,0,470,450,-0.0292,31.3574,6.8213,0.4212,54.892292,9.803399,108.3,5.845,1.85,335.95,54.892891,9.802320,54.895069,9.793790
1386789084,1,0,390.9,0,0,0,0,470,475,-0.0292,31.3574,6.8213,0.4212,54.892307,9.803415,108.3,5.845,1.85,335.95,54.892891,9.802320,54.895069,9.793790
1386789084,1,0,390.9,0,0,4,0,470,450,-0.0292,31.3574,6.8213,0.4212,54.892323,9.803432,108.3,5.845,1.85,335.95,54.892891,9.802320,54.895069,9.793790
1386789084,1,0,390.9,0,0,0,0,470,475,-0.0292,31.3574,6.8213,0.4212,54.892338,9.803448,108.3,5.845,1.85,335.95,54.892891,9.802320,54.895069,9.793790
1386789085,1,0,390.9,0,0,4,0,470,450,-0.0292,31.3574,6.8213,0.4212,54.892357,9.803464,108.3,5.845,1.85,335.95,54.892891,9.802320,54.895069,9.793790
1386789085,1,0,390.9,0,0,0,0,470,475,-0.0292,31.3574,6.8213,0.4212,54.892372,9.803480,108.3,5.845,1.85,335.95,54.892891,9.802320,54.895069,9.793790
1386789085,1,0,390.9,0,0,4,0,470,450,-0.0292,31.3574,6.8213,0.4212,54.892387,9.803496,108.3,5.845,1.85,335.95,54.892891,9.802320,54.895069,9.793790
1386789085,1,0,390.9,0,0,0,0,470,475,-0.0292,31.3574,6.8213,0.4212,54.892406,9.803513,108.3,5.845,1.85,335.95,54.892891,9.802320,54.895069,9.793790
1386789086,1,0,390.9,0,0,4,0,470,450,-0.0292,31.3574,6.8213,0.4212,54.892422,9.803529,108.3,5.845,1.85,335.95,54.892891,9.802320,54.895069,9.793790
1386789086,1,0,390.9,0,0,0,0,470,475,-0.0292,31.3574,6.8213,0.4212,54.892437,9.803545,108.3,5.845,1.85,335.95,54.892891,9.802320,54.895069,9.793790
1386789086,1,0,390.9,0,0,4,0,470,450,-0.0292,31.3574,6.8213,0.4212,54.892456,9.803561,108.3,5.845,1.85,335.95,54.892891,9.802320,54.895069,9.793790
1386789086,1,0,390.9,0,0,0,0,470,475,-0.0292,31.3574,6.8213,0.4212,54.892471,9.803578,108.3,5.845,1.85,335.95,54.892891,9.802320,54.895069,9.793790
1386789087,1,0,390.9,0,0,4,0,470,450,-0.0292,31.3574,6.8213,0.4212,54.892487,9.803595,108.3,5.845,1.85,335.95,54.892891,9.802320,54.895069,9.793790
1386789087,1,0,390.9,0,0,0,0,470,475,-0.0292,31.3574,6.8213,0.4212,54.892498,9.803611,108.3,5.845,1.85,335.95,54.892891,9.802320,54.895069,9.793790
1386789087,1,0,390.9,0,0,4,0,470,450,-0.0292,31.3574,6.8213,0.4212,54.892513,9.803627,108.3,5.845,1.85,335.95,54.892891,9.802320,54.895069,9.793790
1386789087,1,0,390.9,0,0,0,0,470,475,-0.0292,31.3574,6.8213,0.4212,54.892529,9.803643,108.3,5.845,1.85,335.95,54.892891,9.802320,54.895069,9.793790
1386789088,1,0,390.9,0,0,4,0,470,450,-0.0292,31.3574,6.8213,0.4212,54.892544,9.803659,108.3,5.845,1.85,335.95,54.892891,9.802320,54.895069,9.793790
1386789088,1,0,390.9,0,0,0,0,470,475,-0.0292,31.3574,6.8213,0.4212,54.892559,9.803676,108.3,5.845,1.85,335.95,54.892891,9.802320,54.895069,9.793790
1386789088,1,0,390.9,0,0,4,0,470,450,-0.0292,31.3574,6.8213,0.4212,54.892578,9.803692,108.3,5.845,1.85,335.95,54.892891,9.802320,54.895069,9.793790
1386789088,1,0,390.9,0,0,0,0,470,475,-0.0292,31.3574,6.8213,0.4212,54.892593,9.803708,108.3,5.845,1.85,335.95,54.892891,9.802320,54.895069,9.793790
1386789089,1,0,390.9,0,0,4,0,470,450,-0.0292,31.3574,6.8213,0.4212,54.892609,9.803724,108.3,5.845,1.85,335.95,54.892891,9.802320,54.895069,9.793790
1386789089,1,0,390.9,0,0,0,0,470,475,-0.0292,31.3574,6.8213,0.4212,54.892628,9.803741,108.3,5.845,1.85,335.95,54.892891,9.802320,54.895069,9.793790
1386789089,1,0,390.9,0,0,4,0,470,450,-0.0292,31.3574,6.8213,0.4212,54.892643,9.803757,108.3,5.845,1.85,335.95,54.892891,9.802320,54.895069,9.793790
1386789089,1,0,390.9,0,0,0,0,470,475,-0.0292,31.3574,6.8213,0.4212,54.892658,9.803773,108.3,5.845,1.85,335.95,54.892891,9.802320,54.895069,9.793790
1386789090,1,0,390.9,0,0,4,0,470,450,-0.0292,31.3574,6.8213,0.4212,54.892677,9.803789,108.3,5.845,1.85,335.95,54.892891,9.802320,54.895069,9.793790
1386789090,1,0,390.9,0,0,0,0,470,475,-0.0292,31.3574,6.8213,0.4212,54.892693,9.803805,108.3,5.845,1.85,335.95,54.892891,9.802320,54.895069,9.793790
1386789090,1,0,390.9,0,0,4,0,470,450,-0.0292,31.3574,6.8213,0.4212,54.892708,9.803822,108.3,5.845,1.85,335.95,54.892891,9.802320,54.895069,9.793790
1386789090,1,0,390.9,0,0,0,0,470,475,-0.0292,31.3574,6.8213,0.4212,54.892719,9.803838,108.3,5.845,1.85,335.95,54.892891,9.802320,54.895069,9.793790
1386789091,1,0,390.9,0,0,4,0,470,450,-0.0292,31.3574,6.8213,0.4212,54.892735,9.803854,108.3,5.845,1.85,335.95,54.892891,9.802320,54.895069,9.793790
1386789091,1,0,390.9,0,0,0,0,470,475,-0.0292,31.3574,6.8213,0.4212,54.892750,9.803870,108.3,5.845,1.85,335.95,54.892891,9.802320,54.895069,9.793790
1386789091,1,0,390.9,0,0,4,0,470,450,-0.0292,31.3574,6.8213,0.4212,54.892765,9.803886,108.3,5.845,1.85,335.95,54.892891,9.802320,54.895069,9.793790
1386789091,1,0,390.9,0,0,0,0,470,475,-0.0292,31.3574,6.8213,0.4212,54.892780,9.803903,108.3,5.845,1.85,335.95,54.892891,9.802320,54.895069,9.793790
1386789092,1,0,390.9,0,0,4,0,470,450,-0.0292,31.3574,6.8213,0.4212,54.892799,9.803919,108.3,5.845,1.85,335.95,54.892891,9.802320,54.895069,9.793790
1386789092,1,0,390.9,0,0,0,0,470,475,-0.0292,31.3574,6.8213,0.4212,54.892815,9.803935,108.3,5.845,1.85,335.95,54.892891,9.802320,54.895069,9.793790
1386789092,1,0,390.9,0,0,4,0,470,450,-0.0292,31.3574,6.8213,0.4212,54.892830,9.803951,108.3,5.845,1.85,335.95,54.892891,9.802320,54.895069,9.793790
1386789092,1,0,390.9,0,0,0,0,470,475,-0.0292,31.3574,6.8213,0.4212,54.892849,9.803967,108.3,5.845,1.85,335.95,54.892891,9.802320,54.895069,9.793790
1386789093,1,0,390.9,0,0,4,0,470,450,-0.0292,31.3574,6.8213,0.4212,54.892864,9.803984,108.3,5.845,1.85,335.95,54.892891,9.802320,54.895069,9.793790
1386789093,1,0,390.9,0,0,0,0,470,475,-0.0292,31.3574,6.8213,0.4212,54.892879,9.804000,108.3,5.845,1.85,335.95,54.892891,9.802320,54.895069,9.793790
1386789093,1,0,390.9,0,0,4,0,470,450,-0.0292,31.3574,6.8213,0.4212,54.892899,9.804016,108.3,5.845,1.85,335.95,54.892891,9.802320,54.895069,9.793790
1386789093,1,0,390.9,0,0,0,0,470,475,-0.0292,31.3574,6.8213,0.4212,54.892914,9.804032,108.3,5.845,1.85,335.95,54.892891,9.802320,54.895069,9.793790
1386789094,1,0,390.9,0,0,4,0,470,450,-0.0292,31.3574,6.8213,0.4212,54.892929,9.804049,108.3,5.845,1.85,335.95,54.892891,9.802320,54.895069,9.793790
1386789094,1,0,390.9,0,0,0,0,470,475,-0.0292,31.3574,6.8213,0.4212,54.892948,9.804066,108.3,5.845,1.85,335.95,54.892891,9.802320,54.895069,9.793790
1386789094,1,0,390.9,0,0,4,0,470,450,-0.0292,31.3574,6.8213,0.4212,54.892963,9.804082,108.3,5.845,1.85,335.95,54.892891,9.802320,54.895069,9.793790
1386789094,1,0,390.9,0,0,0,0,470,475,-0.0292,31.3574,6.8213,0.4212,54.892979,9.804098,108.3,5.845,1.85,335.95,54.892891,9.802320,54.895069,9.793790
1386789095,1,0,485.9,0,-35,-4,0,470,450,-0.0292,40.6908,6.8213,0.4212,54.892990,9.804118,108.3,5.845,1.85,335.95,54.892891,9.802320,54.895069,9.793790
1386789095,1,0,485.9,0,-35,-8,0,408,425,-0.0292,50.0241,6.8213,0.4212,54.893002,9.804143,108.3,5.845,1.85,335.95,54.892891,9.802320,54.895069,9.793790
1386789095,1,0,485.9,0,-35,-12,0,343,400,-0.0292,59.3574,6.8213,0.4212,54.893013,9.804170,108.3,5.845,1.85,335.95,54.892891,9.802320,54.895069,9.793790
1386789095,1,0,485.9,0,-35,-16,0,277,375,-0.0292,68.6908,6.8213,0.4212,54.893021,9.804198,108.3,5.845,1.85,335.95,54.892891,9.802320,54.895069,9.793790
1386789096,1,0,485.9,0,-35,-20,0,210,350,-0.0292,78.0241,6.8213,0.4212,54.893024,9.804229,108.3,5.845,1.85,335.95,54.892891,9.802320,54.895069,9.793790
1386789096,1,0,485.9,0,-35,-24,0,145,325,-0.0292,87.3574,6.8213,0.4212,54.893028,9.804260,108.3,5.845,1.85,335.95,54.892891,9.802320,54.895069,9.793790
1386789096,1,0,485.9,0,-35,-28,0,84,300,-0.0292,96.6908,6.8213,0.4212,54.893024,9.804291,108.3,5.845,1.85,335.95,54.892891,9.802320,54.895069,9.793790
1386789096,1,0,485.9,0,-29,-32,0,34,275,-0.0292,104.4241,6.8213,0.4212,54.893021,9.804321,108.3,5.845,1.85,335.95,54.892891,9.802320,54.895069,9.793790
1386789097,1,0,485.9,0,-22,-28,0,7,250,-0.0292,110.2908,6.8213,0.4212,54.893017,9.804351,108.3,5.845,1.85,335.95,54.892891,9.802320,54.895069,9.793790
1386789097,1,0,485.9,0,-16,-24,0,0,225,-0.0292,114.5574,6.8213,0.4212,54.893009,9.804379,108.3,5.845,1.85,335.95,54.892891,9.802320,54.895069,9.793790
1386789097,1,0,485.9,0,-11,-20,0,409,250,-0.0292,117.4908,6.8213,0.4212,54.893002,9.804407,108.3,5.845,1.85,335.95,54.892891,9.802320,54.895069,9.793790
1386789097,1,0,485.9,0,-8,-16,0,409,275,-0.0292,119.6241,6.8213,0.4212,54.892994,9.804435,108.3,5.845,1.85,335.95,54.892891,9.802320,54.895069,9.793790
1386789098,1,0,485.9,0,-6,-12,0,0,250,-0.0292,121.2241,6.8213,0.4212,54.892986,9.804461,108.3,5.845,1.85,335.95,54.892891,9.802320,54.895069,9.793790
1386789098,1,0,485.9,0,-5,-8,0,0,225,-0.0292,122.5574,6.8213,0.4212,54.892975,9.804488,108.3,5.845,1.85,335.95,54.892891,9.802320,54.895069,9.793790
1386789098,1,0,485.9,0,-3,-4,0,0,200,-0.0292,123.3574,6.8213,0.4212,54.892967,9.804514,108.3,5.845,1.85,335.95,54.892891,9.802320,54.895069,9.793790
1386789098,1,0,485.9,0,-3,0,0,0,175,-0.0292,124.1574,6.8213,0.4212,54.892956,9.804540,108.3,5.845,1.85,335.95,54.892891,9.802320,54.895069,9.793790
1386789099,1,0,485.9,0,-2,-4,0,0,150,-0.0292,124.6908,6.8213,0.4212,54.892944,9.804565,108.3,5.845,1.85,335.95,54.892891,9.802320,54.895069,9.793790
1386789099,1,0,485.9,0,-1,0,0,0,125,-0.0292,124.9574,6.8213,0.4212,54.892933,9.804591,108.3,5.845,1.85,335.95,54.892891,9.802320,54.895069,9.793790
1386789099,1,0,485.9,0,-1,-4,0,0,100,-0.0292,125.2241,6.8213,0.4212,54.892921,9.804616,108.3,5.845,1.85,335.95,54.892891,9.802320,54.895069,9.793790
1386789099,1,0,485.9,0,-1,0,0,0,75,-0.0292,125.4908,6.8213,0.4212,54.892910,9.804642,108.3,5.845,1.85,335.95,54.892891,9.802320,54.895069,9.793790
1386789100,1,0,485.9,0,0,4,0,0,50,-0.0292,125.4908,6.8213,0.4212,54.892899,9.804667,108.3,5.845,1.85,335.95,54.892891,9.802320,54.895069,9.793790
1386789100,1,0,485.9,0,0,0,0,0,25,-0.0292,125.4908,6.8213,0.4212,54.892891,9.804692,108.3,5.845,1.85,335.95,54.892891,9.802320,54.895069,9.793790
1386789100,1,0,485.9,0,0,4,0,0,0,-0.0292,125.4908,6.8213,0.4212,54.892879,9.804718,108.3,5.845,1.85,335.95,54.892891,9.802320,54.895069,9.793790
1386789100,1,0,485.9,0,0,0,0,0,25,-0.0292,125.4908,6.8213,0.4212,54.892872,9.804744,108.3,5.845,1.85,335.95,54.892891,9.802320,54.895069,9.793790
1386789101,1,0,545.9,0,-35,-4,0,0,0,-0.0292,134.8241,6.8213,0.4212,54.892860,9.804766,108.3,5.845,1.85,335.95,54.892891,9.802320,54.895069,9.793790
1386789101,1,0,545.9,0,-35,-8,0,0,25,-0.0292,144.1574,6.8213,0.4212,54.892845,9.804784,108.3,5.845,1.85,335.95,54.892891,9.802320,54.895069,9.793790
1386789101,1,0,545.9,0,-35,-12,0,0,0,-0.0292,153.4908,6.8213,0.4212,54.892830,9.804798,108.3,5.845,1.85,335.95,54.892891,9.802320,54.895069,9.793790
1386789102,1,0,545.9,0,-32,-16,0,0,25,-0.0292,162.0241,6.8213,0.4212,54.892815,9.804808,108.3,5.845,1.85,335.95,54.892891,9.802320,54.895069,9.793790
1386789102,1,0,545.9,0,-24,-20,0,0,0,-0.0292,168.4241,6.8213,0.4212,54.892796,9.804813,108.3,5.845,1.85,335.95,54.892891,9.802320,54.895069,9.793790
1386789102,1,0,545.9,0,-18,-16,0,0,25,-0.0292,173.2241,6.8213,0.4212,54.892776,9.804817,108.3,5.845,1.85,335.95,54.892891,9.802320,54.895069,9.793790
1386789102,1,0,545.9,0,-13,-12,0,0,0,-0.0292,176.6908,6.8213,0.4212,54.892761,9.804819,108.3,5.845,1.85,335.95,54.892891,9.802320,54.895069,9.793790
1386789103,1,0,545.9,0,-9,-8,0,0,25,-0.0292,179.0908,6.8213,0.4212,54.892742,9.804819,108.3,5.845,1.85,335.95,54.892891,9.802320,54.895069,9.793790
1386789103,1,0,280.9,0,-35,-12,0,409,50,-0.0292,188.4241,6.8213,0.4212,54.892723,9.804814,108.3,5.845,1.85,335.95,54.892891,9.802320,54.895069,9.793790
1386789103,1,0,280.9,0,-35,-16,0,409,75,-0.0292,197.7574,6.8213,0.4212,54.892708,9.804805,108.3,5.845,1.85,335.95,54.892891,9.802320,54.895069,9.793790
1386789103,1,0,280.9,0,-35,-20,0,409,100,-0.0292,207.0907,6.8213,0.4212,54.892689,9.804791,108.3,5.845,1.85,335.95,54.892891,9.802320,54.895069,9.793790
1386789104,1,0,280.9,0,-35,-24,0,6,75,-0.0292,216.4241,6.8213,0.4212,54.892673,9.804773,108.3,5.845,1.85,335.95,54.892891,9.802320,54.895069,9.793790
1386789104,1,0,280.9,0,-35,-28,0,40,50,-0.0292,225.7574,6.8213,0.4212,54.892662,9.804750,108.3,5.845,1.85,335.95,54.892891,9.802320,54.895069,9.793790
1386789104,1,0,280.9,0,-35,-32,0,92,75,-0.0292,235.0907,6.8213,0.4212,54.892651,9.804725,108.3,5.845,1.85,335.95,54.892891,9.802320,54.895069,9.793790
1386789104,1,0,280.9,0,-35,-36,0,153,100,-0.0292,244.4241,6.8213,0.4212,54.892643,9.804696,108.3,5.845,1.85,335.95,54.892891,9.802320,54.895069,9.793790
1386789105,1,0,280.9,0,-35,-32,0,219,125,-0.0292,253.7574,6.8213,0.4212,54.892639,9.804667,108.3,5.845,1.85,335.95,54.892891,9.802320,54.895069,9.793790
1386789105,1,0,280.9,0,-27,-28,0,286,150,-0.0292,260.9574,6.8213,0.4212,54.892635,9.804636,108.3,5.845,1.85,335.95,54.892891,9.802320,54.895069,9.793790
1386789105,1,0,280.9,0,-20,-24,0,337,175,-0.0292,266.2907,6.8213,0.4212,54.892632,9.804605,108.3,5.845,1.85,335.95,54.892891,9.802320,54.895069,9.793790
1386789105,1,0,280.9,0,-15,-20,0,374,200,-0.0292,270.2907,6.8213,0.4212,54.892632,9.804573,108.3,5.845,1.85,335.95,54.892891,9.802320,54.895069,9.793790
1386789106,1,0,280.9,0,-11,-16,0,402,225,-0.0292,273.2241,6.8213,0.4212,54.892635,9.804542,108.3,5.845,1.85,335.95,54.892891,9.802320,54.895069,9.793790
1386789106,1,0,280.9,0,-8,-12,0,422,250,-0.0292,275.3574,6.8213,0.4212,54.892635,9.804511,108.3,5.845,1.85,335.95,54.892891,9.802320,54.895069,9.793790
1386789106,1,0,280.9,0,-6,-8,0,436,275,-0.0292,276.9574,6.8213,0.4212,54.892635,9.804480,108.3,5.845,1.85,335.95,54.892891,9.802320,54.895069,9.793790
1386789106,1,0,280.9,0,-4,-4,0,446,300,-0.0292,278.0241,6.8213,0.4212,54.892635,9.804448,108.3,5.845,1.85,335.95,54.892891,9.802320,54.895069,9.793790
1386789107,1,0,280.9,0,-3,0,0,453,325,-0.0292,278.8241,6.8213,0.4212,54.892635,9.804418,108.3,5.845,1.85,335.95,54.892891,9.802320,54.895069,9.793790
1386789107,1,0,280.9,0,-2,-4,0,459,350,-0.0292,279.3574,6.8213,0.4212,54.892635,9.804387,108.3,5.845,1.85,335.95,54.892891,9.802320,54.895069,9.793790
1386789107,1,0,280.9,0,-2,0,0,462,375,-0.0292,279.8907,6.8213,0.4212,54.892635,9.804356,108.3,5.845,1.85,335.95,54.892891,9.802320,54.895069,9.793790
1386789107,1,0,280.9,0,-1,-4,0,466,400,-0.0292,280.1574,6.8213,0.4212,54.892635,9.804325,108.3,5.845,1.85,335.95,54.892891,9.802320,54.895069,9.793790
1386789108,1,0,280.9,0,-1,0,0,467,425,-0.0292,280.4240,6.8213,0.4212,54.892635,9.804295,108.3,5.845,1.85,335.95,54.892891,9.802320,54.895069,9.793790
1386789108,1,0,280.9,0,-1,-4,0,469,450,-0.0292,280.6907,6.8213,0.4212,54.892635,9.804263,108.3,5.845,1.85,335.95,54.892891,9.802320,54.895069,9.793790
1386789108,1,0,280.9,0,0,0,0,471,475,-0.0292,280.6907,6.8213,0.4212,54.892635,9.804233,108.3,5.845,1.85,335.95,54.892891,9.802320,54.895069,9.793790
1386789108,1,0,280.9,0,0,4,0,471,450,-0.0292,280.6907,6.8213,0.4212,54.892635,9.804202,108.3,5.845,1.85,335.95,54.892891,9.802320,54.895069,9.793790
1386789109,1,0,280.9,0,0,0,0,471,475,-0.0292,280.6907,6.8213,0.4212,54.892635,9.804172,108.3,5.845,1.85,335.95,54.892891,9.802320,54.895069,9.793790
1386789109,1,0,280.9,0,0,4,0,471,450,-0.0292,280.6907,6.8213,0.4212,54.892635,9.804141,108.3,5.845,1.85,335.95,54.892891,9.802320,54.895069,9.793790
1386789109,1,0,280.9,0,0,0,0,471,475,-0.0292,280.6907,6.8213,0.4212,54.892635,9.804111,108.3,5.845,1.85,335.95,54.892891,9.802320,54.895069,9.793790
1386789109,1,0,280.9,0,0,4,0,471,450,-0.0292,280.6907,6.8213,0.4212,54.892635,9.804080,108.3,5.845,1.85,335.95,54.892891,9.802320,54.895069,9.793790
1386789110,1,0,280.9,0,0,0,0,471,475,-0.0292,280.6907,6.8213,0.4212,54.892635,9.804049,108.3,5.845,1.85,335.95,54.892891,9.802320,54.895069,9.793790
1386789110,1,0,280.9,0,0,4,0,471,450,-0.0292,280.6907,6.8213,0.4212,54.892635,9.804018,108.3,5.845,1.85,335.95,54.892891,9.802320,54.895069,9.793790
1386789110,1,0,280.9,0,0,0,0,471,475,-0.0292,280.6907,6.8213,0.4212,54.892635,9.803988,108.3,5.845,1.85,335.95,54.892891,9.802320,54.895069,9.793790
1386789110,1,0,280.9,0,0,4,0,471,450,-0.0292,280.6907,6.8213,0.4212,54.892635,9.803957,108.3,5.845,1.85,335.95,54.892891,9.802320,54.895069,9.793790
1386789111,1,0,280.9,0,0,0,0,471,475,-0.0292,280.6907,6.8213,0.4212,54.892635,9.803926,108.3,5.845,1.85,335.95,54.892891,9.802320,54.895069,9.793790
1386789111,1,0,280.9,0,0,4,0,471,450,-0.0292,280.6907,6.8213,0.4212,54.892635,9.803896,108.3,5.845,1.85,335.95,54.892891,9.802320,54.895069,9.793790
1386789111,1,0,280.9,0,0,0,0,471,475,-0.0292,280.6907,6.8213,0.4212,54.892635,9.803865,108.3,5.845,1.85,335.95,54.892891,9.802320,54.895069,9.793790
1386789111,1,0,280.9,0,0,4,0,471,450,-0.0292,280.6907,6.8213,0.4212,54.892635,9.803834,108.3,5.845,1.85,335.95,54.892891,9.802320,54.895069,9.793790
1386789112,1,0,280.9,0,0,0,0,471,475,-0.0292,280.6907,6.8213,0.4212,54.892635,9.803803,108.3,5.845,1.85,335.95,54.892891,9.802320,54.895069,9.793790
1386789112,1,0,280.9,0,0,4,0,471,450,-0.0292,280.6907,6.8213,0.4212,54.892635,9.803773,108.3,5.845,1.85,335.95,54.892891,9.802320,54.895069,9.793790
1386789112,1,0,280.9,0,0,0,0,471,475,-0.0292,280.6907,6.8213,0.4212,54.892635,9.803742,108.3,5.845,1.85,335.95,54.892891,9.802320,54.895069,9.793790
1386789112,1,0,280.9,0,0,4,0,471,450,-0.0292,280.6907,6.8213,0.4212,54.892635,9.803712,108.3,5.845,1.85,335.95,54.892891,9.802320,54.895069,9.793790
1386789113,1,0,280.9,0,0,0,0,471,475,-0.0292,280.6907,6.8213,0.4212,54.892635,9.803681,108.3,5.845,1.85,335.95,54.892891,9.802320,54.895069,9.793790
1386789113,1,0,280.9,0,0,4,0,471,450,-0.0292,280.6907,6.8213,0.4212,54.892635,9.803651,108.3,5.845,1.85,335.95,54.892891,9.802320,54.895069,9.793790
1386789113,1,0,280.9,0,0,0,0,471,475,-0.0292,280.6907,6.8213,0.4212,54.892635,9.803619,108.3,5.845,1.85,335.95,54.892891,9.802320,54.895069,9.793790
1386789113,1,0,280.9,0,0,4,0,471,450,-0.0292,280.6907,6.8213,0.4212,54.892635,9.803589,108.3,5.845,1.85,335.95,54.892891,9.802320,54.895069,9.793790
1386789114,1,0,280.9,0,0,0,0,471,475,-0.0292,280.6907,6.8213,0.4212,54.892635,9.803558,108.3,5.845,1.85,335.95,54.892891,9.802320,54.895069,9.793790
1386789114,1,0,280.9,0,0,4,0,471,450,-0.0292,280.6907,6.8213,0.4212,54.892635,9.803528,108.3,5.845,1.85,335.95,54.892891,9.802320,54.895069,9.793790
1386789114,1,0,280.9,0,0,0,0,471,475,-0.0292,280.6907,6.8213,0.4212,54.892635,9.803497,108.3,5.845,1.85,335.95,54.892891,9.802320,54.895069,9.793790
1386789114,1,0,280.9,0,0,4,0,471,450,-0.0292,280.6907,6.8213,0.4212,54.892635,9.803467,108.3,5.845,1.85,335.95,54.892891,9.802320,54.895069,9.793790
1386789115,1,0,280.9,0,0,0,0,471,475,-0.0292,280.6907,6.8213,0.4212,54.892635,9.803436,108.3,5.845,1.85,335.95,54.892891,9.802320,54.895069,9.793790
1386789115,1,0,280.9,0,0,4,0,471,450,-0.0292,280.6907,6.8213,0.4212,54.892635,9.803405,108.3,5.845,1.85,335.95,54.892891,9.802320,54.895069,9.793790
1386789115,1,0,280.9,0,0,0,0,471,475,-0.0292,280.6907,6.8213,0.4212,54.892635,9.803374,108.3,5.845,1.85,335.95,54.892891,9.802320,54.895069,9.793790
1386789115,1,0,280.9,0,0,4,0,471,450,-0.0292,280.6907,6.8213,0.4212,54.892635,9.803344,108.3,5.845,1.85,335.95,54.892891,9.802320,54.895069,9.793790
1386789116,1,0,280.9,0,0,0,0,471,475,-0.0292,280.6907,6.8213,0.4212,54.892635,9.803313,108.3,5.845,1.85,335.95,54.892891,9.802320,54.895069,9.793790
1386789116,1,0,280.9,0,0,4,0,471,450,-0.0292,280.6907,6.8213,0.4212,54.892635,9.803283,108.3,5.845,1.85,335.95,54.892891,9.802320,54.895069,9.793790
1386789116,1,0,280.9,0,0,0,0,471,475,-0.0292,280.6907,6.8213,0.4212,54.892635,9.803252,108.3,5.845,1.85,335.95,54.892891,9.802320,54.895069,9.793790
1386789116,1,0,280.9,0,0,4,0,471,450,-0.0292,280.6907,6.8213,0.4212,54.892635,9.803222,108.3,5.845,1.85,335.95,54.892891,9.802320,54.895069,9.793790
1386789117,1,0,280.9,0,0,0,0,471,475,-0.0292,280.6907,6.8213,0.4212,54.892635,9.803190,108.3,5.845,1.85,335.95,54.892891,9.802320,54.895069,9.793790
1386789117,1,0,280.9,0,0,4,0,471,450,-0.0292,280.6907,6.8213,0.4212,54.892635,9.803160,108.3,5.845,1.85,335.95,54.892891,9.802320,54.895069,9.793790
1386789117,1,0,280.9,0,0,0,0,471,475,-0.0292,280.6907,6.8213,0.4212,54.892635,9.803129,108.3,5.845,1.85,335.95,54.892891,9.802320,54.895069,9.793790
1386789117,1,0,280.9,0,0,4,0,471,450,-0.0292,280.6907,6.8213,0.4212,54.892635,9.803099,108.3,5.845,1.85,335.95,54.892891,9.802320,54.895069,9.793790
1386789118,1,0,280.9,0,0,0,0,471,475,-0.0292,280.6907,6.8213,0.4212,54.892635,9.803068,108.3,5.845,1.85,335.95,54.892891,9.802320,54.895069,9.793790
1386789118,1,0,280.9,0,0,4,0,471,450,-0.0292,280.6907,6.8213,0.4212,54.892635,9.803038,108.3,5.845,1.85,335.95,54.892891,9.802320,54.895069,9.793790
1386789118,1,0,280.9,0,0,0,0,471,475,-0.0292,280.6907,6.8213,0.4212,54.892635,9.803007,108.3,5.845,1.85,335.95,54.892891,9.802320,54.895069,9.793790
1386789118,1,0,280.9,0,0,4,0,471,450,-0.0292,280.6907,6.8213,0.4212,54.892635,9.802976,108.3,5.845,1.85,335.95,54.892891,9.802320,54.895069,9.793790
1386789119,1,0,280.9,0,0,0,0,471,475,-0.0292,280.6907,6.8213,0.4212,54.892635,9.802945,108.3,5.845,1.85,335.95,54.892891,9.802320,54.895069,9.793790
1386789119,1,0,280.9,0,0,4,0,471,450,-0.0292,280.6907,6.8213,0.4212,54.892635,9.802915,108.3,5.845,1.85,335.95,54.892891,9.802320,54.895069,9.793790
1386789119,1,0,280.9,0,0,0,0,471,475,-0.0292,280.6907,6.8213,0.4212,54.892635,9.802884,108.3,5.845,1.85,335.95,54.892891,9.802320,54.895069,9.793790
1386789119,1,0,280.9,0,0,4,0,471,450,-0.0292,280.6907,6.8213,0.4212,54.892635,9.802854,108.3,5.845,1.85,335.95,54.892891,9.802320,54.895069,9.793790
1386789120,1,0,280.9,0,0,0,0,471,475,-0.0292,280.6907,6.8213,0.4212,54.892635,9.802823,108.3,5.845,1.85,335.95,54.892891,9.802320,54.895069,9.793790
1386789120,1,0,280.9,0,0,4,0,471,450,-0.0292,280.6907,6.8213,0.4212,54.892635,9.802793,108.3,5.845,1.85,335.95,54.892891,9.802320,54.895069,9.793790
1386789120,1,0,280.9,0,0,0,0,471,475,-0.0292,280.6907,6.8213,0.4212,54.892635,9.802761,108.3,5.845,1.85,335.95,54.892891,9.802320,54.895069,9.793790
1386789120,1,0,280.9,0,0,4,0,471,450,-0.0292,280.6907,6.8213,0.4212,54.892635,9.802731,108.3,5.845,1.85,335.95,54.892891,9.802320,54.895069,9.793790
1386789121,1,0,280.9,0,0,0,0,471,475,-0.0292,280.6907,6.8213,0.4212,54.892635,9.802700,108.3,5.845,1.85,335.95,54.892891,9.802320,54.895069,9.793790
1386789121,1,0,280.9,0,0,4,0,471,450,-0.0292,280.6907,6.8213,0.4212,54.892635,9.802670,108.3,5.845,1.85,335.95,54.892891,9.802320,54.895069,9.793790
1386789121,1,0,280.9,0,0,0,0,471,475,-0.0292,280.6907,6.8213,0.4212,54.892635,9.802639,108.3,5.845,1.85,335.95,54.892891,9.802320,54.895069,9.793790
1386789121,1,0,280.9,0,0,4,0,471,450,-0.0292,280.6907,6.8213,0.4212,54.892635,9.802608,108.3,5.845,1.85,335.95,54.892891,9.802320,54.895069,9.793790
1386789122,1,0,280.9,0,0,0,0,471,475,-0.0292,280.6907,6.8213,0.4212,54.892635,9.802578,108.3,5.845,1.85,335.95,54.892891,9.802320,54.895069,9.793790
1386789122,1,0,280.9,0,0,4,0,471,450,-0.0292,280.6907,6.8213,0.4212,54.892635,9.802547,108.3,5.845,1.85,335.95,54.892891,9.802320,54.895069,9.793790
1386789122,1,0,280.9,0,0,0,0,471,475,-0.0292,280.6907,6.8213,0.4212,54.892635,9.802516,108.3,5.845,1.85,335.95,54.892891,9.802320,54.895069,9.793790
1386789122,1,0,280.9,0,0,4,0,471,450,-0.0292,280.6907,6.8213,0.4212,54.892635,9.802485,108.3,5.845,1.85,335.95,54.892891,9.802320,54.895069,9.793790
1386789123,1,0,280.9,0,0,0,0,471,475,-0.0292,280.6907,6.8213,0.4212,54.892635,9.802455,108.3,5.845,1.85,335.95,54.892891,9.802320,54.895069,9.793790
1386789123,1,0,280.9,0,0,4,0,471,450,-0.0292,280.6907,6.8213,0.4212,54.892635,9.802424,108.3,5.845,1.85,335.95,54.892891,9.802320,54.895069,9.793790
1386789123,1,0,280.9,0,0,0,0,471,475,-0.0292,280.6907,6.8213,0.4212,54.892635,9.802394,108.3,5.845,1.85,335.95,54.892891,9.802320,54.895069,9.793790
1386789123,1,0,280.9,0,0,4,0,471,450,-0.0292,280.6907,6.8213,0.4212,54.892635,9.802363,108.3,5.845,1.85,335.95,54.892891,9.802320,54.895069,9.793790
1386789124,1,0,280.9,0,0,0,0,471,475,-0.0292,280.6907,6.8213,0.4212,54.892635,9.802332,108.3,5.845,1.85,335.95,54.892891,9.802320,54.895069,9.793790
1386789124,1,0,280.9,0,0,4,0,471,450,-0.0292,280.6907,6.8213,0.4212,54.892635,9.802301,108.3,5.845,1.85,335.95,54.892891,9.802320,54.895069,9.793790
1386789124,1,0,280.9,0,0,0,0,471,475,-0.0292,280.6907,6.8213,0.4212,54.892635,9.802271,108.3,5.845,1.85,335.95,54.892891,9.802320,54.895069,9.793790
1386789124,1,0,280.9,0,0,4,0,471,450,-0.0292,280.6907,6.8213,0.4212,54.892635,9.802240,108.3,5.845,1.85,335.95,54.892891,9.802320,54.895069,9.793790
1386789125,1,0,280.9,0,0,0,0,471,475,-0.0292,280.6907,6.8213,0.4212,54.892635,9.802209,108.3,5.845,1.85,335.95,54.892891,9.802320,54.895069,9.793790
1386789125,1,0,280.9,0,0,4,0,471,450,-0.0292,280.6907,6.8213,0.4212,54.892635,9.802178,108.3,5.845,1.85,335.95,54.892891,9.802320,54.895069,9.793790
1386789125,1,0,280.9,0,0,0,0,471,475,-0.0292,280.6907,6.8213,0.4212,54.892635,9.802148,108.3,5.845,1.85,335.95,54.892891,9.802320,54.895069,9.793790
1386789125,1,0,280.9,0,0,4,0,471,450,-0.0292,280.6907,6.8213,0.4212,54.892635,9.802116,108.3,5.845,1.85,335.95,54.892891,9.802320,54.895069,9.793790
1386789126,1,0,280.9,0,0,0,0,471,475,-0.0292,280.6907,6.8213,0.4212,54.892635,9.802086,108.3,5.845,1.85,335.95,54.892891,9.802320,54.895069,9.793790
1386789126,1,0,280.9,0,0,4,0,471,450,-0.0292,280.6907,6.8213,0.4212,54.892635,9.802055,108.3,5.845,1.85,335.95,54.892891,9.802320,54.895069,9.793790
1386789126,1,0,280.9,0,0,0,0,471,475,-0.0292,280.6907,6.8213,0.4212,54.892635,9.802025,108.3,5.845,1.85,335.95,54.892891,9.802320,54.895069,9.793790
1386789126,1,0,280.9,0,0,4,0,471,450,-0.0292,280.6907,6.8213,0.4212,54.892635,9.801993,108.3,5.845,1.85,335.95,54.892891,9.802320,54.895069,9.793790
1386789127,1,0,280.9,0,0,0,0,471,475,-0.0292,280.6907,6.8213,0.4212,54.892635,9.801963,108.3,5.845,1.85,335.95,54.892891,9.802320,54.895069,9.793790
1386789127,1,0,280.9,0,0,4,0,471,450,-0.0292,280.6907,6.8213,0.4212,54.892635,9.801932,108.3,5.845,1.85,335.95,54.892891,9.802320,54.895069,9.793790
1386789127,1,0,280.9,0,0,0,0,471,475,-0.0292,280.6907,6.8213,0.4212,54.892635,9.801902,108.3,5.845,1.85,335.95,54.892891,9.802320,54.895069,9.793790
1386789128,1,0,280.9,0,0,4,0,471,450,-0.0292,280.6907,6.8213,0.4212,54.892635,9.801871,108.3,5.845,1.85,335.95,54.892891,9.802320,54.895069,9.793790
1386789128,1,0,280.9,0,0,0,0,471,475,-0.0292,280.6907,6.8213,0.4212,54.892635,9.801841,108.3,5.845,1.85,335.95,54.892891,9.802320,54.895069,9.793790
1386789128,1,0,280.9,0,0,4,0,471,450,-0.0292,280.6907,6.8213,0.4212,54.892635,9.801810,108.3,5.845,1.85,335.95,54.892891,9.802320,54.895069,9.793790
1386789128,1,0,280.9,0,0,0,0,471,475,-0.0292,280.6907,6.8213,0.4212,54.892635,9.801779,108.3,5.845,1.85,335.95,54.892891,9.802320,54.895069,9.793790
1386789129,1,0,280.9,0,0,4,0,471,450,-0.0292,280.6907,6.8213,0.4212,54.892635,9.801748,108.3,5.845,1.85,335.95,54.892891,9.802320,54.895069,9.793790
1386789129,1,0,280.9,0,0,0,0,471,475,-0.0292,280.6907,6.8213,0.4212,54.892635,9.801718,108.3,5.845,1.85,335.95,54.892891,9.802320,54.895069,9.793790
1386789129,1,0,280.9,0,0,4,0,471,450,-0.0292,280.6907,6.8213,0.4212,54.892635,9.801687,108.3,5.845,1.85,335.95,54.892891,9.802320,54.895069,9.793790
1386789129,1,0,280.9,0,0,0,0,471,475,-0.0292,280.6907,6.8213,0.4212,54.892635,9.801657,108.3,5.845,1.85,335.95,54.892891,9.802320,54.895069,9.793790
1386789130,1,0,280.9,0,0,4,0,471,450,-0.0292,280.6907,6.8213,0.4212,54.892635,9.801626,108.3,5.845,1.85,335.95,54.892891,9.802320,54.895069,9.793790
1386789130,1,0,280.9,0,0,0,0,471,475,-0.0292,280.6907,6.8213,0.4212,54.892635,9.801596,108.3,5.845,1.85,335.95,54.892891,9.802320,54.895069,9.793790
1386789130,1,0,280.9,0,0,4,0,471,450,-0.0292,280.6907,6.8213,0.4212,54.892635,9.801564,108.3,5.845,1.85,335.95,54.892891,9.802320,54.895069,9.793790
1386789130,1,0,280.9,0,0,0,0,471,475,-0.0292,280.6907,6.8213,0.4212,54.892635,9.801534,108.3,5.845,1.85,335.95,54.892891,9.802320,54.895069,9.793790
1386789131,1,0,280.9,0,0,4,0,471,450,-0.0292,280.6907,6.8213,0.4212,54.892635,9.801503,108.3,5.845,1.85,335.95,54.892891,9.802320,54.895069,9.793790
1386789131,1,0,545.9,0,35,8,0,471,475,-0.0292,271.3574,6.8213,0.4212,54.892635,9.801473,108.3,5.845,1.85,335.95,54.892891,9.802320,54.895069,9.793790
1386789131,1,0,545.9,0,35,12,0,409,450,-0.0292,262.0240,6.8213,0.4212,54.892632,9.801441,108.3,5.845,1.85,335.95,54.892891,9.802320,54.895069,9.793790
1386789131,1,0,545.9,0,35,16,0,345,425,-0.0292,252.6907,6.8213,0.4212,54.892628,9.801412,108.3,5.845,1.85,335.95,54.892891,9.802320,54.895069,9.793790
1386789132,1,0,545.9,0,35,20,0,278,400,-0.0292,243.3574,6.8213,0.4212,54.892620,9.801384,108.3,5.845,1.85,335.95,54.892891,9.802320,54.895069,9.793790
1386789132,1,0,545.9,0,35,24,0,211,375,-0.0292,234.0240,6.8213,0.4212,54.892609,9.801358,108.3,5.845,1.85,335.95,54.892891,9.802320,54.895069,9.793790
1386789132,1,0,545.9,0,35,28,0,146,350,-0.0292,224.6907,6.8213,0.4212,54.892597,9.801336,108.3,5.845,1.85,335.95,54.892891,9.802320,54.895069,9.793790
1386789132,1,0,545.9,0,35,32,0,85,325,-0.0292,215.3574,6.8213,0.4212,54.892582,9.801318,108.3,5.845,1.85,335.95,54.892891,9.802320,54.895069,9.793790
1386789133,1,0,545.9,0,29,28,0,35,300,-0.0292,207.6240,6.8213,0.4212,54.892567,9.801304,108.3,5.845,1.85,335.95,54.892891,9.802320,54.895069,9.793790
1386789133,1,0,545.9,0,22,24,0,8,275,-0.0292,201.7574,6.8213,0.4212,54.892548,9.801292,108.3,5.845,1.85,335.95,54.892891,9.802320,54.895069,9.793790
1386789133,1,0,545.9,0,16,20,0,0,250,-0.0292,197.4907,6.8213,0.4212,54.892529,9.801283,108.3,5.845,1.85,335.95,54.892891,9.802320,54.895069,9.793790
1386789133,1,0,545.9,0,12,16,0,409,275,-0.0292,194.2907,6.8213,0.4212,54.892513,9.801275,108.3,5.845,1.85,335.95,54.892891,9.802320,54.895069,9.793790
1386789134,1,0,545.9,0,8,12,0,409,300,-0.0292,192.1574,6.8213,0.4212,54.892494,9.801269,108.3,5.845,1.85,335.95,54.892891,9.802320,54.895069,9.793790
1386789134,1,0,545.9,0,6,8,0,0,275,-0.0292,190.5574,6.8213,0.4212,54.892475,9.801263,108.3,5.845,1.85,335.95,54.892891,9.802320,54.895069,9.793790
1386789134,1,0,545.9,0,5,4,0,0,250,-0.0292,189.2240,6.8213,0.4212,54.892456,9.801258,108.3,5.845,1.85,335.95,54.892891,9.802320,54.895069,9.793790
1386789134,1,0,545.9,0,3,0,0,0,225,-0.0292,188.4240,6.8213,0.4212,54.892441,9.801253,108.3,5.845,1.85,335.95,54.892891,9.802320,54.895069,9.793790
1386789135,1,0,545.9,0,2,4,0,0,200,-0.0292,187.8907,6.8213,0.4212,54.892422,9.801249,108.3,5.845,1.85,335.95,54.892891,9.802320,54.895069,9.793790
1386789135,1,0,545.9,0,2,0,0,0,175,-0.0292,187.3574,6.8213,0.4212,54.892403,9.801244,108.3,5.845,1.85,335.95,54.892891,9.802320,54.895069,9.793790
1386789135,1,0,545.9,0,1,4,0,0,150,-0.0292,187.0907,6.8213,0.4212,54.892384,9.801240,108.3,5.845,1.85,335.95,54.892891,9.802320,54.895069,9.793790
1386789135,1,0,545.9,0,1,0,0,0,125,-0.0292,186.8240,6.8213,0.4212,54.892368,9.801236,108.3,5.845,1.85,335.95,54.892891,9.802320,54.895069,9.793790
1386789136,1,0,545.9,0,1,4,0,0,100,-0.0292,186.5574,6.8213,0.4212,54.892349,9.801233,108.3,5.845,1.85,335.95,54.892891,9.802320,54.895069,9.793790
1386789136,1,0,545.9,0,1,0,0,0,75,-0.0292,186.2907,6.8213,0.4212,54.892330,9.801230,108.3,5.845,1.85,335.95,54.892891,9.802320,54.895069,9.793790
1386789136,1,0,545.9,0,0,4,0,0,50,-0.0292,186.2907,6.8213,0.4212,54.892311,9.801228,108.3,5.845,1.85,335.95,54.892891,9.802320,54.895069,9.793790
1386789136,1,0,545.9,0,0,0,0,0,25,-0.0292,186.2907,6.8213,0.4212,54.892296,9.801224,108.3,5.845,1.85,335.95,54.892891,9.802320,54.895069,9.793790
1386789137,1,0,545.9,0,0,4,0,0,0,-0.0292,186.2907,6.8213,0.4212,54.892277,9.801220,108.3,5.845,1.85,335.95,54.892891,9.802320,54.895069,9.793790
1386789137,1,0,545.9,0,0,0,0,0,25,-0.0292,186.2907,6.8213,0.4212,54.892258,9.801216,108.3,5.845,1.85,335.95,54.892891,9.802320,54.895069,9.793790
1386789137,1,0,485.9,0,35,4,0,0,0,-0.0292,176.9574,6.8213,0.4212,54.892242,9.801218,108.3,5.845,1.85,335.95,54.892891,9.802320,54.895069,9.793790
1386789137,1,0,485.9,0,35,8,0,0,25,-0.0292,167.6241,6.8213,0.4212,54.892223,9.801225,108.3,5.845,1.85,335.95,54.892891,9.802320,54.895069,9.793790
1386789138,1,0,485.9,0,35,12,0,0,0,-0.0292,158.2907,6.8213,0.4212,54.892204,9.801236,108.3,5.845,1.85,335.95,54.892891,9.802320,54.895069,9.793790
1386789138,1,0,485.9,0,32,16,0,0,25,-0.0292,149.7574,6.8213,0.4212,54.892189,9.801252,108.3,5.845,1.85,335.95,54.892891,9.802320,54.895069,9.793790
1386789138,1,0,485.9,0,24,20,0,0,0,-0.0292,143.3574,6.8213,0.4212,54.892178,9.801270,108.3,5.845,1.85,335.95,54.892891,9.802320,54.895069,9.793790
1386789138,1,0,485.9,0,17,16,0,0,25,-0.0292,138.8241,6.8213,0.4212,54.892162,9.801291,108.3,5.845,1.85,335.95,54.892891,9.802320,54.895069,9.793790
1386789139,1,0,485.9,0,13,12,0,0,0,-0.0292,135.3574,6.8213,0.4212,54.892151,9.801313,108.3,5.845,1.85,335.95,54.892891,9.802320,54.895069,9.793790
1386789139,1,0,485.9,0,9,8,0,0,25,-0.0292,132.9574,6.8213,0.4212,54.892139,9.801336,108.3,5.845,1.85,335.95,54.892891,9.802320,54.895069,9.793790
1386789139,1,0,390.9,0,35,12,0,409,50,-0.0292,123.6241,6.8213,0.4212,54.892132,9.801362,108.3,5.845,1.85,335.95,54.892891,9.802320,54.895069,9.793790
1386789139,1,0,390.9,0,35,16,0,409,75,-0.0292,114.2907,6.8213,0.4212,54.892124,9.801391,108.3,5.845,1.85,335.95,54.892891,9.802320,54.895069,9.793790
1386789140,1,0,390.9,0,35,20,0,409,100,-0.0292,104.9574,6.8213,0.4212,54.892120,9.801420,108.3,5.845,1.85,335.95,54.892891,9.802320,54.895069,9.793790
1386789140,1,0,390.9,0,35,24,0,6,75,-0.0292,95.6241,6.8213,0.4212,54.892117,9.801451,108.3,5.845,1.85,335.95,54.892891,9.802320,54.895069,9.793790
1386789140,1,0,390.9,0,35,28,0,39,50,-0.0292,86.2907,6.8213,0.4212,54.892120,9.801482,108.3,5.845,1.85,335.95,54.892891,9.802320,54.895069,9.793790
1386789140,1,0,390.9,0,35,32,0,91,75,-0.0292,76.9574,6.8213,0.4212,54.892124,9.801513,108.3,5.845,1.85,335.95,54.892891,9.802320,54.895069,9.793790
1386789141,1,0,390.9,0,35,36,0,152,100,-0.0292,67.6240,6.8213,0.4212,54.892132,9.801541,108.3,5.845,1.85,335.95,54.892891,9.802320,54.895069,9.793790
1386789141,1,0,390.9,0,35,32,0,218,125,-0.0292,58.2907,6.8213,0.4212,54.892143,9.801568,108.3,5.845,1.85,335.95,54.892891,9.802320,54.895069,9.793790
1386789141,1,0,390.9,0,27,28,0,285,150,-0.0292,51.0907,6.8213,0.4212,54.892151,9.801592,108.3,5.845,1.85,335.95,54.892891,9.802320,54.895069,9.793790
1386789141,1,0,390.9,0,20,24,0,336,175,-0.0292,45.7574,6.8213,0.4212,54.892162,9.801614,108.3,5.845,1.85,335.95,54.892891,9.802320,54.895069,9.793790
1386789142,1,0,390.9,0,15,20,0,373,200,-0.0292,41.7574,6.8213,0.4212,54.892178,9.801635,108.3,5.845,1.85,335.95,54.892891,9.802320,54.895069,9.793790
1386789142,1,0,390.9,0,11,16,0,401,225,-0.0292,38.8240,6.8213,0.4212,54.892193,9.801654,108.3,5.845,1.85,335.95,54.892891,9.802320,54.895069,9.793790
1386789142,1,0,390.9,0,8,12,0,421,250,-0.0292,36.6907,6.8213,0.4212,54.892204,9.801673,108.3,5.845,1.85,335.95,54.892891,9.802320,54.895069,9.793790
1386789142,1,0,390.9,0,6,8,0,435,275,-0.0292,35.0907,6.8213,0.4212,54.892220,9.801691,108.3,5.845,1.85,335.95,54.892891,9.802320,54.895069,9.793790
1386789143,1,0,390.9,0,4,4,0,445,300,-0.0292,34.0240,6.8213,0.4212,54.892235,9.801708,108.3,5.845,1.85,335.95,54.892891,9.802320,54.895069,9.793790
1386789143,1,0,390.9,0,3,0,0,452,325,-0.0292,33.2240,6.8213,0.4212,54.892250,9.801725,108.3,5.845,1.85,335.95,54.892891,9.802320,54.895069,9.793790
1386789143,1,0,390.9,0,2,4,0,458,350,-0.0292,32.6907,6.8213,0.4212,54.892265,9.801742,108.3,5.845,1.85,335.95,54.892891,9.802320,54.895069,9.793790
1386789143,1,0,390.9,0,2,0,0,461,375,-0.0292,32.1574,6.8213,0.4212,54.892277,9.801758,108.3,5.845,1.85,335.95,54.892891,9.802320,54.895069,9.793790
1386789144,1,0,390.9,0,1,4,0,465,400,-0.0292,31.8907,6.8213,0.4212,54.892292,9.801775,108.3,5.845,1.85,335.95,54.892891,9.802320,54.895069,9.793790
1386789144,1,0,390.9,0,1,0,0,466,425,-0.0292,31.6241,6.8213,0.4212,54.892307,9.801791,108.3,5.845,1.85,335.95,54.892891,9.802320,54.895069,9.793790
1386789144,1,0,390.9,0,1,4,0,468,450,-0.0292,31.3574,6.8213,0.4212,54.892323,9.801807,108.3,5.845,1.85,335.95,54.892891,9.802320,54.895069,9.793790
1386789144,1,0,390.9,0,0,0,0,470,475,-0.0292,31.3574,6.8213,0.4212,54.892338,9.801824,108.3,5.845,1.85,335.95,54.892891,9.802320,54.895069,9.793790
1386789145,1,0,390.9,0,0,4,0,470,450,-0.0292,31.3574,6.8213,0.4212,54.892357,9.801840,108.3,5.845,1.85,335.95,54.892891,9.802320,54.895069,9.793790
1386789145,1,0,390.9,0,0,0,0,470,475,-0.0292,31.3574,6.8213,0.4212,54.892372,9.801856,108.3,5.845,1.85,335.95,54.892891,9.802320,54.895069,9.793790
1386789145,1,0,390.9,0,0,4,0,470,450,-0.0292,31.3574,6.8213,0.4212,54.892387,9.801872,108.3,5.845,1.85,335.95,54.892891,9.802320,54.895069,9.793790
1386789145,1,0,390.9,0,0,0,0,470,475,-0.0292,31.3574,6.8213,0.4212,54.892406,9.801888,108.3,5.845,1.85,335.95,54.892891,9.802320,54.895069,9.793790
1386789146,1,0,390.9,0,0,4,0,470,450,-0.0292,31.3574,6.8213,0.4212,54.892422,9.801905,108.3,5.845,1.85,335.95,54.892891,9.802320,54.895069,9.793790
1386789146,1,0,390.9,0,0,0,0,470,475,-0.0292,31.3574,6.8213,0.4212,54.892437,9.801921,108.3,5.845,1.85,335.95,54.892891,9.802320,54.895069,9.793790
1386789146,1,0,390.9,0,0,4,0,470,450,-0.0292,31.3574,6.8213,0.4212,54.892456,9.801937,108.3,5.845,1.85,335.95,54.892891,9.802320,54.895069,9.793790
1386789146,1,0,390.9,0,0,0,0,470,475,-0.0292,31.3574,6.8213,0.4212,54.892471,9.801953,108.3,5.845,1.85,335.95,54.892891,9.802320,54.895069,9.793790
1386789147,1,0,390.9,0,0,4,0,470,450,-0.0292,31.3574,6.8213,0.4212,54.892487,9.801970,108.3,5.845,1.85,335.95,54.892891,9.802320,54.895069,9.793790
1386789147,1,0,390.9,0,0,0,0,470,475,-0.0292,31.3574,6.8213,0.4212,54.892498,9.801986,108.3,5.845,1.85,335.95,54.892891,9.802320,54.895069,9.793790
1386789147,1,0,390.9,0,0,4,0,470,450,-0.0292,31.3574,6.8213,0.4212,54.892513,9.802002,108.3,5.845,1.85,335.95,54.892891,9.802320,54.895069,9.793790
1386789147,1,0,390.9,0,0,0,0,470,475,-0.0292,31.3574,6.8213,0.4212,54.892529,9.802018,108.3,5.845,1.85,335.95,54.892891,9.802320,54.895069,9.793790
1386789148,1,0,390.9,0,0,4,0,470,450,-0.0292,31.3574,6.8213,0.4212,54.892544,9.802035,108.3,5.845,1.85,335.95,54.892891,9.802320,54.895069,9.793790
1386789148,1,0,390.9,0,0,0,0,470,475,-0.0292,31.3574,6.8213,0.4212,54.892559,9.802052,108.3,5.845,1.85,335.95,54.892891,9.802320,54.895069,9.793790
1386789148,1,0,390.9,0,0,4,0,470,450,-0.0292,31.3574,6.8213,0.4212,54.892578,9.802068,108.3,5.845,1.85,335.95,54.892891,9.802320,54.895069,9.793790
1386789148,1,0,390.9,0,0,0,0,470,475,-0.0292,31.3574,6.8213,0.4212,54.892593,9.802084,108.3,5.845,1.85,335.95,54.892891,9.802320,54.895069,9.793790
1386789149,1,0,390.9,0,0,4,0,470,450,-0.0292,31.3574,6.8213,0.4212,54.892609,9.802100,108.3,5.845,1.85,335.95,54.892891,9.802320,54.895069,9.793790
1386789149,1,0,390.9,0,0,0,0,470,475,-0.0292,31.3574,6.8213,0.4212,54.892628,9.802116,108.3,5.845,1.85,335.95,54.892891,9.802320,54.895069,9.793790
1386789149,1,0,390.9,0,0,4,0,470,450,-0.0292,31.3574,6.8213,0.4212,54.892643,9.802133,108.3,5.845,1.85,335.95,54.892891,9.802320,54.895069,9.793790
1386789149,1,0,390.9,0,0,0,0,470,475,-0.0292,31.3574,6.8213,0.4212,54.892658,9.802149,108.3,5.845,1.85,335.95,54.892891,9.802320,54.895069,9.793790
1386789150,1,0,390.9,0,0,4,0,470,450,-0.0292,31.3574,6.8213,0.4212,54.892677,9.802165,108.3,5.845,1.85,335.95,54.892891,9.802320,54.895069,9.793790
1386789150,1,0,390.9,0,0,0,0,470,475,-0.0292,31.3574,6.8213,0.4212,54.892693,9.802181,108.3,5.845,1.85,335.95,54.892891,9.802320,54.895069,9.793790
1386789150,1,0,390.9,0,0,4,0,470,450,-0.0292,31.3574,6.8213,0.4212,54.892708,9.802197,108.3,5.845,1.85,335.95,54.892891,9.802320,54.895069,9.793790
1386789150,1,0,390.9,0,0,0,0,470,475,-0.0292,31.3574,6.8213,0.4212,54.892719,9.802214,108.3,5.845,1.85,335.95,54.892891,9.802320,54.895069,9.793790
1386789151,1,0,390.9,0,0,4,0,470,450,-0.0292,31.3574,6.8213,0.4212,54.892735,9.802230,108.3,5.845,1.85,335.95,54.892891,9.802320,54.895069,9.793790
1386789151,1,0,390.9,0,0,0,0,470,475,-0.0292,31.3574,6.8213,0.4212,54.892750,9.802246,108.3,5.845,1.85,335.95,54.892891,9.802320,54.895069,9.793790
1386789151,1,0,390.9,0,0,4,0,470,450,-0.0292,31.3574,6.8213,0.4212,54.892765,9.802262,108.3,5.845,1.85,335.95,54.892891,9.802320,54.895069,9.793790
1386789151,1,0,390.9,0,0,0,0,470,475,-0.0292,31.3574,6.8213,0.4212,54.892780,9.802279,108.3,5.845,1.85,335.95,54.892891,9.802320,54.895069,9.793790
1386789152,1,0,390.9,0,0,4,0,470,450,-0.0292,31.3574,6.8213,0.4212,54.892799,9.802295,108.3,5.845,1.85,335.95,54.892891,9.802320,54.895069,9.793790
