MCU_timestamp,Navigation_System,Manual_Control,Guidance_Heading,Manual_Ctrl_Rudder,Rudder_Desired_Angle,Rudder_Feedback,Manual_Ctrl_Sail,Sail_Desired_Pos,Sail_Feedback,Rate,Heading,Pitch,Roll,Latitude,Longitude,COG,SOG,Wind_Speed,Wind_Angle,Point_Start_Lat,Point_Start_Lon,Point_End_Lat,Point_End_Lon
1386951456,0,0,0.0,0,0,0,0,0,0,-0.0292,-296.3745,6.8213,0.4212,54.894962,9.796141,108.3,5.845,1.85,335.95,0.000000,0.000000,0.000000,0.000000
1386951456,0,0,0.0,0,0,0,0,0,0,-0.0292,-296.3745,6.8213,0.4212,54.894962,9.796141,108.3,5.845,1.85,335.95,0.000000,0.000000,0.000000,0.000000
1386951457,0,0,0.0,0,0,0,0,0,0,-0.0292,-296.3745,6.8213,0.4212,54.894962,9.796141,108.3,5.845,1.85,335.95,0.000000,0.000000,0.000000,0.000000
1386951457,0,0,0.0,0,0,0,0,0,0,-0.0292,-296.3745,6.8213,0.4212,54.894962,9.796141,108.3,5.845,1.85,335.95,0.000000,0.000000,0.000000,0.000000
1386951457,0,0,0.0,0,0,0,0,0,0,-0.0292,-296.3745,6.8213,0.4212,54.894962,9.796141,108.3,5.845,1.85,335.95,0.000000,0.000000,0.000000,0.000000
1386951457,0,0,0.0,0,0,0,0,0,0,-0.0292,-296.3745,6.8213,0.4212,54.894962,9.796141,108.3,5.845,1.85,335.95,0.000000,0.000000,0.000000,0.000000
1386951458,0,0,0.0,0,0,0,0,0,0,-0.0292,-296.3745,6.8213,0.4212,54.894962,9.796141,108.3,5.845,1.85,335.95,0.000000,0.000000,0.000000,0.000000
1386951458,0,0,0.0,0,0,0,0,0,0,-0.0292,-296.3745,6.8213,0.4212,54.894962,9.796141,108.3,5.845,1.85,335.95,0.000000,0.000000,0.000000,0.000000
1386951458,0,0,0.0,0,0,0,0,0,0,-0.0292,-296.3745,6.8213,0.4212,54.894962,9.796141,108.3,5.845,1.85,335.95,0.000000,0.000000,0.000000,0.000000
1386951458,0,0,0.0,0,0,0,0,0,0,-0.0292,-296.3745,6.8213,0.4212,54.894962,9.796141,108.3,5.845,1.85,335.95,0.000000,0.000000,0.000000,0.000000
1386951459,0,0,0.0,0,0,0,0,0,0,-0.0292,-296.3745,6.8213,0.4212,54.894962,9.796141,108.3,5.845,1.85,335.95,0.000000,0.000000,0.000000,0.000000
1386951459,0,0,0.0,0,0,0,0,0,0,-0.0292,-296.3745,6.8213,0.4212,54.894962,9.796141,108.3,5.845,1.85,335.95,0.000000,0.000000,0.000000,0.000000
1386951459,0,0,0.0,0,0,0,0,0,0,-0.0292,-296.3745,6.8213,0.4212,54.894962,9.796141,108.3,5.845,1.85,335.95,0.000000,0.000000,0.000000,0.000000
1386951459,0,0,0.0,0,0,0,0,0,0,-0.0292,-296.3745,6.8213,0.4212,54.894962,9.796141,108.3,5.845,1.85,335.95,0.000000,0.000000,0.000000,0.000000
1386951460,0,0,0.0,0,0,0,0,0,0,-0.0292,-296.3745,6.8213,0.4212,54.894962,9.796141,108.3,5.845,1.85,335.95,0.000000,0.000000,0.000000,0.000000
1386951460,0,0,0.0,0,0,0,0,0,0,-0.0292,-296.3745,6.8213,0.4212,54.894962,9.796141,108.3,5.845,1.85,335.95,0.000000,0.000000,0.000000,0.000000
1386951460,0,0,0.0,0,0,0,0,0,0,-0.0292,-296.3745,6.8213,0.4212,54.894962,9.796141,108.3,5.845,1.85,335.95,0.000000,0.000000,0.000000,0.000000
1386951460,0,0,0.0,0,0,0,0,0,0,-0.0292,-296.3745,6.8213,0.4212,54.894962,9.796141,108.3,5.845,1.85,335.95,0.000000,0.000000,0.000000,0.000000
1386951461,0,0,0.0,0,0,0,0,0,0,-0.0292,-296.3745,6.8213,0.4212,54.894962,9.796141,108.3,5.845,1.85,335.95,0.000000,0.000000,0.000000,0.000000
1386951461,0,0,0.0,0,0,0,0,0,0,-0.0292,-296.3745,6.8213,0.4212,54.894962,9.796141,108.3,5.845,1.85,335.95,0.000000,0.000000,0.000000,0.000000
1386951461,0,0,0.0,0,0,0,0,0,0,-0.0292,-296.3745,6.8213,0.4212,54.894962,9.796141,108.3,5.845,1.85,335.95,0.000000,0.000000,0.000000,0.000000
1386951461,4,0,0.0,0,0,0,0,0,0,-0.0292,-296.3745,6.8213,0.4212,54.894962,9.796141,108.3,5.845,1.85,335.95,0.000000,0.000000,0.000000,0.000000
1386951462,1,0,485.9,0,-35,-4,0,362,350,-0.0292,-287.0412,6.8213,0.4212,54.894970,9.796171,108.3,5.845,1.85,335.95,54.894962,9.796141,54.895069,9.793790
1386951462,1,0,485.9,0,-35,-8,0,511,400,-0.0292,-277.7079,6.8213,0.4212,54.894974,9.796203,108.3,5.845,1.85,335.95,54.894962,9.796141,54.895069,9.793790
1386951462,1,0,485.9,0,-35,-12,0,657,450,-0.0292,-268.3745,6.8213,0.4212,54.894970,9.796234,108.3,5.845,1.85,335.95,54.894962,9.796141,54.895069,9.793790
1386951462,1,0,485.9,0,-34,-16,0,797,500,-0.0292,-259.3078,6.8213,0.4212,54.894970,9.796265,108.3,5.845,1.85,335.95,54.894962,9.796141,54.895069,9.793790
1386951463,1,0,485.9,0,-25,-20,0,870,550,-0.0292,-252.6412,6.8213,0.4212,54.894966,9.796295,108.3,5.845,1.85,335.95,54.894962,9.796141,54.895069,9.793790
1386951463,1,0,485.9,0,-19,-16,0,870,600,-0.0292,-247.5745,6.8213,0.4212,54.894962,9.796324,108.3,5.845,1.85,335.95,54.894962,9.796141,54.895069,9.793790
1386951463,1,0,485.9,0,-14,-12,0,713,650,-0.0292,-243.8412,6.8213,0.4212,54.894955,9.796351,108.3,5.845,1.85,335.95,54.894962,9.796141,54.895069,9.793790
1386951463,1,0,485.9,0,-10,-8,0,713,700,-0.0292,-241.1745,6.8213,0.4212,54.894947,9.796379,108.3,5.845,1.85,335.95,54.894962,9.796141,54.895069,9.793790
1386951464,1,0,485.9,0,-7,-4,0,713,750,-0.0292,-239.3078,6.8213,0.4212,54.894936,9.796406,108.3,5.845,1.85,335.95,54.894962,9.796141,54.895069,9.793790
1386951464,1,0,485.9,0,-5,-8,0,713,700,-0.0292,-237.9745,6.8213,0.4212,54.894928,9.796432,108.3,5.845,1.85,335.95,54.894962,9.796141,54.895069,9.793790
1386951464,1,0,485.9,0,-4,-4,0,713,750,-0.0292,-236.9078,6.8213,0.4212,54.894917,9.796458,108.3,5.845,1.85,335.95,54.894962,9.796141,54.895069,9.793790
1386951464,1,0,485.9,0,-3,0,0,0,700,-0.0292,-236.1078,6.8213,0.4212,54.894909,9.796484,108.3,5.845,1.85,335.95,54.894962,9.796141,54.895069,9.793790
1386951465,1,0,485.9,0,-2,-4,0,0,650,-0.0292,-235.5745,6.8213,0.4212,54.894897,9.796510,108.3,5.845,1.85,335.95,54.894962,9.796141,54.895069,9.793790
1386951465,1,0,485.9,0,-2,0,0,0,600,-0.0292,-235.0411,6.8213,0.4212,54.894886,9.796535,108.3,5.845,1.85,335.95,54.894962,9.796141,54.895069,9.793790
1386951465,1,0,485.9,0,-1,-4,0,0,550,-0.0292,-234.7745,6.8213,0.4212,54.894875,9.796560,108.3,5.845,1.85,335.95,54.894962,9.796141,54.895069,9.793790
1386951465,1,0,485.9,0,-1,0,0,0,500,-0.0292,-234.5078,6.8213,0.4212,54.894863,9.796586,108.3,5.845,1.85,335.95,54.894962,9.796141,54.895069,9.793790
1386951466,1,0,485.9,0,0,4,0,0,450,-0.0292,-234.5078,6.8213,0.4212,54.894852,9.796611,108.3,5.845,1.85,335.95,54.894962,9.796141,54.895069,9.793790
1386951466,1,0,485.9,0,0,0,0,0,400,-0.0292,-234.5078,6.8213,0.4212,54.894840,9.796637,108.3,5.845,1.85,335.95,54.894962,9.796141,54.895069,9.793790
1386951466,1,0,485.9,0,0,4,0,0,350,-0.0292,-234.5078,6.8213,0.4212,54.894829,9.796662,108.3,5.845,1.85,335.95,54.894962,9.796141,54.895069,9.793790
1386951466,1,0,485.9,0,0,0,0,0,300,-0.0292,-234.5078,6.8213,0.4212,54.894817,9.796687,108.3,5.845,1.85,335.95,54.894962,9.796141,54.895069,9.793790
1386951467,1,0,485.9,0,0,4,0,0,250,-0.0292,-234.5078,6.8213,0.4212,54.894810,9.796713,108.3,5.845,1.85,335.95,54.894962,9.796141,54.895069,9.793790
1386951467,1,0,485.9,0,0,0,0,0,200,-0.0292,-234.5078,6.8213,0.4212,54.894798,9.796738,108.3,5.845,1.85,335.95,54.894962,9.796141,54.895069,9.793790
1386951467,1,0,485.9,0,0,4,0,0,150,-0.0292,-234.5078,6.8213,0.4212,54.894791,9.796763,108.3,5.845,1.85,335.95,54.894962,9.796141,54.895069,9.793790
1386951467,1,0,485.9,0,0,0,0,0,100,-0.0292,-234.5078,6.8213,0.4212,54.894779,9.796789,108.3,5.845,1.85,335.95,54.894962,9.796141,54.895069,9.793790
1386951468,1,0,485.9,0,0,4,0,0,50,-0.0292,-234.5078,6.8213,0.4212,54.894768,9.796815,108.3,5.845,1.85,335.95,54.894962,9.796141,54.895069,9.793790
1386951468,1,0,485.9,0,0,0,0,0,0,-0.0292,-234.5078,6.8213,0.4212,54.894760,9.796841,108.3,5.845,1.85,335.95,54.894962,9.796141,54.895069,9.793790
1386951468,1,0,485.9,0,0,4,0,0,0,-0.0292,-234.5078,6.8213,0.4212,54.894749,9.796865,108.3,5.845,1.85,335.95,54.894962,9.796141,54.895069,9.793790
1386951468,1,0,545.9,0,-35,0,0,0,0,-0.0292,-225.1745,6.8213,0.4212,54.894737,9.796887,108.3,5.845,1.85,335.95,54.894962,9.796141,54.895069,9.793790
1386951469,1,0,545.9,0,-35,-4,0,0,0,-0.0292,-215.8412,6.8213,0.4212,54.894722,9.796906,108.3,5.845,1.85,335.95,54.894962,9.796141,54.895069,9.793790
1386951469,1,0,545.9,0,-35,-8,0,0,0,-0.0292,-206.5078,6.8213,0.4212,54.894707,9.796920,108.3,5.845,1.85,335.95,54.894962,9.796141,54.895069,9.793790
1386951469,1,0,545.9,0,-32,-12,0,0,0,-0.0292,-197.9745,6.8213,0.4212,54.894688,9.796929,108.3,5.845,1.85,335.95,54.894962,9.796141,54.895069,9.793790
1386951469,1,0,545.9,0,-24,-16,0,0,0,-0.0292,-191.5745,6.8213,0.4212,54.894669,9.796935,108.3,5.845,1.85,335.95,54.894962,9.796141,54.895069,9.793790
1386951470,1,0,545.9,0,-18,-20,0,0,0,-0.0292,-186.7745,6.8213,0.4212,54.894653,9.796939,108.3,5.845,1.85,335.95,54.894962,9.796141,54.895069,9.793790
1386951470,1,0,545.9,0,-13,-16,0,0,0,-0.0292,-183.3078,6.8213,0.4212,54.894634,9.796941,108.3,5.845,1.85,335.95,54.894962,9.796141,54.895069,9.793790
1386951470,1,0,545.9,0,-9,-12,0,0,0,-0.0292,-180.9078,6.8213,0.4212,54.894615,9.796942,108.3,5.845,1.85,335.95,54.894962,9.796141,54.895069,9.793790
1386951470,1,0,545.9,0,-7,-8,0,0,0,-0.0292,-179.0412,6.8213,0.4212,54.894596,9.796942,108.3,5.845,1.85,335.95,54.894962,9.796141,54.895069,9.793790
1386951471,1,0,545.9,0,-5,-4,0,0,0,-0.0292,-177.7078,6.8213,0.4212,54.894581,9.796941,108.3,5.845,1.85,335.95,54.894962,9.796141,54.895069,9.793790
1386951471,1,0,545.9,0,-4,0,0,713,50,-0.0292,-176.6412,6.8213,0.4212,54.894562,9.796939,108.3,5.845,1.85,335.95,54.894962,9.796141,54.895069,9.793790
1386951471,1,0,545.9,0,-3,-4,0,713,100,-0.0292,-175.8412,6.8213,0.4212,54.894543,9.796937,108.3,5.845,1.85,335.95,54.894962,9.796141,54.895069,9.793790
1386951471,1,0,545.9,0,-2,0,0,713,150,-0.0292,-175.3078,6.8213,0.4212,54.894524,9.796934,108.3,5.845,1.85,335.95,54.894962,9.796141,54.895069,9.793790
1386951472,1,0,545.9,0,-1,-4,0,713,200,-0.0292,-175.0412,6.8213,0.4212,54.894508,9.796931,108.3,5.845,1.85,335.95,54.894962,9.796141,54.895069,9.793790
1386951472,1,0,545.9,0,-1,0,0,713,250,-0.0292,-174.7745,6.8213,0.4212,54.894489,9.796928,108.3,5.845,1.85,335.95,54.894962,9.796141,54.895069,9.793790
1386951472,1,0,545.9,0,-1,-4,0,713,300,-0.0292,-174.5078,6.8213,0.4212,54.894470,9.796926,108.3,5.845,1.85,335.95,54.894962,9.796141,54.895069,9.793790
1386951472,1,0,545.9,0,0,0,0,713,350,-0.0292,-174.5078,6.8213,0.4212,54.894451,9.796923,108.3,5.845,1.85,335.95,54.894962,9.796141,54.895069,9.793790
1386951473,1,0,280.9,0,-35,-4,0,713,400,-0.0292,-165.1745,6.8213,0.4212,54.894436,9.796914,108.3,5.845,1.85,335.95,54.894962,9.796141,54.895069,9.793790
1386951473,1,0,390.9,0,35,0,0,713,450,-0.0292,-174.5078,6.8213,0.4212,54.894417,9.796911,108.3,5.845,1.85,335.95,54.894962,9.796141,54.895069,9.793790
1386951473,1,0,390.9,0,35,4,0,713,500,-0.0292,-183.8412,6.8213,0.4212,54.894398,9.796914,108.3,5.845,1.85,335.95,54.894962,9.796141,54.895069,9.793790
1386951473,1,0,390.9,0,35,8,0,713,550,-0.0292,-193.1745,6.8213,0.4212,54.894382,9.796922,108.3,5.845,1.85,335.95,54.894962,9.796141,54.895069,9.793790
1386951474,1,0,390.9,0,35,12,0,713,600,-0.0292,-202.5078,6.8213,0.4212,54.894363,9.796933,108.3,5.845,1.85,335.95,54.894962,9.796141,54.895069,9.793790
1386951474,1,0,390.9,0,35,16,0,0,550,-0.0292,-211.8412,6.8213,0.4212,54.894348,9.796949,108.3,5.845,1.85,335.95,54.894962,9.796141,54.895069,9.793790
1386951474,0,0,390.9,0,35,16,0,0,550,-0.0292,-211.8412,6.8213,0.4212,54.894348,9.796949,108.3,5.845,1.85,335.95,54.894962,9.796141,54.895069,9.793790
1386951474,0,0,390.9,0,35,16,0,0,550,-0.0292,-211.8412,6.8213,0.4212,54.894348,9.796949,108.3,5.845,1.85,335.95,54.894962,9.796141,54.895069,9.793790
1386951475,0,0,390.9,0,35,16,0,0,550,-0.0292,-211.8412,6.8213,0.4212,54.894348,9.796949,108.3,5.845,1.85,335.95,54.894962,9.796141,54.895069,9.793790
1386951475,0,0,390.9,0,35,16,0,0,550,-0.0292,-211.8412,6.8213,0.4212,54.894348,9.796949,108.3,5.845,1.85,335.95,54.894962,9.796141,54.895069,9.793790
1386951475,0,0,390.9,0,35,16,0,0,550,-0.0292,-211.8412,6.8213,0.4212,54.894348,9.796949,108.3,5.845,1.85,335.95,54.894962,9.796141,54.895069,9.793790
1386951475,0,0,390.9,0,35,16,0,0,550,-0.0292,-211.8412,6.8213,0.4212,54.894348,9.796949,108.3,5.845,1.85,335.95,54.894962,9.796141,54.895069,9.793790
1386951476,0,0,390.9,0,35,16,0,0,550,-0.0292,-211.8412,6.8213,0.4212,54.894348,9.796949,108.3,5.845,1.85,335.95,54.894962,9.796141,54.895069,9.793790
1386951476,0,0,390.9,0,35,16,0,0,550,-0.0292,-211.8412,6.8213,0.4212,54.894348,9.796949,108.3,5.845,1.85,335.95,54.894962,9.796141,54.895069,9.793790
1386951476,0,0,390.9,0,35,16,0,0,550,-0.0292,-211.8412,6.8213,0.4212,54.894348,9.796949,108.3,5.845,1.85,335.95,54.894962,9.796141,54.895069,9.793790
1386951476,0,0,390.9,0,35,16,0,0,550,-0.0292,-211.8412,6.8213,0.4212,54.894348,9.796949,108.3,5.845,1.85,335.95,54.894962,9.796141,54.895069,9.793790
1386951477,0,0,390.9,0,35,16,0,0,550,-0.0292,-211.8412,6.8213,0.4212,54.894348,9.796949,108.3,5.845,1.85,335.95,54.894962,9.796141,54.895069,9.793790
1386951477,0,0,390.9,0,35,16,0,0,550,-0.0292,-211.8412,6.8213,0.4212,54.894348,9.796949,108.3,5.845,1.85,335.95,54.894962,9.796141,54.895069,9.793790
1386951477,0,0,390.9,0,35,16,0,0,550,-0.0292,-211.8412,6.8213,0.4212,54.894348,9.796949,108.3,5.845,1.85,335.95,54.894962,9.796141,54.895069,9.793790
1386951477,0,0,390.9,0,35,16,0,0,550,-0.0292,-211.8412,6.8213,0.4212,54.894348,9.796949,108.3,5.845,1.85,335.95,54.894962,9.796141,54.895069,9.793790
