MCU_timestamp,Navigation_System,Manual_Control,Guidance_Heading,Manual_Ctrl_Rudder,Rudder_Desired_Angle,Rudder_Feedback,Manual_Ctrl_Sail,Sail_Desired_Pos,Sail_Feedback,Rate,Heading,Pitch,Roll,Latitude,Longitude,COG,SOG,Wind_Speed,Wind_Angle,Point_Start_Lat,Point_Start_Lon,Point_End_Lat,Point_End_Lon
1386886949,0,0,0.0,0,0,4,0,0,0,-0.0292,31.3575,6.8213,0.4212,54.890247,9.795099,108.3,5.845,1.85,335.95,0.000000,0.000000,0.000000,0.000000
1386886949,0,0,0.0,0,0,4,0,0,0,-0.0292,31.3575,6.8213,0.4212,54.890247,9.795099,108.3,5.845,1.85,335.95,0.000000,0.000000,0.000000,0.000000
1386886949,0,0,0.0,0,0,4,0,0,0,-0.0292,31.3575,6.8213,0.4212,54.890247,9.795099,108.3,5.845,1.85,335.95,0.000000,0.000000,0.000000,0.000000
1386886949,0,0,0.0,0,0,4,0,0,0,-0.0292,31.3575,6.8213,0.4212,54.890247,9.795099,108.3,5.845,1.85,335.95,0.000000,0.000000,0.000000,0.000000
1386886950,0,0,0.0,0,0,4,0,0,0,-0.0292,31.3575,6.8213,0.4212,54.890247,9.795099,108.3,5.845,1.85,335.95,0.000000,0.000000,0.000000,0.000000
1386886950,0,0,0.0,0,0,4,0,0,0,-0.0292,31.3575,6.8213,0.4212,54.890247,9.795099,108.3,5.845,1.85,335.95,0.000000,0.000000,0.000000,0.000000
1386886950,0,0,0.0,0,0,4,0,0,0,-0.0292,31.3575,6.8213,0.4212,54.890247,9.795099,108.3,5.845,1.85,335.95,0.000000,0.000000,0.000000,0.000000
1386886950,0,0,0.0,0,0,4,0,0,0,-0.0292,31.3575,6.8213,0.4212,54.890247,9.795099,108.3,5.845,1.85,335.95,0.000000,0.000000,0.000000,0.000000
1386886951,0,0,0.0,0,0,4,0,0,0,-0.0292,31.3575,6.8213,0.4212,54.890247,9.795099,108.3,5.845,1.85,335.95,0.000000,0.000000,0.000000,0.000000
1386886951,0,0,0.0,0,0,4,0,0,0,-0.0292,31.3575,6.8213,0.4212,54.890247,9.795099,108.3,5.845,1.85,335.95,0.000000,0.000000,0.000000,0.000000
1386886951,0,0,0.0,0,0,4,0,0,0,-0.0292,31.3575,6.8213,0.4212,54.890247,9.795099,108.3,5.845,1.85,335.95,0.000000,0.000000,0.000000,0.000000
1386886951,0,0,0.0,0,0,4,0,0,0,-0.0292,31.3575,6.8213,0.4212,54.890247,9.795099,108.3,5.845,1.85,335.95,0.000000,0.000000,0.000000,0.000000
1386886952,0,0,0.0,0,0,4,0,0,0,-0.0292,31.3575,6.8213,0.4212,54.890247,9.795099,108.3,5.845,1.85,335.95,0.000000,0.000000,0.000000,0.000000
1386886952,0,0,0.0,0,0,4,0,0,0,-0.0292,31.3575,6.8213,0.4212,54.890247,9.795099,108.3,5.845,1.85,335.95,0.000000,0.000000,0.000000,0.000000
1386886952,0,0,0.0,0,0,4,0,0,0,-0.0292,31.3575,6.8213,0.4212,54.890247,9.795099,108.3,5.845,1.85,335.95,0.000000,0.000000,0.000000,0.000000
1386886952,0,0,0.0,0,0,4,0,0,0,-0.0292,31.3575,6.8213,0.4212,54.890247,9.795099,108.3,5.845,1.85,335.95,0.000000,0.000000,0.000000,0.000000
1386886953,0,0,0.0,0,0,4,0,0,0,-0.0292,31.3575,6.8213,0.4212,54.890247,9.795099,108.3,5.845,1.85,335.95,0.000000,0.000000,0.000000,0.000000
1386886953,0,0,0.0,0,0,4,0,0,0,-0.0292,31.3575,6.8213,0.4212,54.890247,9.795099,108.3,5.845,1.85,335.95,0.000000,0.000000,0.000000,0.000000
1386886953,0,0,0.0,0,0,4,0,0,0,-0.0292,31.3575,6.8213,0.4212,54.890247,9.795099,108.3,5.845,1.85,335.95,0.000000,0.000000,0.000000,0.000000
1386886953,0,0,0.0,0,0,4,0,0,0,-0.0292,31.3575,6.8213,0.4212,54.890247,9.795099,108.3,5.845,1.85,335.95,0.000000,0.000000,0.000000,0.000000
1386886954,0,0,0.0,0,0,4,0,0,0,-0.0292,31.3575,6.8213,0.4212,54.890247,9.795099,108.3,5.845,1.85,335.95,0.000000,0.000000,0.000000,0.000000
1386886954,0,0,0.0,0,0,4,0,0,0,-0.0292,31.3575,6.8213,0.4212,54.890247,9.795099,108.3,5.845,1.85,335.95,0.000000,0.000000,0.000000,0.000000
1386886954,0,0,0.0,0,0,4,0,0,0,-0.0292,31.3575,6.8213,0.4212,54.890247,9.795099,108.3,5.845,1.85,335.95,0.000000,0.000000,0.000000,0.000000
1386886954,0,0,0.0,0,0,4,0,0,0,-0.0292,31.3575,6.8213,0.4212,54.890247,9.795099,108.3,5.845,1.85,335.95,0.000000,0.000000,0.000000,0.000000
1386886955,0,0,0.0,0,0,4,0,0,0,-0.0292,31.3575,6.8213,0.4212,54.890247,9.795099,108.3,5.845,1.85,335.95,0.000000,0.000000,0.000000,0.000000
1386886955,0,0,0.0,0,0,4,0,0,0,-0.0292,31.3575,6.8213,0.4212,54.890247,9.795099,108.3,5.845,1.85,335.95,0.000000,0.000000,0.000000,0.000000
1386886955,4,0,0.0,0,0,4,0,0,0,-0.0292,31.3575,6.8213,0.4212,54.890247,9.795099,108.3,5.845,1.85,335.95,0.000000,0.000000,0.000000,0.000000
1386886955,1,0,390.9,0,0,0,0,0,25,-0.0292,31.3575,6.8213,0.4212,54.890266,9.795115,108.3,5.845,1.85,335.95,54.890247,9.795099,54.895069,9.793790
1386886956,1,0,390.9,0,0,4,0,0,0,-0.0292,31.3575,6.8213,0.4212,54.890282,9.795132,108.3,5.845,1.85,335.95,54.890247,9.795099,54.895069,9.793790
1386886956,1,0,390.9,0,0,0,0,0,25,-0.0292,31.3575,6.8213,0.4212,54.890297,9.795148,108.3,5.845,1.85,335.95,54.890247,9.795099,54.895069,9.793790
1386886956,1,0,390.9,0,0,4,0,0,0,-0.0292,31.3575,6.8213,0.4212,54.890316,9.795164,108.3,5.845,1.85,335.95,54.890247,9.795099,54.895069,9.793790
1386886956,1,0,390.9,0,0,0,0,0,25,-0.0292,31.3575,6.8213,0.4212,54.890331,9.795180,108.3,5.845,1.85,335.95,54.890247,9.795099,54.895069,9.793790
1386886957,1,0,390.9,0,0,4,0,0,0,-0.0292,31.3575,6.8213,0.4212,54.890347,9.795197,108.3,5.845,1.85,335.95,54.890247,9.795099,54.895069,9.793790
1386886957,1,0,390.9,0,0,0,0,0,25,-0.0292,31.3575,6.8213,0.4212,54.890366,9.795213,108.3,5.845,1.85,335.95,54.890247,9.795099,54.895069,9.793790
1386886957,1,0,390.9,0,0,4,0,0,0,-0.0292,31.3575,6.8213,0.4212,54.890381,9.795229,108.3,5.845,1.85,335.95,54.890247,9.795099,54.895069,9.793790
1386886957,1,0,390.9,0,0,0,0,0,25,-0.0292,31.3575,6.8213,0.4212,54.890396,9.795245,108.3,5.845,1.85,335.95,54.890247,9.795099,54.895069,9.793790
1386886958,1,0,390.9,0,0,4,0,0,0,-0.0292,31.3575,6.8213,0.4212,54.890408,9.795262,108.3,5.845,1.85,335.95,54.890247,9.795099,54.895069,9.793790
1386886958,1,0,390.9,0,0,0,0,0,25,-0.0292,31.3575,6.8213,0.4212,54.890423,9.795279,108.3,5.845,1.85,335.95,54.890247,9.795099,54.895069,9.793790
1386886958,1,0,390.9,0,0,4,0,0,0,-0.0292,31.3575,6.8213,0.4212,54.890438,9.795295,108.3,5.845,1.85,335.95,54.890247,9.795099,54.895069,9.793790
1386886959,1,0,390.9,0,0,0,0,0,25,-0.0292,31.3575,6.8213,0.4212,54.890453,9.795311,108.3,5.845,1.85,335.95,54.890247,9.795099,54.895069,9.793790
1386886959,1,0,390.9,0,0,4,0,0,0,-0.0292,31.3575,6.8213,0.4212,54.890469,9.795327,108.3,5.845,1.85,335.95,54.890247,9.795099,54.895069,9.793790
1386886959,1,0,390.9,0,0,0,0,0,25,-0.0292,31.3575,6.8213,0.4212,54.890488,9.795343,108.3,5.845,1.85,335.95,54.890247,9.795099,54.895069,9.793790
1386886959,1,0,390.9,0,0,4,0,0,0,-0.0292,31.3575,6.8213,0.4212,54.890503,9.795360,108.3,5.845,1.85,335.95,54.890247,9.795099,54.895069,9.793790
1386886960,1,0,390.9,0,0,0,0,0,25,-0.0292,31.3575,6.8213,0.4212,54.890518,9.795376,108.3,5.845,1.85,335.95,54.890247,9.795099,54.895069,9.793790
1386886960,1,0,390.9,0,0,4,0,0,0,-0.0292,31.3575,6.8213,0.4212,54.890537,9.795392,108.3,5.845,1.85,335.95,54.890247,9.795099,54.895069,9.793790
1386886960,1,0,390.9,0,0,0,0,0,25,-0.0292,31.3575,6.8213,0.4212,54.890553,9.795408,108.3,5.845,1.85,335.95,54.890247,9.795099,54.895069,9.793790
1386886960,1,0,390.9,0,0,4,0,0,0,-0.0292,31.3575,6.8213,0.4212,54.890568,9.795424,108.3,5.845,1.85,335.95,54.890247,9.795099,54.895069,9.793790
1386886961,1,0,456.9,0,-35,0,0,0,25,-0.0292,40.6908,6.8213,0.4212,54.895439,9.788753,108.3,5.845,1.85,335.95,54.890247,9.795099,54.895069,9.793790
1386886961,1,0,457.2,0,-35,-4,0,47,50,-0.0292,50.0242,6.8213,0.4212,54.895451,9.788776,108.3,5.845,1.85,335.95,54.890247,9.795099,54.895069,9.793790
1386886961,1,0,457.5,0,-35,-8,0,156,75,-0.0292,59.3575,6.8213,0.4212,54.895458,9.788803,108.3,5.845,1.85,335.95,54.890247,9.795099,54.895069,9.793790
1386886961,1,0,457.7,0,-35,-12,0,295,100,-0.0292,68.6908,6.8213,0.4212,54.895466,9.788833,108.3,5.845,1.85,335.95,54.890247,9.795099,54.895069,9.793790
1386886962,1,0,457.9,0,-29,-16,0,442,125,-0.0292,76.4242,6.8213,0.4212,54.895470,9.788863,108.3,5.845,1.85,335.95,54.890247,9.795099,54.895069,9.793790
1386886962,0,0,457.9,0,-29,-16,0,442,125,-0.0292,76.4242,6.8213,0.4212,54.895470,9.788863,108.3,5.845,1.85,335.95,54.890247,9.795099,54.895069,9.793790
1386886962,0,0,457.9,0,-29,-16,0,442,125,-0.0292,76.4242,6.8213,0.4212,54.895470,9.788863,108.3,5.845,1.85,335.95,54.890247,9.795099,54.895069,9.793790
1386886962,0,0,457.9,0,-29,-16,0,442,125,-0.0292,76.4242,6.8213,0.4212,54.895470,9.788863,108.3,5.845,1.85,335.95,54.890247,9.795099,54.895069,9.793790
1386886963,0,0,457.9,0,-29,-16,0,442,125,-0.0292,76.4242,6.8213,0.4212,54.895470,9.788863,108.3,5.845,1.85,335.95,54.890247,9.795099,54.895069,9.793790
1386886963,4,0,457.9,0,-29,-16,0,442,125,-0.0292,76.4242,6.8213,0.4212,54.895470,9.788863,108.3,5.845,1.85,335.95,54.890247,9.795099,54.895069,9.793790
1386886963,1,0,458.0,0,-22,-20,0,566,150,-0.0292,82.2908,6.8213,0.4212,54.895470,9.788894,108.3,5.845,1.85,335.95,54.895470,9.788863,54.895069,9.793790
1386886963,1,0,458.0,0,-16,-16,0,657,175,-0.0292,86.5575,6.8213,0.4212,54.895470,9.788925,108.3,5.845,1.85,335.95,54.895470,9.788863,54.895069,9.793790
1386886964,1,0,458.1,0,-12,-12,0,722,200,-0.0292,89.7575,6.8213,0.4212,54.895470,9.788957,108.3,5.845,1.85,335.95,54.895470,9.788863,54.895069,9.793790
1386886964,1,0,458.2,0,-8,-8,0,770,225,-0.0292,91.8908,6.8213,0.4212,54.895470,9.788987,108.3,5.845,1.85,335.95,54.895470,9.788863,54.895069,9.793790
1386886964,1,0,458.2,0,-6,-4,0,801,250,-0.0292,93.4908,6.8213,0.4212,54.895466,9.789019,108.3,5.845,1.85,335.95,54.895470,9.788863,54.895069,9.793790
1386886964,1,0,458.2,0,-5,-8,0,824,275,-0.0292,94.8242,6.8213,0.4212,54.895462,9.789050,108.3,5.845,1.85,335.95,54.895470,9.788863,54.895069,9.793790
1386886965,1,0,458.2,0,-3,-4,0,843,300,-0.0292,95.6242,6.8213,0.4212,54.895462,9.789082,108.3,5.845,1.85,335.95,54.895470,9.788863,54.895069,9.793790
1386886965,1,0,458.2,0,-3,0,0,854,325,-0.0292,96.4242,6.8213,0.4212,54.895462,9.789112,108.3,5.845,1.85,335.95,54.895470,9.788863,54.895069,9.793790
1386886965,1,0,458.3,0,-2,-4,0,865,350,-0.0292,96.9575,6.8213,0.4212,54.895462,9.789144,108.3,5.845,1.85,335.95,54.895470,9.788863,54.895069,9.793790
1386886965,1,0,458.3,0,-1,0,0,870,375,-0.0292,97.2242,6.8213,0.4212,54.895462,9.789175,108.3,5.845,1.85,335.95,54.895470,9.788863,54.895069,9.793790
1386886966,1,0,458.4,0,-1,-4,0,870,400,-0.0292,97.4908,6.8213,0.4212,54.895462,9.789206,108.3,5.845,1.85,335.95,54.895470,9.788863,54.895069,9.793790
1386886966,1,0,458.4,0,-1,0,0,870,425,-0.0292,97.7575,6.8213,0.4212,54.895462,9.789236,108.3,5.845,1.85,335.95,54.895470,9.788863,54.895069,9.793790
1386886966,1,0,458.5,0,-1,-4,0,870,450,-0.0292,98.0242,6.8213,0.4212,54.895462,9.789268,108.3,5.845,1.85,335.95,54.895470,9.788863,54.895069,9.793790
1386886966,1,0,458.5,0,-1,0,0,870,475,-0.0292,98.2908,6.8213,0.4212,54.895462,9.789298,108.3,5.845,1.85,335.95,54.895470,9.788863,54.895069,9.793790
1386886967,1,0,458.6,0,0,4,0,870,500,-0.0292,98.2908,6.8213,0.4212,54.895462,9.789329,108.3,5.845,1.85,335.95,54.895470,9.788863,54.895069,9.793790
1386886967,1,0,458.7,0,0,0,0,870,525,-0.0292,98.2908,6.8213,0.4212,54.895462,9.789360,108.3,5.845,1.85,335.95,54.895470,9.788863,54.895069,9.793790
1386886967,1,0,458.7,0,0,4,0,870,550,-0.0292,98.2908,6.8213,0.4212,54.895462,9.789392,108.3,5.845,1.85,335.95,54.895470,9.788863,54.895069,9.793790
1386886967,1,0,458.8,0,0,0,0,870,575,-0.0292,98.2908,6.8213,0.4212,54.895462,9.789422,108.3,5.845,1.85,335.95,54.895470,9.788863,54.895069,9.793790
1386886968,1,0,458.8,0,-1,-4,0,870,600,-0.0292,98.5575,6.8213,0.4212,54.895462,9.789453,108.3,5.845,1.85,335.95,54.895470,9.788863,54.895069,9.793790
1386886968,1,0,458.9,0,0,0,0,870,625,-0.0292,98.5575,6.8213,0.4212,54.895462,9.789484,108.3,5.845,1.85,335.95,54.895470,9.788863,54.895069,9.793790
1386886968,1,0,459.0,0,0,4,0,870,650,-0.0292,98.5575,6.8213,0.4212,54.895462,9.789515,108.3,5.845,1.85,335.95,54.895470,9.788863,54.895069,9.793790
1386886968,1,0,459.0,0,0,0,0,870,675,-0.0292,98.5575,6.8213,0.4212,54.895462,9.789545,108.3,5.845,1.85,335.95,54.895470,9.788863,54.895069,9.793790
1386886969,1,0,459.1,0,-1,-4,0,870,700,-0.0292,98.8242,6.8213,0.4212,54.895462,9.789576,108.3,5.845,1.85,335.95,54.895470,9.788863,54.895069,9.793790
1386886969,1,0,459.2,0,0,0,0,870,725,-0.0292,98.8242,6.8213,0.4212,54.895462,9.789607,108.3,5.845,1.85,335.95,54.895470,9.788863,54.895069,9.793790
1386886969,1,0,459.2,0,0,4,0,870,750,-0.0292,98.8242,6.8213,0.4212,54.895462,9.789638,108.3,5.845,1.85,335.95,54.895470,9.788863,54.895069,9.793790
1386886969,1,0,459.3,0,0,0,0,870,775,-0.0292,98.8242,6.8213,0.4212,54.895462,9.789668,108.3,5.845,1.85,335.95,54.895470,9.788863,54.895069,9.793790
1386886970,1,0,459.4,0,-1,-4,0,870,800,-0.0292,99.0909,6.8213,0.4212,54.895462,9.789700,108.3,5.845,1.85,335.95,54.895470,9.788863,54.895069,9.793790
1386886970,1,0,459.4,0,0,0,0,870,825,-0.0292,99.0909,6.8213,0.4212,54.895462,9.789730,108.3,5.845,1.85,335.95,54.895470,9.788863,54.895069,9.793790
1386886970,1,0,459.5,0,0,4,0,870,850,-0.0292,99.0909,6.8213,0.4212,54.895462,9.789761,108.3,5.845,1.85,335.95,54.895470,9.788863,54.895069,9.793790
1386886970,1,0,459.6,0,0,0,0,870,875,-0.0292,99.0909,6.8213,0.4212,54.895462,9.789791,108.3,5.845,1.85,335.95,54.895470,9.788863,54.895069,9.793790
1386886971,1,0,459.6,0,-1,-4,0,870,850,-0.0292,99.3575,6.8213,0.4212,54.895462,9.789823,108.3,5.845,1.85,335.95,54.895470,9.788863,54.895069,9.793790
1386886971,1,0,459.7,0,0,0,0,870,875,-0.0292,99.3575,6.8213,0.4212,54.895462,9.789853,108.3,5.845,1.85,335.95,54.895470,9.788863,54.895069,9.793790
1386886971,1,0,459.8,0,0,4,0,870,850,-0.0292,99.3575,6.8213,0.4212,54.895462,9.789884,108.3,5.845,1.85,335.95,54.895470,9.788863,54.895069,9.793790
1386886971,1,0,459.9,0,-1,0,0,870,875,-0.0292,99.6242,6.8213,0.4212,54.895462,9.789915,108.3,5.845,1.85,335.95,54.895470,9.788863,54.895069,9.793790
1386886972,1,0,459.9,0,0,4,0,870,850,-0.0292,99.6242,6.8213,0.4212,54.895462,9.789946,108.3,5.845,1.85,335.95,54.895470,9.788863,54.895069,9.793790
1386886972,1,0,460.0,0,0,0,0,870,875,-0.0292,99.6242,6.8213,0.4212,54.895462,9.789976,108.3,5.845,1.85,335.95,54.895470,9.788863,54.895069,9.793790
1386886972,1,0,460.1,0,0,4,0,870,850,-0.0292,99.6242,6.8213,0.4212,54.895462,9.790007,108.3,5.845,1.85,335.95,54.895470,9.788863,54.895069,9.793790
1386886972,1,0,460.2,0,-1,0,0,870,875,-0.0292,99.8909,6.8213,0.4212,54.895462,9.790038,108.3,5.845,1.85,335.95,54.895470,9.788863,54.895069,9.793790
1386886973,1,0,460.3,0,0,4,0,870,850,-0.0292,99.8909,6.8213,0.4212,54.895462,9.790069,108.3,5.845,1.85,335.95,54.895470,9.788863,54.895069,9.793790
1386886973,1,0,460.3,0,0,0,0,870,875,-0.0292,99.8909,6.8213,0.4212,54.895462,9.790099,108.3,5.845,1.85,335.95,54.895470,9.788863,54.895069,9.793790
1386886973,1,0,460.4,0,-1,-4,0,870,850,-0.0292,100.1575,6.8213,0.4212,54.895462,9.790131,108.3,5.845,1.85,335.95,54.895470,9.788863,54.895069,9.793790
1386886973,1,0,460.5,0,0,0,0,870,875,-0.0292,100.1575,6.8213,0.4212,54.895462,9.790161,108.3,5.845,1.85,335.95,54.895470,9.788863,54.895069,9.793790
1386886974,1,0,460.6,0,0,4,0,870,850,-0.0292,100.1575,6.8213,0.4212,54.895462,9.790192,108.3,5.845,1.85,335.95,54.895470,9.788863,54.895069,9.793790
1386886974,1,0,460.7,0,-1,0,0,870,875,-0.0292,100.4242,6.8213,0.4212,54.895462,9.790222,108.3,5.845,1.85,335.95,54.895470,9.788863,54.895069,9.793790
1386886974,1,0,460.8,0,0,4,0,870,850,-0.0292,100.4242,6.8213,0.4212,54.895462,9.790253,108.3,5.845,1.85,335.95,54.895470,9.788863,54.895069,9.793790
1386886974,1,0,460.9,0,0,0,0,870,875,-0.0292,100.4242,6.8213,0.4212,54.895462,9.790283,108.3,5.845,1.85,335.95,54.895470,9.788863,54.895069,9.793790
1386886975,1,0,461.0,0,-1,-4,0,870,850,-0.0292,100.6909,6.8213,0.4212,54.895462,9.790314,108.3,5.845,1.85,335.95,54.895470,9.788863,54.895069,9.793790
1386886975,1,0,461.1,0,0,0,0,870,875,-0.0292,100.6909,6.8213,0.4212,54.895462,9.790345,108.3,5.845,1.85,335.95,54.895470,9.788863,54.895069,9.793790
1386886975,1,0,461.2,0,0,4,0,870,850,-0.0292,100.6909,6.8213,0.4212,54.895462,9.790376,108.3,5.845,1.85,335.95,54.895470,9.788863,54.895069,9.793790
1386886975,1,0,461.2,0,-1,0,0,870,875,-0.0292,100.9576,6.8213,0.4212,54.895462,9.790406,108.3,5.845,1.85,335.95,54.895470,9.788863,54.895069,9.793790
1386886976,1,0,461.3,0,0,4,0,870,850,-0.0292,100.9576,6.8213,0.4212,54.895462,9.790437,108.3,5.845,1.85,335.95,54.895470,9.788863,54.895069,9.793790
1386886976,1,0,461.4,0,0,0,0,870,875,-0.0292,100.9576,6.8213,0.4212,54.895462,9.790467,108.3,5.845,1.85,335.95,54.895470,9.788863,54.895069,9.793790
1386886976,1,0,461.6,0,-1,-4,0,870,850,-0.0292,101.2242,6.8213,0.4212,54.895462,9.790498,108.3,5.845,1.85,335.95,54.895470,9.788863,54.895069,9.793790
1386886976,1,0,461.7,0,0,0,0,870,875,-0.0292,101.2242,6.8213,0.4212,54.895462,9.790528,108.3,5.845,1.85,335.95,54.895470,9.788863,54.895069,9.793790
1386886977,1,0,461.8,0,-1,-4,0,870,850,-0.0292,101.4909,6.8213,0.4212,54.895462,9.790560,108.3,5.845,1.85,335.95,54.895470,9.788863,54.895069,9.793790
1386886977,1,0,461.9,0,0,0,0,870,875,-0.0292,101.4909,6.8213,0.4212,54.895462,9.790590,108.3,5.845,1.85,335.95,54.895470,9.788863,54.895069,9.793790
1386886977,1,0,462.0,0,0,4,0,870,850,-0.0292,101.4909,6.8213,0.4212,54.895462,9.790621,108.3,5.845,1.85,335.95,54.895470,9.788863,54.895069,9.793790
1386886977,1,0,462.1,0,-1,0,0,870,875,-0.0292,101.7576,6.8213,0.4212,54.895462,9.790651,108.3,5.845,1.85,335.95,54.895470,9.788863,54.895069,9.793790
1386886978,1,0,462.2,0,0,4,0,870,850,-0.0292,101.7576,6.8213,0.4212,54.895462,9.790682,108.3,5.845,1.85,335.95,54.895470,9.788863,54.895069,9.793790
1386886978,1,0,462.3,0,-1,0,0,870,875,-0.0292,102.0242,6.8213,0.4212,54.895462,9.790712,108.3,5.845,1.85,335.95,54.895470,9.788863,54.895069,9.793790
1386886978,1,0,462.4,0,0,4,0,870,850,-0.0292,102.0242,6.8213,0.4212,54.895462,9.790743,108.3,5.845,1.85,335.95,54.895470,9.788863,54.895069,9.793790
1386886978,1,0,462.6,0,-1,0,0,870,875,-0.0292,102.2909,6.8213,0.4212,54.895462,9.790773,108.3,5.845,1.85,335.95,54.895470,9.788863,54.895069,9.793790
1386886979,1,0,462.7,0,0,4,0,870,850,-0.0292,102.2909,6.8213,0.4212,54.895462,9.790804,108.3,5.845,1.85,335.95,54.895470,9.788863,54.895069,9.793790
1386886979,1,0,462.8,0,-1,0,0,870,875,-0.0292,102.5576,6.8213,0.4212,54.895462,9.790834,108.3,5.845,1.85,335.95,54.895470,9.788863,54.895069,9.793790
1386886979,1,0,462.9,0,0,4,0,870,850,-0.0292,102.5576,6.8213,0.4212,54.895462,9.790865,108.3,5.845,1.85,335.95,54.895470,9.788863,54.895069,9.793790
1386886979,1,0,463.1,0,-1,0,0,870,875,-0.0292,102.8242,6.8213,0.4212,54.895462,9.790895,108.3,5.845,1.85,335.95,54.895470,9.788863,54.895069,9.793790
1386886980,1,0,463.2,0,0,4,0,870,850,-0.0292,102.8242,6.8213,0.4212,54.895462,9.790926,108.3,5.845,1.85,335.95,54.895470,9.788863,54.895069,9.793790
1386886980,1,0,463.3,0,-1,0,0,870,875,-0.0292,103.0909,6.8213,0.4212,54.895462,9.790956,108.3,5.845,1.85,335.95,54.895470,9.788863,54.895069,9.793790
1386886980,1,0,463.5,0,0,4,0,870,850,-0.0292,103.0909,6.8213,0.4212,54.895462,9.790987,108.3,5.845,1.85,335.95,54.895470,9.788863,54.895069,9.793790
1386886980,1,0,463.6,0,-1,0,0,870,875,-0.0292,103.3576,6.8213,0.4212,54.895458,9.791018,108.3,5.845,1.85,335.95,54.895470,9.788863,54.895069,9.793790
1386886981,1,0,463.6,0,0,4,0,870,850,-0.0292,103.3576,6.8213,0.4212,54.895454,9.791048,108.3,5.845,1.85,335.95,54.895470,9.788863,54.895069,9.793790
1386886981,1,0,463.7,0,0,0,0,870,875,-0.0292,103.3576,6.8213,0.4212,54.895451,9.791078,108.3,5.845,1.85,335.95,54.895470,9.788863,54.895069,9.793790
1386886981,1,0,463.7,0,0,4,0,870,850,-0.0292,103.3576,6.8213,0.4212,54.895447,9.791108,108.3,5.845,1.85,335.95,54.895470,9.788863,54.895069,9.793790
1386886981,1,0,463.7,0,0,0,0,870,875,-0.0292,103.3576,6.8213,0.4212,54.895443,9.791139,108.3,5.845,1.85,335.95,54.895470,9.788863,54.895069,9.793790
1386886982,1,0,463.7,0,0,4,0,870,850,-0.0292,103.3576,6.8213,0.4212,54.895439,9.791169,108.3,5.845,1.85,335.95,54.895470,9.788863,54.895069,9.793790
1386886982,1,0,463.7,0,0,0,0,870,875,-0.0292,103.3576,6.8213,0.4212,54.895432,9.791200,108.3,5.845,1.85,335.95,54.895470,9.788863,54.895069,9.793790
1386886982,1,0,463.6,0,0,4,0,870,850,-0.0292,103.3576,6.8213,0.4212,54.895428,9.791230,108.3,5.845,1.85,335.95,54.895470,9.788863,54.895069,9.793790
1386886982,1,0,463.6,0,0,0,0,870,875,-0.0292,103.3576,6.8213,0.4212,54.895424,9.791261,108.3,5.845,1.85,335.95,54.895470,9.788863,54.895069,9.793790
1386886983,1,0,463.6,0,0,4,0,870,850,-0.0292,103.3576,6.8213,0.4212,54.895420,9.791290,108.3,5.845,1.85,335.95,54.895470,9.788863,54.895069,9.793790
1386886983,1,0,463.6,0,0,0,0,870,875,-0.0292,103.3576,6.8213,0.4212,54.895416,9.791321,108.3,5.845,1.85,335.95,54.895470,9.788863,54.895069,9.793790
1386886983,1,0,463.7,0,0,4,0,870,850,-0.0292,103.3576,6.8213,0.4212,54.895409,9.791351,108.3,5.845,1.85,335.95,54.895470,9.788863,54.895069,9.793790
1386886983,1,0,463.5,0,0,0,0,870,875,-0.0292,103.3576,6.8213,0.4212,54.895405,9.791381,108.3,5.845,1.85,335.95,54.895470,9.788863,54.895069,9.793790
1386886984,1,0,463.5,0,0,4,0,870,850,-0.0292,103.3576,6.8213,0.4212,54.895401,9.791411,108.3,5.845,1.85,335.95,54.895470,9.788863,54.895069,9.793790
1386886984,1,0,463.6,0,0,0,0,870,875,-0.0292,103.3576,6.8213,0.4212,54.895397,9.791442,108.3,5.845,1.85,335.95,54.895470,9.788863,54.895069,9.793790
1386886984,1,0,463.6,0,0,4,0,870,850,-0.0292,103.3576,6.8213,0.4212,54.895393,9.791472,108.3,5.845,1.85,335.95,54.895470,9.788863,54.895069,9.793790
1386886984,1,0,463.6,0,0,0,0,870,875,-0.0292,103.3576,6.8213,0.4212,54.895390,9.791503,108.3,5.845,1.85,335.95,54.895470,9.788863,54.895069,9.793790
1386886985,1,0,463.6,0,0,4,0,870,850,-0.0292,103.3576,6.8213,0.4212,54.895382,9.791533,108.3,5.845,1.85,335.95,54.895470,9.788863,54.895069,9.793790
1386886985,1,0,463.5,0,0,0,0,870,875,-0.0292,103.3576,6.8213,0.4212,54.895378,9.791564,108.3,5.845,1.85,335.95,54.895470,9.788863,54.895069,9.793790
1386886985,1,0,463.5,0,0,4,0,870,850,-0.0292,103.3576,6.8213,0.4212,54.895374,9.791594,108.3,5.845,1.85,335.95,54.895470,9.788863,54.895069,9.793790
1386886985,1,0,463.5,0,0,0,0,870,875,-0.0292,103.3576,6.8213,0.4212,54.895370,9.791624,108.3,5.845,1.85,335.95,54.895470,9.788863,54.895069,9.793790
1386886986,1,0,463.5,0,0,4,0,870,850,-0.0292,103.3576,6.8213,0.4212,54.895367,9.791655,108.3,5.845,1.85,335.95,54.895470,9.788863,54.895069,9.793790
1386886986,1,0,463.5,0,0,0,0,870,875,-0.0292,103.3576,6.8213,0.4212,54.895359,9.791685,108.3,5.845,1.85,335.95,54.895470,9.788863,54.895069,9.793790
1386886986,1,0,463.4,0,0,4,0,870,850,-0.0292,103.3576,6.8213,0.4212,54.895355,9.791716,108.3,5.845,1.85,335.95,54.895470,9.788863,54.895069,9.793790
1386886986,1,0,463.4,0,0,0,0,870,875,-0.0292,103.3576,6.8213,0.4212,54.895351,9.791746,108.3,5.845,1.85,335.95,54.895470,9.788863,54.895069,9.793790
1386886987,1,0,463.4,0,0,4,0,870,850,-0.0292,103.3576,6.8213,0.4212,54.895348,9.791777,108.3,5.845,1.85,335.95,54.895470,9.788863,54.895069,9.793790
1386886987,1,0,463.4,0,0,0,0,870,875,-0.0292,103.3576,6.8213,0.4212,54.895344,9.791806,108.3,5.845,1.85,335.95,54.895470,9.788863,54.895069,9.793790
1386886987,1,0,463.5,0,0,4,0,870,850,-0.0292,103.3576,6.8213,0.4212,54.895340,9.791837,108.3,5.845,1.85,335.95,54.895470,9.788863,54.895069,9.793790
1386886988,1,0,463.5,0,0,0,0,870,875,-0.0292,103.3576,6.8213,0.4212,54.895332,9.791867,108.3,5.845,1.85,335.95,54.895470,9.788863,54.895069,9.793790
1386886988,1,0,463.3,0,0,4,0,870,850,-0.0292,103.3576,6.8213,0.4212,54.895329,9.791898,108.3,5.845,1.85,335.95,54.895470,9.788863,54.895069,9.793790
1386886988,1,0,463.3,0,0,0,0,870,875,-0.0292,103.3576,6.8213,0.4212,54.895325,9.791928,108.3,5.845,1.85,335.95,54.895470,9.788863,54.895069,9.793790
1386886988,1,0,463.3,0,0,4,0,870,850,-0.0292,103.3576,6.8213,0.4212,54.895321,9.791959,108.3,5.845,1.85,335.95,54.895470,9.788863,54.895069,9.793790
1386886989,1,0,463.4,0,0,0,0,870,875,-0.0292,103.3576,6.8213,0.4212,54.895317,9.791989,108.3,5.845,1.85,335.95,54.895470,9.788863,54.895069,9.793790
1386886989,1,0,463.4,0,0,4,0,870,850,-0.0292,103.3576,6.8213,0.4212,54.895309,9.792019,108.3,5.845,1.85,335.95,54.895470,9.788863,54.895069,9.793790
1386886989,1,0,463.2,0,0,0,0,870,875,-0.0292,103.3576,6.8213,0.4212,54.895306,9.792049,108.3,5.845,1.85,335.95,54.895470,9.788863,54.895069,9.793790
1386886989,1,0,463.2,0,0,4,0,870,850,-0.0292,103.3576,6.8213,0.4212,54.895302,9.792080,108.3,5.845,1.85,335.95,54.895470,9.788863,54.895069,9.793790
1386886990,1,0,463.2,0,0,0,0,870,875,-0.0292,103.3576,6.8213,0.4212,54.895298,9.792109,108.3,5.845,1.85,335.95,54.895470,9.788863,54.895069,9.793790
1386886990,1,0,463.2,0,0,4,0,870,850,-0.0292,103.3576,6.8213,0.4212,54.895294,9.792140,108.3,5.845,1.85,335.95,54.895470,9.788863,54.895069,9.793790
1386886990,1,0,463.3,0,0,0,0,870,875,-0.0292,103.3576,6.8213,0.4212,54.895290,9.792171,108.3,5.845,1.85,335.95,54.895470,9.788863,54.895069,9.793790
1386886990,1,0,463.3,0,0,4,0,870,850,-0.0292,103.3576,6.8213,0.4212,54.895283,9.792201,108.3,5.845,1.85,335.95,54.895470,9.788863,54.895069,9.793790
1386886991,1,0,463.1,0,0,0,0,870,875,-0.0292,103.3576,6.8213,0.4212,54.895279,9.792232,108.3,5.845,1.85,335.95,54.895470,9.788863,54.895069,9.793790
1386886991,1,0,463.1,0,0,4,0,870,850,-0.0292,103.3576,6.8213,0.4212,54.895275,9.792262,108.3,5.845,1.85,335.95,54.895470,9.788863,54.895069,9.793790
1386886991,1,0,463.1,0,0,0,0,870,875,-0.0292,103.3576,6.8213,0.4212,54.895271,9.792293,108.3,5.845,1.85,335.95,54.895470,9.788863,54.895069,9.793790
1386886991,1,0,463.1,0,0,4,0,870,850,-0.0292,103.3576,6.8213,0.4212,54.895267,9.792322,108.3,5.845,1.85,335.95,54.895470,9.788863,54.895069,9.793790
1386886992,1,0,463.1,0,0,0,0,870,875,-0.0292,103.3576,6.8213,0.4212,54.895260,9.792353,108.3,5.845,1.85,335.95,54.895470,9.788863,54.895069,9.793790
1386886992,1,0,462.9,0,0,4,0,870,850,-0.0292,103.3576,6.8213,0.4212,54.895256,9.792383,108.3,5.845,1.85,335.95,54.895470,9.788863,54.895069,9.793790
1386886992,1,0,462.9,0,0,0,0,870,875,-0.0292,103.3576,6.8213,0.4212,54.895252,9.792414,108.3,5.845,1.85,335.95,54.895470,9.788863,54.895069,9.793790
1386886992,1,0,463.0,0,0,4,0,870,850,-0.0292,103.3576,6.8213,0.4212,54.895248,9.792444,108.3,5.845,1.85,335.95,54.895470,9.788863,54.895069,9.793790
1386886993,1,0,463.0,0,0,0,0,870,875,-0.0292,103.3576,6.8213,0.4212,54.895245,9.792475,108.3,5.845,1.85,335.95,54.895470,9.788863,54.895069,9.793790
1386886993,1,0,463.0,0,0,4,0,870,850,-0.0292,103.3576,6.8213,0.4212,54.895237,9.792505,108.3,5.845,1.85,335.95,54.895470,9.788863,54.895069,9.793790
1386886993,1,0,462.7,0,1,0,0,870,875,-0.0292,103.0909,6.8213,0.4212,54.895233,9.792535,108.3,5.845,1.85,335.95,54.895470,9.788863,54.895069,9.793790
1386886993,1,0,462.7,0,0,4,0,870,850,-0.0292,103.0909,6.8213,0.4212,54.895229,9.792565,108.3,5.845,1.85,335.95,54.895470,9.788863,54.895069,9.793790
1386886994,1,0,462.7,0,0,0,0,870,875,-0.0292,103.0909,6.8213,0.4212,54.895226,9.792596,108.3,5.845,1.85,335.95,54.895470,9.788863,54.895069,9.793790
1386886994,1,0,462.8,0,0,4,0,870,850,-0.0292,103.0909,6.8213,0.4212,54.895222,9.792626,108.3,5.845,1.85,335.95,54.895470,9.788863,54.895069,9.793790
1386886994,1,0,462.8,0,0,0,0,870,875,-0.0292,103.0909,6.8213,0.4212,54.895218,9.792657,108.3,5.845,1.85,335.95,54.895470,9.788863,54.895069,9.793790
1386886994,1,0,462.8,0,0,4,0,870,850,-0.0292,103.0909,6.8213,0.4212,54.895210,9.792687,108.3,5.845,1.85,335.95,54.895470,9.788863,54.895069,9.793790
1386886995,1,0,462.5,0,1,0,0,870,875,-0.0292,102.8242,6.8213,0.4212,54.895206,9.792718,108.3,5.845,1.85,335.95,54.895470,9.788863,54.895069,9.793790
1386886995,1,0,462.5,0,0,4,0,870,850,-0.0292,102.8242,6.8213,0.4212,54.895203,9.792747,108.3,5.845,1.85,335.95,54.895470,9.788863,54.895069,9.793790
1386886995,1,0,462.5,0,0,0,0,870,875,-0.0292,102.8242,6.8213,0.4212,54.895199,9.792778,108.3,5.845,1.85,335.95,54.895470,9.788863,54.895069,9.793790
1386886995,1,0,462.5,0,0,4,0,870,850,-0.0292,102.8242,6.8213,0.4212,54.895195,9.792809,108.3,5.845,1.85,335.95,54.895470,9.788863,54.895069,9.793790
1386886996,1,0,462.5,0,0,0,0,870,875,-0.0292,102.8242,6.8213,0.4212,54.895191,9.792839,108.3,5.845,1.85,335.95,54.895470,9.788863,54.895069,9.793790
1386886996,1,0,462.5,0,0,4,0,870,850,-0.0292,102.8242,6.8213,0.4212,54.895191,9.792870,108.3,5.845,1.85,335.95,54.895470,9.788863,54.895069,9.793790
1386886996,1,0,462.9,0,0,0,0,870,875,-0.0292,102.8242,6.8213,0.4212,54.895191,9.792900,108.3,5.845,1.85,335.95,54.895470,9.788863,54.895069,9.793790
1386886996,1,0,463.3,0,-1,-4,0,870,850,-0.0292,103.0909,6.8213,0.4212,54.895187,9.792931,108.3,5.845,1.85,335.95,54.895470,9.788863,54.895069,9.793790
1386886997,1,0,463.4,0,0,0,0,870,875,-0.0292,103.0909,6.8213,0.4212,54.895184,9.792961,108.3,5.845,1.85,335.95,54.895470,9.788863,54.895069,9.793790
1386886997,1,0,463.4,0,0,4,0,870,850,-0.0292,103.0909,6.8213,0.4212,54.895180,9.792992,108.3,5.845,1.85,335.95,54.895470,9.788863,54.895069,9.793790
1386886997,1,0,463.5,0,0,0,0,870,875,-0.0292,103.0909,6.8213,0.4212,54.895176,9.793022,108.3,5.845,1.85,335.95,54.895470,9.788863,54.895069,9.793790
1386886997,1,0,463.5,0,0,4,0,870,850,-0.0292,103.0909,6.8213,0.4212,54.895172,9.793052,108.3,5.845,1.85,335.95,54.895470,9.788863,54.895069,9.793790
1386886998,1,0,463.6,0,0,0,0,870,875,-0.0292,103.0909,6.8213,0.4212,54.895168,9.793082,108.3,5.845,1.85,335.95,54.895470,9.788863,54.895069,9.793790
1386886998,1,0,463.6,0,-1,-4,0,870,850,-0.0292,103.3576,6.8213,0.4212,54.895161,9.793113,108.3,5.845,1.85,335.95,54.895470,9.788863,54.895069,9.793790
1386886998,1,0,463.2,0,0,0,0,870,875,-0.0292,103.3576,6.8213,0.4212,54.895157,9.793143,108.3,5.845,1.85,335.95,54.895470,9.788863,54.895069,9.793790
1386886998,1,0,463.2,0,0,4,0,870,850,-0.0292,103.3576,6.8213,0.4212,54.895153,9.793174,108.3,5.845,1.85,335.95,54.895470,9.788863,54.895069,9.793790
1386886999,1,0,463.2,0,0,0,0,870,875,-0.0292,103.3576,6.8213,0.4212,54.895149,9.793204,108.3,5.845,1.85,335.95,54.895470,9.788863,54.895069,9.793790
1386886999,1,0,463.3,0,0,4,0,870,850,-0.0292,103.3576,6.8213,0.4212,54.895145,9.793235,108.3,5.845,1.85,335.95,54.895470,9.788863,54.895069,9.793790
1386886999,1,0,463.4,0,0,0,0,870,875,-0.0292,103.3576,6.8213,0.4212,54.895138,9.793264,108.3,5.845,1.85,335.95,54.895470,9.788863,54.895069,9.793790
1386886999,1,0,462.7,0,1,4,0,870,850,-0.0292,103.0909,6.8213,0.4212,54.895134,9.793295,108.3,5.845,1.85,335.95,54.895470,9.788863,54.895069,9.793790
1386887000,1,0,462.8,0,0,0,0,870,875,-0.0292,103.0909,6.8213,0.4212,54.895130,9.793325,108.3,5.845,1.85,335.95,54.895470,9.788863,54.895069,9.793790
1386887000,1,0,462.8,0,0,4,0,870,850,-0.0292,103.0909,6.8213,0.4212,54.895126,9.793356,108.3,5.845,1.85,335.95,54.895470,9.788863,54.895069,9.793790
1386887000,1,0,462.8,0,0,0,0,870,875,-0.0292,103.0909,6.8213,0.4212,54.895123,9.793386,108.3,5.845,1.85,335.95,54.895470,9.788863,54.895069,9.793790
1386887000,1,0,462.9,0,0,4,0,870,850,-0.0292,103.0909,6.8213,0.4212,54.895119,9.793417,108.3,5.845,1.85,335.95,54.895470,9.788863,54.895069,9.793790
1386887001,1,0,462.9,0,0,0,0,870,875,-0.0292,103.0909,6.8213,0.4212,54.895111,9.793447,108.3,5.845,1.85,335.95,54.895470,9.788863,54.895069,9.793790
1386887001,1,0,462.0,0,1,4,0,870,850,-0.0292,102.8242,6.8213,0.4212,54.895107,9.793477,108.3,5.845,1.85,335.95,54.895470,9.788863,54.895069,9.793790
1386887001,1,0,461.9,0,1,0,0,870,875,-0.0292,102.5576,6.8213,0.4212,54.895103,9.793508,108.3,5.845,1.85,335.95,54.895470,9.788863,54.895069,9.793790
1386887001,1,0,461.9,0,1,4,0,870,850,-0.0292,102.2909,6.8213,0.4212,54.895100,9.793538,108.3,5.845,1.85,335.95,54.895470,9.788863,54.895069,9.793790
1386887002,1,0,461.8,0,0,0,0,870,875,-0.0292,102.2909,6.8213,0.4212,54.895096,9.793569,108.3,5.845,1.85,335.95,54.895470,9.788863,54.895069,9.793790
1386887002,1,0,461.8,0,1,4,0,870,850,-0.0292,102.0242,6.8213,0.4212,54.895092,9.793599,108.3,5.845,1.85,335.95,54.895470,9.788863,54.895069,9.793790
1386887002,1,0,461.7,0,0,0,0,870,875,-0.0292,102.0242,6.8213,0.4212,54.895092,9.793630,108.3,5.845,1.85,335.95,54.895470,9.788863,54.895069,9.793790
1386887002,1,0,463.9,0,-2,-4,0,870,850,-0.0292,102.5576,6.8213,0.4212,54.895088,9.793660,108.3,5.845,1.85,335.95,54.895470,9.788863,54.895069,9.793790
1386887003,1,0,464.3,0,-2,0,0,870,875,-0.0292,103.0909,6.8213,0.4212,54.895084,9.793690,108.3,5.845,1.85,335.95,54.895470,9.788863,54.895069,9.793790
1386887003,1,0,464.8,0,-2,-4,0,870,850,-0.0292,103.6242,6.8213,0.4212,54.895081,9.793720,108.3,5.845,1.85,335.95,54.895470,9.788863,54.895069,9.793790
1386887003,1,0,465.9,0,-2,0,0,870,875,-0.0292,104.1576,6.8213,0.4212,54.895077,9.793751,108.3,5.845,1.85,335.95,54.895069,9.793790,54.895348,9.797490
1386887003,1,0,442.9,0,21,4,0,870,850,-0.0292,98.5576,6.8213,0.4212,54.895073,9.793781,108.3,5.845,1.85,335.95,54.895069,9.793790,54.895348,9.797490
1386887004,1,0,442.7,0,16,8,0,870,875,-0.0292,94.2909,6.8213,0.4212,54.895069,9.793813,108.3,5.845,1.85,335.95,54.895069,9.793790,54.895348,9.797490
1386887004,1,0,442.5,0,12,12,0,835,850,-0.0292,91.0909,6.8213,0.4212,54.895065,9.793844,108.3,5.845,1.85,335.95,54.895069,9.793790,54.895348,9.797490
1386887004,1,0,442.4,0,9,8,0,789,825,-0.0292,88.6909,6.8213,0.4212,54.895069,9.793876,108.3,5.845,1.85,335.95,54.895069,9.793790,54.895348,9.797490
1386887004,1,0,442.4,0,6,4,0,754,800,-0.0292,87.0909,6.8213,0.4212,54.895069,9.793906,108.3,5.845,1.85,335.95,54.895069,9.793790,54.895348,9.797490
1386887005,1,0,442.4,0,5,8,0,730,775,-0.0292,85.7576,6.8213,0.4212,54.895069,9.793938,108.3,5.845,1.85,335.95,54.895069,9.793790,54.895348,9.797490
1386887005,1,0,442.3,0,3,4,0,710,750,-0.0292,84.9576,6.8213,0.4212,54.895069,9.793969,108.3,5.845,1.85,335.95,54.895069,9.793790,54.895348,9.797490
1386887005,1,0,442.2,0,3,0,0,698,725,-0.0292,84.1576,6.8213,0.4212,54.895069,9.794000,108.3,5.845,1.85,335.95,54.895069,9.793790,54.895348,9.797490
1386887005,1,0,442.1,0,2,4,0,686,700,-0.0292,83.6242,6.8213,0.4212,54.895069,9.794031,108.3,5.845,1.85,335.95,54.895069,9.793790,54.895348,9.797490
1386887006,1,0,442.1,0,2,0,0,678,675,-0.0292,83.0909,6.8213,0.4212,54.895069,9.794063,108.3,5.845,1.85,335.95,54.895069,9.793790,54.895348,9.797490
1386887006,1,0,442.0,0,1,4,0,669,650,-0.0292,82.8242,6.8213,0.4212,54.895069,9.794093,108.3,5.845,1.85,335.95,54.895069,9.793790,54.895348,9.797490
1386887006,1,0,441.9,0,1,0,0,665,675,-0.0292,82.5575,6.8213,0.4212,54.895069,9.794124,108.3,5.845,1.85,335.95,54.895069,9.793790,54.895348,9.797490
1386887006,1,0,441.9,0,1,4,0,661,650,-0.0292,82.2909,6.8213,0.4212,54.895069,9.794155,108.3,5.845,1.85,335.95,54.895069,9.793790,54.895348,9.797490
1386887007,1,0,441.8,0,1,0,0,657,675,-0.0292,82.0242,6.8213,0.4212,54.895069,9.794186,108.3,5.845,1.85,335.95,54.895069,9.793790,54.895348,9.797490
1386887007,1,0,441.7,0,0,4,0,653,650,-0.0292,82.0242,6.8213,0.4212,54.895069,9.794216,108.3,5.845,1.85,335.95,54.895069,9.793790,54.895348,9.797490
1386887007,1,0,441.6,0,0,0,0,653,675,-0.0292,82.0242,6.8213,0.4212,54.895069,9.794248,108.3,5.845,1.85,335.95,54.895069,9.793790,54.895348,9.797490
1386887007,1,0,441.6,0,0,4,0,653,650,-0.0292,82.0242,6.8213,0.4212,54.895069,9.794279,108.3,5.845,1.85,335.95,54.895069,9.793790,54.895348,9.797490
1386887008,1,0,441.5,0,1,0,0,653,675,-0.0292,81.7575,6.8213,0.4212,54.895069,9.794310,108.3,5.845,1.85,335.95,54.895069,9.793790,54.895348,9.797490
1386887008,1,0,441.4,0,0,4,0,649,650,-0.0292,81.7575,6.8213,0.4212,54.895069,9.794340,108.3,5.845,1.85,335.95,54.895069,9.793790,54.895348,9.797490
1386887008,1,0,441.3,0,0,0,0,649,625,-0.0292,81.7575,6.8213,0.4212,54.895069,9.794372,108.3,5.845,1.85,335.95,54.895069,9.793790,54.895348,9.797490
1386887008,1,0,441.2,0,1,4,0,649,650,-0.0292,81.4909,6.8213,0.4212,54.895069,9.794402,108.3,5.845,1.85,335.95,54.895069,9.793790,54.895348,9.797490
1386887009,1,0,441.1,0,0,0,0,645,625,-0.0292,81.4909,6.8213,0.4212,54.895069,9.794433,108.3,5.845,1.85,335.95,54.895069,9.793790,54.895348,9.797490
1386887009,1,0,441.1,0,0,4,0,645,650,-0.0292,81.4909,6.8213,0.4212,54.895069,9.794463,108.3,5.845,1.85,335.95,54.895069,9.793790,54.895348,9.797490
1386887009,1,0,441.0,0,1,0,0,645,625,-0.0292,81.2242,6.8213,0.4212,54.895069,9.794495,108.3,5.845,1.85,335.95,54.895069,9.793790,54.895348,9.797490
1386887009,1,0,440.9,0,0,4,0,641,650,-0.0292,81.2242,6.8213,0.4212,54.895069,9.794525,108.3,5.845,1.85,335.95,54.895069,9.793790,54.895348,9.797490
1386887010,1,0,440.8,0,0,0,0,641,625,-0.0292,81.2242,6.8213,0.4212,54.895069,9.794556,108.3,5.845,1.85,335.95,54.895069,9.793790,54.895348,9.797490
1386887010,1,0,440.7,0,1,4,0,641,650,-0.0292,80.9575,6.8213,0.4212,54.895069,9.794587,108.3,5.845,1.85,335.95,54.895069,9.793790,54.895348,9.797490
1386887010,1,0,440.6,0,0,0,0,636,625,-0.0292,80.9575,6.8213,0.4212,54.895069,9.794618,108.3,5.845,1.85,335.95,54.895069,9.793790,54.895348,9.797490
1386887010,1,0,440.5,0,0,4,0,636,650,-0.0292,80.9575,6.8213,0.4212,54.895069,9.794648,108.3,5.845,1.85,335.95,54.895069,9.793790,54.895348,9.797490
1386887011,1,0,440.4,0,1,0,0,636,625,-0.0292,80.6909,6.8213,0.4212,54.895069,9.794679,108.3,5.845,1.85,335.95,54.895069,9.793790,54.895348,9.797490
1386887011,1,0,440.3,0,0,4,0,632,650,-0.0292,80.6909,6.8213,0.4212,54.895069,9.794710,108.3,5.845,1.85,335.95,54.895069,9.793790,54.895348,9.797490
1386887011,1,0,440.2,0,1,0,0,632,625,-0.0292,80.4242,6.8213,0.4212,54.895069,9.794741,108.3,5.845,1.85,335.95,54.895069,9.793790,54.895348,9.797490
1386887011,1,0,440.1,0,0,4,0,628,650,-0.0292,80.4242,6.8213,0.4212,54.895069,9.794771,108.3,5.845,1.85,335.95,54.895069,9.793790,54.895348,9.797490
1386887012,1,0,440.0,0,0,0,0,628,625,-0.0292,80.4242,6.8213,0.4212,54.895069,9.794803,108.3,5.845,1.85,335.95,54.895069,9.793790,54.895348,9.797490
1386887012,1,0,439.8,0,1,4,0,628,650,-0.0292,80.1575,6.8213,0.4212,54.895069,9.794833,108.3,5.845,1.85,335.95,54.895069,9.793790,54.895348,9.797490
1386887012,1,0,439.7,0,0,0,0,624,625,-0.0292,80.1575,6.8213,0.4212,54.895069,9.794864,108.3,5.845,1.85,335.95,54.895069,9.793790,54.895348,9.797490
1386887012,1,0,439.6,0,1,4,0,624,600,-0.0292,79.8908,6.8213,0.4212,54.895069,9.794894,108.3,5.845,1.85,335.95,54.895069,9.793790,54.895348,9.797490
1386887013,1,0,439.5,0,0,0,0,620,625,-0.0292,79.8908,6.8213,0.4212,54.895069,9.794926,108.3,5.845,1.85,335.95,54.895069,9.793790,54.895348,9.797490
1386887013,1,0,439.4,0,1,4,0,620,600,-0.0292,79.6242,6.8213,0.4212,54.895069,9.794956,108.3,5.845,1.85,335.95,54.895069,9.793790,54.895348,9.797490
1386887013,1,0,439.2,0,0,0,0,616,625,-0.0292,79.6242,6.8213,0.4212,54.895069,9.794987,108.3,5.845,1.85,335.95,54.895069,9.793790,54.895348,9.797490
1386887013,1,0,439.1,0,1,4,0,616,600,-0.0292,79.3575,6.8213,0.4212,54.895069,9.795018,108.3,5.845,1.85,335.95,54.895069,9.793790,54.895348,9.797490
1386887014,1,0,439.0,0,0,0,0,612,625,-0.0292,79.3575,6.8213,0.4212,54.895069,9.795049,108.3,5.845,1.85,335.95,54.895069,9.793790,54.895348,9.797490
1386887014,1,0,438.8,0,1,4,0,612,600,-0.0292,79.0908,6.8213,0.4212,54.895069,9.795079,108.3,5.845,1.85,335.95,54.895069,9.793790,54.895348,9.797490
1386887014,1,0,438.7,0,0,0,0,607,625,-0.0292,79.0908,6.8213,0.4212,54.895069,9.795110,108.3,5.845,1.85,335.95,54.895069,9.793790,54.895348,9.797490
1386887014,1,0,438.6,0,1,4,0,607,600,-0.0292,78.8242,6.8213,0.4212,54.895069,9.795140,108.3,5.845,1.85,335.95,54.895069,9.793790,54.895348,9.797490
1386887015,1,0,438.4,0,0,0,0,603,625,-0.0292,78.8242,6.8213,0.4212,54.895069,9.795171,108.3,5.845,1.85,335.95,54.895069,9.793790,54.895348,9.797490
1386887015,1,0,438.3,0,1,4,0,603,600,-0.0292,78.5575,6.8213,0.4212,54.895069,9.795201,108.3,5.845,1.85,335.95,54.895069,9.793790,54.895348,9.797490
1386887015,1,0,438.1,0,0,0,0,599,575,-0.0292,78.5575,6.8213,0.4212,54.895069,9.795233,108.3,5.845,1.85,335.95,54.895069,9.793790,54.895348,9.797490
1386887015,1,0,438.0,0,1,4,0,599,600,-0.0292,78.2908,6.8213,0.4212,54.895069,9.795263,108.3,5.845,1.85,335.95,54.895069,9.793790,54.895348,9.797490
1386887016,1,0,437.8,0,0,0,0,595,575,-0.0292,78.2908,6.8213,0.4212,54.895069,9.795294,108.3,5.845,1.85,335.95,54.895069,9.793790,54.895348,9.797490
1386887016,1,0,437.6,0,1,4,0,595,600,-0.0292,78.0242,6.8213,0.4212,54.895069,9.795324,108.3,5.845,1.85,335.95,54.895069,9.793790,54.895348,9.797490
1386887016,1,0,437.5,0,1,0,0,591,575,-0.0292,77.7575,6.8213,0.4212,54.895069,9.795355,108.3,5.845,1.85,335.95,54.895069,9.793790,54.895348,9.797490
1386887016,1,0,437.3,0,0,4,0,587,600,-0.0292,77.7575,6.8213,0.4212,54.895069,9.795385,108.3,5.845,1.85,335.95,54.895069,9.793790,54.895348,9.797490
1386887017,1,0,437.1,0,1,0,0,587,575,-0.0292,77.4908,6.8213,0.4212,54.895069,9.795416,108.3,5.845,1.85,335.95,54.895069,9.793790,54.895348,9.797490
1386887017,1,0,436.9,0,1,4,0,582,600,-0.0292,77.2241,6.8213,0.4212,54.895069,9.795446,108.3,5.845,1.85,335.95,54.895069,9.793790,54.895348,9.797490
1386887017,1,0,436.7,0,0,0,0,578,575,-0.0292,77.2241,6.8213,0.4212,54.895069,9.795477,108.3,5.845,1.85,335.95,54.895069,9.793790,54.895348,9.797490
1386887017,1,0,436.6,0,1,4,0,578,600,-0.0292,76.9575,6.8213,0.4212,54.895069,9.795507,108.3,5.845,1.85,335.95,54.895069,9.793790,54.895348,9.797490
1386887018,1,0,436.4,0,1,0,0,574,575,-0.0292,76.6908,6.8213,0.4212,54.895073,9.795537,108.3,5.845,1.85,335.95,54.895069,9.793790,54.895348,9.797490
1386887018,1,0,436.3,0,0,4,0,570,550,-0.0292,76.6908,6.8213,0.4212,54.895077,9.795568,108.3,5.845,1.85,335.95,54.895069,9.793790,54.895348,9.797490
1386887018,1,0,436.3,0,0,0,0,570,575,-0.0292,76.6908,6.8213,0.4212,54.895081,9.795598,108.3,5.845,1.85,335.95,54.895069,9.793790,54.895348,9.797490
1386887018,1,0,436.3,0,0,4,0,570,550,-0.0292,76.6908,6.8213,0.4212,54.895084,9.795629,108.3,5.845,1.85,335.95,54.895069,9.793790,54.895348,9.797490
1386887019,1,0,436.3,0,0,0,0,570,575,-0.0292,76.6908,6.8213,0.4212,54.895088,9.795659,108.3,5.845,1.85,335.95,54.895069,9.793790,54.895348,9.797490
1386887019,1,0,436.2,0,0,4,0,570,550,-0.0292,76.6908,6.8213,0.4212,54.895092,9.795690,108.3,5.845,1.85,335.95,54.895069,9.793790,54.895348,9.797490
1386887019,1,0,436.2,0,0,0,0,570,575,-0.0292,76.6908,6.8213,0.4212,54.895100,9.795720,108.3,5.845,1.85,335.95,54.895069,9.793790,54.895348,9.797490
1386887019,1,0,436.4,0,0,4,0,570,550,-0.0292,76.6908,6.8213,0.4212,54.895103,9.795750,108.3,5.845,1.85,335.95,54.895069,9.793790,54.895348,9.797490
1386887020,1,0,436.4,0,0,0,0,570,575,-0.0292,76.6908,6.8213,0.4212,54.895107,9.795780,108.3,5.845,1.85,335.95,54.895069,9.793790,54.895348,9.797490
1386887020,1,0,436.3,0,0,4,0,570,550,-0.0292,76.6908,6.8213,0.4212,54.895111,9.795811,108.3,5.845,1.85,335.95,54.895069,9.793790,54.895348,9.797490
1386887020,1,0,436.3,0,0,0,0,570,575,-0.0292,76.6908,6.8213,0.4212,54.895115,9.795841,108.3,5.845,1.85,335.95,54.895069,9.793790,54.895348,9.797490
1386887020,1,0,436.3,0,0,4,0,570,550,-0.0292,76.6908,6.8213,0.4212,54.895123,9.795872,108.3,5.845,1.85,335.95,54.895069,9.793790,54.895348,9.797490
1386887021,1,0,436.5,0,0,0,0,570,575,-0.0292,76.6908,6.8213,0.4212,54.895126,9.795902,108.3,5.845,1.85,335.95,54.895069,9.793790,54.895348,9.797490
1386887021,1,0,436.5,0,0,4,0,570,550,-0.0292,76.6908,6.8213,0.4212,54.895130,9.795933,108.3,5.845,1.85,335.95,54.895069,9.793790,54.895348,9.797490
1386887021,1,0,436.4,0,0,0,0,570,575,-0.0292,76.6908,6.8213,0.4212,54.895134,9.795962,108.3,5.845,1.85,335.95,54.895069,9.793790,54.895348,9.797490
1386887022,1,0,436.4,0,0,4,0,570,550,-0.0292,76.6908,6.8213,0.4212,54.895138,9.795993,108.3,5.845,1.85,335.95,54.895069,9.793790,54.895348,9.797490
1386887022,1,0,436.4,0,0,0,0,570,575,-0.0292,76.6908,6.8213,0.4212,54.895142,9.796023,108.3,5.845,1.85,335.95,54.895069,9.793790,54.895348,9.797490
1386887022,1,0,436.4,0,0,4,0,570,550,-0.0292,76.6908,6.8213,0.4212,54.895149,9.796053,108.3,5.845,1.85,335.95,54.895069,9.793790,54.895348,9.797490
1386887022,1,0,436.6,0,0,0,0,570,575,-0.0292,76.6908,6.8213,0.4212,54.895153,9.796083,108.3,5.845,1.85,335.95,54.895069,9.793790,54.895348,9.797490
1386887023,1,0,436.6,0,0,4,0,570,550,-0.0292,76.6908,6.8213,0.4212,54.895157,9.796114,108.3,5.845,1.85,335.95,54.895069,9.793790,54.895348,9.797490
1386887023,1,0,436.5,0,0,0,0,570,575,-0.0292,76.6908,6.8213,0.4212,54.895161,9.796144,108.3,5.845,1.85,335.95,54.895069,9.793790,54.895348,9.797490
1386887023,1,0,436.5,0,0,4,0,570,550,-0.0292,76.6908,6.8213,0.4212,54.895164,9.796175,108.3,5.845,1.85,335.95,54.895069,9.793790,54.895348,9.797490
1386887023,1,0,436.5,0,0,0,0,570,575,-0.0292,76.6908,6.8213,0.4212,54.895172,9.796206,108.3,5.845,1.85,335.95,54.895069,9.793790,54.895348,9.797490
1386887024,1,0,436.7,0,0,4,0,570,550,-0.0292,76.6908,6.8213,0.4212,54.895176,9.796236,108.3,5.845,1.85,335.95,54.895069,9.793790,54.895348,9.797490
1386887024,1,0,436.7,0,0,0,0,570,575,-0.0292,76.6908,6.8213,0.4212,54.895180,9.796266,108.3,5.845,1.85,335.95,54.895069,9.793790,54.895348,9.797490
1386887024,1,0,436.7,0,0,4,0,570,550,-0.0292,76.6908,6.8213,0.4212,54.895184,9.796296,108.3,5.845,1.85,335.95,54.895069,9.793790,54.895348,9.797490
1386887024,1,0,436.6,0,0,0,0,570,575,-0.0292,76.6908,6.8213,0.4212,54.895187,9.796327,108.3,5.845,1.85,335.95,54.895069,9.793790,54.895348,9.797490
1386887025,1,0,436.6,0,0,4,0,570,550,-0.0292,76.6908,6.8213,0.4212,54.895191,9.796357,108.3,5.845,1.85,335.95,54.895069,9.793790,54.895348,9.797490
1386887025,1,0,436.6,0,0,0,0,570,575,-0.0292,76.6908,6.8213,0.4212,54.895199,9.796388,108.3,5.845,1.85,335.95,54.895069,9.793790,54.895348,9.797490
1386887025,1,0,436.9,0,0,4,0,570,550,-0.0292,76.6908,6.8213,0.4212,54.895203,9.796418,108.3,5.845,1.85,335.95,54.895069,9.793790,54.895348,9.797490
1386887025,1,0,436.8,0,0,0,0,570,575,-0.0292,76.6908,6.8213,0.4212,54.895206,9.796449,108.3,5.845,1.85,335.95,54.895069,9.793790,54.895348,9.797490
1386887026,1,0,436.8,0,0,4,0,570,550,-0.0292,76.6908,6.8213,0.4212,54.895210,9.796478,108.3,5.845,1.85,335.95,54.895069,9.793790,54.895348,9.797490
1386887026,1,0,436.8,0,0,0,0,570,575,-0.0292,76.6908,6.8213,0.4212,54.895214,9.796509,108.3,5.845,1.85,335.95,54.895069,9.793790,54.895348,9.797490
1386887026,1,0,436.8,0,0,4,0,570,550,-0.0292,76.6908,6.8213,0.4212,54.895222,9.796539,108.3,5.845,1.85,335.95,54.895069,9.793790,54.895348,9.797490
1386887026,1,0,437.1,0,0,0,0,570,575,-0.0292,76.6908,6.8213,0.4212,54.895226,9.796570,108.3,5.845,1.85,335.95,54.895069,9.793790,54.895348,9.797490
1386887027,1,0,437.1,0,0,4,0,570,550,-0.0292,76.6908,6.8213,0.4212,54.895229,9.796600,108.3,5.845,1.85,335.95,54.895069,9.793790,54.895348,9.797490
1386887027,1,0,437.1,0,0,0,0,570,575,-0.0292,76.6908,6.8213,0.4212,54.895233,9.796631,108.3,5.845,1.85,335.95,54.895069,9.793790,54.895348,9.797490
1386887027,1,0,437.0,0,0,4,0,570,550,-0.0292,76.6908,6.8213,0.4212,54.895237,9.796661,108.3,5.845,1.85,335.95,54.895069,9.793790,54.895348,9.797490
1386887027,1,0,437.0,0,0,0,0,570,575,-0.0292,76.6908,6.8213,0.4212,54.895241,9.796691,108.3,5.845,1.85,335.95,54.895069,9.793790,54.895348,9.797490
1386887028,1,0,437.0,0,0,4,0,570,550,-0.0292,76.6908,6.8213,0.4212,54.895248,9.796721,108.3,5.845,1.85,335.95,54.895069,9.793790,54.895348,9.797490
1386887028,1,0,437.4,0,-1,0,0,570,575,-0.0292,76.9575,6.8213,0.4212,54.895252,9.796752,108.3,5.845,1.85,335.95,54.895069,9.793790,54.895348,9.797490
1386887028,1,0,437.4,0,0,4,0,574,550,-0.0292,76.9575,6.8213,0.4212,54.895256,9.796782,108.3,5.845,1.85,335.95,54.895069,9.793790,54.895348,9.797490
1386887028,1,0,437.4,0,0,0,0,574,575,-0.0292,76.9575,6.8213,0.4212,54.895260,9.796813,108.3,5.845,1.85,335.95,54.895069,9.793790,54.895348,9.797490
1386887029,1,0,437.4,0,0,4,0,574,550,-0.0292,76.9575,6.8213,0.4212,54.895264,9.796844,108.3,5.845,1.85,335.95,54.895069,9.793790,54.895348,9.797490
1386887029,1,0,437.4,0,0,0,0,574,575,-0.0292,76.9575,6.8213,0.4212,54.895271,9.796874,108.3,5.845,1.85,335.95,54.895069,9.793790,54.895348,9.797490
1386887029,1,0,437.9,0,-1,-4,0,574,550,-0.0292,77.2241,6.8213,0.4212,54.895275,9.796905,108.3,5.845,1.85,335.95,54.895069,9.793790,54.895348,9.797490
1386887029,1,0,437.9,0,-1,0,0,578,575,-0.0292,77.4908,6.8213,0.4212,54.895279,9.796935,108.3,5.845,1.85,335.95,54.895069,9.793790,54.895348,9.797490
1386887030,1,0,437.9,0,0,4,0,582,600,-0.0292,77.4908,6.8213,0.4212,54.895283,9.796966,108.3,5.845,1.85,335.95,54.895069,9.793790,54.895348,9.797490
1386887030,1,0,437.9,0,0,0,0,582,575,-0.0292,77.4908,6.8213,0.4212,54.895287,9.796996,108.3,5.845,1.85,335.95,54.895069,9.793790,54.895348,9.797490
1386887030,1,0,437.9,0,0,4,0,582,600,-0.0292,77.4908,6.8213,0.4212,54.895290,9.797027,108.3,5.845,1.85,335.95,54.895069,9.793790,54.895348,9.797490
1386887030,1,0,438.0,0,0,0,0,582,575,-0.0292,77.4908,6.8213,0.4212,54.895290,9.797057,108.3,5.845,1.85,335.95,54.895069,9.793790,54.895348,9.797490
1386887031,1,0,437.1,0,0,4,0,582,600,-0.0292,77.4908,6.8213,0.4212,54.895290,9.797088,108.3,5.845,1.85,335.95,54.895069,9.793790,54.895348,9.797490
1386887031,1,0,436.2,0,1,0,0,582,575,-0.0292,77.2241,6.8213,0.4212,54.895290,9.797118,108.3,5.845,1.85,335.95,54.895069,9.793790,54.895348,9.797490
1386887031,1,0,435.1,0,2,4,0,578,600,-0.0292,76.6908,6.8213,0.4212,54.895294,9.797149,108.3,5.845,1.85,335.95,54.895069,9.793790,54.895348,9.797490
1386887031,1,0,434.9,0,2,0,0,570,575,-0.0292,76.1575,6.8213,0.4212,54.895298,9.797179,108.3,5.845,1.85,335.95,54.895069,9.793790,54.895348,9.797490
1386887032,1,0,434.6,0,2,4,0,561,550,-0.0292,75.6241,6.8213,0.4212,54.895302,9.797209,108.3,5.845,1.85,335.95,54.895069,9.793790,54.895348,9.797490
1386887032,1,0,434.3,0,1,0,0,553,575,-0.0292,75.3575,6.8213,0.4212,54.895306,9.797239,108.3,5.845,1.85,335.95,54.895069,9.793790,54.895348,9.797490
1386887032,1,0,433.9,0,1,4,0,549,550,-0.0292,75.0908,6.8213,0.4212,54.895309,9.797270,108.3,5.845,1.85,335.95,54.895069,9.793790,54.895348,9.797490
1386887032,1,0,433.3,0,2,0,0,544,525,-0.0292,74.5575,6.8213,0.4212,54.895317,9.797299,108.3,5.845,1.85,335.95,54.895069,9.793790,54.895348,9.797490
1386887033,1,0,434.5,0,0,4,0,536,550,-0.0292,74.5575,6.8213,0.4212,54.895321,9.797330,108.3,5.845,1.85,335.95,54.895069,9.793790,54.895348,9.797490
1386887033,1,0,433.9,0,1,0,0,536,525,-0.0292,74.2908,6.8213,0.4212,54.895325,9.797360,108.3,5.845,1.85,335.95,54.895069,9.793790,54.895348,9.797490
1386887033,1,0,433.0,0,1,4,0,532,550,-0.0292,74.0241,6.8213,0.4212,54.895329,9.797390,108.3,5.845,1.85,335.95,54.895069,9.793790,54.895348,9.797490
1386887033,1,0,431.8,0,2,0,0,528,525,-0.0292,73.4908,6.8213,0.4212,54.895332,9.797420,108.3,5.845,1.85,335.95,54.895069,9.793790,54.895348,9.797490
1386887034,1,0,429.5,0,4,4,0,519,500,-0.0292,72.4241,6.8213,0.4212,54.895340,9.797449,108.3,5.845,1.85,335.95,54.895348,9.797490,54.894039,9.801540
1386887034,1,0,478.8,0,-35,0,0,502,525,-0.0292,81.7575,6.8213,0.4212,54.895340,9.797480,108.3,5.845,1.85,335.95,54.895348,9.797490,54.894039,9.801540
1386887034,1,0,479.0,0,-35,-4,0,649,550,-0.0292,91.0908,6.8213,0.4212,54.895336,9.797510,108.3,5.845,1.85,335.95,54.895348,9.797490,54.894039,9.801540
1386887034,1,0,479.1,0,-28,-8,0,789,575,-0.0292,98.5575,6.8213,0.4212,54.895336,9.797542,108.3,5.845,1.85,335.95,54.895348,9.797490,54.894039,9.801540
1386887035,1,0,479.3,0,-21,-12,0,870,600,-0.0292,104.1575,6.8213,0.4212,54.895332,9.797572,108.3,5.845,1.85,335.95,54.895348,9.797490,54.894039,9.801540
1386887035,1,0,479.4,0,-15,-16,0,870,625,-0.0292,108.1575,6.8213,0.4212,54.895329,9.797602,108.3,5.845,1.85,335.95,54.895348,9.797490,54.894039,9.801540
1386887035,1,0,479.5,0,-11,-12,0,870,650,-0.0292,111.0908,6.8213,0.4212,54.895321,9.797631,108.3,5.845,1.85,335.95,54.895348,9.797490,54.894039,9.801540
1386887035,1,0,479.5,0,-8,-8,0,713,675,-0.0292,113.2241,6.8213,0.4212,54.895313,9.797660,108.3,5.845,1.85,335.95,54.895348,9.797490,54.894039,9.801540
1386887036,1,0,479.6,0,-6,-4,0,713,700,-0.0292,114.8241,6.8213,0.4212,54.895309,9.797688,108.3,5.845,1.85,335.95,54.895348,9.797490,54.894039,9.801540
1386887036,1,0,479.7,0,-5,-8,0,713,725,-0.0292,116.1575,6.8213,0.4212,54.895302,9.797717,108.3,5.845,1.85,335.95,54.895348,9.797490,54.894039,9.801540
1386887036,1,0,479.7,0,-4,-4,0,713,700,-0.0292,117.2241,6.8213,0.4212,54.895294,9.797745,108.3,5.845,1.85,335.95,54.895348,9.797490,54.894039,9.801540
1386887036,1,0,479.7,0,-3,0,0,713,725,-0.0292,118.0241,6.8213,0.4212,54.895283,9.797772,108.3,5.845,1.85,335.95,54.895348,9.797490,54.894039,9.801540
1386887037,1,0,479.7,0,-2,-4,0,713,700,-0.0292,118.5575,6.8213,0.4212,54.895275,9.797800,108.3,5.845,1.85,335.95,54.895348,9.797490,54.894039,9.801540
1386887037,1,0,479.7,0,-1,0,0,713,725,-0.0292,118.8241,6.8213,0.4212,54.895267,9.797828,108.3,5.845,1.85,335.95,54.895348,9.797490,54.894039,9.801540
1386887037,1,0,479.8,0,-1,-4,0,713,700,-0.0292,119.0908,6.8213,0.4212,54.895256,9.797854,108.3,5.845,1.85,335.95,54.895348,9.797490,54.894039,9.801540
1386887037,1,0,479.7,0,-1,0,0,713,725,-0.0292,119.3575,6.8213,0.4212,54.895248,9.797882,108.3,5.845,1.85,335.95,54.895348,9.797490,54.894039,9.801540
1386887038,1,0,479.7,0,0,4,0,713,700,-0.0292,119.3575,6.8213,0.4212,54.895237,9.797910,108.3,5.845,1.85,335.95,54.895348,9.797490,54.894039,9.801540
1386887038,1,0,479.7,0,0,0,0,713,725,-0.0292,119.3575,6.8213,0.4212,54.895229,9.797936,108.3,5.845,1.85,335.95,54.895348,9.797490,54.894039,9.801540
1386887038,1,0,479.7,0,0,4,0,713,700,-0.0292,119.3575,6.8213,0.4212,54.895222,9.797964,108.3,5.845,1.85,335.95,54.895348,9.797490,54.894039,9.801540
1386887038,1,0,479.7,0,0,0,0,713,725,-0.0292,119.3575,6.8213,0.4212,54.895210,9.797991,108.3,5.845,1.85,335.95,54.895348,9.797490,54.894039,9.801540
1386887039,1,0,479.7,0,0,4,0,713,700,-0.0292,119.3575,6.8213,0.4212,54.895203,9.798018,108.3,5.845,1.85,335.95,54.895348,9.797490,54.894039,9.801540
1386887039,1,0,479.7,0,0,0,0,713,725,-0.0292,119.3575,6.8213,0.4212,54.895195,9.798045,108.3,5.845,1.85,335.95,54.895348,9.797490,54.894039,9.801540
1386887039,1,0,479.7,0,0,4,0,713,700,-0.0292,119.3575,6.8213,0.4212,54.895184,9.798072,108.3,5.845,1.85,335.95,54.895348,9.797490,54.894039,9.801540
1386887039,1,0,479.7,0,0,0,0,713,725,-0.0292,119.3575,6.8213,0.4212,54.895176,9.798100,108.3,5.845,1.85,335.95,54.895348,9.797490,54.894039,9.801540
1386887040,1,0,479.7,0,0,4,0,713,700,-0.0292,119.3575,6.8213,0.4212,54.895168,9.798127,108.3,5.845,1.85,335.95,54.895348,9.797490,54.894039,9.801540
1386887040,1,0,479.8,0,0,0,0,713,725,-0.0292,119.3575,6.8213,0.4212,54.895157,9.798154,108.3,5.845,1.85,335.95,54.895348,9.797490,54.894039,9.801540
1386887040,1,0,479.7,0,0,4,0,713,700,-0.0292,119.3575,6.8213,0.4212,54.895149,9.798182,108.3,5.845,1.85,335.95,54.895348,9.797490,54.894039,9.801540
1386887040,1,0,479.7,0,0,0,0,713,725,-0.0292,119.3575,6.8213,0.4212,54.895138,9.798209,108.3,5.845,1.85,335.95,54.895348,9.797490,54.894039,9.801540
1386887041,1,0,479.7,0,0,4,0,713,700,-0.0292,119.3575,6.8213,0.4212,54.895130,9.798236,108.3,5.845,1.85,335.95,54.895348,9.797490,54.894039,9.801540
1386887041,1,0,479.7,0,0,0,0,713,725,-0.0292,119.3575,6.8213,0.4212,54.895123,9.798264,108.3,5.845,1.85,335.95,54.895348,9.797490,54.894039,9.801540
1386887041,1,0,479.7,0,0,4,0,713,700,-0.0292,119.3575,6.8213,0.4212,54.895111,9.798290,108.3,5.845,1.85,335.95,54.895348,9.797490,54.894039,9.801540
1386887041,1,0,479.7,0,0,0,0,713,725,-0.0292,119.3575,6.8213,0.4212,54.895103,9.798317,108.3,5.845,1.85,335.95,54.895348,9.797490,54.894039,9.801540
1386887042,1,0,479.7,0,0,4,0,713,700,-0.0292,119.3575,6.8213,0.4212,54.895096,9.798345,108.3,5.845,1.85,335.95,54.895348,9.797490,54.894039,9.801540
1386887042,1,0,479.7,0,0,0,0,713,725,-0.0292,119.3575,6.8213,0.4212,54.895084,9.798371,108.3,5.845,1.85,335.95,54.895348,9.797490,54.894039,9.801540
1386887042,1,0,479.7,0,0,4,0,713,700,-0.0292,119.3575,6.8213,0.4212,54.895077,9.798399,108.3,5.845,1.85,335.95,54.895348,9.797490,54.894039,9.801540
1386887042,1,0,479.7,0,0,0,0,713,725,-0.0292,119.3575,6.8213,0.4212,54.895065,9.798427,108.3,5.845,1.85,335.95,54.895348,9.797490,54.894039,9.801540
1386887043,1,0,479.7,0,0,4,0,713,700,-0.0292,119.3575,6.8213,0.4212,54.895058,9.798453,108.3,5.845,1.85,335.95,54.895348,9.797490,54.894039,9.801540
1386887043,1,0,479.7,0,0,0,0,713,725,-0.0292,119.3575,6.8213,0.4212,54.895050,9.798481,108.3,5.845,1.85,335.95,54.895348,9.797490,54.894039,9.801540
1386887043,1,0,479.7,0,0,4,0,713,700,-0.0292,119.3575,6.8213,0.4212,54.895039,9.798508,108.3,5.845,1.85,335.95,54.895348,9.797490,54.894039,9.801540
1386887043,1,0,479.7,0,0,0,0,713,725,-0.0292,119.3575,6.8213,0.4212,54.895031,9.798534,108.3,5.845,1.85,335.95,54.895348,9.797490,54.894039,9.801540
1386887044,1,0,479.7,0,0,4,0,713,700,-0.0292,119.3575,6.8213,0.4212,54.895023,9.798562,108.3,5.845,1.85,335.95,54.895348,9.797490,54.894039,9.801540
1386887044,1,0,479.7,0,0,0,0,713,725,-0.0292,119.3575,6.8213,0.4212,54.895012,9.798589,108.3,5.845,1.85,335.95,54.895348,9.797490,54.894039,9.801540
1386887044,1,0,479.7,0,0,4,0,713,700,-0.0292,119.3575,6.8213,0.4212,54.895004,9.798616,108.3,5.845,1.85,335.95,54.895348,9.797490,54.894039,9.801540
1386887044,1,0,479.7,0,0,0,0,713,725,-0.0292,119.3575,6.8213,0.4212,54.894997,9.798644,108.3,5.845,1.85,335.95,54.895348,9.797490,54.894039,9.801540
1386887045,1,0,479.7,0,0,4,0,713,700,-0.0292,119.3575,6.8213,0.4212,54.894985,9.798671,108.3,5.845,1.85,335.95,54.895348,9.797490,54.894039,9.801540
1386887045,1,0,479.7,0,0,0,0,713,725,-0.0292,119.3575,6.8213,0.4212,54.894978,9.798698,108.3,5.845,1.85,335.95,54.895348,9.797490,54.894039,9.801540
1386887045,1,0,479.7,0,0,4,0,713,700,-0.0292,119.3575,6.8213,0.4212,54.894966,9.798726,108.3,5.845,1.85,335.95,54.895348,9.797490,54.894039,9.801540
1386887045,1,0,479.7,0,0,0,0,713,725,-0.0292,119.3575,6.8213,0.4212,54.894958,9.798753,108.3,5.845,1.85,335.95,54.895348,9.797490,54.894039,9.801540
1386887046,1,0,479.7,0,0,4,0,713,700,-0.0292,119.3575,6.8213,0.4212,54.894951,9.798780,108.3,5.845,1.85,335.95,54.895348,9.797490,54.894039,9.801540
1386887046,1,0,479.7,0,0,0,0,713,725,-0.0292,119.3575,6.8213,0.4212,54.894939,9.798807,108.3,5.845,1.85,335.95,54.895348,9.797490,54.894039,9.801540
1386887046,1,0,479.7,0,0,4,0,713,700,-0.0292,119.3575,6.8213,0.4212,54.894932,9.798834,108.3,5.845,1.85,335.95,54.895348,9.797490,54.894039,9.801540
1386887046,1,0,479.7,0,0,0,0,713,725,-0.0292,119.3575,6.8213,0.4212,54.894924,9.798862,108.3,5.845,1.85,335.95,54.895348,9.797490,54.894039,9.801540
1386887047,1,0,479.7,0,0,4,0,713,700,-0.0292,119.3575,6.8213,0.4212,54.894913,9.798888,108.3,5.845,1.85,335.95,54.895348,9.797490,54.894039,9.801540
1386887047,1,0,479.7,0,0,0,0,713,725,-0.0292,119.3575,6.8213,0.4212,54.894905,9.798916,108.3,5.845,1.85,335.95,54.895348,9.797490,54.894039,9.801540
1386887047,1,0,479.7,0,0,4,0,713,700,-0.0292,119.3575,6.8213,0.4212,54.894894,9.798944,108.3,5.845,1.85,335.95,54.895348,9.797490,54.894039,9.801540
1386887047,1,0,479.6,0,0,0,0,713,725,-0.0292,119.3575,6.8213,0.4212,54.894886,9.798970,108.3,5.845,1.85,335.95,54.895348,9.797490,54.894039,9.801540
1386887048,1,0,479.7,0,0,4,0,713,700,-0.0292,119.3575,6.8213,0.4212,54.894878,9.798998,108.3,5.845,1.85,335.95,54.895348,9.797490,54.894039,9.801540
1386887048,1,0,479.7,0,0,0,0,713,725,-0.0292,119.3575,6.8213,0.4212,54.894867,9.799026,108.3,5.845,1.85,335.95,54.895348,9.797490,54.894039,9.801540
1386887048,1,0,479.6,0,0,4,0,713,700,-0.0292,119.3575,6.8213,0.4212,54.894859,9.799052,108.3,5.845,1.85,335.95,54.895348,9.797490,54.894039,9.801540
1386887048,1,0,479.7,0,0,0,0,713,725,-0.0292,119.3575,6.8213,0.4212,54.894852,9.799080,108.3,5.845,1.85,335.95,54.895348,9.797490,54.894039,9.801540
1386887049,1,0,479.7,0,0,4,0,713,700,-0.0292,119.3575,6.8213,0.4212,54.894840,9.799107,108.3,5.845,1.85,335.95,54.895348,9.797490,54.894039,9.801540
1386887049,1,0,479.6,0,0,0,0,713,725,-0.0292,119.3575,6.8213,0.4212,54.894833,9.799133,108.3,5.845,1.85,335.95,54.895348,9.797490,54.894039,9.801540
1386887049,1,0,479.7,0,0,4,0,713,700,-0.0292,119.3575,6.8213,0.4212,54.894825,9.799161,108.3,5.845,1.85,335.95,54.895348,9.797490,54.894039,9.801540
1386887049,1,0,479.7,0,0,0,0,713,725,-0.0292,119.3575,6.8213,0.4212,54.894814,9.799188,108.3,5.845,1.85,335.95,54.895348,9.797490,54.894039,9.801540
1386887050,1,0,479.6,0,0,4,0,713,700,-0.0292,119.3575,6.8213,0.4212,54.894806,9.799215,108.3,5.845,1.85,335.95,54.895348,9.797490,54.894039,9.801540
1386887050,1,0,479.7,0,0,0,0,713,725,-0.0292,119.3575,6.8213,0.4212,54.894794,9.799243,108.3,5.845,1.85,335.95,54.895348,9.797490,54.894039,9.801540
