MCU_timestamp,Navigation_System,Manual_Control,Guidance_Heading,Manual_Ctrl_Rudder,Rudder_Desired_Angle,Rudder_Feedback,Manual_Ctrl_Sail,Sail_Desired_Pos,Sail_Feedback,Rate,Heading,Pitch,Roll,Latitude,Longitude,COG,SOG,Wind_Speed,Wind_Angle,Point_Start_Lat,Point_Start_Lon,Point_End_Lat,Point_End_Lon
1386872425,0,0,0.0,0,0,-24,0,0,0,-0.0292,447.3590,6.8213,0.4212,54.889633,9.805668,108.3,5.845,1.85,335.95,0.000000,0.000000,0.000000,0.000000
1386872425,0,0,0.0,0,0,-24,0,0,0,-0.0292,447.3590,6.8213,0.4212,54.889633,9.805668,108.3,5.845,1.85,335.95,0.000000,0.000000,0.000000,0.000000
1386872426,0,0,0.0,0,0,-24,0,0,0,-0.0292,447.3590,6.8213,0.4212,54.889633,9.805668,108.3,5.845,1.85,335.95,0.000000,0.000000,0.000000,0.000000
1386872426,0,0,0.0,0,0,-24,0,0,0,-0.0292,447.3590,6.8213,0.4212,54.889633,9.805668,108.3,5.845,1.85,335.95,0.000000,0.000000,0.000000,0.000000
1386872426,0,0,0.0,0,0,-24,0,0,0,-0.0292,447.3590,6.8213,0.4212,54.889633,9.805668,108.3,5.845,1.85,335.95,0.000000,0.000000,0.000000,0.000000
1386872426,0,0,0.0,0,0,-24,0,0,0,-0.0292,447.3590,6.8213,0.4212,54.889633,9.805668,108.3,5.845,1.85,335.95,0.000000,0.000000,0.000000,0.000000
1386872427,0,0,0.0,0,0,-24,0,0,0,-0.0292,447.3590,6.8213,0.4212,54.889633,9.805668,108.3,5.845,1.85,335.95,0.000000,0.000000,0.000000,0.000000
1386872427,0,0,0.0,0,0,-24,0,0,0,-0.0292,447.3590,6.8213,0.4212,54.889633,9.805668,108.3,5.845,1.85,335.95,0.000000,0.000000,0.000000,0.000000
1386872427,0,0,0.0,0,0,-24,0,0,0,-0.0292,447.3590,6.8213,0.4212,54.889633,9.805668,108.3,5.845,1.85,335.95,0.000000,0.000000,0.000000,0.000000
1386872427,0,0,0.0,0,0,-24,0,0,0,-0.0292,447.3590,6.8213,0.4212,54.889633,9.805668,108.3,5.845,1.85,335.95,0.000000,0.000000,0.000000,0.000000
1386872428,0,0,0.0,0,0,-24,0,0,0,-0.0292,447.3590,6.8213,0.4212,54.889633,9.805668,108.3,5.845,1.85,335.95,0.000000,0.000000,0.000000,0.000000
1386872428,0,0,0.0,0,0,-24,0,0,0,-0.0292,447.3590,6.8213,0.4212,54.889633,9.805668,108.3,5.845,1.85,335.95,0.000000,0.000000,0.000000,0.000000
1386872428,0,0,0.0,0,0,-24,0,0,0,-0.0292,447.3590,6.8213,0.4212,54.889633,9.805668,108.3,5.845,1.85,335.95,0.000000,0.000000,0.000000,0.000000
1386872428,0,0,0.0,0,0,-24,0,0,0,-0.0292,447.3590,6.8213,0.4212,54.889633,9.805668,108.3,5.845,1.85,335.95,0.000000,0.000000,0.000000,0.000000
1386872429,0,0,0.0,0,0,-24,0,0,0,-0.0292,447.3590,6.8213,0.4212,54.889633,9.805668,108.3,5.845,1.85,335.95,0.000000,0.000000,0.000000,0.000000
1386872429,0,0,0.0,0,0,-24,0,0,0,-0.0292,447.3590,6.8213,0.4212,54.889633,9.805668,108.3,5.845,1.85,335.95,0.000000,0.000000,0.000000,0.000000
1386872429,0,0,0.0,0,0,-24,0,0,0,-0.0292,447.3590,6.8213,0.4212,54.889633,9.805668,108.3,5.845,1.85,335.95,0.000000,0.000000,0.000000,0.000000
1386872429,0,0,0.0,0,0,-24,0,0,0,-0.0292,447.3590,6.8213,0.4212,54.889633,9.805668,108.3,5.845,1.85,335.95,0.000000,0.000000,0.000000,0.000000
1386872430,0,0,0.0,0,0,-24,0,0,0,-0.0292,447.3590,6.8213,0.4212,54.889633,9.805668,108.3,5.845,1.85,335.95,0.000000,0.000000,0.000000,0.000000
1386872430,0,0,0.0,0,0,-24,0,0,0,-0.0292,447.3590,6.8213,0.4212,54.889633,9.805668,108.3,5.845,1.85,335.95,0.000000,0.000000,0.000000,0.000000
1386872430,0,0,0.0,0,0,-24,0,0,0,-0.0292,447.3590,6.8213,0.4212,54.889633,9.805668,108.3,5.845,1.85,335.95,0.000000,0.000000,0.000000,0.000000
1386872430,0,0,0.0,0,0,-24,0,0,0,-0.0292,447.3590,6.8213,0.4212,54.889633,9.805668,108.3,5.845,1.85,335.95,0.000000,0.000000,0.000000,0.000000
1386872431,0,0,0.0,0,0,-24,0,0,0,-0.0292,447.3590,6.8213,0.4212,54.889633,9.805668,108.3,5.845,1.85,335.95,0.000000,0.000000,0.000000,0.000000
1386872431,0,0,0.0,0,0,-24,0,0,0,-0.0292,447.3590,6.8213,0.4212,54.889633,9.805668,108.3,5.845,1.85,335.95,0.000000,0.000000,0.000000,0.000000
1386872431,0,0,0.0,0,0,-24,0,0,0,-0.0292,447.3590,6.8213,0.4212,54.889633,9.805668,108.3,5.845,1.85,335.95,0.000000,0.000000,0.000000,0.000000
1386872431,0,0,0.0,0,0,-24,0,0,0,-0.0292,447.3590,6.8213,0.4212,54.889633,9.805668,108.3,5.845,1.85,335.95,0.000000,0.000000,0.000000,0.000000
1386872432,0,0,0.0,0,0,-24,0,0,0,-0.0292,447.3590,6.8213,0.4212,54.889633,9.805668,108.3,5.845,1.85,335.95,0.000000,0.000000,0.000000,0.000000
1386872432,0,0,0.0,0,0,-24,0,0,0,-0.0292,447.3590,6.8213,0.4212,54.889633,9.805668,108.3,5.845,1.85,335.95,0.000000,0.000000,0.000000,0.000000
1386872432,0,0,0.0,0,0,-24,0,0,0,-0.0292,447.3590,6.8213,0.4212,54.889633,9.805668,108.3,5.845,1.85,335.95,0.000000,0.000000,0.000000,0.000000
1386872432,0,0,0.0,0,0,-24,0,0,0,-0.0292,447.3590,6.8213,0.4212,54.889633,9.805668,108.3,5.845,1.85,335.95,0.000000,0.000000,0.000000,0.000000
1386872433,0,0,0.0,0,0,-24,0,0,0,-0.0292,447.3590,6.8213,0.4212,54.889633,9.805668,108.3,5.845,1.85,335.95,0.000000,0.000000,0.000000,0.000000
1386872433,0,0,0.0,0,0,-24,0,0,0,-0.0292,447.3590,6.8213,0.4212,54.889633,9.805668,108.3,5.845,1.85,335.95,0.000000,0.000000,0.000000,0.000000
1386872433,0,0,0.0,0,0,-24,0,0,0,-0.0292,447.3590,6.8213,0.4212,54.889633,9.805668,108.3,5.845,1.85,335.95,0.000000,0.000000,0.000000,0.000000
1386872433,0,0,0.0,0,0,-24,0,0,0,-0.0292,447.3590,6.8213,0.4212,54.889633,9.805668,108.3,5.845,1.85,335.95,0.000000,0.000000,0.000000,0.000000
1386872434,0,0,0.0,0,0,-24,0,0,0,-0.0292,447.3590,6.8213,0.4212,54.889633,9.805668,108.3,5.845,1.85,335.95,0.000000,0.000000,0.000000,0.000000
1386872434,0,0,0.0,0,0,-24,0,0,0,-0.0292,447.3590,6.8213,0.4212,54.889633,9.805668,108.3,5.845,1.85,335.95,0.000000,0.000000,0.000000,0.000000
1386872434,0,0,0.0,0,0,-24,0,0,0,-0.0292,447.3590,6.8213,0.4212,54.889633,9.805668,108.3,5.845,1.85,335.95,0.000000,0.000000,0.000000,0.000000
1386872434,0,0,0.0,0,0,-24,0,0,0,-0.0292,447.3590,6.8213,0.4212,54.889633,9.805668,108.3,5.845,1.85,335.95,0.000000,0.000000,0.000000,0.000000
1386872435,0,0,0.0,0,0,-24,0,0,0,-0.0292,447.3590,6.8213,0.4212,54.889633,9.805668,108.3,5.845,1.85,335.95,0.000000,0.000000,0.000000,0.000000
1386872435,0,0,0.0,0,0,-24,0,0,0,-0.0292,447.3590,6.8213,0.4212,54.889633,9.805668,108.3,5.845,1.85,335.95,0.000000,0.000000,0.000000,0.000000
1386872435,0,0,0.0,0,0,-24,0,0,0,-0.0292,447.3590,6.8213,0.4212,54.889633,9.805668,108.3,5.845,1.85,335.95,0.000000,0.000000,0.000000,0.000000
1386872435,0,0,0.0,0,0,-24,0,0,0,-0.0292,447.3590,6.8213,0.4212,54.889633,9.805668,108.3,5.845,1.85,335.95,0.000000,0.000000,0.000000,0.000000
1386872436,0,0,0.0,0,0,-24,0,0,0,-0.0292,447.3590,6.8213,0.4212,54.889633,9.805668,108.3,5.845,1.85,335.95,0.000000,0.000000,0.000000,0.000000
1386872436,0,0,0.0,0,0,-24,0,0,0,-0.0292,447.3590,6.8213,0.4212,54.889633,9.805668,108.3,5.845,1.85,335.95,0.000000,0.000000,0.000000,0.000000
1386872436,4,0,0.0,0,0,-24,0,0,0,-0.0292,447.3590,6.8213,0.4212,54.889633,9.805668,108.3,5.845,1.85,335.95,0.000000,0.000000,0.000000,0.000000
1386872436,1,0,485.9,0,-35,-28,0,422,175,-0.0292,456.6924,6.8213,0.4212,54.889633,9.805698,108.3,5.845,1.85,335.95,54.889633,9.805668,54.895069,9.793790
1386872437,1,0,485.9,0,-29,-32,0,499,200,-0.0292,464.4257,6.8213,0.4212,54.889629,9.805729,108.3,5.845,1.85,335.95,54.889633,9.805668,54.895069,9.793790
1386872437,1,0,485.9,0,-22,-28,0,559,225,-0.0292,470.2924,6.8213,0.4212,54.889626,9.805758,108.3,5.845,1.85,335.95,54.889633,9.805668,54.895069,9.793790
1386872437,1,0,485.9,0,-16,-24,0,578,250,-0.0292,474.5590,6.8213,0.4212,54.889618,9.805786,108.3,5.845,1.85,335.95,54.889633,9.805668,54.895069,9.793790
1386872437,1,0,485.9,0,-11,-20,0,409,275,-0.0292,477.4923,6.8213,0.4212,54.889610,9.805814,108.3,5.845,1.85,335.95,54.889633,9.805668,54.895069,9.793790
1386872438,1,0,485.9,0,-8,-16,0,409,300,-0.0292,479.6257,6.8213,0.4212,54.889599,9.805840,108.3,5.845,1.85,335.95,54.889633,9.805668,54.895069,9.793790
1386872438,1,0,485.9,0,-6,-12,0,409,325,-0.0292,481.2257,6.8213,0.4212,54.889591,9.805867,108.3,5.845,1.85,335.95,54.889633,9.805668,54.895069,9.793790
1386872438,1,0,485.9,0,-5,-8,0,409,350,-0.0292,482.5590,6.8213,0.4212,54.889580,9.805894,108.3,5.845,1.85,335.95,54.889633,9.805668,54.895069,9.793790
1386872438,1,0,485.9,0,-3,-4,0,409,375,-0.0292,483.3590,6.8213,0.4212,54.889572,9.805920,108.3,5.845,1.85,335.95,54.889633,9.805668,54.895069,9.793790
1386872439,1,0,485.9,0,-3,0,0,409,400,-0.0292,484.1590,6.8213,0.4212,54.889561,9.805946,108.3,5.845,1.85,335.95,54.889633,9.805668,54.895069,9.793790
1386872439,1,0,485.9,0,-2,-4,0,409,425,-0.0292,484.6923,6.8213,0.4212,54.889549,9.805972,108.3,5.845,1.85,335.95,54.889633,9.805668,54.895069,9.793790
1386872439,1,0,485.9,0,-1,0,0,409,400,-0.0292,484.9590,6.8213,0.4212,54.889538,9.805998,108.3,5.845,1.85,335.95,54.889633,9.805668,54.895069,9.793790
1386872439,1,0,485.9,0,-1,-4,0,409,425,-0.0292,485.2256,6.8213,0.4212,54.889526,9.806024,108.3,5.845,1.85,335.95,54.889633,9.805668,54.895069,9.793790
1386872440,1,0,485.9,0,-1,0,0,409,400,-0.0292,485.4923,6.8213,0.4212,54.889515,9.806049,108.3,5.845,1.85,335.95,54.889633,9.805668,54.895069,9.793790
1386872440,1,0,485.9,0,0,4,0,409,425,-0.0292,485.4923,6.8213,0.4212,54.889503,9.806074,108.3,5.845,1.85,335.95,54.889633,9.805668,54.895069,9.793790
1386872440,1,0,485.9,0,0,0,0,409,400,-0.0292,485.4923,6.8213,0.4212,54.889496,9.806100,108.3,5.845,1.85,335.95,54.889633,9.805668,54.895069,9.793790
1386872440,1,0,485.9,0,0,4,0,409,425,-0.0292,485.4923,6.8213,0.4212,54.889484,9.806125,108.3,5.845,1.85,335.95,54.889633,9.805668,54.895069,9.793790
1386872441,1,0,485.9,0,0,0,0,409,400,-0.0292,485.4923,6.8213,0.4212,54.889477,9.806150,108.3,5.845,1.85,335.95,54.889633,9.805668,54.895069,9.793790
1386872441,1,0,485.9,0,0,4,0,409,425,-0.0292,485.4923,6.8213,0.4212,54.889465,9.806176,108.3,5.845,1.85,335.95,54.889633,9.805668,54.895069,9.793790
1386872441,1,0,485.9,0,0,0,0,409,400,-0.0292,485.4923,6.8213,0.4212,54.889454,9.806202,108.3,5.845,1.85,335.95,54.889633,9.805668,54.895069,9.793790
1386872441,1,0,485.9,0,0,4,0,0,375,-0.0292,485.4923,6.8213,0.4212,54.889442,9.806228,108.3,5.845,1.85,335.95,54.889633,9.805668,54.895069,9.793790
1386872442,1,0,485.9,0,0,0,0,0,350,-0.0292,485.4923,6.8213,0.4212,54.889431,9.806252,108.3,5.845,1.85,335.95,54.889633,9.805668,54.895069,9.793790
1386872442,1,0,485.9,0,0,4,0,0,325,-0.0292,485.4923,6.8213,0.4212,54.889423,9.806278,108.3,5.845,1.85,335.95,54.889633,9.805668,54.895069,9.793790
1386872442,1,0,485.9,0,0,0,0,0,300,-0.0292,485.4923,6.8213,0.4212,54.889412,9.806304,108.3,5.845,1.85,335.95,54.889633,9.805668,54.895069,9.793790
1386872442,1,0,485.9,0,0,4,0,0,275,-0.0292,485.4923,6.8213,0.4212,54.889404,9.806330,108.3,5.845,1.85,335.95,54.889633,9.805668,54.895069,9.793790
1386872443,1,0,485.9,0,0,0,0,0,250,-0.0292,485.4923,6.8213,0.4212,54.889393,9.806355,108.3,5.845,1.85,335.95,54.889633,9.805668,54.895069,9.793790
1386872443,1,0,485.9,0,0,4,0,0,225,-0.0292,485.4923,6.8213,0.4212,54.889381,9.806380,108.3,5.845,1.85,335.95,54.889633,9.805668,54.895069,9.793790
1386872443,1,0,485.9,0,0,0,0,0,200,-0.0292,485.4923,6.8213,0.4212,54.889374,9.806406,108.3,5.845,1.85,335.95,54.889633,9.805668,54.895069,9.793790
1386872443,1,0,485.9,0,0,4,0,0,175,-0.0292,485.4923,6.8213,0.4212,54.889362,9.806431,108.3,5.845,1.85,335.95,54.889633,9.805668,54.895069,9.793790
1386872444,1,0,485.9,0,0,0,0,0,150,-0.0292,485.4923,6.8213,0.4212,54.889355,9.806457,108.3,5.845,1.85,335.95,54.889633,9.805668,54.895069,9.793790
1386872444,1,0,485.9,0,0,4,0,0,125,-0.0292,485.4923,6.8213,0.4212,54.889343,9.806482,108.3,5.845,1.85,335.95,54.889633,9.805668,54.895069,9.793790
1386872444,1,0,485.9,0,0,0,0,0,100,-0.0292,485.4923,6.8213,0.4212,54.889332,9.806507,108.3,5.845,1.85,335.95,54.889633,9.805668,54.895069,9.793790
1386872444,1,0,485.9,0,0,4,0,0,75,-0.0292,485.4923,6.8213,0.4212,54.889324,9.806533,108.3,5.845,1.85,335.95,54.889633,9.805668,54.895069,9.793790
1386872445,1,0,485.9,0,0,0,0,0,50,-0.0292,485.4923,6.8213,0.4212,54.889313,9.806558,108.3,5.845,1.85,335.95,54.889633,9.805668,54.895069,9.793790
1386872445,1,0,485.9,0,0,4,0,0,25,-0.0292,485.4923,6.8213,0.4212,54.889305,9.806583,108.3,5.845,1.85,335.95,54.889633,9.805668,54.895069,9.793790
1386872445,1,0,485.9,0,0,0,0,0,0,-0.0292,485.4923,6.8213,0.4212,54.889294,9.806609,108.3,5.845,1.85,335.95,54.889633,9.805668,54.895069,9.793790
1386872445,1,0,485.9,0,0,4,0,0,25,-0.0292,485.4923,6.8213,0.4212,54.889282,9.806634,108.3,5.845,1.85,335.95,54.889633,9.805668,54.895069,9.793790
1386872446,1,0,545.9,0,-35,0,0,0,0,-0.0292,494.8257,6.8213,0.4212,54.889271,9.806656,108.3,5.845,1.85,335.95,54.889633,9.805668,54.895069,9.793790
1386872446,1,0,545.9,0,-35,-4,0,0,25,-0.0292,504.1590,6.8213,0.4212,54.889256,9.806674,108.3,5.845,1.85,335.95,54.889633,9.805668,54.895069,9.793790
1386872446,1,0,545.9,0,-35,-8,0,0,0,-0.0292,513.4923,6.8213,0.4212,54.889240,9.806688,108.3,5.845,1.85,335.95,54.889633,9.805668,54.895069,9.793790
1386872446,1,0,545.9,0,-32,-12,0,0,25,-0.0292,522.0256,6.8213,0.4212,54.889221,9.806699,108.3,5.845,1.85,335.95,54.889633,9.805668,54.895069,9.793790
1386872447,1,0,545.9,0,-24,-16,0,0,0,-0.0292,528.4257,6.8213,0.4212,54.889202,9.806705,108.3,5.845,1.85,335.95,54.889633,9.805668,54.895069,9.793790
1386872447,1,0,545.9,0,-18,-20,0,0,25,-0.0292,533.2256,6.8213,0.4212,54.889183,9.806708,108.3,5.845,1.85,335.95,54.889633,9.805668,54.895069,9.793790
1386872447,1,0,545.9,0,-13,-16,0,0,0,-0.0292,536.6923,6.8213,0.4212,54.889164,9.806710,108.3,5.845,1.85,335.95,54.889633,9.805668,54.895069,9.793790
1386872447,1,0,545.9,0,-9,-12,0,0,25,-0.0292,539.0923,6.8213,0.4212,54.889149,9.806710,108.3,5.845,1.85,335.95,54.889633,9.805668,54.895069,9.793790
1386872448,1,0,545.9,0,-7,-8,0,409,50,-0.0292,540.9590,6.8213,0.4212,54.889130,9.806709,108.3,5.845,1.85,335.95,54.889633,9.805668,54.895069,9.793790
1386872448,1,0,545.9,0,-5,-4,0,409,75,-0.0292,542.2923,6.8213,0.4212,54.889111,9.806708,108.3,5.845,1.85,335.95,54.889633,9.805668,54.895069,9.793790
1386872448,1,0,545.9,0,-4,0,0,409,100,-0.0292,543.3589,6.8213,0.4212,54.889095,9.806706,108.3,5.845,1.85,335.95,54.889633,9.805668,54.895069,9.793790
1386872448,1,0,545.9,0,-3,-4,0,409,125,-0.0292,544.1589,6.8213,0.4212,54.889076,9.806704,108.3,5.845,1.85,335.95,54.889633,9.805668,54.895069,9.793790
1386872449,1,0,545.9,0,-2,0,0,409,150,-0.0292,544.6923,6.8213,0.4212,54.889057,9.806701,108.3,5.845,1.85,335.95,54.889633,9.805668,54.895069,9.793790
1386872449,1,0,545.9,0,-1,-4,0,409,175,-0.0292,544.9589,6.8213,0.4212,54.889038,9.806698,108.3,5.845,1.85,335.95,54.889633,9.805668,54.895069,9.793790
1386872449,1,0,545.9,0,-1,0,0,409,200,-0.0292,545.2256,6.8213,0.4212,54.889023,9.806695,108.3,5.845,1.85,335.95,54.889633,9.805668,54.895069,9.793790
1386872449,1,0,545.9,0,-1,-4,0,409,225,-0.0292,545.4922,6.8213,0.4212,54.889004,9.806691,108.3,5.845,1.85,335.95,54.889633,9.805668,54.895069,9.793790
1386872450,1,0,545.9,0,0,0,0,409,250,-0.0292,545.4922,6.8213,0.4212,54.888985,9.806688,108.3,5.845,1.85,335.95,54.889633,9.805668,54.895069,9.793790
1386872450,1,0,545.9,0,0,4,0,409,275,-0.0292,545.4922,6.8213,0.4212,54.888966,9.806685,108.3,5.845,1.85,335.95,54.889633,9.805668,54.895069,9.793790
1386872450,1,0,545.9,0,0,0,0,409,300,-0.0292,545.4922,6.8213,0.4212,54.888950,9.806683,108.3,5.845,1.85,335.95,54.889633,9.805668,54.895069,9.793790
1386872450,1,0,545.9,0,0,4,0,409,325,-0.0292,545.4922,6.8213,0.4212,54.888931,9.806680,108.3,5.845,1.85,335.95,54.889633,9.805668,54.895069,9.793790
1386872451,1,0,280.9,0,-35,0,0,409,350,-0.0292,554.8256,6.8213,0.4212,54.888912,9.806672,108.3,5.845,1.85,335.95,54.889633,9.805668,54.895069,9.793790
1386872451,1,0,280.9,0,-35,-4,0,409,375,-0.0292,564.1589,6.8213,0.4212,54.888897,9.806660,108.3,5.845,1.85,335.95,54.889633,9.805668,54.895069,9.793790
1386872451,1,0,280.9,0,-35,-8,0,578,400,-0.0292,573.4922,6.8213,0.4212,54.888882,9.806643,108.3,5.845,1.85,335.95,54.889633,9.805668,54.895069,9.793790
1386872451,1,0,280.9,0,-35,-12,0,513,425,-0.0292,582.8255,6.8213,0.4212,54.888866,9.806622,108.3,5.845,1.85,335.95,54.889633,9.805668,54.895069,9.793790
1386872452,1,0,280.9,0,-35,-16,0,436,450,-0.0292,592.1588,6.8213,0.4212,54.888855,9.806597,108.3,5.845,1.85,335.95,54.889633,9.805668,54.895069,9.793790
1386872452,1,0,280.9,0,-35,-20,0,355,425,-0.0292,601.4921,6.8213,0.4212,54.888847,9.806570,108.3,5.845,1.85,335.95,54.889633,9.805668,54.895069,9.793790
1386872452,1,0,280.9,0,-35,-24,0,270,400,-0.0292,610.8254,6.8213,0.4212,54.888840,9.806540,108.3,5.845,1.85,335.95,54.889633,9.805668,54.895069,9.793790
1386872452,1,0,280.9,0,-30,-28,0,184,375,-0.0292,618.8254,6.8213,0.4212,54.888836,9.806510,108.3,5.845,1.85,335.95,54.889633,9.805668,54.895069,9.793790
1386872453,1,0,280.9,0,-22,-24,0,114,350,-0.0292,624.6921,6.8213,0.4212,54.888836,9.806479,108.3,5.845,1.85,335.95,54.889633,9.805668,54.895069,9.793790
1386872453,1,0,280.9,0,-16,-20,0,68,325,-0.0292,628.9587,6.8213,0.4212,54.888836,9.806448,108.3,5.845,1.85,335.95,54.889633,9.805668,54.895069,9.793790
1386872453,1,0,280.9,0,-12,-16,0,39,300,-0.0292,632.1588,6.8213,0.4212,54.888836,9.806417,108.3,5.845,1.85,335.95,54.889633,9.805668,54.895069,9.793790
1386872454,1,0,280.9,0,-9,-12,0,22,275,-0.0292,634.5588,6.8213,0.4212,54.888836,9.806385,108.3,5.845,1.85,335.95,54.889633,9.805668,54.895069,9.793790
1386872454,1,0,280.9,0,-6,-8,0,12,250,-0.0292,636.1588,6.8213,0.4212,54.888840,9.806355,108.3,5.845,1.85,335.95,54.889633,9.805668,54.895069,9.793790
1386872454,1,0,280.9,0,-5,-4,0,6,225,-0.0292,637.4921,6.8213,0.4212,54.888844,9.806323,108.3,5.845,1.85,335.95,54.889633,9.805668,54.895069,9.793790
1386872454,1,0,280.9,0,-3,0,0,3,200,-0.0292,638.2921,6.8213,0.4212,54.888847,9.806293,108.3,5.845,1.85,335.95,54.889633,9.805668,54.895069,9.793790
1386872455,1,0,280.9,0,-3,-4,0,2,175,-0.0292,639.0920,6.8213,0.4212,54.888847,9.806262,108.3,5.845,1.85,335.95,54.889633,9.805668,54.895069,9.793790
1386872455,1,0,280.9,0,-2,0,0,1,150,-0.0292,639.6254,6.8213,0.4212,54.888847,9.806231,108.3,5.845,1.85,335.95,54.889633,9.805668,54.895069,9.793790
1386872455,1,0,280.9,0,-1,-4,0,0,125,-0.0292,639.8920,6.8213,0.4212,54.888847,9.806201,108.3,5.845,1.85,335.95,54.889633,9.805668,54.895069,9.793790
1386872455,1,0,280.9,0,-1,0,0,0,100,-0.0292,640.1587,6.8213,0.4212,54.888847,9.806170,108.3,5.845,1.85,335.95,54.889633,9.805668,54.895069,9.793790
1386872456,1,0,280.9,0,-1,-4,0,0,75,-0.0292,640.4254,6.8213,0.4212,54.888847,9.806140,108.3,5.845,1.85,335.95,54.889633,9.805668,54.895069,9.793790
1386872456,1,0,545.9,0,35,0,0,0,50,-0.0292,631.0920,6.8213,0.4212,54.888847,9.806108,108.3,5.845,1.85,335.95,54.889633,9.805668,54.895069,9.793790
1386872456,1,0,545.9,0,35,4,0,27,25,-0.0292,621.7587,6.8213,0.4212,54.888844,9.806078,108.3,5.845,1.85,335.95,54.889633,9.805668,54.895069,9.793790
1386872456,1,0,545.9,0,35,8,0,90,50,-0.0292,612.4254,6.8213,0.4212,54.888840,9.806048,108.3,5.845,1.85,335.95,54.889633,9.805668,54.895069,9.793790
1386872457,1,0,545.9,0,35,12,0,170,75,-0.0292,603.0921,6.8213,0.4212,54.888832,9.806021,108.3,5.845,1.85,335.95,54.889633,9.805668,54.895069,9.793790
1386872457,1,0,545.9,0,35,16,0,255,100,-0.0292,593.7588,6.8213,0.4212,54.888821,9.805995,108.3,5.845,1.85,335.95,54.889633,9.805668,54.895069,9.793790
1386872457,1,0,545.9,0,35,20,0,340,125,-0.0292,584.4255,6.8213,0.4212,54.888809,9.805973,108.3,5.845,1.85,335.95,54.889633,9.805668,54.895069,9.793790
1386872457,1,0,545.9,0,35,24,0,423,150,-0.0292,575.0922,6.8213,0.4212,54.888794,9.805955,108.3,5.845,1.85,335.95,54.889633,9.805668,54.895069,9.793790
1386872458,1,0,545.9,0,29,28,0,500,175,-0.0292,567.3588,6.8213,0.4212,54.888779,9.805941,108.3,5.845,1.85,335.95,54.889633,9.805668,54.895069,9.793790
1386872458,1,0,545.9,0,21,24,0,560,200,-0.0292,561.7589,6.8213,0.4212,54.888760,9.805929,108.3,5.845,1.85,335.95,54.889633,9.805668,54.895069,9.793790
1386872458,1,0,545.9,0,16,20,0,578,225,-0.0292,557.4922,6.8213,0.4212,54.888741,9.805920,108.3,5.845,1.85,335.95,54.889633,9.805668,54.895069,9.793790
1386872458,1,0,545.9,0,12,16,0,409,250,-0.0292,554.2922,6.8213,0.4212,54.888725,9.805912,108.3,5.845,1.85,335.95,54.889633,9.805668,54.895069,9.793790
1386872459,1,0,545.9,0,8,12,0,409,275,-0.0292,552.1588,6.8213,0.4212,54.888706,9.805905,108.3,5.845,1.85,335.95,54.889633,9.805668,54.895069,9.793790
1386872459,1,0,545.9,0,6,8,0,0,250,-0.0292,550.5588,6.8213,0.4212,54.888687,9.805900,108.3,5.845,1.85,335.95,54.889633,9.805668,54.895069,9.793790
1386872459,1,0,545.9,0,5,4,0,0,225,-0.0292,549.2255,6.8213,0.4212,54.888668,9.805895,108.3,5.845,1.85,335.95,54.889633,9.805668,54.895069,9.793790
