MCU_timestamp,Navigation_System,Manual_Control,Guidance_Heading,Manual_Ctrl_Rudder,Rudder_Desired_Angle,Rudder_Feedback,Manual_Ctrl_Sail,Sail_Desired_Pos,Sail_Feedback,Rate,Heading,Pitch,Roll,Latitude,Longitude,COG,SOG,Wind_Speed,Wind_Angle,Point_Start_Lat,Point_Start_Lon,Point_End_Lat,Point_End_Lon
1390066760,0,0,0.0,0,0,0,0,0,0,-0.0292,29.6258,6.8213,0.4212,54.895958,9.815579,108.3,5.845,1.85,335.95,0.000000,0.000000,0.000000,0.000000
1390066761,0,0,0.0,0,0,0,0,0,0,-0.0292,29.6258,6.8213,0.4212,54.895958,9.815579,108.3,5.845,1.85,335.95,0.000000,0.000000,0.000000,0.000000
1390066761,0,0,0.0,0,0,0,0,0,0,-0.0292,29.6258,6.8213,0.4212,54.895958,9.815579,108.3,5.845,1.85,335.95,0.000000,0.000000,0.000000,0.000000
1390066761,0,0,0.0,0,0,0,0,0,0,-0.0292,29.6258,6.8213,0.4212,54.895958,9.815579,108.3,5.845,1.85,335.95,0.000000,0.000000,0.000000,0.000000
1390066761,0,0,0.0,0,0,0,0,0,0,-0.0292,29.6258,6.8213,0.4212,54.895958,9.815579,108.3,5.845,1.85,335.95,0.000000,0.000000,0.000000,0.000000
1390066762,0,0,0.0,0,0,0,0,0,0,-0.0292,29.6258,6.8213,0.4212,54.895958,9.815579,108.3,5.845,1.85,335.95,0.000000,0.000000,0.000000,0.000000
1390066762,0,0,0.0,0,0,0,0,0,0,-0.0292,29.6258,6.8213,0.4212,54.895958,9.815579,108.3,5.845,1.85,335.95,0.000000,0.000000,0.000000,0.000000
1390066762,0,0,0.0,0,0,0,0,0,0,-0.0292,29.6258,6.8213,0.4212,54.895958,9.815579,108.3,5.845,1.85,335.95,0.000000,0.000000,0.000000,0.000000
1390066762,0,0,0.0,0,0,0,0,0,0,-0.0292,29.6258,6.8213,0.4212,54.895958,9.815579,108.3,5.845,1.85,335.95,0.000000,0.000000,0.000000,0.000000
1390066763,0,0,0.0,0,0,0,0,0,0,-0.0292,29.6258,6.8213,0.4212,54.895958,9.815579,108.3,5.845,1.85,335.95,0.000000,0.000000,0.000000,0.000000
1390066763,4,0,0.0,0,0,0,0,0,0,-0.0292,29.6258,6.8213,0.4212,54.895958,9.815579,108.3,5.845,1.85,335.95,0.000000,0.000000,0.000000,0.000000
1390066763,1,0,0.0,0,-35,-4,0,0,0,-0.0292,41.2925,6.8213,0.4212,54.895962,9.815587,108.3,5.845,1.85,335.95,54.895069,9.793790,54.895348,9.797490
1390066763,1,0,0.0,0,-35,-8,0,53,50,-0.0292,52.9591,6.8213,0.4212,54.895966,9.815599,108.3,5.845,1.85,335.95,54.895348,9.797490,54.894039,9.801540
1390066764,1,0,0.0,0,-35,-12,0,198,100,-0.0292,64.6258,6.8213,0.4212,54.895969,9.815617,108.3,5.845,1.85,335.95,54.894039,9.801540,54.893795,9.802299
1390066764,1,0,0.0,0,-35,-16,0,378,150,-0.0292,76.2925,6.8213,0.4212,54.895973,9.815637,108.3,5.845,1.85,335.95,54.893795,9.802299,54.893364,9.803688
1390066764,1,0,0.0,0,-35,-20,0,564,200,-0.0292,87.9591,6.8213,0.4212,54.895973,9.815660,108.3,5.845,1.85,335.95,54.893364,9.803688,54.892704,9.801139
1390066764,1,0,0.0,0,-35,-24,0,744,250,-0.0292,99.6258,6.8213,0.4212,54.895973,9.815683,108.3,5.845,1.85,335.95,54.892704,9.801139,54.891663,9.800174
1390066765,1,0,0.0,0,-35,-28,0,870,300,-0.0292,111.2925,6.8213,0.4212,54.895969,9.815708,108.3,5.845,1.85,335.95,54.891663,9.800174,54.892929,9.805077
1390066765,1,0,0.0,0,-35,-32,0,713,350,-0.0292,122.9591,6.8213,0.4212,54.895962,9.815731,108.3,5.845,1.85,335.95,54.892929,9.805077,54.892498,9.806466
1390066765,1,0,0.0,0,-35,-36,0,713,400,-0.0292,134.6258,6.8213,0.4212,54.895950,9.815752,108.3,5.845,1.85,335.95,54.892498,9.806466,54.891232,9.801563
1390066766,1,0,0.0,0,-35,-32,0,713,450,-0.0292,146.2925,6.8213,0.4212,54.895939,9.815768,108.3,5.845,1.85,335.95,54.891232,9.801563,54.890800,9.802953
1390066766,1,0,0.0,0,-24,-28,0,0,400,-0.0292,154.2925,6.8213,0.4212,54.895924,9.815782,108.3,5.845,1.85,335.95,54.890800,9.802953,54.891651,9.806246
1390066766,1,0,0.0,0,-16,-24,0,0,350,-0.0292,159.6258,6.8213,0.4212,54.895908,9.815792,108.3,5.845,1.85,335.95,54.891651,9.806246,54.890560,9.805087
1390066766,1,0,0.0,0,-10,-20,0,0,300,-0.0292,162.9591,6.8213,0.4212,54.895889,9.815801,108.3,5.845,1.85,335.95,54.890560,9.805087,54.890366,9.804342
1390066767,1,0,0.0,0,-7,-16,0,0,250,-0.0292,165.2924,6.8213,0.4212,54.895870,9.815808,108.3,5.845,1.85,335.95,54.890366,9.804342,54.890846,9.801930
1390066767,1,0,0.0,0,-5,-12,0,0,200,-0.0292,166.9591,6.8213,0.4212,54.895855,9.815816,108.3,5.845,1.85,335.95,54.890846,9.801930,54.889477,9.798280
1390066767,1,0,0.0,0,-3,-8,0,713,250,-0.0292,167.9591,6.8213,0.4212,54.895840,9.815823,108.3,5.845,1.85,335.95,54.889477,9.798280,54.891819,9.794550
1390066767,1,0,0.0,0,-2,-4,0,713,300,-0.0292,168.6258,6.8213,0.4212,54.895821,9.815828,108.3,5.845,1.85,335.95,54.891819,9.794550,54.895348,9.797490
1390066768,1,0,0.0,0,-1,0,0,713,350,-0.0292,168.9591,6.8213,0.4212,54.895802,9.815834,108.3,5.845,1.85,335.95,54.895348,9.797490,54.895069,9.793790
1390066768,1,0,0.0,0,-1,-4,0,713,400,-0.0292,169.2924,6.8213,0.4212,54.895786,9.815840,108.3,5.845,1.85,335.95,54.895348,9.797490,54.895069,9.793790
1390066768,3,0,0.0,0,-1,0,0,713,450,-0.0292,169.6258,6.8213,0.4212,54.895767,9.815845,108.3,5.845,1.85,335.95,54.895348,9.797490,54.895786,9.815840
1390066768,3,0,0.0,0,0,4,0,713,500,-0.0292,169.6258,6.8213,0.4212,54.895748,9.815851,108.3,5.845,1.85,335.95,54.895348,9.797490,54.895786,9.815840
1390066769,3,0,0.0,0,10,8,0,713,550,-0.0292,166.2924,6.8213,0.4212,54.895733,9.815859,108.3,5.845,1.85,335.95,54.895348,9.797490,54.895786,9.815840
1390066769,3,0,0.0,0,6,4,0,713,600,-0.0292,164.2924,6.8213,0.4212,54.895718,9.815867,108.3,5.845,1.85,335.95,54.895348,9.797490,54.895786,9.815840
1390066769,3,0,0.0,0,4,8,0,0,550,-0.0292,162.9591,6.8213,0.4212,54.895699,9.815876,108.3,5.845,1.85,335.95,54.895348,9.797490,54.895786,9.815840
1390066769,3,0,0.0,0,3,4,0,0,500,-0.0292,161.9591,6.8213,0.4212,54.895683,9.815886,108.3,5.845,1.85,335.95,54.895348,9.797490,54.895786,9.815840
1390066770,3,0,0.0,0,2,0,0,0,450,-0.0292,161.2924,6.8213,0.4212,54.895668,9.815895,108.3,5.845,1.85,335.95,54.895348,9.797490,54.895786,9.815840
1390066770,3,0,0.0,0,1,4,0,0,400,-0.0292,160.9591,6.8213,0.4212,54.895649,9.815906,108.3,5.845,1.85,335.95,54.895348,9.797490,54.895786,9.815840
1390066770,3,0,0.0,0,1,0,0,0,350,-0.0292,160.6258,6.8213,0.4212,54.895634,9.815916,108.3,5.845,1.85,335.95,54.895348,9.797490,54.895786,9.815840
1390066770,3,0,0.0,0,1,4,0,0,300,-0.0292,160.2925,6.8213,0.4212,54.895618,9.815927,108.3,5.845,1.85,335.95,54.895348,9.797490,54.895786,9.815840
1390066771,3,0,0.0,0,0,0,0,0,250,-0.0292,160.2925,6.8213,0.4212,54.895599,9.815937,108.3,5.845,1.85,335.95,54.895348,9.797490,54.895786,9.815840
1390066771,3,0,0.0,0,0,4,0,0,200,-0.0292,160.2925,6.8213,0.4212,54.895584,9.815948,108.3,5.845,1.85,335.95,54.895348,9.797490,54.895786,9.815840
1390066771,3,0,0.0,0,0,0,0,0,150,-0.0292,160.2925,6.8213,0.4212,54.895569,9.815958,108.3,5.845,1.85,335.95,54.895348,9.797490,54.895786,9.815840
1390066771,3,0,0.0,0,0,4,0,0,100,-0.0292,160.2925,6.8213,0.4212,54.895550,9.815969,108.3,5.845,1.85,335.95,54.895348,9.797490,54.895786,9.815840
1390066772,3,0,0.0,0,0,0,0,0,50,-0.0292,160.2925,6.8213,0.4212,54.895535,9.815979,108.3,5.845,1.85,335.95,54.895348,9.797490,54.895786,9.815840
1390066772,3,0,0.0,0,0,4,0,0,0,-0.0292,160.2925,6.8213,0.4212,54.895519,9.815989,108.3,5.845,1.85,335.95,54.895348,9.797490,54.895786,9.815840
1390066772,3,0,0.0,0,0,0,0,0,0,-0.0292,160.2925,6.8213,0.4212,54.895500,9.816000,108.3,5.845,1.85,335.95,54.895348,9.797490,54.895786,9.815840
1390066772,3,0,0.0,0,0,4,0,0,0,-0.0292,160.2925,6.8213,0.4212,54.895485,9.816010,108.3,5.845,1.85,335.95,54.895348,9.797490,54.895786,9.815840
1390066773,3,0,0.0,0,0,0,0,0,0,-0.0292,160.2925,6.8213,0.4212,54.895470,9.816021,108.3,5.845,1.85,335.95,54.895348,9.797490,54.895786,9.815840
1390066773,3,0,0.0,0,0,4,0,0,0,-0.0292,160.2925,6.8213,0.4212,54.895451,9.816031,108.3,5.845,1.85,335.95,54.895348,9.797490,54.895786,9.815840
1390066773,3,0,0.0,0,0,0,0,0,0,-0.0292,160.2925,6.8213,0.4212,54.895435,9.816042,108.3,5.845,1.85,335.95,54.895348,9.797490,54.895786,9.815840
1390066773,3,0,0.0,0,0,4,0,0,0,-0.0292,160.2925,6.8213,0.4212,54.895420,9.816051,108.3,5.845,1.85,335.95,54.895348,9.797490,54.895786,9.815840
1390066774,3,0,0.0,0,-10,0,0,0,0,-0.0292,163.6258,6.8213,0.4212,54.895401,9.816060,108.3,5.845,1.85,335.95,54.895348,9.797490,54.895786,9.815840
1390066774,3,0,0.0,0,-6,-4,0,0,0,-0.0292,165.6258,6.8213,0.4212,54.895382,9.816068,108.3,5.845,1.85,335.95,54.895348,9.797490,54.895786,9.815840
1390066774,3,0,0.0,0,-4,0,0,0,0,-0.0292,166.9591,6.8213,0.4212,54.895367,9.816075,108.3,5.845,1.85,335.95,54.895348,9.797490,54.895786,9.815840
1390066774,3,0,0.0,0,-3,-4,0,713,50,-0.0292,167.9591,6.8213,0.4212,54.895348,9.816082,108.3,5.845,1.85,335.95,54.895348,9.797490,54.895786,9.815840
1390066775,3,0,0.0,0,-2,0,0,713,100,-0.0292,168.6258,6.8213,0.4212,54.895329,9.816088,108.3,5.845,1.85,335.95,54.895348,9.797490,54.895786,9.815840
1390066775,3,0,0.0,0,-1,-4,0,713,150,-0.0292,168.9591,6.8213,0.4212,54.895309,9.816093,108.3,5.845,1.85,335.95,54.895348,9.797490,54.895786,9.815840
1390066775,3,0,0.0,0,-1,0,0,713,200,-0.0292,169.2924,6.8213,0.4212,54.895294,9.816099,108.3,5.845,1.85,335.95,54.895348,9.797490,54.895786,9.815840
1390066775,3,0,0.0,0,-1,-4,0,713,250,-0.0292,169.6258,6.8213,0.4212,54.895275,9.816105,108.3,5.845,1.85,335.95,54.895348,9.797490,54.895786,9.815840
1390066776,3,0,0.0,0,0,0,0,713,300,-0.0292,169.6258,6.8213,0.4212,54.895256,9.816111,108.3,5.845,1.85,335.95,54.895348,9.797490,54.895786,9.815840
1390066776,3,0,0.0,0,0,4,0,713,350,-0.0292,169.6258,6.8213,0.4212,54.895237,9.816116,108.3,5.845,1.85,335.95,54.895348,9.797490,54.895786,9.815840
1390066776,3,0,0.0,0,0,0,0,713,400,-0.0292,169.6258,6.8213,0.4212,54.895222,9.816122,108.3,5.845,1.85,335.95,54.895348,9.797490,54.895786,9.815840
1390066776,3,0,0.0,0,0,4,0,713,450,-0.0292,169.6258,6.8213,0.4212,54.895203,9.816128,108.3,5.845,1.85,335.95,54.895348,9.797490,54.895786,9.815840
1390066777,3,0,0.0,0,0,0,0,713,500,-0.0292,169.6258,6.8213,0.4212,54.895184,9.816133,108.3,5.845,1.85,335.95,54.895348,9.797490,54.895786,9.815840
1390066777,3,0,0.0,0,0,4,0,713,550,-0.0292,169.6258,6.8213,0.4212,54.895168,9.816138,108.3,5.845,1.85,335.95,54.895348,9.797490,54.895786,9.815840
1390066777,3,0,0.0,0,0,0,0,713,600,-0.0292,169.6258,6.8213,0.4212,54.895149,9.816144,108.3,5.845,1.85,335.95,54.895348,9.797490,54.895786,9.815840
1390066777,3,0,0.0,0,0,4,0,713,650,-0.0292,169.6258,6.8213,0.4212,54.895130,9.816150,108.3,5.845,1.85,335.95,54.895348,9.797490,54.895786,9.815840
1390066778,3,0,0.0,0,0,0,0,713,700,-0.0292,169.6258,6.8213,0.4212,54.895111,9.816155,108.3,5.845,1.85,335.95,54.895348,9.797490,54.895786,9.815840
1390066778,3,0,0.0,0,0,4,0,713,750,-0.0292,169.6258,6.8213,0.4212,54.895096,9.816161,108.3,5.845,1.85,335.95,54.895348,9.797490,54.895786,9.815840
1390066778,3,0,0.0,0,0,0,0,713,700,-0.0292,169.6258,6.8213,0.4212,54.895077,9.816167,108.3,5.845,1.85,335.95,54.895348,9.797490,54.895786,9.815840
1390066778,3,0,0.0,0,0,4,0,713,750,-0.0292,169.6258,6.8213,0.4212,54.895058,9.816172,108.3,5.845,1.85,335.95,54.895348,9.797490,54.895786,9.815840
1390066779,3,0,0.0,0,-10,0,0,713,700,-0.0292,172.9591,6.8213,0.4212,54.895039,9.816175,108.3,5.845,1.85,335.95,54.895348,9.797490,54.895786,9.815840
1390066779,3,0,0.0,0,-7,-4,0,713,750,-0.0292,175.2924,6.8213,0.4212,54.895023,9.816177,108.3,5.845,1.85,335.95,54.895348,9.797490,54.895786,9.815840
1390066779,3,0,0.0,0,-5,-8,0,713,700,-0.0292,176.9591,6.8213,0.4212,54.895004,9.816179,108.3,5.845,1.85,335.95,54.895348,9.797490,54.895786,9.815840
1390066779,3,0,0.0,0,-3,-4,0,713,750,-0.0292,177.9591,6.8213,0.4212,54.894985,9.816180,108.3,5.845,1.85,335.95,54.895348,9.797490,54.895786,9.815840
1390066780,3,0,0.0,0,-2,0,0,713,700,-0.0292,178.6258,6.8213,0.4212,54.894966,9.816181,108.3,5.845,1.85,335.95,54.895348,9.797490,54.895786,9.815840
1390066780,3,0,0.0,0,-1,-4,0,713,750,-0.0292,178.9591,6.8213,0.4212,54.894951,9.816181,108.3,5.845,1.85,335.95,54.895348,9.797490,54.895786,9.815840
1390066780,3,0,0.0,0,-1,0,0,713,700,-0.0292,179.2924,6.8213,0.4212,54.894932,9.816181,108.3,5.845,1.85,335.95,54.895348,9.797490,54.895786,9.815840
1390066780,3,0,0.0,0,-1,-4,0,713,750,-0.0292,179.6258,6.8213,0.4212,54.894913,9.816181,108.3,5.845,1.85,335.95,54.895348,9.797490,54.895786,9.815840
1390066781,3,0,0.0,0,0,0,0,713,700,-0.0292,179.6258,6.8213,0.4212,54.894894,9.816181,108.3,5.845,1.85,335.95,54.895348,9.797490,54.895786,9.815840
1390066781,3,0,0.0,0,0,4,0,713,750,-0.0292,179.6258,6.8213,0.4212,54.894878,9.816181,108.3,5.845,1.85,335.95,54.895348,9.797490,54.895786,9.815840
1390066781,3,0,0.0,0,0,0,0,713,700,-0.0292,179.6258,6.8213,0.4212,54.894859,9.816181,108.3,5.845,1.85,335.95,54.895348,9.797490,54.895786,9.815840
1390066781,3,0,0.0,0,0,4,0,713,750,-0.0292,179.6258,6.8213,0.4212,54.894840,9.816181,108.3,5.845,1.85,335.95,54.895348,9.797490,54.895786,9.815840
1390066782,3,0,0.0,0,0,0,0,713,700,-0.0292,179.6258,6.8213,0.4212,54.894825,9.816181,108.3,5.845,1.85,335.95,54.895348,9.797490,54.895786,9.815840
1390066782,3,0,0.0,0,0,4,0,713,750,-0.0292,179.6258,6.8213,0.4212,54.894806,9.816181,108.3,5.845,1.85,335.95,54.895348,9.797490,54.895786,9.815840
1390066782,3,0,0.0,0,0,0,0,713,700,-0.0292,179.6258,6.8213,0.4212,54.894787,9.816181,108.3,5.845,1.85,335.95,54.895348,9.797490,54.895786,9.815840
1390066782,3,0,0.0,0,0,4,0,713,750,-0.0292,179.6258,6.8213,0.4212,54.894768,9.816181,108.3,5.845,1.85,335.95,54.895348,9.797490,54.895786,9.815840
1390066783,3,0,0.0,0,0,0,0,713,700,-0.0292,179.6258,6.8213,0.4212,54.894753,9.816181,108.3,5.845,1.85,335.95,54.895348,9.797490,54.895786,9.815840
1390066783,3,0,0.0,0,0,4,0,713,750,-0.0292,179.6258,6.8213,0.4212,54.894733,9.816181,108.3,5.845,1.85,335.95,54.895348,9.797490,54.895786,9.815840
1390066783,3,0,0.0,0,0,0,0,713,700,-0.0292,179.6258,6.8213,0.4212,54.894714,9.816181,108.3,5.845,1.85,335.95,54.895348,9.797490,54.895786,9.815840
1390066783,3,0,0.0,0,0,4,0,713,750,-0.0292,179.6258,6.8213,0.4212,54.894695,9.816181,108.3,5.845,1.85,335.95,54.895348,9.797490,54.895786,9.815840
1390066784,3,0,0.0,0,-10,0,0,713,700,-0.0292,182.9591,6.8213,0.4212,54.894680,9.816179,108.3,5.845,1.85,335.95,54.895348,9.797490,54.895786,9.815840
1390066784,3,0,0.0,0,-7,-4,0,713,750,-0.0292,185.2924,6.8213,0.4212,54.894661,9.816176,108.3,5.845,1.85,335.95,54.895348,9.797490,54.895786,9.815840
1390066784,3,0,0.0,0,-5,-8,0,713,700,-0.0292,186.9591,6.8213,0.4212,54.894642,9.816173,108.3,5.845,1.85,335.95,54.895348,9.797490,54.895786,9.815840
1390066784,3,0,0.0,0,-3,-4,0,713,750,-0.0292,187.9591,6.8213,0.4212,54.894623,9.816168,108.3,5.845,1.85,335.95,54.895348,9.797490,54.895786,9.815840
1390066785,3,0,0.0,0,-2,0,0,713,700,-0.0292,188.6258,6.8213,0.4212,54.894608,9.816163,108.3,5.845,1.85,335.95,54.895348,9.797490,54.895786,9.815840
1390066785,3,0,0.0,0,-1,-4,0,713,750,-0.0292,188.9591,6.8213,0.4212,54.894588,9.816158,108.3,5.845,1.85,335.95,54.895348,9.797490,54.895786,9.815840
1390066785,3,0,0.0,0,-1,0,0,713,700,-0.0292,189.2924,6.8213,0.4212,54.894569,9.816154,108.3,5.845,1.85,335.95,54.895348,9.797490,54.895786,9.815840
1390066785,3,0,0.0,0,-1,-4,0,713,750,-0.0292,189.6257,6.8213,0.4212,54.894554,9.816149,108.3,5.845,1.85,335.95,54.895348,9.797490,54.895786,9.815840
1390066786,3,0,0.0,0,0,0,0,713,700,-0.0292,189.6257,6.8213,0.4212,54.894535,9.816144,108.3,5.845,1.85,335.95,54.895348,9.797490,54.895786,9.815840
1390066786,3,0,0.0,0,0,4,0,713,750,-0.0292,189.6257,6.8213,0.4212,54.894516,9.816139,108.3,5.845,1.85,335.95,54.895348,9.797490,54.895786,9.815840
1390066786,3,0,0.0,0,0,0,0,713,700,-0.0292,189.6257,6.8213,0.4212,54.894497,9.816133,108.3,5.845,1.85,335.95,54.895348,9.797490,54.895786,9.815840
1390066786,3,0,0.0,0,0,4,0,713,750,-0.0292,189.6257,6.8213,0.4212,54.894482,9.816128,108.3,5.845,1.85,335.95,54.895348,9.797490,54.895786,9.815840
1390066787,3,0,0.0,0,0,0,0,713,700,-0.0292,189.6257,6.8213,0.4212,54.894463,9.816122,108.3,5.845,1.85,335.95,54.895348,9.797490,54.895786,9.815840
1390066787,3,0,0.0,0,0,4,0,713,750,-0.0292,189.6257,6.8213,0.4212,54.894444,9.816117,108.3,5.845,1.85,335.95,54.895348,9.797490,54.895786,9.815840
1390066787,3,0,0.0,0,0,0,0,713,700,-0.0292,189.6257,6.8213,0.4212,54.894424,9.816113,108.3,5.845,1.85,335.95,54.895348,9.797490,54.895786,9.815840
1390066787,3,0,0.0,0,0,4,0,713,750,-0.0292,189.6257,6.8213,0.4212,54.894409,9.816108,108.3,5.845,1.85,335.95,54.895348,9.797490,54.895786,9.815840
1390066788,3,0,0.0,0,0,0,0,713,700,-0.0292,189.6257,6.8213,0.4212,54.894390,9.816103,108.3,5.845,1.85,335.95,54.895348,9.797490,54.895786,9.815840
1390066788,3,0,0.0,0,0,4,0,713,750,-0.0292,189.6257,6.8213,0.4212,54.894371,9.816098,108.3,5.845,1.85,335.95,54.895348,9.797490,54.895786,9.815840
1390066788,3,0,0.0,0,0,0,0,713,700,-0.0292,189.6257,6.8213,0.4212,54.894352,9.816092,108.3,5.845,1.85,335.95,54.895348,9.797490,54.895786,9.815840
1390066788,3,0,0.0,0,0,4,0,713,750,-0.0292,189.6257,6.8213,0.4212,54.894337,9.816087,108.3,5.845,1.85,335.95,54.895348,9.797490,54.895786,9.815840
1390066789,3,0,0.0,0,-10,0,0,713,700,-0.0292,192.9591,6.8213,0.4212,54.894318,9.816079,108.3,5.845,1.85,335.95,54.895348,9.797490,54.895786,9.815840
1390066789,3,0,0.0,0,-7,-4,0,713,750,-0.0292,195.2924,6.8213,0.4212,54.894299,9.816072,108.3,5.845,1.85,335.95,54.895348,9.797490,54.895786,9.815840
1390066789,3,0,0.0,0,-5,-8,0,713,700,-0.0292,196.9591,6.8213,0.4212,54.894283,9.816063,108.3,5.845,1.85,335.95,54.895348,9.797490,54.895786,9.815840
1390066789,3,0,0.0,0,-3,-4,0,713,750,-0.0292,197.9591,6.8213,0.4212,54.894264,9.816053,108.3,5.845,1.85,335.95,54.895348,9.797490,54.895786,9.815840
1390066790,3,0,0.0,0,-2,0,0,713,700,-0.0292,198.6257,6.8213,0.4212,54.894245,9.816044,108.3,5.845,1.85,335.95,54.895348,9.797490,54.895786,9.815840
1390066790,3,0,0.0,0,-1,-4,0,713,750,-0.0292,198.9591,6.8213,0.4212,54.894230,9.816033,108.3,5.845,1.85,335.95,54.895348,9.797490,54.895786,9.815840
1390066790,3,0,0.0,0,-1,0,0,713,700,-0.0292,199.2924,6.8213,0.4212,54.894215,9.816024,108.3,5.845,1.85,335.95,54.895348,9.797490,54.895786,9.815840
1390066790,3,0,0.0,0,-1,-4,0,713,750,-0.0292,199.6257,6.8213,0.4212,54.894196,9.816013,108.3,5.845,1.85,335.95,54.895348,9.797490,54.895786,9.815840
1390066791,3,0,0.0,0,0,0,0,713,700,-0.0292,199.6257,6.8213,0.4212,54.894180,9.816003,108.3,5.845,1.85,335.95,54.895348,9.797490,54.895786,9.815840
1390066791,3,0,0.0,0,0,4,0,713,750,-0.0292,199.6257,6.8213,0.4212,54.894165,9.815992,108.3,5.845,1.85,335.95,54.895348,9.797490,54.895786,9.815840
1390066791,3,0,0.0,0,0,0,0,713,700,-0.0292,199.6257,6.8213,0.4212,54.894146,9.815983,108.3,5.845,1.85,335.95,54.895348,9.797490,54.895786,9.815840
1390066791,3,0,0.0,0,0,4,0,713,750,-0.0292,199.6257,6.8213,0.4212,54.894131,9.815972,108.3,5.845,1.85,335.95,54.895348,9.797490,54.895786,9.815840
1390066792,3,0,0.0,0,0,0,0,713,700,-0.0292,199.6257,6.8213,0.4212,54.894115,9.815962,108.3,5.845,1.85,335.95,54.895348,9.797490,54.895786,9.815840
1390066792,3,0,0.0,0,0,4,0,713,750,-0.0292,199.6257,6.8213,0.4212,54.894096,9.815951,108.3,5.845,1.85,335.95,54.895348,9.797490,54.895786,9.815840
1390066792,3,0,0.0,0,0,0,0,713,700,-0.0292,199.6257,6.8213,0.4212,54.894081,9.815941,108.3,5.845,1.85,335.95,54.895348,9.797490,54.895786,9.815840
1390066792,3,0,0.0,0,0,4,0,713,750,-0.0292,199.6257,6.8213,0.4212,54.894066,9.815930,108.3,5.845,1.85,335.95,54.895348,9.797490,54.895786,9.815840
1390066793,3,0,0.0,0,0,0,0,713,700,-0.0292,199.6257,6.8213,0.4212,54.894047,9.815920,108.3,5.845,1.85,335.95,54.895348,9.797490,54.895786,9.815840
1390066793,3,0,0.0,0,0,4,0,713,750,-0.0292,199.6257,6.8213,0.4212,54.894032,9.815909,108.3,5.845,1.85,335.95,54.895348,9.797490,54.895786,9.815840
1390066793,3,0,0.0,0,0,0,0,713,700,-0.0292,199.6257,6.8213,0.4212,54.894016,9.815899,108.3,5.845,1.85,335.95,54.895348,9.797490,54.895786,9.815840
1390066793,3,0,0.0,0,0,4,0,713,750,-0.0292,199.6257,6.8213,0.4212,54.893997,9.815888,108.3,5.845,1.85,335.95,54.895348,9.797490,54.895786,9.815840
1390066794,3,0,0.0,0,-10,0,0,713,700,-0.0292,202.9591,6.8213,0.4212,54.893982,9.815876,108.3,5.845,1.85,335.95,54.895348,9.797490,54.895786,9.815840
1390066794,3,0,0.0,0,-7,-4,0,870,750,-0.0292,205.2924,6.8213,0.4212,54.893967,9.815863,108.3,5.845,1.85,335.95,54.895348,9.797490,54.895786,9.815840
1390066794,3,0,0.0,0,-5,-8,0,870,800,-0.0292,206.9591,6.8213,0.4212,54.893948,9.815849,108.3,5.845,1.85,335.95,54.895348,9.797490,54.895786,9.815840
1390066794,3,0,0.0,0,-3,-4,0,870,850,-0.0292,207.9591,6.8213,0.4212,54.893932,9.815835,108.3,5.845,1.85,335.95,54.895348,9.797490,54.895786,9.815840
1390066795,3,0,0.0,0,-2,0,0,870,900,-0.0292,208.6257,6.8213,0.4212,54.893917,9.815820,108.3,5.845,1.85,335.95,54.895348,9.797490,54.895786,9.815840
1390066795,3,0,0.0,0,-1,-4,0,870,850,-0.0292,208.9591,6.8213,0.4212,54.893902,9.815805,108.3,5.845,1.85,335.95,54.895348,9.797490,54.895786,9.815840
1390066795,3,0,0.0,0,-1,0,0,870,900,-0.0292,209.2924,6.8213,0.4212,54.893887,9.815790,108.3,5.845,1.85,335.95,54.895348,9.797490,54.895786,9.815840
1390066795,3,0,0.0,0,-1,-4,0,870,850,-0.0292,209.6257,6.8213,0.4212,54.893871,9.815775,108.3,5.845,1.85,335.95,54.895348,9.797490,54.895786,9.815840
1390066796,3,0,0.0,0,0,0,0,870,900,-0.0292,209.6257,6.8213,0.4212,54.893856,9.815761,108.3,5.845,1.85,335.95,54.895348,9.797490,54.895786,9.815840
1390066796,3,0,0.0,0,0,4,0,870,850,-0.0292,209.6257,6.8213,0.4212,54.893841,9.815745,108.3,5.845,1.85,335.95,54.895348,9.797490,54.895786,9.815840
1390066796,3,0,0.0,0,0,0,0,870,900,-0.0292,209.6257,6.8213,0.4212,54.893822,9.815730,108.3,5.845,1.85,335.95,54.895348,9.797490,54.895786,9.815840
1390066796,3,0,0.0,0,0,4,0,870,850,-0.0292,209.6257,6.8213,0.4212,54.893806,9.815716,108.3,5.845,1.85,335.95,54.895348,9.797490,54.895786,9.815840
1390066797,3,0,0.0,0,0,0,0,870,900,-0.0292,209.6257,6.8213,0.4212,54.893791,9.815701,108.3,5.845,1.85,335.95,54.895348,9.797490,54.895786,9.815840
1390066797,3,0,0.0,0,0,4,0,870,850,-0.0292,209.6257,6.8213,0.4212,54.893772,9.815685,108.3,5.845,1.85,335.95,54.895348,9.797490,54.895786,9.815840
1390066797,3,0,0.0,0,0,0,0,870,900,-0.0292,209.6257,6.8213,0.4212,54.893757,9.815671,108.3,5.845,1.85,335.95,54.895348,9.797490,54.895786,9.815840
1390066797,3,0,0.0,0,0,4,0,870,850,-0.0292,209.6257,6.8213,0.4212,54.893742,9.815656,108.3,5.845,1.85,335.95,54.895348,9.797490,54.895786,9.815840
1390066798,3,0,0.0,0,0,0,0,870,900,-0.0292,209.6257,6.8213,0.4212,54.893723,9.815640,108.3,5.845,1.85,335.95,54.895348,9.797490,54.895786,9.815840
1390066798,3,0,0.0,0,0,4,0,870,850,-0.0292,209.6257,6.8213,0.4212,54.893707,9.815625,108.3,5.845,1.85,335.95,54.895348,9.797490,54.895786,9.815840
1390066798,3,0,0.0,0,0,0,0,870,900,-0.0292,209.6257,6.8213,0.4212,54.893692,9.815610,108.3,5.845,1.85,335.95,54.895348,9.797490,54.895786,9.815840
1390066798,3,0,0.0,0,0,4,0,870,850,-0.0292,209.6257,6.8213,0.4212,54.893673,9.815595,108.3,5.845,1.85,335.95,54.895348,9.797490,54.895786,9.815840
1390066799,3,0,0.0,0,-10,0,0,870,900,-0.0292,212.9590,6.8213,0.4212,54.893658,9.815578,108.3,5.845,1.85,335.95,54.895348,9.797490,54.895786,9.815840
1390066799,3,0,0.0,0,-7,-4,0,870,850,-0.0292,215.2924,6.8213,0.4212,54.893642,9.815561,108.3,5.845,1.85,335.95,54.895348,9.797490,54.895786,9.815840
1390066799,3,0,0.0,0,-5,-8,0,868,900,-0.0292,216.9590,6.8213,0.4212,54.893627,9.815543,108.3,5.845,1.85,335.95,54.895348,9.797490,54.895786,9.815840
1390066799,3,0,0.0,0,-3,-4,0,845,850,-0.0292,217.9590,6.8213,0.4212,54.893612,9.815525,108.3,5.845,1.85,335.95,54.895348,9.797490,54.895786,9.815840
1390066800,3,0,0.0,0,-2,0,0,831,800,-0.0292,218.6257,6.8213,0.4212,54.893600,9.815506,108.3,5.845,1.85,335.95,54.895348,9.797490,54.895786,9.815840
1390066800,3,0,0.0,0,-1,-4,0,821,850,-0.0292,218.9590,6.8213,0.4212,54.893585,9.815487,108.3,5.845,1.85,335.95,54.895348,9.797490,54.895786,9.815840
1390066800,3,0,0.0,0,-1,0,0,816,800,-0.0292,219.2924,6.8213,0.4212,54.893574,9.815468,108.3,5.845,1.85,335.95,54.895348,9.797490,54.895786,9.815840
1390066801,3,0,0.0,0,-1,-4,0,812,850,-0.0292,219.6257,6.8213,0.4212,54.893559,9.815449,108.3,5.845,1.85,335.95,54.895348,9.797490,54.895786,9.815840
1390066801,3,0,0.0,0,0,0,0,807,800,-0.0292,219.6257,6.8213,0.4212,54.893547,9.815430,108.3,5.845,1.85,335.95,54.895348,9.797490,54.895786,9.815840
1390066801,3,0,0.0,0,0,4,0,807,850,-0.0292,219.6257,6.8213,0.4212,54.893532,9.815411,108.3,5.845,1.85,335.95,54.895348,9.797490,54.895786,9.815840
1390066801,3,0,0.0,0,0,0,0,807,800,-0.0292,219.6257,6.8213,0.4212,54.893520,9.815392,108.3,5.845,1.85,335.95,54.895348,9.797490,54.895786,9.815840
1390066802,3,0,0.0,0,0,4,0,807,850,-0.0292,219.6257,6.8213,0.4212,54.893505,9.815372,108.3,5.845,1.85,335.95,54.895348,9.797490,54.895786,9.815840
1390066802,3,0,0.0,0,0,0,0,807,800,-0.0292,219.6257,6.8213,0.4212,54.893490,9.815353,108.3,5.845,1.85,335.95,54.895348,9.797490,54.895786,9.815840
1390066802,3,0,0.0,0,0,4,0,807,850,-0.0292,219.6257,6.8213,0.4212,54.893478,9.815334,108.3,5.845,1.85,335.95,54.895348,9.797490,54.895786,9.815840
1390066802,3,0,0.0,0,0,0,0,807,800,-0.0292,219.6257,6.8213,0.4212,54.893463,9.815315,108.3,5.845,1.85,335.95,54.895348,9.797490,54.895786,9.815840
1390066803,3,0,0.0,0,0,4,0,807,850,-0.0292,219.6257,6.8213,0.4212,54.893452,9.815296,108.3,5.845,1.85,335.95,54.895348,9.797490,54.895786,9.815840
1390066803,3,0,0.0,0,0,0,0,807,800,-0.0292,219.6257,6.8213,0.4212,54.893436,9.815277,108.3,5.845,1.85,335.95,54.895348,9.797490,54.895786,9.815840
1390066803,3,0,0.0,0,0,4,0,807,850,-0.0292,219.6257,6.8213,0.4212,54.893425,9.815258,108.3,5.845,1.85,335.95,54.895348,9.797490,54.895786,9.815840
1390066803,3,0,0.0,0,0,0,0,807,800,-0.0292,219.6257,6.8213,0.4212,54.893410,9.815239,108.3,5.845,1.85,335.95,54.895348,9.797490,54.895786,9.815840
1390066804,3,0,0.0,0,0,4,0,807,850,-0.0292,219.6257,6.8213,0.4212,54.893398,9.815220,108.3,5.845,1.85,335.95,54.895348,9.797490,54.895786,9.815840
1390066804,3,0,0.0,0,-10,0,0,807,800,-0.0292,222.9590,6.8213,0.4212,54.893383,9.815200,108.3,5.845,1.85,335.95,54.895348,9.797490,54.895786,9.815840
1390066804,3,0,0.0,0,-7,-4,0,758,750,-0.0292,225.2924,6.8213,0.4212,54.893372,9.815179,108.3,5.845,1.85,335.95,54.895348,9.797490,54.895786,9.815840
1390066804,3,0,0.0,0,-5,-8,0,723,700,-0.0292,226.9590,6.8213,0.4212,54.893364,9.815158,108.3,5.845,1.85,335.95,54.895348,9.797490,54.895786,9.815840
1390066805,3,0,0.0,0,-3,-4,0,698,650,-0.0292,227.9590,6.8213,0.4212,54.893353,9.815136,108.3,5.845,1.85,335.95,54.895348,9.797490,54.895786,9.815840
1390066805,3,0,0.0,0,-2,0,0,683,700,-0.0292,228.6257,6.8213,0.4212,54.893341,9.815115,108.3,5.845,1.85,335.95,54.895348,9.797490,54.895786,9.815840
1390066805,3,0,0.0,0,-1,-4,0,673,650,-0.0292,228.9590,6.8213,0.4212,54.893330,9.815093,108.3,5.845,1.85,335.95,54.895348,9.797490,54.895786,9.815840
1390066805,3,0,0.0,0,-1,0,0,667,700,-0.0292,229.2924,6.8213,0.4212,54.893318,9.815071,108.3,5.845,1.85,335.95,54.895348,9.797490,54.895786,9.815840
1390066806,3,0,0.0,0,-1,-4,0,662,650,-0.0292,229.6257,6.8213,0.4212,54.893311,9.815049,108.3,5.845,1.85,335.95,54.895348,9.797490,54.895786,9.815840
1390066806,3,0,0.0,0,0,0,0,657,700,-0.0292,229.6257,6.8213,0.4212,54.893299,9.815027,108.3,5.845,1.85,335.95,54.895348,9.797490,54.895786,9.815840
1390066806,3,0,0.0,0,0,4,0,657,650,-0.0292,229.6257,6.8213,0.4212,54.893288,9.815005,108.3,5.845,1.85,335.95,54.895348,9.797490,54.895786,9.815840
1390066806,3,0,0.0,0,0,0,0,657,700,-0.0292,229.6257,6.8213,0.4212,54.893276,9.814983,108.3,5.845,1.85,335.95,54.895348,9.797490,54.895786,9.815840
1390066807,3,0,0.0,0,0,4,0,657,650,-0.0292,229.6257,6.8213,0.4212,54.893265,9.814961,108.3,5.845,1.85,335.95,54.895348,9.797490,54.895786,9.815840
1390066807,3,0,0.0,0,0,0,0,657,700,-0.0292,229.6257,6.8213,0.4212,54.893253,9.814939,108.3,5.845,1.85,335.95,54.895348,9.797490,54.895786,9.815840
1390066807,3,0,0.0,0,0,4,0,657,650,-0.0292,229.6257,6.8213,0.4212,54.893242,9.814918,108.3,5.845,1.85,335.95,54.895348,9.797490,54.895786,9.815840
1390066807,3,0,0.0,0,0,0,0,657,700,-0.0292,229.6257,6.8213,0.4212,54.893230,9.814896,108.3,5.845,1.85,335.95,54.895348,9.797490,54.895786,9.815840
1390066808,3,0,0.0,0,0,4,0,657,650,-0.0292,229.6257,6.8213,0.4212,54.893219,9.814874,108.3,5.845,1.85,335.95,54.895348,9.797490,54.895786,9.815840
1390066808,3,0,0.0,0,0,0,0,657,700,-0.0292,229.6257,6.8213,0.4212,54.893208,9.814852,108.3,5.845,1.85,335.95,54.895348,9.797490,54.895786,9.815840
1390066808,3,0,0.0,0,0,4,0,657,650,-0.0292,229.6257,6.8213,0.4212,54.893196,9.814830,108.3,5.845,1.85,335.95,54.895348,9.797490,54.895786,9.815840
1390066808,3,0,0.0,0,0,0,0,657,700,-0.0292,229.6257,6.8213,0.4212,54.893188,9.814808,108.3,5.845,1.85,335.95,54.895348,9.797490,54.895786,9.815840
1390066809,3,0,0.0,0,0,4,0,657,650,-0.0292,229.6257,6.8213,0.4212,54.893177,9.814786,108.3,5.845,1.85,335.95,54.895348,9.797490,54.895786,9.815840
1390066809,3,0,0.0,0,-10,0,0,657,700,-0.0292,232.9590,6.8213,0.4212,54.893166,9.814763,108.3,5.845,1.85,335.95,54.895348,9.797490,54.895786,9.815840
1390066809,3,0,0.0,0,-7,-4,0,605,650,-0.0292,235.2923,6.8213,0.4212,54.893158,9.814739,108.3,5.845,1.85,335.95,54.895348,9.797490,54.895786,9.815840
1390066809,3,0,0.0,0,-5,-8,0,569,600,-0.0292,236.9590,6.8213,0.4212,54.893147,9.814715,108.3,5.845,1.85,335.95,54.895348,9.797490,54.895786,9.815840
1390066810,3,0,0.0,0,-3,-4,0,542,550,-0.0292,237.9590,6.8213,0.4212,54.893139,9.814692,108.3,5.845,1.85,335.95,54.895348,9.797490,54.895786,9.815840
1390066810,3,0,0.0,0,-2,0,0,527,500,-0.0292,238.6257,6.8213,0.4212,54.893131,9.814668,108.3,5.845,1.85,335.95,54.895348,9.797490,54.895786,9.815840
1390066810,3,0,0.0,0,-1,-4,0,516,550,-0.0292,238.9590,6.8213,0.4212,54.893120,9.814643,108.3,5.845,1.85,335.95,54.895348,9.797490,54.895786,9.815840
1390066810,3,0,0.0,0,-1,0,0,511,500,-0.0292,239.2923,6.8213,0.4212,54.893112,9.814619,108.3,5.845,1.85,335.95,54.895348,9.797490,54.895786,9.815840
1390066811,3,0,0.0,0,-1,-4,0,505,550,-0.0292,239.6257,6.8213,0.4212,54.893105,9.814595,108.3,5.845,1.85,335.95,54.895348,9.797490,54.895786,9.815840
1390066811,3,0,0.0,0,0,0,0,500,500,-0.0292,239.6257,6.8213,0.4212,54.893093,9.814570,108.3,5.845,1.85,335.95,54.895348,9.797490,54.895786,9.815840
1390066811,3,0,0.0,0,0,4,0,500,500,-0.0292,239.6257,6.8213,0.4212,54.893085,9.814547,108.3,5.845,1.85,335.95,54.895348,9.797490,54.895786,9.815840
1390066811,3,0,0.0,0,0,0,0,500,500,-0.0292,239.6257,6.8213,0.4212,54.893078,9.814522,108.3,5.845,1.85,335.95,54.895348,9.797490,54.895786,9.815840
1390066812,3,0,0.0,0,0,4,0,500,500,-0.0292,239.6257,6.8213,0.4212,54.893066,9.814498,108.3,5.845,1.85,335.95,54.895348,9.797490,54.895786,9.815840
1390066812,3,0,0.0,0,0,0,0,500,500,-0.0292,239.6257,6.8213,0.4212,54.893059,9.814473,108.3,5.845,1.85,335.95,54.895348,9.797490,54.895786,9.815840
1390066812,3,0,0.0,0,0,4,0,500,500,-0.0292,239.6257,6.8213,0.4212,54.893051,9.814449,108.3,5.845,1.85,335.95,54.895348,9.797490,54.895786,9.815840
1390066812,3,0,0.0,0,0,0,0,500,500,-0.0292,239.6257,6.8213,0.4212,54.893044,9.814425,108.3,5.845,1.85,335.95,54.895348,9.797490,54.895786,9.815840
1390066813,3,0,0.0,0,0,4,0,500,500,-0.0292,239.6257,6.8213,0.4212,54.893036,9.814402,108.3,5.845,1.85,335.95,54.895348,9.797490,54.895786,9.815840
1390066813,3,0,0.0,0,0,0,0,500,500,-0.0292,239.6257,6.8213,0.4212,54.893028,9.814378,108.3,5.845,1.85,335.95,54.895348,9.797490,54.895786,9.815840
1390066813,3,0,0.0,0,0,4,0,500,500,-0.0292,239.6257,6.8213,0.4212,54.893017,9.814353,108.3,5.845,1.85,335.95,54.895348,9.797490,54.895786,9.815840
1390066813,3,0,0.0,0,0,0,0,500,500,-0.0292,239.6257,6.8213,0.4212,54.893009,9.814329,108.3,5.845,1.85,335.95,54.895348,9.797490,54.895786,9.815840
1390066814,3,0,0.0,0,0,4,0,500,500,-0.0292,239.6257,6.8213,0.4212,54.893002,9.814304,108.3,5.845,1.85,335.95,54.895348,9.797490,54.895786,9.815840
1390066814,3,0,0.0,0,-10,0,0,500,500,-0.0292,242.9590,6.8213,0.4212,54.892998,9.814280,108.3,5.845,1.85,335.95,54.895348,9.797490,54.895786,9.815840
1390066814,3,0,0.0,0,-7,-4,0,447,450,-0.0292,245.2923,6.8213,0.4212,54.892994,9.814254,108.3,5.845,1.85,335.95,54.895348,9.797490,54.895786,9.815840
1390066814,3,0,0.0,0,-5,-8,0,410,400,-0.0292,246.9590,6.8213,0.4212,54.892990,9.814229,108.3,5.845,1.85,335.95,54.895348,9.797490,54.895786,9.815840
1390066815,3,0,0.0,0,-3,-4,0,383,350,-0.0292,247.9590,6.8213,0.4212,54.892982,9.814204,108.3,5.845,1.85,335.95,54.895348,9.797490,54.895786,9.815840
1390066815,3,0,0.0,0,-2,0,0,367,400,-0.0292,248.6257,6.8213,0.4212,54.892975,9.814178,108.3,5.845,1.85,335.95,54.895348,9.797490,54.895786,9.815840
1390066815,3,0,0.0,0,-1,-4,0,356,350,-0.0292,248.9590,6.8213,0.4212,54.892971,9.814154,108.3,5.845,1.85,335.95,54.895348,9.797490,54.895786,9.815840
1390066815,3,0,0.0,0,-1,0,0,351,400,-0.0292,249.2923,6.8213,0.4212,54.892967,9.814128,108.3,5.845,1.85,335.95,54.895348,9.797490,54.895786,9.815840
1390066816,3,0,0.0,0,-1,-4,0,346,350,-0.0292,249.6257,6.8213,0.4212,54.892963,9.814103,108.3,5.845,1.85,335.95,54.895348,9.797490,54.895786,9.815840
1390066816,3,0,0.0,0,0,0,0,341,300,-0.0292,249.6257,6.8213,0.4212,54.892956,9.814078,108.3,5.845,1.85,335.95,54.895348,9.797490,54.895786,9.815840
1390066816,3,0,0.0,0,0,4,0,341,350,-0.0292,249.6257,6.8213,0.4212,54.892948,9.814053,108.3,5.845,1.85,335.95,54.895348,9.797490,54.895786,9.815840
1390066816,3,0,0.0,0,0,0,0,341,300,-0.0292,249.6257,6.8213,0.4212,54.892944,9.814028,108.3,5.845,1.85,335.95,54.895348,9.797490,54.895786,9.815840
1390066817,3,0,0.0,0,0,4,0,341,350,-0.0292,249.6257,6.8213,0.4212,54.892941,9.814002,108.3,5.845,1.85,335.95,54.895348,9.797490,54.895786,9.815840
1390066817,3,0,0.0,0,0,0,0,341,300,-0.0292,249.6257,6.8213,0.4212,54.892937,9.813977,108.3,5.845,1.85,335.95,54.895348,9.797490,54.895786,9.815840
1390066817,3,0,0.0,0,0,4,0,341,350,-0.0292,249.6257,6.8213,0.4212,54.892929,9.813952,108.3,5.845,1.85,335.95,54.895348,9.797490,54.895786,9.815840
1390066817,3,0,0.0,0,0,0,0,341,300,-0.0292,249.6257,6.8213,0.4212,54.892925,9.813927,108.3,5.845,1.85,335.95,54.895348,9.797490,54.895786,9.815840
1390066818,3,0,0.0,0,0,4,0,341,350,-0.0292,249.6257,6.8213,0.4212,54.892921,9.813902,108.3,5.845,1.85,335.95,54.895348,9.797490,54.895786,9.815840
1390066818,3,0,0.0,0,0,0,0,341,300,-0.0292,249.6257,6.8213,0.4212,54.892918,9.813876,108.3,5.845,1.85,335.95,54.895348,9.797490,54.895786,9.815840
1390066818,3,0,0.0,0,0,4,0,341,350,-0.0292,249.6257,6.8213,0.4212,54.892914,9.813851,108.3,5.845,1.85,335.95,54.895348,9.797490,54.895786,9.815840
1390066818,3,0,0.0,0,0,0,0,341,300,-0.0292,249.6257,6.8213,0.4212,54.892906,9.813826,108.3,5.845,1.85,335.95,54.895348,9.797490,54.895786,9.815840
1390066819,3,0,0.0,0,0,4,0,341,350,-0.0292,249.6257,6.8213,0.4212,54.892899,9.813800,108.3,5.845,1.85,335.95,54.895348,9.797490,54.895786,9.815840
1390066819,3,0,0.0,0,-10,0,0,341,300,-0.0292,252.9590,6.8213,0.4212,54.892895,9.813775,108.3,5.845,1.85,335.95,54.895348,9.797490,54.895786,9.815840
1390066819,3,0,0.0,0,-7,-4,0,288,250,-0.0292,255.2923,6.8213,0.4212,54.892891,9.813749,108.3,5.845,1.85,335.95,54.895348,9.797490,54.895786,9.815840
1390066819,3,0,0.0,0,-5,-8,0,253,300,-0.0292,256.9590,6.8213,0.4212,54.892887,9.813725,108.3,5.845,1.85,335.95,54.895348,9.797490,54.895786,9.815840
1390066820,3,0,0.0,0,-3,-4,0,227,250,-0.0292,257.9590,6.8213,0.4212,54.892883,9.813699,108.3,5.845,1.85,335.95,54.895348,9.797490,54.895786,9.815840
1390066820,3,0,0.0,0,-2,0,0,213,200,-0.0292,258.6256,6.8213,0.4212,54.892879,9.813674,108.3,5.845,1.85,335.95,54.895348,9.797490,54.895786,9.815840
1390066820,3,0,0.0,0,-1,-4,0,203,250,-0.0292,258.9590,6.8213,0.4212,54.892879,9.813649,108.3,5.845,1.85,335.95,54.895348,9.797490,54.895786,9.815840
1390066820,3,0,0.0,0,-1,0,0,198,200,-0.0292,259.2923,6.8213,0.4212,54.892879,9.813623,108.3,5.845,1.85,335.95,54.895348,9.797490,54.895786,9.815840
1390066821,3,0,0.0,0,-1,-4,0,193,150,-0.0292,259.6257,6.8213,0.4212,54.892879,9.813599,108.3,5.845,1.85,335.95,54.895348,9.797490,54.895786,9.815840
1390066821,3,0,0.0,0,0,0,0,188,200,-0.0292,259.6257,6.8213,0.4212,54.892879,9.813573,108.3,5.845,1.85,335.95,54.895348,9.797490,54.895786,9.815840
1390066821,3,0,0.0,0,0,4,0,188,150,-0.0292,259.6257,6.8213,0.4212,54.892879,9.813548,108.3,5.845,1.85,335.95,54.895348,9.797490,54.895786,9.815840
1390066821,3,0,0.0,0,0,0,0,188,200,-0.0292,259.6257,6.8213,0.4212,54.892879,9.813523,108.3,5.845,1.85,335.95,54.895348,9.797490,54.895786,9.815840
1390066822,3,0,0.0,0,0,4,0,188,150,-0.0292,259.6257,6.8213,0.4212,54.892879,9.813498,108.3,5.845,1.85,335.95,54.895348,9.797490,54.895786,9.815840
1390066822,3,0,0.0,0,0,0,0,188,200,-0.0292,259.6257,6.8213,0.4212,54.892879,9.813474,108.3,5.845,1.85,335.95,54.895348,9.797490,54.895786,9.815840
1390066822,3,0,0.0,0,0,4,0,188,150,-0.0292,259.6257,6.8213,0.4212,54.892879,9.813448,108.3,5.845,1.85,335.95,54.895348,9.797490,54.895786,9.815840
1390066822,3,0,0.0,0,0,0,0,188,200,-0.0292,259.6257,6.8213,0.4212,54.892879,9.813423,108.3,5.845,1.85,335.95,54.895348,9.797490,54.895786,9.815840
1390066823,3,0,0.0,0,0,4,0,188,150,-0.0292,259.6257,6.8213,0.4212,54.892879,9.813397,108.3,5.845,1.85,335.95,54.895348,9.797490,54.895786,9.815840
1390066823,3,0,0.0,0,0,0,0,188,200,-0.0292,259.6257,6.8213,0.4212,54.892879,9.813373,108.3,5.845,1.85,335.95,54.895348,9.797490,54.895786,9.815840
1390066823,3,0,0.0,0,0,4,0,188,150,-0.0292,259.6257,6.8213,0.4212,54.892879,9.813348,108.3,5.845,1.85,335.95,54.895348,9.797490,54.895786,9.815840
1390066823,3,0,0.0,0,0,0,0,188,200,-0.0292,259.6257,6.8213,0.4212,54.892879,9.813322,108.3,5.845,1.85,335.95,54.895348,9.797490,54.895786,9.815840
1390066824,3,0,0.0,0,0,4,0,188,150,-0.0292,259.6257,6.8213,0.4212,54.892879,9.813297,108.3,5.845,1.85,335.95,54.895348,9.797490,54.895786,9.815840
1390066824,3,0,0.0,0,-10,0,0,188,200,-0.0292,262.9590,6.8213,0.4212,54.892879,9.813272,108.3,5.845,1.85,335.95,54.895348,9.797490,54.895786,9.815840
1390066824,3,0,0.0,0,-7,-4,0,142,150,-0.0292,265.2924,6.8213,0.4212,54.892879,9.813248,108.3,5.845,1.85,335.95,54.895348,9.797490,54.895786,9.815840
1390066824,3,0,0.0,0,-5,-8,0,112,100,-0.0292,266.9590,6.8213,0.4212,54.892879,9.813224,108.3,5.845,1.85,335.95,54.895348,9.797490,54.895786,9.815840
1390066825,3,0,0.0,0,-3,-4,0,92,50,-0.0292,267.9590,6.8213,0.4212,54.892879,9.813199,108.3,5.845,1.85,335.95,54.895348,9.797490,54.895786,9.815840
1390066825,3,0,0.0,0,-2,0,0,80,100,-0.0292,268.6257,6.8213,0.4212,54.892879,9.813175,108.3,5.845,1.85,335.95,54.895348,9.797490,54.895786,9.815840
1390066825,3,0,0.0,0,-1,-4,0,73,50,-0.0292,268.9590,6.8213,0.4212,54.892883,9.813151,108.3,5.845,1.85,335.95,54.895348,9.797490,54.895786,9.815840
1390066825,3,0,0.0,0,-1,0,0,69,100,-0.0292,269.2924,6.8213,0.4212,54.892883,9.813128,108.3,5.845,1.85,335.95,54.895348,9.797490,54.895786,9.815840
1390066826,3,0,0.0,0,-1,-4,0,66,50,-0.0292,269.6257,6.8213,0.4212,54.892883,9.813104,108.3,5.845,1.85,335.95,54.895348,9.797490,54.895786,9.815840
1390066826,3,0,0.0,0,0,0,0,62,100,-0.0292,269.6257,6.8213,0.4212,54.892883,9.813080,108.3,5.845,1.85,335.95,54.895348,9.797490,54.895786,9.815840
1390066826,3,0,0.0,0,0,4,0,62,50,-0.0292,269.6257,6.8213,0.4212,54.892883,9.813055,108.3,5.845,1.85,335.95,54.895348,9.797490,54.895786,9.815840
1390066826,3,0,0.0,0,0,0,0,62,100,-0.0292,269.6257,6.8213,0.4212,54.892883,9.813031,108.3,5.845,1.85,335.95,54.895348,9.797490,54.895786,9.815840
1390066827,3,0,0.0,0,0,4,0,62,50,-0.0292,269.6257,6.8213,0.4212,54.892883,9.813007,108.3,5.845,1.85,335.95,54.895348,9.797490,54.895786,9.815840
1390066827,3,0,0.0,0,0,0,0,62,100,-0.0292,269.6257,6.8213,0.4212,54.892883,9.812984,108.3,5.845,1.85,335.95,54.895348,9.797490,54.895786,9.815840
1390066827,3,0,0.0,0,0,4,0,62,50,-0.0292,269.6257,6.8213,0.4212,54.892883,9.812960,108.3,5.845,1.85,335.95,54.895348,9.797490,54.895786,9.815840
1390066827,3,0,0.0,0,0,0,0,62,100,-0.0292,269.6257,6.8213,0.4212,54.892883,9.812936,108.3,5.845,1.85,335.95,54.895348,9.797490,54.895786,9.815840
1390066828,3,0,0.0,0,0,4,0,62,50,-0.0292,269.6257,6.8213,0.4212,54.892883,9.812912,108.3,5.845,1.85,335.95,54.895348,9.797490,54.895786,9.815840
1390066828,3,0,0.0,0,0,0,0,62,100,-0.0292,269.6257,6.8213,0.4212,54.892883,9.812887,108.3,5.845,1.85,335.95,54.895348,9.797490,54.895786,9.815840
1390066828,3,0,0.0,0,0,4,0,62,50,-0.0292,269.6257,6.8213,0.4212,54.892883,9.812863,108.3,5.845,1.85,335.95,54.895348,9.797490,54.895786,9.815840
1390066828,3,0,0.0,0,0,0,0,62,100,-0.0292,269.6257,6.8213,0.4212,54.892883,9.812840,108.3,5.845,1.85,335.95,54.895348,9.797490,54.895786,9.815840
1390066829,3,0,0.0,0,0,4,0,62,50,-0.0292,269.6257,6.8213,0.4212,54.892883,9.812816,108.3,5.845,1.85,335.95,54.895348,9.797490,54.895786,9.815840
1390066829,3,0,0.0,0,-10,0,0,62,100,-0.0292,272.9590,6.8213,0.4212,54.892883,9.812793,108.3,5.845,1.85,335.95,54.895348,9.797490,54.895786,9.815840
1390066829,3,0,0.0,0,-7,-4,0,32,50,-0.0292,275.2924,6.8213,0.4212,54.892883,9.812770,108.3,5.845,1.85,335.95,54.895348,9.797490,54.895786,9.815840
1390066829,3,0,0.0,0,-5,-8,0,17,0,-0.0292,276.9590,6.8213,0.4212,54.892883,9.812748,108.3,5.845,1.85,335.95,54.895348,9.797490,54.895786,9.815840
1390066830,3,0,0.0,0,-3,-4,0,8,50,-0.0292,277.9590,6.8213,0.4212,54.892883,9.812725,108.3,5.845,1.85,335.95,54.895348,9.797490,54.895786,9.815840
1390066830,3,0,0.0,0,-2,0,0,5,0,-0.0292,278.6257,6.8213,0.4212,54.892883,9.812703,108.3,5.845,1.85,335.95,54.895348,9.797490,54.895786,9.815840
1390066830,3,0,0.0,0,-1,-4,0,3,50,-0.0292,278.9590,6.8213,0.4212,54.892883,9.812681,108.3,5.845,1.85,335.95,54.895348,9.797490,54.895786,9.815840
1390066830,3,0,0.0,0,-1,0,0,2,0,-0.0292,279.2924,6.8213,0.4212,54.892883,9.812659,108.3,5.845,1.85,335.95,54.895348,9.797490,54.895786,9.815840
1390066831,3,0,0.0,0,-1,-4,0,1,50,-0.0292,279.6257,6.8213,0.4212,54.892883,9.812637,108.3,5.845,1.85,335.95,54.895348,9.797490,54.895786,9.815840
1390066831,3,0,0.0,0,0,0,0,1,0,-0.0292,279.6257,6.8213,0.4212,54.892883,9.812615,108.3,5.845,1.85,335.95,54.895348,9.797490,54.895786,9.815840
1390066831,3,0,0.0,0,0,4,0,1,50,-0.0292,279.6257,6.8213,0.4212,54.892883,9.812593,108.3,5.845,1.85,335.95,54.895348,9.797490,54.895786,9.815840
1390066831,3,0,0.0,0,0,0,0,1,0,-0.0292,279.6257,6.8213,0.4212,54.892883,9.812572,108.3,5.845,1.85,335.95,54.895348,9.797490,54.895786,9.815840
1390066832,3,0,0.0,0,0,4,0,1,50,-0.0292,279.6257,6.8213,0.4212,54.892883,9.812550,108.3,5.845,1.85,335.95,54.895348,9.797490,54.895786,9.815840
1390066832,3,0,0.0,0,0,0,0,1,0,-0.0292,279.6257,6.8213,0.4212,54.892883,9.812528,108.3,5.845,1.85,335.95,54.895348,9.797490,54.895786,9.815840
1390066832,3,0,0.0,0,0,4,0,1,50,-0.0292,279.6257,6.8213,0.4212,54.892883,9.812506,108.3,5.845,1.85,335.95,54.895348,9.797490,54.895786,9.815840
1390066832,3,0,0.0,0,0,0,0,1,0,-0.0292,279.6257,6.8213,0.4212,54.892883,9.812484,108.3,5.845,1.85,335.95,54.895348,9.797490,54.895786,9.815840
1390066833,3,0,0.0,0,0,4,0,1,50,-0.0292,279.6257,6.8213,0.4212,54.892883,9.812462,108.3,5.845,1.85,335.95,54.895348,9.797490,54.895786,9.815840
1390066833,3,0,0.0,0,0,0,0,1,0,-0.0292,279.6257,6.8213,0.4212,54.892883,9.812440,108.3,5.845,1.85,335.95,54.895348,9.797490,54.895786,9.815840
1390066833,3,0,0.0,0,0,4,0,1,50,-0.0292,279.6257,6.8213,0.4212,54.892883,9.812418,108.3,5.845,1.85,335.95,54.895348,9.797490,54.895786,9.815840
1390066833,3,0,0.0,0,0,0,0,1,0,-0.0292,279.6257,6.8213,0.4212,54.892883,9.812396,108.3,5.845,1.85,335.95,54.895348,9.797490,54.895786,9.815840
1390066834,3,0,0.0,0,0,4,0,1,50,-0.0292,279.6257,6.8213,0.4212,54.892883,9.812374,108.3,5.845,1.85,335.95,54.895348,9.797490,54.895786,9.815840
1390066834,3,0,0.0,0,-10,0,0,1,0,-0.0292,282.9591,6.8213,0.4212,54.892883,9.812353,108.3,5.845,1.85,335.95,54.895348,9.797490,54.895786,9.815840
1390066834,3,0,0.0,0,-7,-4,0,0,0,-0.0292,285.2924,6.8213,0.4212,54.892883,9.812332,108.3,5.845,1.85,335.95,54.895348,9.797490,54.895786,9.815840
1390066834,3,0,0.0,0,-5,-8,0,0,0,-0.0292,286.9591,6.8213,0.4212,54.892883,9.812312,108.3,5.845,1.85,335.95,54.895348,9.797490,54.895786,9.815840
1390066835,3,0,0.0,0,-3,-4,0,0,0,-0.0292,287.9591,6.8213,0.4212,54.892887,9.812292,108.3,5.845,1.85,335.95,54.895348,9.797490,54.895786,9.815840
1390066835,3,0,0.0,0,-2,0,0,0,0,-0.0292,288.6257,6.8213,0.4212,54.892891,9.812273,108.3,5.845,1.85,335.95,54.895348,9.797490,54.895786,9.815840
1390066835,3,0,0.0,0,-1,-4,0,0,0,-0.0292,288.9591,6.8213,0.4212,54.892895,9.812253,108.3,5.845,1.85,335.95,54.895348,9.797490,54.895786,9.815840
1390066835,3,0,0.0,0,-1,0,0,0,0,-0.0292,289.2924,6.8213,0.4212,54.892899,9.812234,108.3,5.845,1.85,335.95,54.895348,9.797490,54.895786,9.815840
1390066836,3,0,0.0,0,-1,-4,0,0,0,-0.0292,289.6258,6.8213,0.4212,54.892902,9.812215,108.3,5.845,1.85,335.95,54.895348,9.797490,54.895786,9.815840
1390066836,3,0,0.0,0,0,0,0,0,0,-0.0292,289.6258,6.8213,0.4212,54.892910,9.812196,108.3,5.845,1.85,335.95,54.895348,9.797490,54.895786,9.815840
1390066836,3,0,0.0,0,0,4,0,0,0,-0.0292,289.6258,6.8213,0.4212,54.892914,9.812177,108.3,5.845,1.85,335.95,54.895348,9.797490,54.895786,9.815840
1390066836,3,0,0.0,0,0,0,0,0,0,-0.0292,289.6258,6.8213,0.4212,54.892918,9.812158,108.3,5.845,1.85,335.95,54.895348,9.797490,54.895786,9.815840
1390066837,3,0,0.0,0,0,4,0,0,0,-0.0292,289.6258,6.8213,0.4212,54.892921,9.812139,108.3,5.845,1.85,335.95,54.895348,9.797490,54.895786,9.815840
1390066837,3,0,0.0,0,0,0,0,0,0,-0.0292,289.6258,6.8213,0.4212,54.892925,9.812119,108.3,5.845,1.85,335.95,54.895348,9.797490,54.895786,9.815840
1390066837,3,0,0.0,0,0,4,0,0,0,-0.0292,289.6258,6.8213,0.4212,54.892929,9.812100,108.3,5.845,1.85,335.95,54.895348,9.797490,54.895786,9.815840
1390066837,3,0,0.0,0,0,0,0,0,0,-0.0292,289.6258,6.8213,0.4212,54.892937,9.812081,108.3,5.845,1.85,335.95,54.895348,9.797490,54.895786,9.815840
1390066838,3,0,0.0,0,0,4,0,0,0,-0.0292,289.6258,6.8213,0.4212,54.892941,9.812062,108.3,5.845,1.85,335.95,54.895348,9.797490,54.895786,9.815840
1390066838,3,0,0.0,0,0,0,0,0,0,-0.0292,289.6258,6.8213,0.4212,54.892944,9.812043,108.3,5.845,1.85,335.95,54.895348,9.797490,54.895786,9.815840
1390066838,3,0,0.0,0,0,4,0,0,0,-0.0292,289.6258,6.8213,0.4212,54.892948,9.812024,108.3,5.845,1.85,335.95,54.895348,9.797490,54.895786,9.815840
1390066838,3,0,0.0,0,0,0,0,0,0,-0.0292,289.6258,6.8213,0.4212,54.892952,9.812005,108.3,5.845,1.85,335.95,54.895348,9.797490,54.895786,9.815840
1390066839,3,0,0.0,0,0,4,0,0,0,-0.0292,289.6258,6.8213,0.4212,54.892960,9.811986,108.3,5.845,1.85,335.95,54.895348,9.797490,54.895786,9.815840
1390066839,3,0,0.0,0,-10,0,0,0,0,-0.0292,292.9591,6.8213,0.4212,54.892963,9.811968,108.3,5.845,1.85,335.95,54.895348,9.797490,54.895786,9.815840
1390066839,3,0,0.0,0,-7,-4,0,0,0,-0.0292,295.2924,6.8213,0.4212,54.892967,9.811950,108.3,5.845,1.85,335.95,54.895348,9.797490,54.895786,9.815840
1390066840,3,0,0.0,0,-5,-8,0,0,0,-0.0292,296.9591,6.8213,0.4212,54.892971,9.811934,108.3,5.845,1.85,335.95,54.895348,9.797490,54.895786,9.815840
1390066840,3,0,0.0,0,-3,-4,0,0,0,-0.0292,297.9591,6.8213,0.4212,54.892979,9.811917,108.3,5.845,1.85,335.95,54.895348,9.797490,54.895786,9.815840
1390066840,3,0,0.0,0,-2,0,0,0,0,-0.0292,298.6258,6.8213,0.4212,54.892982,9.811902,108.3,5.845,1.85,335.95,54.895348,9.797490,54.895786,9.815840
1390066840,3,0,0.0,0,-1,-4,0,0,0,-0.0292,298.9591,6.8213,0.4212,54.892986,9.811886,108.3,5.845,1.85,335.95,54.895348,9.797490,54.895786,9.815840
1390066841,3,0,0.0,0,-1,0,0,0,0,-0.0292,299.2924,6.8213,0.4212,54.892990,9.811870,108.3,5.845,1.85,335.95,54.895348,9.797490,54.895786,9.815840
1390066841,3,0,0.0,0,-1,-4,0,0,0,-0.0292,299.6258,6.8213,0.4212,54.892994,9.811854,108.3,5.845,1.85,335.95,54.895348,9.797490,54.895786,9.815840
1390066841,3,0,0.0,0,0,0,0,0,0,-0.0292,299.6258,6.8213,0.4212,54.893002,9.811838,108.3,5.845,1.85,335.95,54.895348,9.797490,54.895786,9.815840
1390066841,3,0,0.0,0,0,4,0,0,0,-0.0292,299.6258,6.8213,0.4212,54.893009,9.811822,108.3,5.845,1.85,335.95,54.895348,9.797490,54.895786,9.815840
1390066842,3,0,0.0,0,0,0,0,0,0,-0.0292,299.6258,6.8213,0.4212,54.893013,9.811807,108.3,5.845,1.85,335.95,54.895348,9.797490,54.895786,9.815840
1390066842,3,0,0.0,0,0,4,0,0,0,-0.0292,299.6258,6.8213,0.4212,54.893017,9.811790,108.3,5.845,1.85,335.95,54.895348,9.797490,54.895786,9.815840
1390066842,3,0,0.0,0,0,0,0,0,0,-0.0292,299.6258,6.8213,0.4212,54.893021,9.811775,108.3,5.845,1.85,335.95,54.895348,9.797490,54.895786,9.815840
1390066842,3,0,0.0,0,0,4,0,0,0,-0.0292,299.6258,6.8213,0.4212,54.893028,9.811760,108.3,5.845,1.85,335.95,54.895348,9.797490,54.895786,9.815840
1390066843,3,0,0.0,0,0,0,0,0,0,-0.0292,299.6258,6.8213,0.4212,54.893032,9.811744,108.3,5.845,1.85,335.95,54.895348,9.797490,54.895786,9.815840
1390066843,3,0,0.0,0,0,4,0,0,0,-0.0292,299.6258,6.8213,0.4212,54.893036,9.811728,108.3,5.845,1.85,335.95,54.895348,9.797490,54.895786,9.815840
1390066843,3,0,0.0,0,0,0,0,0,0,-0.0292,299.6258,6.8213,0.4212,54.893040,9.811712,108.3,5.845,1.85,335.95,54.895348,9.797490,54.895786,9.815840
1390066843,3,0,0.0,0,0,4,0,0,0,-0.0292,299.6258,6.8213,0.4212,54.893044,9.811696,108.3,5.845,1.85,335.95,54.895348,9.797490,54.895786,9.815840
1390066844,3,0,0.0,0,0,0,0,0,0,-0.0292,299.6258,6.8213,0.4212,54.893051,9.811681,108.3,5.845,1.85,335.95,54.895348,9.797490,54.895786,9.815840
1390066844,3,0,0.0,0,0,4,0,0,0,-0.0292,299.6258,6.8213,0.4212,54.893059,9.811665,108.3,5.845,1.85,335.95,54.895348,9.797490,54.895786,9.815840
1390066844,3,0,0.0,0,-10,0,0,0,0,-0.0292,302.9591,6.8213,0.4212,54.893063,9.811649,108.3,5.845,1.85,335.95,54.895348,9.797490,54.895786,9.815840
1390066844,3,0,0.0,0,-7,-4,0,0,0,-0.0292,305.2925,6.8213,0.4212,54.893066,9.811636,108.3,5.845,1.85,335.95,54.895348,9.797490,54.895786,9.815840
1390066845,3,0,0.0,0,-5,-8,0,0,0,-0.0292,306.9591,6.8213,0.4212,54.893074,9.811623,108.3,5.845,1.85,335.95,54.895348,9.797490,54.895786,9.815840
1390066845,3,0,0.0,0,-3,-4,0,0,0,-0.0292,307.9591,6.8213,0.4212,54.893082,9.811609,108.3,5.845,1.85,335.95,54.895348,9.797490,54.895786,9.815840
1390066845,3,0,0.0,0,-2,0,0,0,0,-0.0292,308.6258,6.8213,0.4212,54.893085,9.811597,108.3,5.845,1.85,335.95,54.895348,9.797490,54.895786,9.815840
1390066845,3,0,0.0,0,-1,-4,0,0,0,-0.0292,308.9591,6.8213,0.4212,54.893089,9.811584,108.3,5.845,1.85,335.95,54.895348,9.797490,54.895786,9.815840
1390066846,3,0,0.0,0,-1,0,0,0,0,-0.0292,309.2925,6.8213,0.4212,54.893097,9.811572,108.3,5.845,1.85,335.95,54.895348,9.797490,54.895786,9.815840
1390066846,3,0,0.0,0,-1,-4,0,0,0,-0.0292,309.6258,6.8213,0.4212,54.893105,9.811561,108.3,5.845,1.85,335.95,54.895348,9.797490,54.895786,9.815840
1390066846,3,0,0.0,0,0,0,0,0,0,-0.0292,309.6258,6.8213,0.4212,54.893108,9.811548,108.3,5.845,1.85,335.95,54.895348,9.797490,54.895786,9.815840
1390066846,3,0,0.0,0,0,4,0,0,0,-0.0292,309.6258,6.8213,0.4212,54.893112,9.811536,108.3,5.845,1.85,335.95,54.895348,9.797490,54.895786,9.815840
1390066847,3,0,0.0,0,0,0,0,0,0,-0.0292,309.6258,6.8213,0.4212,54.893116,9.811523,108.3,5.845,1.85,335.95,54.895348,9.797490,54.895786,9.815840
1390066847,3,0,0.0,0,0,4,0,0,0,-0.0292,309.6258,6.8213,0.4212,54.893124,9.811511,108.3,5.845,1.85,335.95,54.895348,9.797490,54.895786,9.815840
1390066847,3,0,0.0,0,0,0,0,0,0,-0.0292,309.6258,6.8213,0.4212,54.893131,9.811499,108.3,5.845,1.85,335.95,54.895348,9.797490,54.895786,9.815840
1390066847,3,0,0.0,0,0,4,0,0,0,-0.0292,309.6258,6.8213,0.4212,54.893135,9.811486,108.3,5.845,1.85,335.95,54.895348,9.797490,54.895786,9.815840
1390066848,3,0,0.0,0,0,0,0,0,0,-0.0292,309.6258,6.8213,0.4212,54.893139,9.811475,108.3,5.845,1.85,335.95,54.895348,9.797490,54.895786,9.815840
1390066848,3,0,0.0,0,0,4,0,0,0,-0.0292,309.6258,6.8213,0.4212,54.893147,9.811462,108.3,5.845,1.85,335.95,54.895348,9.797490,54.895786,9.815840
1390066848,3,0,0.0,0,0,0,0,0,0,-0.0292,309.6258,6.8213,0.4212,54.893154,9.811450,108.3,5.845,1.85,335.95,54.895348,9.797490,54.895786,9.815840
1390066848,3,0,0.0,0,0,4,0,0,0,-0.0292,309.6258,6.8213,0.4212,54.893158,9.811438,108.3,5.845,1.85,335.95,54.895348,9.797490,54.895786,9.815840
1390066849,3,0,0.0,0,0,0,0,0,0,-0.0292,309.6258,6.8213,0.4212,54.893162,9.811425,108.3,5.845,1.85,335.95,54.895348,9.797490,54.895786,9.815840
1390066849,3,0,0.0,0,0,4,0,0,0,-0.0292,309.6258,6.8213,0.4212,54.893166,9.811413,108.3,5.845,1.85,335.95,54.895348,9.797490,54.895786,9.815840
1390066849,3,0,0.0,0,-10,0,0,0,0,-0.0292,312.9592,6.8213,0.4212,54.893173,9.811401,108.3,5.845,1.85,335.95,54.895348,9.797490,54.895786,9.815840
1390066849,3,0,0.0,0,-7,-4,0,0,0,-0.0292,315.2925,6.8213,0.4212,54.893181,9.811392,108.3,5.845,1.85,335.95,54.895348,9.797490,54.895786,9.815840
1390066850,3,0,0.0,0,-5,-8,0,0,0,-0.0292,316.9592,6.8213,0.4212,54.893185,9.811382,108.3,5.845,1.85,335.95,54.895348,9.797490,54.895786,9.815840
1390066850,3,0,0.0,0,-3,-4,0,0,0,-0.0292,317.9592,6.8213,0.4212,54.893188,9.811373,108.3,5.845,1.85,335.95,54.895348,9.797490,54.895786,9.815840
1390066850,3,0,0.0,0,-2,0,0,0,0,-0.0292,318.6258,6.8213,0.4212,54.893196,9.811363,108.3,5.845,1.85,335.95,54.895348,9.797490,54.895786,9.815840
1390066850,3,0,0.0,0,-1,-4,0,0,0,-0.0292,318.9592,6.8213,0.4212,54.893204,9.811355,108.3,5.845,1.85,335.95,54.895348,9.797490,54.895786,9.815840
1390066851,3,0,0.0,0,-1,0,0,0,0,-0.0292,319.2925,6.8213,0.4212,54.893208,9.811346,108.3,5.845,1.85,335.95,54.895348,9.797490,54.895786,9.815840
1390066851,3,0,0.0,0,-1,-4,0,0,0,-0.0292,319.6259,6.8213,0.4212,54.893211,9.811337,108.3,5.845,1.85,335.95,54.895348,9.797490,54.895786,9.815840
1390066851,3,0,0.0,0,0,0,0,0,0,-0.0292,319.6259,6.8213,0.4212,54.893219,9.811329,108.3,5.845,1.85,335.95,54.895348,9.797490,54.895786,9.815840
1390066851,3,0,0.0,0,0,4,0,0,0,-0.0292,319.6259,6.8213,0.4212,54.893227,9.811320,108.3,5.845,1.85,335.95,54.895348,9.797490,54.895786,9.815840
1390066852,3,0,0.0,0,0,0,0,0,0,-0.0292,319.6259,6.8213,0.4212,54.893230,9.811312,108.3,5.845,1.85,335.95,54.895348,9.797490,54.895786,9.815840
1390066852,3,0,0.0,0,0,4,0,0,0,-0.0292,319.6259,6.8213,0.4212,54.893234,9.811303,108.3,5.845,1.85,335.95,54.895348,9.797490,54.895786,9.815840
1390066852,3,0,0.0,0,0,0,0,0,0,-0.0292,319.6259,6.8213,0.4212,54.893238,9.811295,108.3,5.845,1.85,335.95,54.895348,9.797490,54.895786,9.815840
1390066852,3,0,0.0,0,0,4,0,0,0,-0.0292,319.6259,6.8213,0.4212,54.893246,9.811286,108.3,5.845,1.85,335.95,54.895348,9.797490,54.895786,9.815840
1390066853,3,0,0.0,0,0,0,0,0,0,-0.0292,319.6259,6.8213,0.4212,54.893253,9.811277,108.3,5.845,1.85,335.95,54.895348,9.797490,54.895786,9.815840
1390066853,3,0,0.0,0,0,4,0,0,0,-0.0292,319.6259,6.8213,0.4212,54.893257,9.811269,108.3,5.845,1.85,335.95,54.895348,9.797490,54.895786,9.815840
1390066853,3,0,0.0,0,0,0,0,0,0,-0.0292,319.6259,6.8213,0.4212,54.893261,9.811260,108.3,5.845,1.85,335.95,54.895348,9.797490,54.895786,9.815840
1390066853,3,0,0.0,0,0,4,0,0,0,-0.0292,319.6259,6.8213,0.4212,54.893269,9.811252,108.3,5.845,1.85,335.95,54.895348,9.797490,54.895786,9.815840
1390066854,3,0,0.0,0,0,0,0,0,0,-0.0292,319.6259,6.8213,0.4212,54.893276,9.811243,108.3,5.845,1.85,335.95,54.895348,9.797490,54.895786,9.815840
1390066854,3,0,0.0,0,0,4,0,0,0,-0.0292,319.6259,6.8213,0.4212,54.893280,9.811234,108.3,5.845,1.85,335.95,54.895348,9.797490,54.895786,9.815840
1390066854,3,0,0.0,0,-10,0,0,0,0,-0.0292,322.9592,6.8213,0.4212,54.893284,9.811228,108.3,5.845,1.85,335.95,54.895348,9.797490,54.895786,9.815840
1390066854,3,0,0.0,0,-7,-4,0,0,0,-0.0292,325.2925,6.8213,0.4212,54.893288,9.811221,108.3,5.845,1.85,335.95,54.895348,9.797490,54.895786,9.815840
1390066855,3,0,0.0,0,-5,-8,0,0,0,-0.0292,326.9592,6.8213,0.4212,54.893295,9.811215,108.3,5.845,1.85,335.95,54.895348,9.797490,54.895786,9.815840
1390066855,3,0,0.0,0,-3,-4,0,0,0,-0.0292,327.9592,6.8213,0.4212,54.893303,9.811210,108.3,5.845,1.85,335.95,54.895348,9.797490,54.895786,9.815840
1390066855,3,0,0.0,0,-2,0,0,0,0,-0.0292,328.6259,6.8213,0.4212,54.893307,9.811204,108.3,5.845,1.85,335.95,54.895348,9.797490,54.895786,9.815840
1390066855,3,0,0.0,0,-1,-4,0,0,0,-0.0292,328.9592,6.8213,0.4212,54.893311,9.811198,108.3,5.845,1.85,335.95,54.895348,9.797490,54.895786,9.815840
1390066856,3,0,0.0,0,-1,0,0,0,0,-0.0292,329.2925,6.8213,0.4212,54.893314,9.811193,108.3,5.845,1.85,335.95,54.895348,9.797490,54.895786,9.815840
1390066856,3,0,0.0,0,-1,-4,0,0,0,-0.0292,329.6259,6.8213,0.4212,54.893322,9.811188,108.3,5.845,1.85,335.95,54.895348,9.797490,54.895786,9.815840
1390066856,3,0,0.0,0,0,0,0,0,0,-0.0292,329.6259,6.8213,0.4212,54.893330,9.811183,108.3,5.845,1.85,335.95,54.895348,9.797490,54.895786,9.815840
1390066856,3,0,0.0,0,0,4,0,0,0,-0.0292,329.6259,6.8213,0.4212,54.893333,9.811178,108.3,5.845,1.85,335.95,54.895348,9.797490,54.895786,9.815840
1390066857,3,0,0.0,0,0,0,0,0,0,-0.0292,329.6259,6.8213,0.4212,54.893337,9.811173,108.3,5.845,1.85,335.95,54.895348,9.797490,54.895786,9.815840
1390066857,3,0,0.0,0,0,4,0,0,0,-0.0292,329.6259,6.8213,0.4212,54.893345,9.811168,108.3,5.845,1.85,335.95,54.895348,9.797490,54.895786,9.815840
1390066857,3,0,0.0,0,0,0,0,0,0,-0.0292,329.6259,6.8213,0.4212,54.893353,9.811162,108.3,5.845,1.85,335.95,54.895348,9.797490,54.895786,9.815840
1390066857,3,0,0.0,0,0,4,0,0,0,-0.0292,329.6259,6.8213,0.4212,54.893356,9.811156,108.3,5.845,1.85,335.95,54.895348,9.797490,54.895786,9.815840
1390066858,3,0,0.0,0,0,0,0,0,0,-0.0292,329.6259,6.8213,0.4212,54.893360,9.811151,108.3,5.845,1.85,335.95,54.895348,9.797490,54.895786,9.815840
1390066858,3,0,0.0,0,0,4,0,0,0,-0.0292,329.6259,6.8213,0.4212,54.893364,9.811145,108.3,5.845,1.85,335.95,54.895348,9.797490,54.895786,9.815840
1390066858,3,0,0.0,0,0,0,0,0,0,-0.0292,329.6259,6.8213,0.4212,54.893372,9.811140,108.3,5.845,1.85,335.95,54.895348,9.797490,54.895786,9.815840
1390066858,3,0,0.0,0,0,4,0,0,0,-0.0292,329.6259,6.8213,0.4212,54.893379,9.811135,108.3,5.845,1.85,335.95,54.895348,9.797490,54.895786,9.815840
1390066859,3,0,0.0,0,0,0,0,0,0,-0.0292,329.6259,6.8213,0.4212,54.893383,9.811131,108.3,5.845,1.85,335.95,54.895348,9.797490,54.895786,9.815840
1390066859,3,0,0.0,0,0,4,0,0,0,-0.0292,329.6259,6.8213,0.4212,54.893387,9.811125,108.3,5.845,1.85,335.95,54.895348,9.797490,54.895786,9.815840
1390066859,3,0,0.0,0,-10,0,0,0,0,-0.0292,332.9592,6.8213,0.4212,54.893391,9.811120,108.3,5.845,1.85,335.95,54.895348,9.797490,54.895786,9.815840
1390066859,3,0,0.0,0,-7,-4,0,0,0,-0.0292,335.2926,6.8213,0.4212,54.893398,9.811116,108.3,5.845,1.85,335.95,54.895348,9.797490,54.895786,9.815840
1390066860,3,0,0.0,0,-5,-8,0,0,0,-0.0292,336.9592,6.8213,0.4212,54.893402,9.811112,108.3,5.845,1.85,335.95,54.895348,9.797490,54.895786,9.815840
1390066860,3,0,0.0,0,-3,-4,0,0,0,-0.0292,337.9592,6.8213,0.4212,54.893406,9.811109,108.3,5.845,1.85,335.95,54.895348,9.797490,54.895786,9.815840
1390066860,3,0,0.0,0,-2,0,0,0,0,-0.0292,338.6259,6.8213,0.4212,54.893410,9.811105,108.3,5.845,1.85,335.95,54.895348,9.797490,54.895786,9.815840
1390066860,3,0,0.0,0,-1,-4,0,0,0,-0.0292,338.9592,6.8213,0.4212,54.893414,9.811102,108.3,5.845,1.85,335.95,54.895348,9.797490,54.895786,9.815840
1390066861,3,0,0.0,0,-1,0,0,0,0,-0.0292,339.2926,6.8213,0.4212,54.893417,9.811099,108.3,5.845,1.85,335.95,54.895348,9.797490,54.895786,9.815840
1390066861,3,0,0.0,0,-1,-4,0,0,0,-0.0292,339.6259,6.8213,0.4212,54.893425,9.811096,108.3,5.845,1.85,335.95,54.895348,9.797490,54.895786,9.815840
1390066861,3,0,0.0,0,0,0,0,0,0,-0.0292,339.6259,6.8213,0.4212,54.893429,9.811093,108.3,5.845,1.85,335.95,54.895348,9.797490,54.895786,9.815840
1390066861,3,0,0.0,0,0,4,0,0,0,-0.0292,339.6259,6.8213,0.4212,54.893433,9.811090,108.3,5.845,1.85,335.95,54.895348,9.797490,54.895786,9.815840
1390066862,3,0,0.0,0,0,0,0,0,0,-0.0292,339.6259,6.8213,0.4212,54.893436,9.811088,108.3,5.845,1.85,335.95,54.895348,9.797490,54.895786,9.815840
1390066862,3,0,0.0,0,0,4,0,0,0,-0.0292,339.6259,6.8213,0.4212,54.893440,9.811085,108.3,5.845,1.85,335.95,54.895348,9.797490,54.895786,9.815840
1390066862,3,0,0.0,0,0,0,0,0,0,-0.0292,339.6259,6.8213,0.4212,54.893444,9.811082,108.3,5.845,1.85,335.95,54.895348,9.797490,54.895786,9.815840
1390066862,3,0,0.0,0,0,4,0,0,0,-0.0292,339.6259,6.8213,0.4212,54.893452,9.811079,108.3,5.845,1.85,335.95,54.895348,9.797490,54.895786,9.815840
1390066863,3,0,0.0,0,0,0,0,0,0,-0.0292,339.6259,6.8213,0.4212,54.893456,9.811076,108.3,5.845,1.85,335.95,54.895348,9.797490,54.895786,9.815840
1390066863,3,0,0.0,0,0,4,0,0,0,-0.0292,339.6259,6.8213,0.4212,54.893459,9.811073,108.3,5.845,1.85,335.95,54.895348,9.797490,54.895786,9.815840
