MCU_timestamp,Navigation_System,Manual_Control,Guidance_Heading,Manual_Ctrl_Rudder,Rudder_Desired_Angle,Rudder_Feedback,Manual_Ctrl_Sail,Sail_Desired_Pos,Sail_Feedback,Rate,Heading,Pitch,Roll,Latitude,Longitude,COG,SOG,Wind_Speed,Wind_Angle,Point_Start_Lat,Point_Start_Lon,Point_End_Lat,Point_End_Lon
1390144995,0,0,0.0,0,0,20,0,0,0,-0.0292,95.6255,6.8213,0.4212,54.896885,9.784269,108.3,5.845,1.85,335.95,0.000000,0.000000,0.000000,0.000000
1390144995,0,0,0.0,0,0,20,0,0,0,-0.0292,95.6255,6.8213,0.4212,54.896885,9.784269,108.3,5.845,1.85,335.95,0.000000,0.000000,0.000000,0.000000
1390144995,0,0,0.0,0,0,20,0,0,0,-0.0292,95.6255,6.8213,0.4212,54.896885,9.784269,108.3,5.845,1.85,335.95,0.000000,0.000000,0.000000,0.000000
1390144996,0,0,0.0,0,0,20,0,0,0,-0.0292,95.6255,6.8213,0.4212,54.896885,9.784269,108.3,5.845,1.85,335.95,0.000000,0.000000,0.000000,0.000000
1390144996,0,0,0.0,0,0,20,0,0,0,-0.0292,95.6255,6.8213,0.4212,54.896885,9.784269,108.3,5.845,1.85,335.95,0.000000,0.000000,0.000000,0.000000
1390144996,0,0,0.0,0,0,20,0,0,0,-0.0292,95.6255,6.8213,0.4212,54.896885,9.784269,108.3,5.845,1.85,335.95,0.000000,0.000000,0.000000,0.000000
1390144996,0,0,0.0,0,0,20,0,0,0,-0.0292,95.6255,6.8213,0.4212,54.896885,9.784269,108.3,5.845,1.85,335.95,0.000000,0.000000,0.000000,0.000000
1390144997,0,0,0.0,0,0,20,0,0,0,-0.0292,95.6255,6.8213,0.4212,54.896885,9.784269,108.3,5.845,1.85,335.95,0.000000,0.000000,0.000000,0.000000
1390144997,0,0,0.0,0,0,20,0,0,0,-0.0292,95.6255,6.8213,0.4212,54.896885,9.784269,108.3,5.845,1.85,335.95,0.000000,0.000000,0.000000,0.000000
1390144997,0,0,0.0,0,0,20,0,0,0,-0.0292,95.6255,6.8213,0.4212,54.896885,9.784269,108.3,5.845,1.85,335.95,0.000000,0.000000,0.000000,0.000000
1390144997,0,0,0.0,0,0,20,0,0,0,-0.0292,95.6255,6.8213,0.4212,54.896885,9.784269,108.3,5.845,1.85,335.95,0.000000,0.000000,0.000000,0.000000
1390144998,0,0,0.0,0,0,20,0,0,0,-0.0292,95.6255,6.8213,0.4212,54.896885,9.784269,108.3,5.845,1.85,335.95,0.000000,0.000000,0.000000,0.000000
1390144998,0,0,0.0,0,0,20,0,0,0,-0.0292,95.6255,6.8213,0.4212,54.896885,9.784269,108.3,5.845,1.85,335.95,0.000000,0.000000,0.000000,0.000000
1390144998,0,0,0.0,0,0,20,0,0,0,-0.0292,95.6255,6.8213,0.4212,54.896885,9.784269,108.3,5.845,1.85,335.95,0.000000,0.000000,0.000000,0.000000
1390144998,0,0,0.0,0,0,20,0,0,0,-0.0292,95.6255,6.8213,0.4212,54.896885,9.784269,108.3,5.845,1.85,335.95,0.000000,0.000000,0.000000,0.000000
1390144999,0,0,0.0,0,0,20,0,0,0,-0.0292,95.6255,6.8213,0.4212,54.896885,9.784269,108.3,5.845,1.85,335.95,0.000000,0.000000,0.000000,0.000000
1390144999,0,0,0.0,0,0,20,0,0,0,-0.0292,95.6255,6.8213,0.4212,54.896885,9.784269,108.3,5.845,1.85,335.95,0.000000,0.000000,0.000000,0.000000
1390144999,0,0,0.0,0,0,20,0,0,0,-0.0292,95.6255,6.8213,0.4212,54.896885,9.784269,108.3,5.845,1.85,335.95,0.000000,0.000000,0.000000,0.000000
1390144999,0,0,0.0,0,0,20,0,0,0,-0.0292,95.6255,6.8213,0.4212,54.896885,9.784269,108.3,5.845,1.85,335.95,0.000000,0.000000,0.000000,0.000000
1390145000,0,0,0.0,0,0,20,0,0,0,-0.0292,95.6255,6.8213,0.4212,54.896885,9.784269,108.3,5.845,1.85,335.95,0.000000,0.000000,0.000000,0.000000
1390145000,0,0,0.0,0,0,20,0,0,0,-0.0292,95.6255,6.8213,0.4212,54.896885,9.784269,108.3,5.845,1.85,335.95,0.000000,0.000000,0.000000,0.000000
1390145000,0,0,0.0,0,0,20,0,0,0,-0.0292,95.6255,6.8213,0.4212,54.896885,9.784269,108.3,5.845,1.85,335.95,0.000000,0.000000,0.000000,0.000000
1390145000,0,0,0.0,0,0,20,0,0,0,-0.0292,95.6255,6.8213,0.4212,54.896885,9.784269,108.3,5.845,1.85,335.95,0.000000,0.000000,0.000000,0.000000
1390145001,0,0,0.0,0,0,20,0,0,0,-0.0292,95.6255,6.8213,0.4212,54.896885,9.784269,108.3,5.845,1.85,335.95,0.000000,0.000000,0.000000,0.000000
1390145001,0,0,0.0,0,0,20,0,0,0,-0.0292,95.6255,6.8213,0.4212,54.896885,9.784269,108.3,5.845,1.85,335.95,0.000000,0.000000,0.000000,0.000000
1390145001,0,0,0.0,0,0,20,0,0,0,-0.0292,95.6255,6.8213,0.4212,54.896885,9.784269,108.3,5.845,1.85,335.95,0.000000,0.000000,0.000000,0.000000
1390145001,0,0,0.0,0,0,20,0,0,0,-0.0292,95.6255,6.8213,0.4212,54.896885,9.784269,108.3,5.845,1.85,335.95,0.000000,0.000000,0.000000,0.000000
1390145002,0,0,0.0,0,0,20,0,0,0,-0.0292,95.6255,6.8213,0.4212,54.896885,9.784269,108.3,5.845,1.85,335.95,0.000000,0.000000,0.000000,0.000000
1390145002,0,0,0.0,0,0,20,0,0,0,-0.0292,95.6255,6.8213,0.4212,54.896885,9.784269,108.3,5.845,1.85,335.95,0.000000,0.000000,0.000000,0.000000
1390145002,0,0,0.0,0,0,20,0,0,0,-0.0292,95.6255,6.8213,0.4212,54.896885,9.784269,108.3,5.845,1.85,335.95,0.000000,0.000000,0.000000,0.000000
1390145002,0,0,0.0,0,0,20,0,0,0,-0.0292,95.6255,6.8213,0.4212,54.896885,9.784269,108.3,5.845,1.85,335.95,0.000000,0.000000,0.000000,0.000000
1390145003,0,0,0.0,0,0,20,0,0,0,-0.0292,95.6255,6.8213,0.4212,54.896885,9.784269,108.3,5.845,1.85,335.95,0.000000,0.000000,0.000000,0.000000
1390145003,0,0,0.0,0,0,20,0,0,0,-0.0292,95.6255,6.8213,0.4212,54.896885,9.784269,108.3,5.845,1.85,335.95,0.000000,0.000000,0.000000,0.000000
1390145003,0,0,0.0,0,0,20,0,0,0,-0.0292,95.6255,6.8213,0.4212,54.896885,9.784269,108.3,5.845,1.85,335.95,0.000000,0.000000,0.000000,0.000000
1390145003,0,0,0.0,0,0,20,0,0,0,-0.0292,95.6255,6.8213,0.4212,54.896885,9.784269,108.3,5.845,1.85,335.95,0.000000,0.000000,0.000000,0.000000
1390145004,0,0,0.0,0,0,20,0,0,0,-0.0292,95.6255,6.8213,0.4212,54.896885,9.784269,108.3,5.845,1.85,335.95,0.000000,0.000000,0.000000,0.000000
1390145004,0,0,0.0,0,0,20,0,0,0,-0.0292,95.6255,6.8213,0.4212,54.896885,9.784269,108.3,5.845,1.85,335.95,0.000000,0.000000,0.000000,0.000000
1390145004,0,0,0.0,0,0,20,0,0,0,-0.0292,95.6255,6.8213,0.4212,54.896885,9.784269,108.3,5.845,1.85,335.95,0.000000,0.000000,0.000000,0.000000
1390145004,0,0,0.0,0,0,20,0,0,0,-0.0292,95.6255,6.8213,0.4212,54.896885,9.784269,108.3,5.845,1.85,335.95,0.000000,0.000000,0.000000,0.000000
1390145005,0,0,0.0,0,0,20,0,0,0,-0.0292,95.6255,6.8213,0.4212,54.896885,9.784269,108.3,5.845,1.85,335.95,0.000000,0.000000,0.000000,0.000000
1390145005,0,0,0.0,0,0,20,0,0,0,-0.0292,95.6255,6.8213,0.4212,54.896885,9.784269,108.3,5.845,1.85,335.95,0.000000,0.000000,0.000000,0.000000
1390145005,0,0,0.0,0,0,20,0,0,0,-0.0292,95.6255,6.8213,0.4212,54.896885,9.784269,108.3,5.845,1.85,335.95,0.000000,0.000000,0.000000,0.000000
1390145005,0,0,0.0,0,0,20,0,0,0,-0.0292,95.6255,6.8213,0.4212,54.896885,9.784269,108.3,5.845,1.85,335.95,0.000000,0.000000,0.000000,0.000000
1390145006,0,0,0.0,0,0,20,0,0,0,-0.0292,95.6255,6.8213,0.4212,54.896885,9.784269,108.3,5.845,1.85,335.95,0.000000,0.000000,0.000000,0.000000
1390145006,0,0,0.0,0,0,20,0,0,0,-0.0292,95.6255,6.8213,0.4212,54.896885,9.784269,108.3,5.845,1.85,335.95,0.000000,0.000000,0.000000,0.000000
1390145006,0,0,0.0,0,0,20,0,0,0,-0.0292,95.6255,6.8213,0.4212,54.896885,9.784269,108.3,5.845,1.85,335.95,0.000000,0.000000,0.000000,0.000000
1390145006,0,0,0.0,0,0,20,0,0,0,-0.0292,95.6255,6.8213,0.4212,54.896885,9.784269,108.3,5.845,1.85,335.95,0.000000,0.000000,0.000000,0.000000
1390145007,0,0,0.0,0,0,20,0,0,0,-0.0292,95.6255,6.8213,0.4212,54.896885,9.784269,108.3,5.845,1.85,335.95,0.000000,0.000000,0.000000,0.000000
1390145007,0,0,0.0,0,0,20,0,0,0,-0.0292,95.6255,6.8213,0.4212,54.896885,9.784269,108.3,5.845,1.85,335.95,0.000000,0.000000,0.000000,0.000000
1390145007,0,0,0.0,0,0,20,0,0,0,-0.0292,95.6255,6.8213,0.4212,54.896885,9.784269,108.3,5.845,1.85,335.95,0.000000,0.000000,0.000000,0.000000
1390145007,0,0,0.0,0,0,20,0,0,0,-0.0292,95.6255,6.8213,0.4212,54.896885,9.784269,108.3,5.845,1.85,335.95,0.000000,0.000000,0.000000,0.000000
1390145008,0,0,0.0,0,0,20,0,0,0,-0.0292,95.6255,6.8213,0.4212,54.896885,9.784269,108.3,5.845,1.85,335.95,0.000000,0.000000,0.000000,0.000000
1390145008,0,0,0.0,0,0,20,0,0,0,-0.0292,95.6255,6.8213,0.4212,54.896885,9.784269,108.3,5.845,1.85,335.95,0.000000,0.000000,0.000000,0.000000
1390145008,0,0,0.0,0,0,20,0,0,0,-0.0292,95.6255,6.8213,0.4212,54.896885,9.784269,108.3,5.845,1.85,335.95,0.000000,0.000000,0.000000,0.000000
1390145008,0,0,0.0,0,0,20,0,0,0,-0.0292,95.6255,6.8213,0.4212,54.896885,9.784269,108.3,5.845,1.85,335.95,0.000000,0.000000,0.000000,0.000000
1390145009,0,0,0.0,0,0,20,0,0,0,-0.0292,95.6255,6.8213,0.4212,54.896885,9.784269,108.3,5.845,1.85,335.95,0.000000,0.000000,0.000000,0.000000
1390145009,0,0,0.0,0,0,20,0,0,0,-0.0292,95.6255,6.8213,0.4212,54.896885,9.784269,108.3,5.845,1.85,335.95,0.000000,0.000000,0.000000,0.000000
1390145009,0,0,0.0,0,0,20,0,0,0,-0.0292,95.6255,6.8213,0.4212,54.896885,9.784269,108.3,5.845,1.85,335.95,0.000000,0.000000,0.000000,0.000000
1390145009,0,0,0.0,0,0,20,0,0,0,-0.0292,95.6255,6.8213,0.4212,54.896885,9.784269,108.3,5.845,1.85,335.95,0.000000,0.000000,0.000000,0.000000
1390145010,0,0,0.0,0,0,20,0,0,0,-0.0292,95.6255,6.8213,0.4212,54.896885,9.784269,108.3,5.845,1.85,335.95,0.000000,0.000000,0.000000,0.000000
1390145010,0,0,0.0,0,0,20,0,0,0,-0.0292,95.6255,6.8213,0.4212,54.896885,9.784269,108.3,5.845,1.85,335.95,0.000000,0.000000,0.000000,0.000000
1390145010,0,0,0.0,0,0,20,0,0,0,-0.0292,95.6255,6.8213,0.4212,54.896885,9.784269,108.3,5.845,1.85,335.95,0.000000,0.000000,0.000000,0.000000
1390145010,0,0,0.0,0,0,20,0,0,0,-0.0292,95.6255,6.8213,0.4212,54.896885,9.784269,108.3,5.845,1.85,335.95,0.000000,0.000000,0.000000,0.000000
1390145011,0,0,0.0,0,0,20,0,0,0,-0.0292,95.6255,6.8213,0.4212,54.896885,9.784269,108.3,5.845,1.85,335.95,0.000000,0.000000,0.000000,0.000000
1390145011,0,0,0.0,0,0,20,0,0,0,-0.0292,95.6255,6.8213,0.4212,54.896885,9.784269,108.3,5.845,1.85,335.95,0.000000,0.000000,0.000000,0.000000
1390145011,0,0,0.0,0,0,20,0,0,0,-0.0292,95.6255,6.8213,0.4212,54.896885,9.784269,108.3,5.845,1.85,335.95,0.000000,0.000000,0.000000,0.000000
1390145011,0,0,0.0,0,0,20,0,0,0,-0.0292,95.6255,6.8213,0.4212,54.896885,9.784269,108.3,5.845,1.85,335.95,0.000000,0.000000,0.000000,0.000000
1390145012,0,0,0.0,0,0,20,0,0,0,-0.0292,95.6255,6.8213,0.4212,54.896885,9.784269,108.3,5.845,1.85,335.95,0.000000,0.000000,0.000000,0.000000
1390145012,0,0,0.0,0,0,20,0,0,0,-0.0292,95.6255,6.8213,0.4212,54.896885,9.784269,108.3,5.845,1.85,335.95,0.000000,0.000000,0.000000,0.000000
1390145012,0,0,0.0,0,0,20,0,0,0,-0.0292,95.6255,6.8213,0.4212,54.896885,9.784269,108.3,5.845,1.85,335.95,0.000000,0.000000,0.000000,0.000000
1390145012,0,0,0.0,0,0,20,0,0,0,-0.0292,95.6255,6.8213,0.4212,54.896885,9.784269,108.3,5.845,1.85,335.95,0.000000,0.000000,0.000000,0.000000
1390145013,0,0,0.0,0,0,20,0,0,0,-0.0292,95.6255,6.8213,0.4212,54.896885,9.784269,108.3,5.845,1.85,335.95,0.000000,0.000000,0.000000,0.000000
1390145013,0,0,0.0,0,0,20,0,0,0,-0.0292,95.6255,6.8213,0.4212,54.896885,9.784269,108.3,5.845,1.85,335.95,0.000000,0.000000,0.000000,0.000000
1390145013,0,0,0.0,0,0,20,0,0,0,-0.0292,95.6255,6.8213,0.4212,54.896885,9.784269,108.3,5.845,1.85,335.95,0.000000,0.000000,0.000000,0.000000
1390145013,0,0,0.0,0,0,20,0,0,0,-0.0292,95.6255,6.8213,0.4212,54.896885,9.784269,108.3,5.845,1.85,335.95,0.000000,0.000000,0.000000,0.000000
1390145014,0,0,0.0,0,0,20,0,0,0,-0.0292,95.6255,6.8213,0.4212,54.896885,9.784269,108.3,5.845,1.85,335.95,0.000000,0.000000,0.000000,0.000000
1390145014,0,0,0.0,0,0,20,0,0,0,-0.0292,95.6255,6.8213,0.4212,54.896885,9.784269,108.3,5.845,1.85,335.95,0.000000,0.000000,0.000000,0.000000
1390145014,0,0,0.0,0,0,20,0,0,0,-0.0292,95.6255,6.8213,0.4212,54.896885,9.784269,108.3,5.845,1.85,335.95,0.000000,0.000000,0.000000,0.000000
1390145014,0,0,0.0,0,0,20,0,0,0,-0.0292,95.6255,6.8213,0.4212,54.896885,9.784269,108.3,5.845,1.85,335.95,0.000000,0.000000,0.000000,0.000000
1390145015,0,0,0.0,0,0,20,0,0,0,-0.0292,95.6255,6.8213,0.4212,54.896885,9.784269,108.3,5.845,1.85,335.95,0.000000,0.000000,0.000000,0.000000
1390145015,0,0,0.0,0,0,20,0,0,0,-0.0292,95.6255,6.8213,0.4212,54.896885,9.784269,108.3,5.845,1.85,335.95,0.000000,0.000000,0.000000,0.000000
1390145015,0,0,0.0,0,0,20,0,0,0,-0.0292,95.6255,6.8213,0.4212,54.896885,9.784269,108.3,5.845,1.85,335.95,0.000000,0.000000,0.000000,0.000000
1390145015,0,0,0.0,0,0,20,0,0,0,-0.0292,95.6255,6.8213,0.4212,54.896885,9.784269,108.3,5.845,1.85,335.95,0.000000,0.000000,0.000000,0.000000
1390145016,0,0,0.0,0,0,20,0,0,0,-0.0292,95.6255,6.8213,0.4212,54.896885,9.784269,108.3,5.845,1.85,335.95,0.000000,0.000000,0.000000,0.000000
1390145016,0,0,0.0,0,0,20,0,0,0,-0.0292,95.6255,6.8213,0.4212,54.896885,9.784269,108.3,5.845,1.85,335.95,0.000000,0.000000,0.000000,0.000000
1390145016,0,0,0.0,0,0,20,0,0,0,-0.0292,95.6255,6.8213,0.4212,54.896885,9.784269,108.3,5.845,1.85,335.95,0.000000,0.000000,0.000000,0.000000
1390145016,0,0,0.0,0,0,20,0,0,0,-0.0292,95.6255,6.8213,0.4212,54.896885,9.784269,108.3,5.845,1.85,335.95,0.000000,0.000000,0.000000,0.000000
1390145017,0,0,0.0,0,0,20,0,0,0,-0.0292,95.6255,6.8213,0.4212,54.896885,9.784269,108.3,5.845,1.85,335.95,0.000000,0.000000,0.000000,0.000000
1390145017,0,0,0.0,0,0,20,0,0,0,-0.0292,95.6255,6.8213,0.4212,54.896885,9.784269,108.3,5.845,1.85,335.95,0.000000,0.000000,0.000000,0.000000
1390145017,0,0,0.0,0,0,20,0,0,0,-0.0292,95.6255,6.8213,0.4212,54.896885,9.784269,108.3,5.845,1.85,335.95,0.000000,0.000000,0.000000,0.000000
1390145017,0,0,0.0,0,0,20,0,0,0,-0.0292,95.6255,6.8213,0.4212,54.896885,9.784269,108.3,5.845,1.85,335.95,0.000000,0.000000,0.000000,0.000000
1390145018,0,0,0.0,0,0,20,0,0,0,-0.0292,95.6255,6.8213,0.4212,54.896885,9.784269,108.3,5.845,1.85,335.95,0.000000,0.000000,0.000000,0.000000
1390145018,0,0,0.0,0,0,20,0,0,0,-0.0292,95.6255,6.8213,0.4212,54.896885,9.784269,108.3,5.845,1.85,335.95,0.000000,0.000000,0.000000,0.000000
1390145018,0,0,0.0,0,0,20,0,0,0,-0.0292,95.6255,6.8213,0.4212,54.896885,9.784269,108.3,5.845,1.85,335.95,0.000000,0.000000,0.000000,0.000000
1390145018,0,0,0.0,0,0,20,0,0,0,-0.0292,95.6255,6.8213,0.4212,54.896885,9.784269,108.3,5.845,1.85,335.95,0.000000,0.000000,0.000000,0.000000
1390145019,0,0,0.0,0,0,20,0,0,0,-0.0292,95.6255,6.8213,0.4212,54.896885,9.784269,108.3,5.845,1.85,335.95,0.000000,0.000000,0.000000,0.000000
1390145019,0,0,0.0,0,0,20,0,0,0,-0.0292,95.6255,6.8213,0.4212,54.896885,9.784269,108.3,5.845,1.85,335.95,0.000000,0.000000,0.000000,0.000000
1390145019,0,0,0.0,0,0,20,0,0,0,-0.0292,95.6255,6.8213,0.4212,54.896885,9.784269,108.3,5.845,1.85,335.95,0.000000,0.000000,0.000000,0.000000
1390145019,0,0,0.0,0,0,20,0,0,0,-0.0292,95.6255,6.8213,0.4212,54.896885,9.784269,108.3,5.845,1.85,335.95,0.000000,0.000000,0.000000,0.000000
1390145020,0,0,0.0,0,0,20,0,0,0,-0.0292,95.6255,6.8213,0.4212,54.896885,9.784269,108.3,5.845,1.85,335.95,0.000000,0.000000,0.000000,0.000000
1390145020,0,0,0.0,0,0,20,0,0,0,-0.0292,95.6255,6.8213,0.4212,54.896885,9.784269,108.3,5.845,1.85,335.95,0.000000,0.000000,0.000000,0.000000
1390145020,0,0,0.0,0,0,20,0,0,0,-0.0292,95.6255,6.8213,0.4212,54.896885,9.784269,108.3,5.845,1.85,335.95,0.000000,0.000000,0.000000,0.000000
1390145020,0,0,0.0,0,0,20,0,0,0,-0.0292,95.6255,6.8213,0.4212,54.896885,9.784269,108.3,5.845,1.85,335.95,0.000000,0.000000,0.000000,0.000000
1390145021,0,0,0.0,0,0,20,0,0,0,-0.0292,95.6255,6.8213,0.4212,54.896885,9.784269,108.3,5.845,1.85,335.95,0.000000,0.000000,0.000000,0.000000
1390145021,0,0,0.0,0,0,20,0,0,0,-0.0292,95.6255,6.8213,0.4212,54.896885,9.784269,108.3,5.845,1.85,335.95,0.000000,0.000000,0.000000,0.000000
1390145021,0,0,0.0,0,0,20,0,0,0,-0.0292,95.6255,6.8213,0.4212,54.896885,9.784269,108.3,5.845,1.85,335.95,0.000000,0.000000,0.000000,0.000000
1390145021,0,0,0.0,0,0,20,0,0,0,-0.0292,95.6255,6.8213,0.4212,54.896885,9.784269,108.3,5.845,1.85,335.95,0.000000,0.000000,0.000000,0.000000
1390145022,0,0,0.0,0,0,20,0,0,0,-0.0292,95.6255,6.8213,0.4212,54.896885,9.784269,108.3,5.845,1.85,335.95,0.000000,0.000000,0.000000,0.000000
1390145022,0,0,0.0,0,0,20,0,0,0,-0.0292,95.6255,6.8213,0.4212,54.896885,9.784269,108.3,5.845,1.85,335.95,0.000000,0.000000,0.000000,0.000000
1390145022,0,0,0.0,0,0,20,0,0,0,-0.0292,95.6255,6.8213,0.4212,54.896885,9.784269,108.3,5.845,1.85,335.95,0.000000,0.000000,0.000000,0.000000
1390145022,0,0,0.0,0,0,20,0,0,0,-0.0292,95.6255,6.8213,0.4212,54.896885,9.784269,108.3,5.845,1.85,335.95,0.000000,0.000000,0.000000,0.000000
1390145023,0,0,0.0,0,0,20,0,0,0,-0.0292,95.6255,6.8213,0.4212,54.896885,9.784269,108.3,5.845,1.85,335.95,0.000000,0.000000,0.000000,0.000000
1390145023,0,0,0.0,0,0,20,0,0,0,-0.0292,95.6255,6.8213,0.4212,54.896885,9.784269,108.3,5.845,1.85,335.95,0.000000,0.000000,0.000000,0.000000
1390145023,0,0,0.0,0,0,20,0,0,0,-0.0292,95.6255,6.8213,0.4212,54.896885,9.784269,108.3,5.845,1.85,335.95,0.000000,0.000000,0.000000,0.000000
1390145023,0,0,0.0,0,0,20,0,0,0,-0.0292,95.6255,6.8213,0.4212,54.896885,9.784269,108.3,5.845,1.85,335.95,0.000000,0.000000,0.000000,0.000000
1390145024,0,0,0.0,0,0,20,0,0,0,-0.0292,95.6255,6.8213,0.4212,54.896885,9.784269,108.3,5.845,1.85,335.95,0.000000,0.000000,0.000000,0.000000
1390145024,0,0,0.0,0,0,20,0,0,0,-0.0292,95.6255,6.8213,0.4212,54.896885,9.784269,108.3,5.845,1.85,335.95,0.000000,0.000000,0.000000,0.000000
1390145024,0,0,0.0,0,0,20,0,0,0,-0.0292,95.6255,6.8213,0.4212,54.896885,9.784269,108.3,5.845,1.85,335.95,0.000000,0.000000,0.000000,0.000000
1390145024,0,0,0.0,0,0,20,0,0,0,-0.0292,95.6255,6.8213,0.4212,54.896885,9.784269,108.3,5.845,1.85,335.95,0.000000,0.000000,0.000000,0.000000
1390145025,0,0,0.0,0,0,20,0,0,0,-0.0292,95.6255,6.8213,0.4212,54.896885,9.784269,108.3,5.845,1.85,335.95,0.000000,0.000000,0.000000,0.000000
1390145025,0,0,0.0,0,0,20,0,0,0,-0.0292,95.6255,6.8213,0.4212,54.896885,9.784269,108.3,5.845,1.85,335.95,0.000000,0.000000,0.000000,0.000000
1390145025,0,0,0.0,0,0,20,0,0,0,-0.0292,95.6255,6.8213,0.4212,54.896885,9.784269,108.3,5.845,1.85,335.95,0.000000,0.000000,0.000000,0.000000
1390145025,0,0,0.0,0,0,20,0,0,0,-0.0292,95.6255,6.8213,0.4212,54.896885,9.784269,108.3,5.845,1.85,335.95,0.000000,0.000000,0.000000,0.000000
1390145026,0,0,0.0,0,0,20,0,0,0,-0.0292,95.6255,6.8213,0.4212,54.896885,9.784269,108.3,5.845,1.85,335.95,0.000000,0.000000,0.000000,0.000000
1390145026,0,0,0.0,0,0,20,0,0,0,-0.0292,95.6255,6.8213,0.4212,54.896885,9.784269,108.3,5.845,1.85,335.95,0.000000,0.000000,0.000000,0.000000
1390145026,0,0,0.0,0,0,20,0,0,0,-0.0292,95.6255,6.8213,0.4212,54.896885,9.784269,108.3,5.845,1.85,335.95,0.000000,0.000000,0.000000,0.000000
1390145026,0,0,0.0,0,0,20,0,0,0,-0.0292,95.6255,6.8213,0.4212,54.896885,9.784269,108.3,5.845,1.85,335.95,0.000000,0.000000,0.000000,0.000000
1390145027,0,0,0.0,0,0,20,0,0,0,-0.0292,95.6255,6.8213,0.4212,54.896885,9.784269,108.3,5.845,1.85,335.95,0.000000,0.000000,0.000000,0.000000
1390145027,0,0,0.0,0,0,20,0,0,0,-0.0292,95.6255,6.8213,0.4212,54.896885,9.784269,108.3,5.845,1.85,335.95,0.000000,0.000000,0.000000,0.000000
1390145027,0,0,0.0,0,0,20,0,0,0,-0.0292,95.6255,6.8213,0.4212,54.896885,9.784269,108.3,5.845,1.85,335.95,0.000000,0.000000,0.000000,0.000000
1390145027,0,0,0.0,0,0,20,0,0,0,-0.0292,95.6255,6.8213,0.4212,54.896885,9.784269,108.3,5.845,1.85,335.95,0.000000,0.000000,0.000000,0.000000
1390145028,0,0,0.0,0,0,20,0,0,0,-0.0292,95.6255,6.8213,0.4212,54.896885,9.784269,108.3,5.845,1.85,335.95,0.000000,0.000000,0.000000,0.000000
1390145028,0,0,0.0,0,0,20,0,0,0,-0.0292,95.6255,6.8213,0.4212,54.896885,9.784269,108.3,5.845,1.85,335.95,0.000000,0.000000,0.000000,0.000000
1390145028,0,0,0.0,0,0,20,0,0,0,-0.0292,95.6255,6.8213,0.4212,54.896885,9.784269,108.3,5.845,1.85,335.95,0.000000,0.000000,0.000000,0.000000
1390145028,0,0,0.0,0,0,20,0,0,0,-0.0292,95.6255,6.8213,0.4212,54.896885,9.784269,108.3,5.845,1.85,335.95,0.000000,0.000000,0.000000,0.000000
1390145029,0,0,0.0,0,0,20,0,0,0,-0.0292,95.6255,6.8213,0.4212,54.896885,9.784269,108.3,5.845,1.85,335.95,0.000000,0.000000,0.000000,0.000000
1390145029,0,0,0.0,0,0,20,0,0,0,-0.0292,95.6255,6.8213,0.4212,54.896885,9.784269,108.3,5.845,1.85,335.95,0.000000,0.000000,0.000000,0.000000
1390145029,0,0,0.0,0,0,20,0,0,0,-0.0292,95.6255,6.8213,0.4212,54.896885,9.784269,108.3,5.845,1.85,335.95,0.000000,0.000000,0.000000,0.000000
1390145029,0,0,0.0,0,0,20,0,0,0,-0.0292,95.6255,6.8213,0.4212,54.896885,9.784269,108.3,5.845,1.85,335.95,0.000000,0.000000,0.000000,0.000000
1390145030,0,0,0.0,0,0,20,0,0,0,-0.0292,95.6255,6.8213,0.4212,54.896885,9.784269,108.3,5.845,1.85,335.95,0.000000,0.000000,0.000000,0.000000
1390145030,0,0,0.0,0,0,20,0,0,0,-0.0292,95.6255,6.8213,0.4212,54.896885,9.784269,108.3,5.845,1.85,335.95,0.000000,0.000000,0.000000,0.000000
1390145030,0,0,0.0,0,0,20,0,0,0,-0.0292,95.6255,6.8213,0.4212,54.896885,9.784269,108.3,5.845,1.85,335.95,0.000000,0.000000,0.000000,0.000000
1390145030,0,0,0.0,0,0,20,0,0,0,-0.0292,95.6255,6.8213,0.4212,54.896885,9.784269,108.3,5.845,1.85,335.95,0.000000,0.000000,0.000000,0.000000
1390145031,0,0,0.0,0,0,20,0,0,0,-0.0292,95.6255,6.8213,0.4212,54.896885,9.784269,108.3,5.845,1.85,335.95,0.000000,0.000000,0.000000,0.000000
1390145031,0,0,0.0,0,0,20,0,0,0,-0.0292,95.6255,6.8213,0.4212,54.896885,9.784269,108.3,5.845,1.85,335.95,0.000000,0.000000,0.000000,0.000000
1390145031,0,0,0.0,0,0,20,0,0,0,-0.0292,95.6255,6.8213,0.4212,54.896885,9.784269,108.3,5.845,1.85,335.95,0.000000,0.000000,0.000000,0.000000
1390145031,0,0,0.0,0,0,20,0,0,0,-0.0292,95.6255,6.8213,0.4212,54.896885,9.784269,108.3,5.845,1.85,335.95,0.000000,0.000000,0.000000,0.000000
1390145032,0,0,0.0,0,0,20,0,0,0,-0.0292,95.6255,6.8213,0.4212,54.896885,9.784269,108.3,5.845,1.85,335.95,0.000000,0.000000,0.000000,0.000000
1390145032,0,0,0.0,0,0,20,0,0,0,-0.0292,95.6255,6.8213,0.4212,54.896885,9.784269,108.3,5.845,1.85,335.95,0.000000,0.000000,0.000000,0.000000
1390145032,0,0,0.0,0,0,20,0,0,0,-0.0292,95.6255,6.8213,0.4212,54.896885,9.784269,108.3,5.845,1.85,335.95,0.000000,0.000000,0.000000,0.000000
1390145032,0,0,0.0,0,0,20,0,0,0,-0.0292,95.6255,6.8213,0.4212,54.896885,9.784269,108.3,5.845,1.85,335.95,0.000000,0.000000,0.000000,0.000000
1390145033,0,0,0.0,0,0,20,0,0,0,-0.0292,95.6255,6.8213,0.4212,54.896885,9.784269,108.3,5.845,1.85,335.95,0.000000,0.000000,0.000000,0.000000
1390145033,0,0,0.0,0,0,20,0,0,0,-0.0292,95.6255,6.8213,0.4212,54.896885,9.784269,108.3,5.845,1.85,335.95,0.000000,0.000000,0.000000,0.000000
1390145033,0,0,0.0,0,0,20,0,0,0,-0.0292,95.6255,6.8213,0.4212,54.896885,9.784269,108.3,5.845,1.85,335.95,0.000000,0.000000,0.000000,0.000000
1390145033,0,0,0.0,0,0,20,0,0,0,-0.0292,95.6255,6.8213,0.4212,54.896885,9.784269,108.3,5.845,1.85,335.95,0.000000,0.000000,0.000000,0.000000
1390145034,0,0,0.0,0,0,20,0,0,0,-0.0292,95.6255,6.8213,0.4212,54.896885,9.784269,108.3,5.845,1.85,335.95,0.000000,0.000000,0.000000,0.000000
1390145034,0,0,0.0,0,0,20,0,0,0,-0.0292,95.6255,6.8213,0.4212,54.896885,9.784269,108.3,5.845,1.85,335.95,0.000000,0.000000,0.000000,0.000000
1390145034,0,0,0.0,0,0,20,0,0,0,-0.0292,95.6255,6.8213,0.4212,54.896885,9.784269,108.3,5.845,1.85,335.95,0.000000,0.000000,0.000000,0.000000
1390145034,0,0,0.0,0,0,20,0,0,0,-0.0292,95.6255,6.8213,0.4212,54.896885,9.784269,108.3,5.845,1.85,335.95,0.000000,0.000000,0.000000,0.000000
1390145035,0,0,0.0,0,0,20,0,0,0,-0.0292,95.6255,6.8213,0.4212,54.896885,9.784269,108.3,5.845,1.85,335.95,0.000000,0.000000,0.000000,0.000000
1390145035,0,0,0.0,0,0,20,0,0,0,-0.0292,95.6255,6.8213,0.4212,54.896885,9.784269,108.3,5.845,1.85,335.95,0.000000,0.000000,0.000000,0.000000
1390145035,0,0,0.0,0,0,20,0,0,0,-0.0292,95.6255,6.8213,0.4212,54.896885,9.784269,108.3,5.845,1.85,335.95,0.000000,0.000000,0.000000,0.000000
1390145035,0,0,0.0,0,0,20,0,0,0,-0.0292,95.6255,6.8213,0.4212,54.896885,9.784269,108.3,5.845,1.85,335.95,0.000000,0.000000,0.000000,0.000000
1390145036,0,0,0.0,0,0,20,0,0,0,-0.0292,95.6255,6.8213,0.4212,54.896885,9.784269,108.3,5.845,1.85,335.95,0.000000,0.000000,0.000000,0.000000
1390145036,0,0,0.0,0,0,20,0,0,0,-0.0292,95.6255,6.8213,0.4212,54.896885,9.784269,108.3,5.845,1.85,335.95,0.000000,0.000000,0.000000,0.000000
1390145036,0,0,0.0,0,0,20,0,0,0,-0.0292,95.6255,6.8213,0.4212,54.896885,9.784269,108.3,5.845,1.85,335.95,0.000000,0.000000,0.000000,0.000000
1390145036,0,0,0.0,0,0,20,0,0,0,-0.0292,95.6255,6.8213,0.4212,54.896885,9.784269,108.3,5.845,1.85,335.95,0.000000,0.000000,0.000000,0.000000
1390145037,0,0,0.0,0,0,20,0,0,0,-0.0292,95.6255,6.8213,0.4212,54.896885,9.784269,108.3,5.845,1.85,335.95,0.000000,0.000000,0.000000,0.000000
1390145037,0,0,0.0,0,0,20,0,0,0,-0.0292,95.6255,6.8213,0.4212,54.896885,9.784269,108.3,5.845,1.85,335.95,0.000000,0.000000,0.000000,0.000000
1390145037,0,0,0.0,0,0,20,0,0,0,-0.0292,95.6255,6.8213,0.4212,54.896885,9.784269,108.3,5.845,1.85,335.95,0.000000,0.000000,0.000000,0.000000
1390145037,0,0,0.0,0,0,20,0,0,0,-0.0292,95.6255,6.8213,0.4212,54.896885,9.784269,108.3,5.845,1.85,335.95,0.000000,0.000000,0.000000,0.000000
1390145038,0,0,0.0,0,0,20,0,0,0,-0.0292,95.6255,6.8213,0.4212,54.896885,9.784269,108.3,5.845,1.85,335.95,0.000000,0.000000,0.000000,0.000000
1390145038,0,0,0.0,0,0,20,0,0,0,-0.0292,95.6255,6.8213,0.4212,54.896885,9.784269,108.3,5.845,1.85,335.95,0.000000,0.000000,0.000000,0.000000
1390145038,0,0,0.0,0,0,20,0,0,0,-0.0292,95.6255,6.8213,0.4212,54.896885,9.784269,108.3,5.845,1.85,335.95,0.000000,0.000000,0.000000,0.000000
1390145038,0,0,0.0,0,0,20,0,0,0,-0.0292,95.6255,6.8213,0.4212,54.896885,9.784269,108.3,5.845,1.85,335.95,0.000000,0.000000,0.000000,0.000000
1390145039,0,0,0.0,0,0,20,0,0,0,-0.0292,95.6255,6.8213,0.4212,54.896885,9.784269,108.3,5.845,1.85,335.95,0.000000,0.000000,0.000000,0.000000
1390145039,0,0,0.0,0,0,20,0,0,0,-0.0292,95.6255,6.8213,0.4212,54.896885,9.784269,108.3,5.845,1.85,335.95,0.000000,0.000000,0.000000,0.000000
1390145039,0,0,0.0,0,0,20,0,0,0,-0.0292,95.6255,6.8213,0.4212,54.896885,9.784269,108.3,5.845,1.85,335.95,0.000000,0.000000,0.000000,0.000000
1390145039,0,0,0.0,0,0,20,0,0,0,-0.0292,95.6255,6.8213,0.4212,54.896885,9.784269,108.3,5.845,1.85,335.95,0.000000,0.000000,0.000000,0.000000
1390145040,0,0,0.0,0,0,20,0,0,0,-0.0292,95.6255,6.8213,0.4212,54.896885,9.784269,108.3,5.845,1.85,335.95,0.000000,0.000000,0.000000,0.000000
1390145040,0,0,0.0,0,0,20,0,0,0,-0.0292,95.6255,6.8213,0.4212,54.896885,9.784269,108.3,5.845,1.85,335.95,0.000000,0.000000,0.000000,0.000000
1390145040,0,0,0.0,0,0,20,0,0,0,-0.0292,95.6255,6.8213,0.4212,54.896885,9.784269,108.3,5.845,1.85,335.95,0.000000,0.000000,0.000000,0.000000
1390145040,0,0,0.0,0,0,20,0,0,0,-0.0292,95.6255,6.8213,0.4212,54.896885,9.784269,108.3,5.845,1.85,335.95,0.000000,0.000000,0.000000,0.000000
1390145041,0,0,0.0,0,0,20,0,0,0,-0.0292,95.6255,6.8213,0.4212,54.896885,9.784269,108.3,5.845,1.85,335.95,0.000000,0.000000,0.000000,0.000000
1390145041,0,0,0.0,0,0,20,0,0,0,-0.0292,95.6255,6.8213,0.4212,54.896885,9.784269,108.3,5.845,1.85,335.95,0.000000,0.000000,0.000000,0.000000
1390145041,0,0,0.0,0,0,20,0,0,0,-0.0292,95.6255,6.8213,0.4212,54.896885,9.784269,108.3,5.845,1.85,335.95,0.000000,0.000000,0.000000,0.000000
1390145041,0,0,0.0,0,0,20,0,0,0,-0.0292,95.6255,6.8213,0.4212,54.896885,9.784269,108.3,5.845,1.85,335.95,0.000000,0.000000,0.000000,0.000000
1390145042,0,0,0.0,0,0,20,0,0,0,-0.0292,95.6255,6.8213,0.4212,54.896885,9.784269,108.3,5.845,1.85,335.95,0.000000,0.000000,0.000000,0.000000
1390145042,0,0,0.0,0,0,20,0,0,0,-0.0292,95.6255,6.8213,0.4212,54.896885,9.784269,108.3,5.845,1.85,335.95,0.000000,0.000000,0.000000,0.000000
1390145042,0,0,0.0,0,0,20,0,0,0,-0.0292,95.6255,6.8213,0.4212,54.896885,9.784269,108.3,5.845,1.85,335.95,0.000000,0.000000,0.000000,0.000000
1390145042,0,0,0.0,0,0,20,0,0,0,-0.0292,95.6255,6.8213,0.4212,54.896885,9.784269,108.3,5.845,1.85,335.95,0.000000,0.000000,0.000000,0.000000
1390145043,0,0,0.0,0,0,20,0,0,0,-0.0292,95.6255,6.8213,0.4212,54.896885,9.784269,108.3,5.845,1.85,335.95,0.000000,0.000000,0.000000,0.000000
1390145043,0,0,0.0,0,0,20,0,0,0,-0.0292,95.6255,6.8213,0.4212,54.896885,9.784269,108.3,5.845,1.85,335.95,0.000000,0.000000,0.000000,0.000000
1390145043,0,0,0.0,0,0,20,0,0,0,-0.0292,95.6255,6.8213,0.4212,54.896885,9.784269,108.3,5.845,1.85,335.95,0.000000,0.000000,0.000000,0.000000
1390145043,0,0,0.0,0,0,20,0,0,0,-0.0292,95.6255,6.8213,0.4212,54.896885,9.784269,108.3,5.845,1.85,335.95,0.000000,0.000000,0.000000,0.000000
1390145044,0,0,0.0,0,0,20,0,0,0,-0.0292,95.6255,6.8213,0.4212,54.896885,9.784269,108.3,5.845,1.85,335.95,0.000000,0.000000,0.000000,0.000000
1390145044,0,0,0.0,0,0,20,0,0,0,-0.0292,95.6255,6.8213,0.4212,54.896885,9.784269,108.3,5.845,1.85,335.95,0.000000,0.000000,0.000000,0.000000
1390145044,0,0,0.0,0,0,20,0,0,0,-0.0292,95.6255,6.8213,0.4212,54.896885,9.784269,108.3,5.845,1.85,335.95,0.000000,0.000000,0.000000,0.000000
1390145044,0,0,0.0,0,0,20,0,0,0,-0.0292,95.6255,6.8213,0.4212,54.896885,9.784269,108.3,5.845,1.85,335.95,0.000000,0.000000,0.000000,0.000000
1390145045,0,0,0.0,0,0,20,0,0,0,-0.0292,95.6255,6.8213,0.4212,54.896885,9.784269,108.3,5.845,1.85,335.95,0.000000,0.000000,0.000000,0.000000
1390145045,0,0,0.0,0,0,20,0,0,0,-0.0292,95.6255,6.8213,0.4212,54.896885,9.784269,108.3,5.845,1.85,335.95,0.000000,0.000000,0.000000,0.000000
1390145045,0,0,0.0,0,0,20,0,0,0,-0.0292,95.6255,6.8213,0.4212,54.896885,9.784269,108.3,5.845,1.85,335.95,0.000000,0.000000,0.000000,0.000000
1390145045,0,0,0.0,0,0,20,0,0,0,-0.0292,95.6255,6.8213,0.4212,54.896885,9.784269,108.3,5.845,1.85,335.95,0.000000,0.000000,0.000000,0.000000
1390145046,0,0,0.0,0,0,20,0,0,0,-0.0292,95.6255,6.8213,0.4212,54.896885,9.784269,108.3,5.845,1.85,335.95,0.000000,0.000000,0.000000,0.000000
1390145046,0,0,0.0,0,0,20,0,0,0,-0.0292,95.6255,6.8213,0.4212,54.896885,9.784269,108.3,5.845,1.85,335.95,0.000000,0.000000,0.000000,0.000000
1390145046,0,0,0.0,0,0,20,0,0,0,-0.0292,95.6255,6.8213,0.4212,54.896885,9.784269,108.3,5.845,1.85,335.95,0.000000,0.000000,0.000000,0.000000
1390145046,0,0,0.0,0,0,20,0,0,0,-0.0292,95.6255,6.8213,0.4212,54.896885,9.784269,108.3,5.845,1.85,335.95,0.000000,0.000000,0.000000,0.000000
1390145047,0,0,0.0,0,0,20,0,0,0,-0.0292,95.6255,6.8213,0.4212,54.896885,9.784269,108.3,5.845,1.85,335.95,0.000000,0.000000,0.000000,0.000000
1390145047,0,0,0.0,0,0,20,0,0,0,-0.0292,95.6255,6.8213,0.4212,54.896885,9.784269,108.3,5.845,1.85,335.95,0.000000,0.000000,0.000000,0.000000
1390145047,0,0,0.0,0,0,20,0,0,0,-0.0292,95.6255,6.8213,0.4212,54.896885,9.784269,108.3,5.845,1.85,335.95,0.000000,0.000000,0.000000,0.000000
1390145047,0,0,0.0,0,0,20,0,0,0,-0.0292,95.6255,6.8213,0.4212,54.896885,9.784269,108.3,5.845,1.85,335.95,0.000000,0.000000,0.000000,0.000000
1390145048,0,0,0.0,0,0,20,0,0,0,-0.0292,95.6255,6.8213,0.4212,54.896885,9.784269,108.3,5.845,1.85,335.95,0.000000,0.000000,0.000000,0.000000
1390145048,0,0,0.0,0,0,20,0,0,0,-0.0292,95.6255,6.8213,0.4212,54.896885,9.784269,108.3,5.845,1.85,335.95,0.000000,0.000000,0.000000,0.000000
1390145048,0,0,0.0,0,0,20,0,0,0,-0.0292,95.6255,6.8213,0.4212,54.896885,9.784269,108.3,5.845,1.85,335.95,0.000000,0.000000,0.000000,0.000000
1390145048,0,0,0.0,0,0,20,0,0,0,-0.0292,95.6255,6.8213,0.4212,54.896885,9.784269,108.3,5.845,1.85,335.95,0.000000,0.000000,0.000000,0.000000
1390145049,0,0,0.0,0,0,20,0,0,0,-0.0292,95.6255,6.8213,0.4212,54.896885,9.784269,108.3,5.845,1.85,335.95,0.000000,0.000000,0.000000,0.000000
1390145049,0,0,0.0,0,0,20,0,0,0,-0.0292,95.6255,6.8213,0.4212,54.896885,9.784269,108.3,5.845,1.85,335.95,0.000000,0.000000,0.000000,0.000000
1390145049,0,0,0.0,0,0,20,0,0,0,-0.0292,95.6255,6.8213,0.4212,54.896885,9.784269,108.3,5.845,1.85,335.95,0.000000,0.000000,0.000000,0.000000
1390145049,0,0,0.0,0,0,20,0,0,0,-0.0292,95.6255,6.8213,0.4212,54.896885,9.784269,108.3,5.845,1.85,335.95,0.000000,0.000000,0.000000,0.000000
1390145050,0,0,0.0,0,0,20,0,0,0,-0.0292,95.6255,6.8213,0.4212,54.896885,9.784269,108.3,5.845,1.85,335.95,0.000000,0.000000,0.000000,0.000000
1390145050,0,0,0.0,0,0,20,0,0,0,-0.0292,95.6255,6.8213,0.4212,54.896885,9.784269,108.3,5.845,1.85,335.95,0.000000,0.000000,0.000000,0.000000
1390145050,0,0,0.0,0,0,20,0,0,0,-0.0292,95.6255,6.8213,0.4212,54.896885,9.784269,108.3,5.845,1.85,335.95,0.000000,0.000000,0.000000,0.000000
1390145050,0,0,0.0,0,0,20,0,0,0,-0.0292,95.6255,6.8213,0.4212,54.896885,9.784269,108.3,5.845,1.85,335.95,0.000000,0.000000,0.000000,0.000000
1390145051,0,0,0.0,0,0,20,0,0,0,-0.0292,95.6255,6.8213,0.4212,54.896885,9.784269,108.3,5.845,1.85,335.95,0.000000,0.000000,0.000000,0.000000
1390145051,0,0,0.0,0,0,20,0,0,0,-0.0292,95.6255,6.8213,0.4212,54.896885,9.784269,108.3,5.845,1.85,335.95,0.000000,0.000000,0.000000,0.000000
1390145051,0,0,0.0,0,0,20,0,0,0,-0.0292,95.6255,6.8213,0.4212,54.896885,9.784269,108.3,5.845,1.85,335.95,0.000000,0.000000,0.000000,0.000000
1390145051,0,0,0.0,0,0,20,0,0,0,-0.0292,95.6255,6.8213,0.4212,54.896885,9.784269,108.3,5.845,1.85,335.95,0.000000,0.000000,0.000000,0.000000
1390145052,4,0,0.0,0,0,20,0,0,0,-0.0292,95.6255,6.8213,0.4212,54.896885,9.784269,108.3,5.845,1.85,335.95,0.000000,0.000000,0.000000,0.000000
1390145052,1,0,0.0,0,-35,16,0,0,0,-0.0292,107.2922,6.8213,0.4212,54.896885,9.784269,108.3,5.845,1.85,335.95,54.895069,9.793790,54.895348,9.797490
1390145052,1,0,0.0,0,-35,12,0,0,0,-0.0292,118.9588,6.8213,0.4212,54.896885,9.784269,108.3,5.845,1.85,335.95,54.895348,9.797490,54.894039,9.801540
1390145052,1,0,0.0,0,-35,8,0,0,0,-0.0292,130.6255,6.8213,0.4212,54.896885,9.784269,108.3,5.845,1.85,335.95,54.894039,9.801540,54.893795,9.802299
1390145053,1,0,0.0,0,-35,4,0,0,0,-0.0292,142.2922,6.8213,0.4212,54.896885,9.784269,108.3,5.845,1.85,335.95,54.893795,9.802299,54.893364,9.803688
1390145053,1,0,0.0,0,-35,0,0,0,0,-0.0292,153.9588,6.8213,0.4212,54.896885,9.784269,108.3,5.845,1.85,335.95,54.893364,9.803688,54.892704,9.801139
1390145053,1,0,0.0,0,-26,-4,0,0,0,-0.0292,162.6255,6.8213,0.4212,54.896885,9.784269,108.3,5.845,1.85,335.95,54.892704,9.801139,54.891663,9.800174
1390145053,1,0,0.0,0,-17,-8,0,0,0,-0.0292,168.2922,6.8213,0.4212,54.896885,9.784269,108.3,5.845,1.85,335.95,54.891663,9.800174,54.892929,9.805077
1390145054,1,0,0.0,0,-12,-12,0,0,0,-0.0292,172.2922,6.8213,0.4212,54.896885,9.784269,108.3,5.845,1.85,335.95,54.892929,9.805077,54.892498,9.806466
1390145054,1,0,0.0,0,-8,-8,0,0,0,-0.0292,174.9588,6.8213,0.4212,54.896885,9.784269,108.3,5.845,1.85,335.95,54.892498,9.806466,54.891232,9.801563
1390145054,1,0,0.0,0,-5,-4,0,0,0,-0.0292,176.6255,6.8213,0.4212,54.896885,9.784269,108.3,5.845,1.85,335.95,54.891232,9.801563,54.890800,9.802953
1390145054,1,0,0.0,0,-3,0,0,20,12,-0.0292,177.6255,6.8213,0.4212,54.896885,9.784270,108.3,5.845,1.85,335.95,54.890800,9.802953,54.891651,9.806246
1390145055,1,0,0.0,0,-2,-4,0,20,24,-0.0292,178.2922,6.8213,0.4212,54.896881,9.784271,108.3,5.845,1.85,335.95,54.891651,9.806246,54.890560,9.805087
1390145055,1,0,0.0,0,-2,0,0,20,12,-0.0292,178.9589,6.8213,0.4212,54.896881,9.784272,108.3,5.845,1.85,335.95,54.890560,9.805087,54.890366,9.804342
1390145055,1,0,0.0,0,-1,-4,0,20,24,-0.0292,179.2922,6.8213,0.4212,54.896877,9.784272,108.3,5.845,1.85,335.95,54.890366,9.804342,54.890846,9.801930
1390145056,1,0,0.0,0,-1,0,0,20,12,-0.0292,179.6255,6.8213,0.4212,54.896873,9.784272,108.3,5.845,1.85,335.95,54.890846,9.801930,54.889477,9.798280
1390145056,1,0,0.0,0,0,4,0,20,24,-0.0292,179.6255,6.8213,0.4212,54.896870,9.784272,108.3,5.845,1.85,335.95,54.889477,9.798280,54.891819,9.794550
1390145056,1,0,0.0,0,0,0,0,20,12,-0.0292,179.6255,6.8213,0.4212,54.896866,9.784272,108.3,5.845,1.85,335.95,54.891819,9.794550,54.895348,9.797490
1390145056,1,0,0.0,0,0,4,0,20,24,-0.0292,179.6255,6.8213,0.4212,54.896858,9.784272,108.3,5.845,1.85,335.95,54.895348,9.797490,54.895069,9.793790
1390145057,1,0,0.0,0,0,0,0,20,12,-0.0292,179.6255,6.8213,0.4212,54.896858,9.784272,108.3,5.845,1.85,335.95,54.895348,9.797490,54.895069,9.793790
1390145057,3,0,0.0,0,0,4,0,20,24,-0.0292,179.6255,6.8213,0.4212,54.896854,9.784272,108.3,5.845,1.85,335.95,54.895348,9.797490,54.896858,9.784272
1390145057,3,0,0.0,0,10,8,0,20,12,-0.0292,176.2922,6.8213,0.4212,54.896854,9.784272,108.3,5.845,1.85,335.95,54.895348,9.797490,54.896858,9.784272
1390145057,3,0,0.0,0,6,4,0,20,24,-0.0292,174.2922,6.8213,0.4212,54.896851,9.784272,108.3,5.845,1.85,335.95,54.895348,9.797490,54.896858,9.784272
1390145058,3,0,0.0,0,4,8,0,20,12,-0.0292,172.9589,6.8213,0.4212,54.896847,9.784272,108.3,5.845,1.85,335.95,54.895348,9.797490,54.896858,9.784272
1390145058,3,0,0.0,0,3,4,0,20,24,-0.0292,171.9589,6.8213,0.4212,54.896843,9.784273,108.3,5.845,1.85,335.95,54.895348,9.797490,54.896858,9.784272
1390145058,3,0,0.0,0,2,0,0,20,12,-0.0292,171.2922,6.8213,0.4212,54.896839,9.784273,108.3,5.845,1.85,335.95,54.895348,9.797490,54.896858,9.784272
1390145058,3,0,0.0,0,1,4,0,20,24,-0.0292,170.9589,6.8213,0.4212,54.896835,9.784274,108.3,5.845,1.85,335.95,54.895348,9.797490,54.896858,9.784272
1390145059,3,0,0.0,0,1,0,0,20,12,-0.0292,170.6255,6.8213,0.4212,54.896835,9.784274,108.3,5.845,1.85,335.95,54.895348,9.797490,54.896858,9.784272
1390145059,3,0,0.0,0,1,4,0,20,24,-0.0292,170.2922,6.8213,0.4212,54.896832,9.784275,108.3,5.845,1.85,335.95,54.895348,9.797490,54.896858,9.784272
1390145059,3,0,0.0,0,0,0,0,20,12,-0.0292,170.2922,6.8213,0.4212,54.896832,9.784275,108.3,5.845,1.85,335.95,54.895348,9.797490,54.896858,9.784272
1390145059,3,0,0.0,0,0,4,0,20,24,-0.0292,170.2922,6.8213,0.4212,54.896828,9.784276,108.3,5.845,1.85,335.95,54.895348,9.797490,54.896858,9.784272
1390145060,3,0,0.0,0,0,0,0,40,36,-0.0292,170.2922,6.8213,0.4212,54.896820,9.784278,108.3,5.845,1.85,335.95,54.895348,9.797490,54.896858,9.784272
1390145060,3,0,0.0,0,0,4,0,40,48,-0.0292,170.2922,6.8213,0.4212,54.896812,9.784280,108.3,5.845,1.85,335.95,54.895348,9.797490,54.896858,9.784272
1390145060,3,0,0.0,0,0,0,0,40,36,-0.0292,170.2922,6.8213,0.4212,54.896809,9.784282,108.3,5.845,1.85,335.95,54.895348,9.797490,54.896858,9.784272
1390145060,3,0,0.0,0,0,4,0,40,48,-0.0292,170.2922,6.8213,0.4212,54.896801,9.784284,108.3,5.845,1.85,335.95,54.895348,9.797490,54.896858,9.784272
1390145061,3,0,0.0,0,0,0,0,40,36,-0.0292,170.2922,6.8213,0.4212,54.896793,9.784286,108.3,5.845,1.85,335.95,54.895348,9.797490,54.896858,9.784272
1390145061,3,0,0.0,0,0,4,0,40,48,-0.0292,170.2922,6.8213,0.4212,54.896782,9.784287,108.3,5.845,1.85,335.95,54.895348,9.797490,54.896858,9.784272
1390145061,3,0,0.0,0,0,0,0,40,36,-0.0292,170.2922,6.8213,0.4212,54.896778,9.784289,108.3,5.845,1.85,335.95,54.895348,9.797490,54.896858,9.784272
1390145061,3,0,0.0,0,0,4,0,40,48,-0.0292,170.2922,6.8213,0.4212,54.896770,9.784291,108.3,5.845,1.85,335.95,54.895348,9.797490,54.896858,9.784272
1390145062,3,0,0.0,0,0,0,0,40,36,-0.0292,170.2922,6.8213,0.4212,54.896763,9.784293,108.3,5.845,1.85,335.95,54.895348,9.797490,54.896858,9.784272
1390145062,3,0,0.0,0,0,4,0,40,48,-0.0292,170.2922,6.8213,0.4212,54.896755,9.784296,108.3,5.845,1.85,335.95,54.895348,9.797490,54.896858,9.784272
1390145062,3,0,0.0,0,-10,0,0,40,36,-0.0292,173.6255,6.8213,0.4212,54.896748,9.784297,108.3,5.845,1.85,335.95,54.895348,9.797490,54.896858,9.784272
1390145062,3,0,0.0,0,-6,-4,0,40,48,-0.0292,175.6255,6.8213,0.4212,54.896740,9.784298,108.3,5.845,1.85,335.95,54.895348,9.797490,54.896858,9.784272
1390145063,3,0,0.0,0,-4,0,0,40,36,-0.0292,176.9589,6.8213,0.4212,54.896736,9.784299,108.3,5.845,1.85,335.95,54.895348,9.797490,54.896858,9.784272
1390145063,3,0,0.0,0,-3,-4,0,40,48,-0.0292,177.9589,6.8213,0.4212,54.896729,9.784300,108.3,5.845,1.85,335.95,54.895348,9.797490,54.896858,9.784272
1390145063,3,0,0.0,0,-2,0,0,40,36,-0.0292,178.6255,6.8213,0.4212,54.896721,9.784300,108.3,5.845,1.85,335.95,54.895348,9.797490,54.896858,9.784272
1390145063,3,0,0.0,0,-1,-4,0,40,48,-0.0292,178.9589,6.8213,0.4212,54.896709,9.784300,108.3,5.845,1.85,335.95,54.895348,9.797490,54.896858,9.784272
1390145064,3,0,0.0,0,-1,0,0,40,36,-0.0292,179.2922,6.8213,0.4212,54.896706,9.784300,108.3,5.845,1.85,335.95,54.895348,9.797490,54.896858,9.784272
1390145064,3,0,0.0,0,-1,-4,0,40,48,-0.0292,179.6255,6.8213,0.4212,54.896698,9.784300,108.3,5.845,1.85,335.95,54.895348,9.797490,54.896858,9.784272
1390145064,3,0,0.0,0,0,0,0,40,36,-0.0292,179.6255,6.8213,0.4212,54.896690,9.784300,108.3,5.845,1.85,335.95,54.895348,9.797490,54.896858,9.784272
1390145064,3,0,0.0,0,0,4,0,40,48,-0.0292,179.6255,6.8213,0.4212,54.896683,9.784300,108.3,5.845,1.85,335.95,54.895348,9.797490,54.896858,9.784272
1390145065,3,0,0.0,0,0,0,0,60,60,-0.0292,179.6255,6.8213,0.4212,54.896675,9.784300,108.3,5.845,1.85,335.95,54.895348,9.797490,54.896858,9.784272
1390145065,3,0,0.0,0,0,4,0,60,60,-0.0292,179.6255,6.8213,0.4212,54.896664,9.784300,108.3,5.845,1.85,335.95,54.895348,9.797490,54.896858,9.784272
1390145065,3,0,0.0,0,0,0,0,60,60,-0.0292,179.6255,6.8213,0.4212,54.896656,9.784300,108.3,5.845,1.85,335.95,54.895348,9.797490,54.896858,9.784272
1390145065,3,0,0.0,0,0,4,0,60,60,-0.0292,179.6255,6.8213,0.4212,54.896645,9.784300,108.3,5.845,1.85,335.95,54.895348,9.797490,54.896858,9.784272
1390145066,3,0,0.0,0,0,0,0,60,60,-0.0292,179.6255,6.8213,0.4212,54.896633,9.784300,108.3,5.845,1.85,335.95,54.895348,9.797490,54.896858,9.784272
1390145066,3,0,0.0,0,0,4,0,60,60,-0.0292,179.6255,6.8213,0.4212,54.896626,9.784300,108.3,5.845,1.85,335.95,54.895348,9.797490,54.896858,9.784272
1390145066,3,0,0.0,0,0,0,0,60,60,-0.0292,179.6255,6.8213,0.4212,54.896614,9.784300,108.3,5.845,1.85,335.95,54.895348,9.797490,54.896858,9.784272
1390145066,3,0,0.0,0,0,4,0,60,60,-0.0292,179.6255,6.8213,0.4212,54.896606,9.784300,108.3,5.845,1.85,335.95,54.895348,9.797490,54.896858,9.784272
1390145067,3,0,0.0,0,0,0,0,60,60,-0.0292,179.6255,6.8213,0.4212,54.896595,9.784300,108.3,5.845,1.85,335.95,54.895348,9.797490,54.896858,9.784272
1390145067,3,0,0.0,0,0,4,0,60,60,-0.0292,179.6255,6.8213,0.4212,54.896584,9.784300,108.3,5.845,1.85,335.95,54.895348,9.797490,54.896858,9.784272
1390145067,3,0,0.0,0,10,8,0,60,60,-0.0292,176.2922,6.8213,0.4212,54.896576,9.784301,108.3,5.845,1.85,335.95,54.895348,9.797490,54.896858,9.784272
1390145067,3,0,0.0,0,6,4,0,60,60,-0.0292,174.2922,6.8213,0.4212,54.896564,9.784303,108.3,5.845,1.85,335.95,54.895348,9.797490,54.896858,9.784272
1390145068,3,0,0.0,0,4,8,0,60,60,-0.0292,172.9589,6.8213,0.4212,54.896557,9.784305,108.3,5.845,1.85,335.95,54.895348,9.797490,54.896858,9.784272
1390145068,3,0,0.0,0,3,4,0,60,60,-0.0292,171.9589,6.8213,0.4212,54.896545,9.784307,108.3,5.845,1.85,335.95,54.895348,9.797490,54.896858,9.784272
1390145068,3,0,0.0,0,2,0,0,60,60,-0.0292,171.2922,6.8213,0.4212,54.896534,9.784310,108.3,5.845,1.85,335.95,54.895348,9.797490,54.896858,9.784272
1390145068,3,0,0.0,0,1,4,0,60,60,-0.0292,170.9589,6.8213,0.4212,54.896526,9.784313,108.3,5.845,1.85,335.95,54.895348,9.797490,54.896858,9.784272
1390145069,3,0,0.0,0,1,0,0,60,60,-0.0292,170.6255,6.8213,0.4212,54.896515,9.784316,108.3,5.845,1.85,335.95,54.895348,9.797490,54.896858,9.784272
1390145069,3,0,0.0,0,1,4,0,60,60,-0.0292,170.2922,6.8213,0.4212,54.896507,9.784319,108.3,5.845,1.85,335.95,54.895348,9.797490,54.896858,9.784272
1390145069,3,0,0.0,0,0,0,0,60,60,-0.0292,170.2922,6.8213,0.4212,54.896496,9.784322,108.3,5.845,1.85,335.95,54.895348,9.797490,54.896858,9.784272
1390145069,3,0,0.0,0,0,4,0,60,60,-0.0292,170.2922,6.8213,0.4212,54.896484,9.784325,108.3,5.845,1.85,335.95,54.895348,9.797490,54.896858,9.784272
1390145070,3,0,0.0,0,0,0,0,80,72,-0.0292,170.2922,6.8213,0.4212,54.896473,9.784328,108.3,5.845,1.85,335.95,54.895348,9.797490,54.896858,9.784272
1390145070,3,0,0.0,0,0,4,0,80,84,-0.0292,170.2922,6.8213,0.4212,54.896458,9.784331,108.3,5.845,1.85,335.95,54.895348,9.797490,54.896858,9.784272
1390145070,3,0,0.0,0,0,0,0,80,72,-0.0292,170.2922,6.8213,0.4212,54.896446,9.784334,108.3,5.845,1.85,335.95,54.895348,9.797490,54.896858,9.784272
1390145070,3,0,0.0,0,0,4,0,80,84,-0.0292,170.2922,6.8213,0.4212,54.896431,9.784338,108.3,5.845,1.85,335.95,54.895348,9.797490,54.896858,9.784272
1390145071,3,0,0.0,0,0,0,0,80,72,-0.0292,170.2922,6.8213,0.4212,54.896420,9.784342,108.3,5.845,1.85,335.95,54.895348,9.797490,54.896858,9.784272
1390145071,3,0,0.0,0,0,4,0,80,84,-0.0292,170.2922,6.8213,0.4212,54.896408,9.784346,108.3,5.845,1.85,335.95,54.895348,9.797490,54.896858,9.784272
1390145071,3,0,0.0,0,0,0,0,80,72,-0.0292,170.2922,6.8213,0.4212,54.896397,9.784349,108.3,5.845,1.85,335.95,54.895348,9.797490,54.896858,9.784272
1390145071,3,0,0.0,0,0,4,0,80,84,-0.0292,170.2922,6.8213,0.4212,54.896385,9.784353,108.3,5.845,1.85,335.95,54.895348,9.797490,54.896858,9.784272
1390145072,3,0,0.0,0,0,0,0,80,72,-0.0292,170.2922,6.8213,0.4212,54.896374,9.784357,108.3,5.845,1.85,335.95,54.895348,9.797490,54.896858,9.784272
1390145072,3,0,0.0,0,0,4,0,80,84,-0.0292,170.2922,6.8213,0.4212,54.896358,9.784361,108.3,5.845,1.85,335.95,54.895348,9.797490,54.896858,9.784272
1390145072,3,0,0.0,0,-10,0,0,80,72,-0.0292,173.6255,6.8213,0.4212,54.896347,9.784363,108.3,5.845,1.85,335.95,54.895348,9.797490,54.896858,9.784272
1390145072,3,0,0.0,0,-6,-4,0,80,84,-0.0292,175.6255,6.8213,0.4212,54.896336,9.784364,108.3,5.845,1.85,335.95,54.895348,9.797490,54.896858,9.784272
1390145073,3,0,0.0,0,-4,0,0,80,72,-0.0292,176.9589,6.8213,0.4212,54.896324,9.784365,108.3,5.845,1.85,335.95,54.895348,9.797490,54.896858,9.784272
1390145073,3,0,0.0,0,-3,-4,0,80,84,-0.0292,177.9589,6.8213,0.4212,54.896309,9.784365,108.3,5.845,1.85,335.95,54.895348,9.797490,54.896858,9.784272
1390145073,3,0,0.0,0,-2,0,0,80,72,-0.0292,178.6255,6.8213,0.4212,54.896297,9.784365,108.3,5.845,1.85,335.95,54.895348,9.797490,54.896858,9.784272
1390145073,3,0,0.0,0,-1,-4,0,80,84,-0.0292,178.9589,6.8213,0.4212,54.896286,9.784365,108.3,5.845,1.85,335.95,54.895348,9.797490,54.896858,9.784272
1390145074,3,0,0.0,0,-1,0,0,80,72,-0.0292,179.2922,6.8213,0.4212,54.896275,9.784365,108.3,5.845,1.85,335.95,54.895348,9.797490,54.896858,9.784272
1390145074,3,0,0.0,0,-1,-4,0,80,84,-0.0292,179.6255,6.8213,0.4212,54.896259,9.784365,108.3,5.845,1.85,335.95,54.895348,9.797490,54.896858,9.784272
1390145074,3,0,0.0,0,0,0,0,80,72,-0.0292,179.6255,6.8213,0.4212,54.896248,9.784365,108.3,5.845,1.85,335.95,54.895348,9.797490,54.896858,9.784272
1390145074,3,0,0.0,0,0,4,0,80,84,-0.0292,179.6255,6.8213,0.4212,54.896236,9.784365,108.3,5.845,1.85,335.95,54.895348,9.797490,54.896858,9.784272
1390145075,3,0,0.0,0,0,0,0,100,96,-0.0292,179.6255,6.8213,0.4212,54.896221,9.784365,108.3,5.845,1.85,335.95,54.895348,9.797490,54.896858,9.784272
1390145075,3,0,0.0,0,0,4,0,100,108,-0.0292,179.6255,6.8213,0.4212,54.896206,9.784365,108.3,5.845,1.85,335.95,54.895348,9.797490,54.896858,9.784272
1390145075,3,0,0.0,0,0,0,0,100,96,-0.0292,179.6255,6.8213,0.4212,54.896191,9.784365,108.3,5.845,1.85,335.95,54.895348,9.797490,54.896858,9.784272
1390145075,3,0,0.0,0,0,4,0,100,108,-0.0292,179.6255,6.8213,0.4212,54.896175,9.784365,108.3,5.845,1.85,335.95,54.895348,9.797490,54.896858,9.784272
1390145076,3,0,0.0,0,0,0,0,100,96,-0.0292,179.6255,6.8213,0.4212,54.896164,9.784365,108.3,5.845,1.85,335.95,54.895348,9.797490,54.896858,9.784272
1390145076,3,0,0.0,0,0,4,0,100,108,-0.0292,179.6255,6.8213,0.4212,54.896149,9.784365,108.3,5.845,1.85,335.95,54.895348,9.797490,54.896858,9.784272
1390145076,3,0,0.0,0,0,0,0,100,96,-0.0292,179.6255,6.8213,0.4212,54.896137,9.784365,108.3,5.845,1.85,335.95,54.895348,9.797490,54.896858,9.784272
1390145076,3,0,0.0,0,0,4,0,100,108,-0.0292,179.6255,6.8213,0.4212,54.896122,9.784365,108.3,5.845,1.85,335.95,54.895348,9.797490,54.896858,9.784272
1390145077,3,0,0.0,0,0,0,0,100,96,-0.0292,179.6255,6.8213,0.4212,54.896111,9.784365,108.3,5.845,1.85,335.95,54.895348,9.797490,54.896858,9.784272
1390145077,3,0,0.0,0,0,4,0,100,108,-0.0292,179.6255,6.8213,0.4212,54.896095,9.784365,108.3,5.845,1.85,335.95,54.895348,9.797490,54.896858,9.784272
1390145077,3,0,0.0,0,10,8,0,100,96,-0.0292,176.2922,6.8213,0.4212,54.896084,9.784366,108.3,5.845,1.85,335.95,54.895348,9.797490,54.896858,9.784272
1390145077,3,0,0.0,0,6,4,0,100,108,-0.0292,174.2922,6.8213,0.4212,54.896069,9.784368,108.3,5.845,1.85,335.95,54.895348,9.797490,54.896858,9.784272
1390145078,3,0,0.0,0,4,8,0,100,96,-0.0292,172.9589,6.8213,0.4212,54.896057,9.784370,108.3,5.845,1.85,335.95,54.895348,9.797490,54.896858,9.784272
1390145078,3,0,0.0,0,3,4,0,100,108,-0.0292,171.9589,6.8213,0.4212,54.896042,9.784374,108.3,5.845,1.85,335.95,54.895348,9.797490,54.896858,9.784272
1390145078,3,0,0.0,0,2,0,0,100,96,-0.0292,171.2922,6.8213,0.4212,54.896027,9.784378,108.3,5.845,1.85,335.95,54.895348,9.797490,54.896858,9.784272
1390145078,3,0,0.0,0,1,4,0,100,108,-0.0292,170.9589,6.8213,0.4212,54.896015,9.784382,108.3,5.845,1.85,335.95,54.895348,9.797490,54.896858,9.784272
1390145079,3,0,0.0,0,1,0,0,100,96,-0.0292,170.6255,6.8213,0.4212,54.896000,9.784386,108.3,5.845,1.85,335.95,54.895348,9.797490,54.896858,9.784272
1390145079,3,0,0.0,0,1,4,0,100,108,-0.0292,170.2922,6.8213,0.4212,54.895988,9.784390,108.3,5.845,1.85,335.95,54.895348,9.797490,54.896858,9.784272
1390145079,3,0,0.0,0,0,0,0,100,96,-0.0292,170.2922,6.8213,0.4212,54.895973,9.784395,108.3,5.845,1.85,335.95,54.895348,9.797490,54.896858,9.784272
1390145079,3,0,0.0,0,0,4,0,100,108,-0.0292,170.2922,6.8213,0.4212,54.895958,9.784400,108.3,5.845,1.85,335.95,54.895348,9.797490,54.896858,9.784272
1390145080,3,0,0.0,0,0,0,0,120,120,-0.0292,170.2922,6.8213,0.4212,54.895939,9.784405,108.3,5.845,1.85,335.95,54.895348,9.797490,54.896858,9.784272
1390145080,3,0,0.0,0,0,4,0,120,120,-0.0292,170.2922,6.8213,0.4212,54.895924,9.784409,108.3,5.845,1.85,335.95,54.895348,9.797490,54.896858,9.784272
1390145080,3,0,0.0,0,0,0,0,120,120,-0.0292,170.2922,6.8213,0.4212,54.895908,9.784413,108.3,5.845,1.85,335.95,54.895348,9.797490,54.896858,9.784272
1390145080,3,0,0.0,0,0,4,0,120,120,-0.0292,170.2922,6.8213,0.4212,54.895889,9.784418,108.3,5.845,1.85,335.95,54.895348,9.797490,54.896858,9.784272
1390145081,3,0,0.0,0,0,0,0,120,120,-0.0292,170.2922,6.8213,0.4212,54.895874,9.784423,108.3,5.845,1.85,335.95,54.895348,9.797490,54.896858,9.784272
1390145081,3,0,0.0,0,0,4,0,120,120,-0.0292,170.2922,6.8213,0.4212,54.895859,9.784428,108.3,5.845,1.85,335.95,54.895348,9.797490,54.896858,9.784272
1390145081,3,0,0.0,0,0,0,0,120,120,-0.0292,170.2922,6.8213,0.4212,54.895840,9.784432,108.3,5.845,1.85,335.95,54.895348,9.797490,54.896858,9.784272
1390145081,3,0,0.0,0,0,4,0,120,120,-0.0292,170.2922,6.8213,0.4212,54.895824,9.784437,108.3,5.845,1.85,335.95,54.895348,9.797490,54.896858,9.784272
1390145082,3,0,0.0,0,0,0,0,120,120,-0.0292,170.2922,6.8213,0.4212,54.895809,9.784442,108.3,5.845,1.85,335.95,54.895348,9.797490,54.896858,9.784272
1390145082,3,0,0.0,0,0,4,0,120,120,-0.0292,170.2922,6.8213,0.4212,54.895790,9.784447,108.3,5.845,1.85,335.95,54.895348,9.797490,54.896858,9.784272
1390145082,3,0,0.0,0,-10,0,0,120,120,-0.0292,173.6255,6.8213,0.4212,54.895775,9.784450,108.3,5.845,1.85,335.95,54.895348,9.797490,54.896858,9.784272
1390145082,3,0,0.0,0,-6,-4,0,120,120,-0.0292,175.6255,6.8213,0.4212,54.895760,9.784451,108.3,5.845,1.85,335.95,54.895348,9.797490,54.896858,9.784272
1390145083,3,0,0.0,0,-4,0,0,120,120,-0.0292,176.9589,6.8213,0.4212,54.895741,9.784452,108.3,5.845,1.85,335.95,54.895348,9.797490,54.896858,9.784272
1390145083,3,0,0.0,0,-3,-4,0,120,120,-0.0292,177.9589,6.8213,0.4212,54.895725,9.784453,108.3,5.845,1.85,335.95,54.895348,9.797490,54.896858,9.784272
1390145083,3,0,0.0,0,-2,0,0,120,120,-0.0292,178.6255,6.8213,0.4212,54.895710,9.784453,108.3,5.845,1.85,335.95,54.895348,9.797490,54.896858,9.784272
1390145083,3,0,0.0,0,-1,-4,0,120,120,-0.0292,178.9589,6.8213,0.4212,54.895691,9.784453,108.3,5.845,1.85,335.95,54.895348,9.797490,54.896858,9.784272
1390145084,3,0,0.0,0,-1,0,0,120,120,-0.0292,179.2922,6.8213,0.4212,54.895676,9.784453,108.3,5.845,1.85,335.95,54.895348,9.797490,54.896858,9.784272
1390145084,3,0,0.0,0,-1,-4,0,120,120,-0.0292,179.6255,6.8213,0.4212,54.895660,9.784453,108.3,5.845,1.85,335.95,54.895348,9.797490,54.896858,9.784272
1390145084,3,0,0.0,0,0,0,0,120,120,-0.0292,179.6255,6.8213,0.4212,54.895641,9.784453,108.3,5.845,1.85,335.95,54.895348,9.797490,54.896858,9.784272
1390145084,3,0,0.0,0,0,4,0,120,120,-0.0292,179.6255,6.8213,0.4212,54.895626,9.784453,108.3,5.845,1.85,335.95,54.895348,9.797490,54.896858,9.784272
1390145085,3,0,0.0,0,0,0,0,140,132,-0.0292,179.6255,6.8213,0.4212,54.895611,9.784453,108.3,5.845,1.85,335.95,54.895348,9.797490,54.896858,9.784272
1390145085,3,0,0.0,0,0,4,0,140,144,-0.0292,179.6255,6.8213,0.4212,54.895592,9.784453,108.3,5.845,1.85,335.95,54.895348,9.797490,54.896858,9.784272
1390145085,3,0,0.0,0,0,0,0,140,132,-0.0292,179.6255,6.8213,0.4212,54.895573,9.784453,108.3,5.845,1.85,335.95,54.895348,9.797490,54.896858,9.784272
1390145086,3,0,0.0,0,0,4,0,140,144,-0.0292,179.6255,6.8213,0.4212,54.895554,9.784453,108.3,5.845,1.85,335.95,54.895348,9.797490,54.896858,9.784272
1390145086,3,0,0.0,0,0,0,0,140,132,-0.0292,179.6255,6.8213,0.4212,54.895538,9.784453,108.3,5.845,1.85,335.95,54.895348,9.797490,54.896858,9.784272
1390145086,3,0,0.0,0,0,4,0,140,144,-0.0292,179.6255,6.8213,0.4212,54.895519,9.784453,108.3,5.845,1.85,335.95,54.895348,9.797490,54.896858,9.784272
1390145086,3,0,0.0,0,0,0,0,140,132,-0.0292,179.6255,6.8213,0.4212,54.895500,9.784453,108.3,5.845,1.85,335.95,54.895348,9.797490,54.896858,9.784272
1390145087,3,0,0.0,0,0,4,0,140,144,-0.0292,179.6255,6.8213,0.4212,54.895485,9.784453,108.3,5.845,1.85,335.95,54.895348,9.797490,54.896858,9.784272
1390145087,3,0,0.0,0,0,0,0,140,132,-0.0292,179.6255,6.8213,0.4212,54.895470,9.784453,108.3,5.845,1.85,335.95,54.895348,9.797490,54.896858,9.784272
1390145087,3,0,0.0,0,0,4,0,140,144,-0.0292,179.6255,6.8213,0.4212,54.895451,9.784453,108.3,5.845,1.85,335.95,54.895348,9.797490,54.896858,9.784272
1390145087,3,0,0.0,0,10,8,0,140,132,-0.0292,176.2922,6.8213,0.4212,54.895435,9.784455,108.3,5.845,1.85,335.95,54.895348,9.797490,54.896858,9.784272
1390145088,3,0,0.0,0,6,4,0,140,144,-0.0292,174.2922,6.8213,0.4212,54.895420,9.784458,108.3,5.845,1.85,335.95,54.895348,9.797490,54.896858,9.784272
1390145088,3,0,0.0,0,4,8,0,140,132,-0.0292,172.9589,6.8213,0.4212,54.895401,9.784462,108.3,5.845,1.85,335.95,54.895348,9.797490,54.896858,9.784272
1390145088,3,0,0.0,0,3,4,0,140,144,-0.0292,171.9589,6.8213,0.4212,54.895386,9.784466,108.3,5.845,1.85,335.95,54.895348,9.797490,54.896858,9.784272
1390145088,3,0,0.0,0,2,0,0,140,132,-0.0292,171.2922,6.8213,0.4212,54.895370,9.784471,108.3,5.845,1.85,335.95,54.895348,9.797490,54.896858,9.784272
1390145089,3,0,0.0,0,1,4,0,140,144,-0.0292,170.9589,6.8213,0.4212,54.895351,9.784475,108.3,5.845,1.85,335.95,54.895348,9.797490,54.896858,9.784272
1390145089,3,0,0.0,0,1,0,0,140,132,-0.0292,170.6255,6.8213,0.4212,54.895336,9.784480,108.3,5.845,1.85,335.95,54.895348,9.797490,54.896858,9.784272
1390145089,3,0,0.0,0,1,4,0,140,144,-0.0292,170.2922,6.8213,0.4212,54.895321,9.784486,108.3,5.845,1.85,335.95,54.895348,9.797490,54.896858,9.784272
1390145089,3,0,0.0,0,0,0,0,140,132,-0.0292,170.2922,6.8213,0.4212,54.895302,9.784492,108.3,5.845,1.85,335.95,54.895348,9.797490,54.896858,9.784272
1390145090,3,0,0.0,0,0,4,0,140,144,-0.0292,170.2922,6.8213,0.4212,54.895287,9.784496,108.3,5.845,1.85,335.95,54.895348,9.797490,54.896858,9.784272
1390145090,3,0,0.0,0,0,0,0,160,156,-0.0292,170.2922,6.8213,0.4212,54.895271,9.784501,108.3,5.845,1.85,335.95,54.895348,9.797490,54.896858,9.784272
1390145090,3,0,0.0,0,0,4,0,160,168,-0.0292,170.2922,6.8213,0.4212,54.895252,9.784506,108.3,5.845,1.85,335.95,54.895348,9.797490,54.896858,9.784272
1390145090,3,0,0.0,0,0,0,0,160,156,-0.0292,170.2922,6.8213,0.4212,54.895233,9.784511,108.3,5.845,1.85,335.95,54.895348,9.797490,54.896858,9.784272
1390145091,3,0,0.0,0,0,4,0,160,168,-0.0292,170.2922,6.8213,0.4212,54.895218,9.784516,108.3,5.845,1.85,335.95,54.895348,9.797490,54.896858,9.784272
1390145091,3,0,0.0,0,0,0,0,160,156,-0.0292,170.2922,6.8213,0.4212,54.895199,9.784522,108.3,5.845,1.85,335.95,54.895348,9.797490,54.896858,9.784272
1390145091,3,0,0.0,0,0,4,0,160,168,-0.0292,170.2922,6.8213,0.4212,54.895180,9.784528,108.3,5.845,1.85,335.95,54.895348,9.797490,54.896858,9.784272
1390145091,3,0,0.0,0,0,0,0,160,156,-0.0292,170.2922,6.8213,0.4212,54.895161,9.784534,108.3,5.845,1.85,335.95,54.895348,9.797490,54.896858,9.784272
1390145092,3,0,0.0,0,0,4,0,160,168,-0.0292,170.2922,6.8213,0.4212,54.895145,9.784538,108.3,5.845,1.85,335.95,54.895348,9.797490,54.896858,9.784272
1390145092,3,0,0.0,0,0,0,0,160,156,-0.0292,170.2922,6.8213,0.4212,54.895126,9.784543,108.3,5.845,1.85,335.95,54.895348,9.797490,54.896858,9.784272
1390145092,3,0,0.0,0,0,4,0,160,168,-0.0292,170.2922,6.8213,0.4212,54.895107,9.784548,108.3,5.845,1.85,335.95,54.895348,9.797490,54.896858,9.784272
1390145092,3,0,0.0,0,-10,0,0,160,156,-0.0292,173.6255,6.8213,0.4212,54.895088,9.784551,108.3,5.845,1.85,335.95,54.895348,9.797490,54.896858,9.784272
1390145093,3,0,0.0,0,-6,-4,0,160,168,-0.0292,175.6255,6.8213,0.4212,54.895073,9.784553,108.3,5.845,1.85,335.95,54.895348,9.797490,54.896858,9.784272
1390145093,3,0,0.0,0,-4,0,0,160,156,-0.0292,176.9589,6.8213,0.4212,54.895054,9.784554,108.3,5.845,1.85,335.95,54.895348,9.797490,54.896858,9.784272
1390145093,3,0,0.0,0,-3,-4,0,160,168,-0.0292,177.9589,6.8213,0.4212,54.895035,9.784555,108.3,5.845,1.85,335.95,54.895348,9.797490,54.896858,9.784272
1390145093,3,0,0.0,0,-2,0,0,160,156,-0.0292,178.6255,6.8213,0.4212,54.895020,9.784556,108.3,5.845,1.85,335.95,54.895348,9.797490,54.896858,9.784272
1390145094,3,0,0.0,0,-1,-4,0,160,168,-0.0292,178.9589,6.8213,0.4212,54.895004,9.784557,108.3,5.845,1.85,335.95,54.895348,9.797490,54.896858,9.784272
1390145094,3,0,0.0,0,-1,0,0,160,156,-0.0292,179.2922,6.8213,0.4212,54.894985,9.784558,108.3,5.845,1.85,335.95,54.895348,9.797490,54.896858,9.784272
1390145094,3,0,0.0,0,-1,-4,0,160,168,-0.0292,179.6255,6.8213,0.4212,54.894966,9.784558,108.3,5.845,1.85,335.95,54.895348,9.797490,54.896858,9.784272
1390145094,3,0,0.0,0,0,0,0,160,156,-0.0292,179.6255,6.8213,0.4212,54.894951,9.784558,108.3,5.845,1.85,335.95,54.895348,9.797490,54.896858,9.784272
1390145095,3,0,0.0,0,0,4,0,160,168,-0.0292,179.6255,6.8213,0.4212,54.894932,9.784558,108.3,5.845,1.85,335.95,54.895348,9.797490,54.896858,9.784272
1390145095,3,0,0.0,0,0,0,0,180,180,-0.0292,179.6255,6.8213,0.4212,54.894913,9.784558,108.3,5.845,1.85,335.95,54.895348,9.797490,54.896858,9.784272
1390145095,3,0,0.0,0,0,4,0,180,180,-0.0292,179.6255,6.8213,0.4212,54.894894,9.784558,108.3,5.845,1.85,335.95,54.895348,9.797490,54.896858,9.784272
1390145095,3,0,0.0,0,0,0,0,180,180,-0.0292,179.6255,6.8213,0.4212,54.894878,9.784558,108.3,5.845,1.85,335.95,54.895348,9.797490,54.896858,9.784272
1390145096,3,0,0.0,0,0,4,0,180,180,-0.0292,179.6255,6.8213,0.4212,54.894859,9.784558,108.3,5.845,1.85,335.95,54.895348,9.797490,54.896858,9.784272
1390145096,3,0,0.0,0,0,0,0,180,180,-0.0292,179.6255,6.8213,0.4212,54.894840,9.784558,108.3,5.845,1.85,335.95,54.895348,9.797490,54.896858,9.784272
1390145096,3,0,0.0,0,0,4,0,180,180,-0.0292,179.6255,6.8213,0.4212,54.894825,9.784558,108.3,5.845,1.85,335.95,54.895348,9.797490,54.896858,9.784272
1390145096,3,0,0.0,0,0,0,0,180,180,-0.0292,179.6255,6.8213,0.4212,54.894806,9.784558,108.3,5.845,1.85,335.95,54.895348,9.797490,54.896858,9.784272
1390145097,3,0,0.0,0,0,4,0,180,180,-0.0292,179.6255,6.8213,0.4212,54.894787,9.784558,108.3,5.845,1.85,335.95,54.895348,9.797490,54.896858,9.784272
1390145097,3,0,0.0,0,0,0,0,180,180,-0.0292,179.6255,6.8213,0.4212,54.894768,9.784558,108.3,5.845,1.85,335.95,54.895348,9.797490,54.896858,9.784272
1390145097,3,0,0.0,0,0,4,0,180,180,-0.0292,179.6255,6.8213,0.4212,54.894753,9.784558,108.3,5.845,1.85,335.95,54.895348,9.797490,54.896858,9.784272
1390145097,3,0,0.0,0,10,8,0,180,180,-0.0292,176.2922,6.8213,0.4212,54.894733,9.784560,108.3,5.845,1.85,335.95,54.895348,9.797490,54.896858,9.784272
1390145098,3,0,0.0,0,6,4,0,180,180,-0.0292,174.2922,6.8213,0.4212,54.894714,9.784563,108.3,5.845,1.85,335.95,54.895348,9.797490,54.896858,9.784272
1390145098,3,0,0.0,0,4,8,0,180,180,-0.0292,172.9589,6.8213,0.4212,54.894695,9.784567,108.3,5.845,1.85,335.95,54.895348,9.797490,54.896858,9.784272
1390145098,3,0,0.0,0,3,4,0,180,180,-0.0292,171.9589,6.8213,0.4212,54.894680,9.784572,108.3,5.845,1.85,335.95,54.895348,9.797490,54.896858,9.784272
1390145098,3,0,0.0,0,2,0,0,180,180,-0.0292,171.2922,6.8213,0.4212,54.894661,9.784576,108.3,5.845,1.85,335.95,54.895348,9.797490,54.896858,9.784272
1390145099,3,0,0.0,0,1,4,0,180,180,-0.0292,170.9589,6.8213,0.4212,54.894642,9.784581,108.3,5.845,1.85,335.95,54.895348,9.797490,54.896858,9.784272
1390145099,3,0,0.0,0,1,0,0,180,180,-0.0292,170.6255,6.8213,0.4212,54.894627,9.784586,108.3,5.845,1.85,335.95,54.895348,9.797490,54.896858,9.784272
1390145099,3,0,0.0,0,1,4,0,180,180,-0.0292,170.2922,6.8213,0.4212,54.894608,9.784591,108.3,5.845,1.85,335.95,54.895348,9.797490,54.896858,9.784272
