MCU_timestamp,Navigation_System,Manual_Control,Guidance_Heading,Manual_Ctrl_Rudder,Rudder_Desired_Angle,Rudder_Feedback,Manual_Ctrl_Sail,Sail_Desired_Pos,Sail_Feedback,Rate,Heading,Pitch,Roll,Latitude,Longitude,COG,SOG,Wind_Speed,Wind_Angle,Point_Start_Lat,Point_Start_Lon,Point_End_Lat,Point_End_Lon
1386875723,0,0,0.0,0,0,0,0,0,0,-0.0292,545.4923,6.8213,0.4212,54.884842,9.807329,108.3,5.845,1.85,335.95,0.000000,0.000000,0.000000,0.000000
1386875723,0,0,0.0,0,0,0,0,0,0,-0.0292,545.4923,6.8213,0.4212,54.884842,9.807329,108.3,5.845,1.85,335.95,0.000000,0.000000,0.000000,0.000000
1386875723,0,0,0.0,0,0,0,0,0,0,-0.0292,545.4923,6.8213,0.4212,54.884842,9.807329,108.3,5.845,1.85,335.95,0.000000,0.000000,0.000000,0.000000
1386875723,0,0,0.0,0,0,0,0,0,0,-0.0292,545.4923,6.8213,0.4212,54.884842,9.807329,108.3,5.845,1.85,335.95,0.000000,0.000000,0.000000,0.000000
1386875724,0,0,0.0,0,0,0,0,0,0,-0.0292,545.4923,6.8213,0.4212,54.884842,9.807329,108.3,5.845,1.85,335.95,0.000000,0.000000,0.000000,0.000000
1386875724,0,0,0.0,0,0,0,0,0,0,-0.0292,545.4923,6.8213,0.4212,54.884842,9.807329,108.3,5.845,1.85,335.95,0.000000,0.000000,0.000000,0.000000
1386875724,0,0,0.0,0,0,0,0,0,0,-0.0292,545.4923,6.8213,0.4212,54.884842,9.807329,108.3,5.845,1.85,335.95,0.000000,0.000000,0.000000,0.000000
1386875724,0,0,0.0,0,0,0,0,0,0,-0.0292,545.4923,6.8213,0.4212,54.884842,9.807329,108.3,5.845,1.85,335.95,0.000000,0.000000,0.000000,0.000000
1386875725,0,0,0.0,0,0,0,0,0,0,-0.0292,545.4923,6.8213,0.4212,54.884842,9.807329,108.3,5.845,1.85,335.95,0.000000,0.000000,0.000000,0.000000
1386875725,0,0,0.0,0,0,0,0,0,0,-0.0292,545.4923,6.8213,0.4212,54.884842,9.807329,108.3,5.845,1.85,335.95,0.000000,0.000000,0.000000,0.000000
1386875725,0,0,0.0,0,0,0,0,0,0,-0.0292,545.4923,6.8213,0.4212,54.884842,9.807329,108.3,5.845,1.85,335.95,0.000000,0.000000,0.000000,0.000000
1386875725,0,0,0.0,0,0,0,0,0,0,-0.0292,545.4923,6.8213,0.4212,54.884842,9.807329,108.3,5.845,1.85,335.95,0.000000,0.000000,0.000000,0.000000
1386875726,0,0,0.0,0,0,0,0,0,0,-0.0292,545.4923,6.8213,0.4212,54.884842,9.807329,108.3,5.845,1.85,335.95,0.000000,0.000000,0.000000,0.000000
1386875726,0,0,0.0,0,0,0,0,0,0,-0.0292,545.4923,6.8213,0.4212,54.884842,9.807329,108.3,5.845,1.85,335.95,0.000000,0.000000,0.000000,0.000000
1386875726,0,0,0.0,0,0,0,0,0,0,-0.0292,545.4923,6.8213,0.4212,54.884842,9.807329,108.3,5.845,1.85,335.95,0.000000,0.000000,0.000000,0.000000
1386875726,0,0,0.0,0,0,0,0,0,0,-0.0292,545.4923,6.8213,0.4212,54.884842,9.807329,108.3,5.845,1.85,335.95,0.000000,0.000000,0.000000,0.000000
1386875727,0,0,0.0,0,0,0,0,0,0,-0.0292,545.4923,6.8213,0.4212,54.884842,9.807329,108.3,5.845,1.85,335.95,0.000000,0.000000,0.000000,0.000000
1386875727,0,0,0.0,0,0,0,0,0,0,-0.0292,545.4923,6.8213,0.4212,54.884842,9.807329,108.3,5.845,1.85,335.95,0.000000,0.000000,0.000000,0.000000
1386875727,0,0,0.0,0,0,0,0,0,0,-0.0292,545.4923,6.8213,0.4212,54.884842,9.807329,108.3,5.845,1.85,335.95,0.000000,0.000000,0.000000,0.000000
1386875727,4,0,0.0,0,0,0,0,0,0,-0.0292,545.4923,6.8213,0.4212,54.884842,9.807329,108.3,5.845,1.85,335.95,0.000000,0.000000,0.000000,0.000000
1386875728,1,0,485.9,0,35,4,0,409,425,-0.0292,536.1590,6.8213,0.4212,54.884823,9.807332,108.3,5.845,1.85,335.95,54.884842,9.807329,54.895069,9.793790
1386875728,1,0,485.9,0,35,8,0,409,400,-0.0292,526.8257,6.8213,0.4212,54.884804,9.807340,108.3,5.845,1.85,335.95,54.884842,9.807329,54.895069,9.793790
1386875728,1,0,485.9,0,35,12,0,409,425,-0.0292,517.4924,6.8213,0.4212,54.884789,9.807351,108.3,5.845,1.85,335.95,54.884842,9.807329,54.895069,9.793790
1386875728,1,0,485.9,0,32,16,0,0,400,-0.0292,508.9590,6.8213,0.4212,54.884769,9.807367,108.3,5.845,1.85,335.95,54.884842,9.807329,54.895069,9.793790
1386875729,1,0,485.9,0,23,20,0,0,375,-0.0292,502.8257,6.8213,0.4212,54.884754,9.807386,108.3,5.845,1.85,335.95,54.884842,9.807329,54.895069,9.793790
1386875729,1,0,485.9,0,17,16,0,409,400,-0.0292,498.2924,6.8213,0.4212,54.884743,9.807406,108.3,5.845,1.85,335.95,54.884842,9.807329,54.895069,9.793790
1386875729,1,0,485.9,0,12,12,0,409,425,-0.0292,495.0924,6.8213,0.4212,54.884727,9.807428,108.3,5.845,1.85,335.95,54.884842,9.807329,54.895069,9.793790
1386875729,1,0,485.9,0,9,8,0,409,400,-0.0292,492.6924,6.8213,0.4212,54.884716,9.807451,108.3,5.845,1.85,335.95,54.884842,9.807329,54.895069,9.793790
1386875730,1,0,485.9,0,7,4,0,409,425,-0.0292,490.8257,6.8213,0.4212,54.884701,9.807475,108.3,5.845,1.85,335.95,54.884842,9.807329,54.895069,9.793790
1386875730,1,0,485.9,0,5,8,0,409,400,-0.0292,489.4924,6.8213,0.4212,54.884689,9.807499,108.3,5.845,1.85,335.95,54.884842,9.807329,54.895069,9.793790
1386875730,1,0,485.9,0,4,4,0,409,425,-0.0292,488.4257,6.8213,0.4212,54.884682,9.807524,108.3,5.845,1.85,335.95,54.884842,9.807329,54.895069,9.793790
1386875730,1,0,485.9,0,2,0,0,409,400,-0.0292,487.8924,6.8213,0.4212,54.884670,9.807549,108.3,5.845,1.85,335.95,54.884842,9.807329,54.895069,9.793790
1386875731,1,0,485.9,0,2,4,0,409,425,-0.0292,487.3590,6.8213,0.4212,54.884659,9.807574,108.3,5.845,1.85,335.95,54.884842,9.807329,54.895069,9.793790
1386875731,1,0,485.9,0,1,0,0,409,400,-0.0292,487.0924,6.8213,0.4212,54.884647,9.807599,108.3,5.845,1.85,335.95,54.884842,9.807329,54.895069,9.793790
1386875731,1,0,485.9,0,1,4,0,409,425,-0.0292,486.8257,6.8213,0.4212,54.884636,9.807624,108.3,5.845,1.85,335.95,54.884842,9.807329,54.895069,9.793790
1386875731,1,0,485.9,0,1,0,0,409,400,-0.0292,486.5591,6.8213,0.4212,54.884628,9.807650,108.3,5.845,1.85,335.95,54.884842,9.807329,54.895069,9.793790
1386875732,1,0,485.9,0,1,4,0,409,425,-0.0292,486.2924,6.8213,0.4212,54.884617,9.807674,108.3,5.845,1.85,335.95,54.884842,9.807329,54.895069,9.793790
1386875732,1,0,485.9,0,0,0,0,409,400,-0.0292,486.2924,6.8213,0.4212,54.884605,9.807700,108.3,5.845,1.85,335.95,54.884842,9.807329,54.895069,9.793790
1386875732,1,0,485.9,0,0,4,0,409,425,-0.0292,486.2924,6.8213,0.4212,54.884594,9.807725,108.3,5.845,1.85,335.95,54.884842,9.807329,54.895069,9.793790
1386875732,1,0,485.9,0,0,0,0,409,400,-0.0292,486.2924,6.8213,0.4212,54.884583,9.807750,108.3,5.845,1.85,335.95,54.884842,9.807329,54.895069,9.793790
1386875733,1,0,485.9,0,0,4,0,0,375,-0.0292,486.2924,6.8213,0.4212,54.884571,9.807775,108.3,5.845,1.85,335.95,54.884842,9.807329,54.895069,9.793790
1386875733,1,0,485.9,0,0,0,0,0,350,-0.0292,486.2924,6.8213,0.4212,54.884560,9.807800,108.3,5.845,1.85,335.95,54.884842,9.807329,54.895069,9.793790
1386875733,1,0,485.9,0,0,4,0,0,325,-0.0292,486.2924,6.8213,0.4212,54.884548,9.807826,108.3,5.845,1.85,335.95,54.884842,9.807329,54.895069,9.793790
1386875733,1,0,485.9,0,0,0,0,0,300,-0.0292,486.2924,6.8213,0.4212,54.884537,9.807851,108.3,5.845,1.85,335.95,54.884842,9.807329,54.895069,9.793790
1386875734,1,0,485.9,0,0,4,0,0,275,-0.0292,486.2924,6.8213,0.4212,54.884529,9.807876,108.3,5.845,1.85,335.95,54.884842,9.807329,54.895069,9.793790
1386875734,1,0,485.9,0,0,0,0,0,250,-0.0292,486.2924,6.8213,0.4212,54.884518,9.807901,108.3,5.845,1.85,335.95,54.884842,9.807329,54.895069,9.793790
1386875734,1,0,485.9,0,0,4,0,0,225,-0.0292,486.2924,6.8213,0.4212,54.884510,9.807926,108.3,5.845,1.85,335.95,54.884842,9.807329,54.895069,9.793790
1386875734,1,0,485.9,0,0,0,0,0,200,-0.0292,486.2924,6.8213,0.4212,54.884499,9.807952,108.3,5.845,1.85,335.95,54.884842,9.807329,54.895069,9.793790
1386875735,1,0,485.9,0,0,4,0,0,175,-0.0292,486.2924,6.8213,0.4212,54.884487,9.807977,108.3,5.845,1.85,335.95,54.884842,9.807329,54.895069,9.793790
1386875735,1,0,485.9,0,0,0,0,0,150,-0.0292,486.2924,6.8213,0.4212,54.884476,9.808002,108.3,5.845,1.85,335.95,54.884842,9.807329,54.895069,9.793790
1386875735,1,0,485.9,0,0,4,0,0,125,-0.0292,486.2924,6.8213,0.4212,54.884464,9.808027,108.3,5.845,1.85,335.95,54.884842,9.807329,54.895069,9.793790
1386875735,1,0,485.9,0,0,0,0,0,100,-0.0292,486.2924,6.8213,0.4212,54.884457,9.808052,108.3,5.845,1.85,335.95,54.884842,9.807329,54.895069,9.793790
1386875736,1,0,485.9,0,0,4,0,0,75,-0.0292,486.2924,6.8213,0.4212,54.884445,9.808078,108.3,5.845,1.85,335.95,54.884842,9.807329,54.895069,9.793790
1386875736,1,0,485.9,0,0,0,0,0,50,-0.0292,486.2924,6.8213,0.4212,54.884434,9.808103,108.3,5.845,1.85,335.95,54.884842,9.807329,54.895069,9.793790
1386875736,1,0,485.9,0,0,4,0,0,25,-0.0292,486.2924,6.8213,0.4212,54.884422,9.808128,108.3,5.845,1.85,335.95,54.884842,9.807329,54.895069,9.793790
1386875736,1,0,485.9,0,0,0,0,0,0,-0.0292,486.2924,6.8213,0.4212,54.884411,9.808153,108.3,5.845,1.85,335.95,54.884842,9.807329,54.895069,9.793790
1386875737,1,0,485.9,0,0,4,0,0,25,-0.0292,486.2924,6.8213,0.4212,54.884399,9.808178,108.3,5.845,1.85,335.95,54.884842,9.807329,54.895069,9.793790
1386875737,1,0,545.9,0,-35,0,0,0,0,-0.0292,495.6257,6.8213,0.4212,54.884384,9.808200,108.3,5.845,1.85,335.95,54.884842,9.807329,54.895069,9.793790
1386875737,1,0,545.9,0,-35,-4,0,0,25,-0.0292,504.9591,6.8213,0.4212,54.884369,9.808217,108.3,5.845,1.85,335.95,54.884842,9.807329,54.895069,9.793790
1386875737,1,0,545.9,0,-35,-8,0,0,0,-0.0292,514.2924,6.8213,0.4212,54.884354,9.808230,108.3,5.845,1.85,335.95,54.884842,9.807329,54.895069,9.793790
1386875738,1,0,545.9,0,-32,-12,0,0,25,-0.0292,522.8257,6.8213,0.4212,54.884335,9.808240,108.3,5.845,1.85,335.95,54.884842,9.807329,54.895069,9.793790
1386875738,1,0,545.9,0,-23,-16,0,0,0,-0.0292,528.9591,6.8213,0.4212,54.884315,9.808246,108.3,5.845,1.85,335.95,54.884842,9.807329,54.895069,9.793790
1386875738,1,0,545.9,0,-17,-20,0,0,25,-0.0292,533.4924,6.8213,0.4212,54.884300,9.808249,108.3,5.845,1.85,335.95,54.884842,9.807329,54.895069,9.793790
1386875739,1,0,545.9,0,-12,-16,0,0,0,-0.0292,536.6924,6.8213,0.4212,54.884281,9.808250,108.3,5.845,1.85,335.95,54.884842,9.807329,54.895069,9.793790
1386875739,1,0,545.9,0,-9,-12,0,0,25,-0.0292,539.0925,6.8213,0.4212,54.884262,9.808250,108.3,5.845,1.85,335.95,54.884842,9.807329,54.895069,9.793790
1386875739,1,0,545.9,0,-7,-8,0,409,50,-0.0292,540.9591,6.8213,0.4212,54.884243,9.808249,108.3,5.845,1.85,335.95,54.884842,9.807329,54.895069,9.793790
1386875739,1,0,545.9,0,-5,-4,0,409,75,-0.0292,542.2924,6.8213,0.4212,54.884228,9.808249,108.3,5.845,1.85,335.95,54.884842,9.807329,54.895069,9.793790
1386875740,1,0,545.9,0,-4,0,0,409,100,-0.0292,543.3591,6.8213,0.4212,54.884209,9.808247,108.3,5.845,1.85,335.95,54.884842,9.807329,54.895069,9.793790
1386875740,1,0,545.9,0,-3,-4,0,409,125,-0.0292,544.1591,6.8213,0.4212,54.884190,9.808244,108.3,5.845,1.85,335.95,54.884842,9.807329,54.895069,9.793790
1386875740,1,0,545.9,0,-2,0,0,409,150,-0.0292,544.6924,6.8213,0.4212,54.884171,9.808241,108.3,5.845,1.85,335.95,54.884842,9.807329,54.895069,9.793790
1386875740,1,0,545.9,0,-1,-4,0,409,175,-0.0292,544.9590,6.8213,0.4212,54.884155,9.808238,108.3,5.845,1.85,335.95,54.884842,9.807329,54.895069,9.793790
1386875741,1,0,545.9,0,-1,0,0,409,200,-0.0292,545.2257,6.8213,0.4212,54.884136,9.808235,108.3,5.845,1.85,335.95,54.884842,9.807329,54.895069,9.793790
1386875741,1,0,545.9,0,-1,-4,0,409,225,-0.0292,545.4924,6.8213,0.4212,54.884117,9.808231,108.3,5.845,1.85,335.95,54.884842,9.807329,54.895069,9.793790
1386875741,1,0,545.9,0,0,0,0,409,250,-0.0292,545.4924,6.8213,0.4212,54.884102,9.808228,108.3,5.845,1.85,335.95,54.884842,9.807329,54.895069,9.793790
1386875741,1,0,545.9,0,0,4,0,409,275,-0.0292,545.4924,6.8213,0.4212,54.884083,9.808226,108.3,5.845,1.85,335.95,54.884842,9.807329,54.895069,9.793790
1386875742,1,0,545.9,0,0,0,0,409,300,-0.0292,545.4924,6.8213,0.4212,54.884064,9.808223,108.3,5.845,1.85,335.95,54.884842,9.807329,54.895069,9.793790
1386875742,1,0,545.9,0,0,4,0,409,325,-0.0292,545.4924,6.8213,0.4212,54.884045,9.808220,108.3,5.845,1.85,335.95,54.884842,9.807329,54.895069,9.793790
1386875742,1,0,280.9,0,-35,0,0,409,350,-0.0292,554.8257,6.8213,0.4212,54.884029,9.808212,108.3,5.845,1.85,335.95,54.884842,9.807329,54.895069,9.793790
1386875742,1,0,280.9,0,-35,-4,0,409,375,-0.0292,564.1590,6.8213,0.4212,54.884010,9.808200,108.3,5.845,1.85,335.95,54.884842,9.807329,54.895069,9.793790
1386875743,1,0,280.9,0,-35,-8,0,500,400,-0.0292,573.4923,6.8213,0.4212,54.883995,9.808183,108.3,5.845,1.85,335.95,54.884842,9.807329,54.895069,9.793790
1386875743,1,0,280.9,0,-35,-12,0,500,425,-0.0292,582.8256,6.8213,0.4212,54.883984,9.808162,108.3,5.845,1.85,335.95,54.884842,9.807329,54.895069,9.793790
1386875743,1,0,280.9,0,-35,-16,0,436,450,-0.0292,592.1589,6.8213,0.4212,54.883972,9.808137,108.3,5.845,1.85,335.95,54.884842,9.807329,54.895069,9.793790
1386875743,1,0,280.9,0,-35,-20,0,355,425,-0.0292,601.4922,6.8213,0.4212,54.883965,9.808109,108.3,5.845,1.85,335.95,54.884842,9.807329,54.895069,9.793790
1386875744,1,0,280.9,0,-35,-24,0,270,400,-0.0292,610.8256,6.8213,0.4212,54.883957,9.808080,108.3,5.845,1.85,335.95,54.884842,9.807329,54.895069,9.793790
1386875744,1,0,280.9,0,-30,-28,0,184,375,-0.0292,618.8256,6.8213,0.4212,54.883953,9.808049,108.3,5.845,1.85,335.95,54.884842,9.807329,54.895069,9.793790
1386875744,1,0,280.9,0,-22,-24,0,114,350,-0.0292,624.6922,6.8213,0.4212,54.883949,9.808019,108.3,5.845,1.85,335.95,54.884842,9.807329,54.895069,9.793790
1386875744,1,0,280.9,0,-16,-20,0,68,325,-0.0292,628.9589,6.8213,0.4212,54.883949,9.807988,108.3,5.845,1.85,335.95,54.884842,9.807329,54.895069,9.793790
1386875745,1,0,280.9,0,-12,-16,0,39,300,-0.0292,632.1589,6.8213,0.4212,54.883953,9.807957,108.3,5.845,1.85,335.95,54.884842,9.807329,54.895069,9.793790
1386875745,1,0,280.9,0,-9,-12,0,22,275,-0.0292,634.5589,6.8213,0.4212,54.883953,9.807925,108.3,5.845,1.85,335.95,54.884842,9.807329,54.895069,9.793790
1386875745,1,0,280.9,0,-6,-8,0,12,250,-0.0292,636.1589,6.8213,0.4212,54.883953,9.807895,108.3,5.845,1.85,335.95,54.884842,9.807329,54.895069,9.793790
1386875745,1,0,280.9,0,-5,-4,0,6,225,-0.0292,637.4922,6.8213,0.4212,54.883953,9.807863,108.3,5.845,1.85,335.95,54.884842,9.807329,54.895069,9.793790
1386875746,1,0,280.9,0,-3,0,0,3,200,-0.0292,638.2922,6.8213,0.4212,54.883953,9.807832,108.3,5.845,1.85,335.95,54.884842,9.807329,54.895069,9.793790
1386875746,1,0,280.9,0,-3,-4,0,2,175,-0.0292,639.0922,6.8213,0.4212,54.883953,9.807801,108.3,5.845,1.85,335.95,54.884842,9.807329,54.895069,9.793790
1386875746,1,0,280.9,0,-2,0,0,1,150,-0.0292,639.6255,6.8213,0.4212,54.883953,9.807771,108.3,5.845,1.85,335.95,54.884842,9.807329,54.895069,9.793790
1386875746,1,0,280.9,0,-1,-4,0,0,125,-0.0292,639.8922,6.8213,0.4212,54.883953,9.807739,108.3,5.845,1.85,335.95,54.884842,9.807329,54.895069,9.793790
1386875747,1,0,280.9,0,-1,0,0,0,100,-0.0292,640.1588,6.8213,0.4212,54.883953,9.807709,108.3,5.845,1.85,335.95,54.884842,9.807329,54.895069,9.793790
1386875747,1,0,280.9,0,-1,-4,0,0,75,-0.0292,640.4255,6.8213,0.4212,54.883953,9.807678,108.3,5.845,1.85,335.95,54.884842,9.807329,54.895069,9.793790
1386875747,1,0,280.9,0,-1,0,0,0,50,-0.0292,640.6921,6.8213,0.4212,54.883953,9.807647,108.3,5.845,1.85,335.95,54.884842,9.807329,54.895069,9.793790
1386875747,1,0,280.9,0,0,4,0,0,25,-0.0292,640.6921,6.8213,0.4212,54.883953,9.807616,108.3,5.845,1.85,335.95,54.884842,9.807329,54.895069,9.793790
1386875748,1,0,280.9,0,0,0,0,0,0,-0.0292,640.6921,6.8213,0.4212,54.883953,9.807586,108.3,5.845,1.85,335.95,54.884842,9.807329,54.895069,9.793790
1386875748,1,0,280.9,0,0,4,0,0,25,-0.0292,640.6921,6.8213,0.4212,54.883953,9.807555,108.3,5.845,1.85,335.95,54.884842,9.807329,54.895069,9.793790
1386875748,1,0,280.9,0,0,0,0,0,0,-0.0292,640.6921,6.8213,0.4212,54.883953,9.807524,108.3,5.845,1.85,335.95,54.884842,9.807329,54.895069,9.793790
1386875748,1,0,545.9,0,35,4,0,0,25,-0.0292,631.3588,6.8213,0.4212,54.883953,9.807492,108.3,5.845,1.85,335.95,54.884842,9.807329,54.895069,9.793790
1386875749,1,0,545.9,0,35,8,0,26,50,-0.0292,622.0255,6.8213,0.4212,54.883949,9.807462,108.3,5.845,1.85,335.95,54.884842,9.807329,54.895069,9.793790
1386875749,1,0,545.9,0,35,12,0,88,75,-0.0292,612.6922,6.8213,0.4212,54.883945,9.807432,108.3,5.845,1.85,335.95,54.884842,9.807329,54.895069,9.793790
1386875749,1,0,545.9,0,35,16,0,168,100,-0.0292,603.3589,6.8213,0.4212,54.883938,9.807405,108.3,5.845,1.85,335.95,54.884842,9.807329,54.895069,9.793790
1386875749,1,0,545.9,0,35,20,0,253,125,-0.0292,594.0256,6.8213,0.4212,54.883926,9.807380,108.3,5.845,1.85,335.95,54.884842,9.807329,54.895069,9.793790
1386875750,1,0,545.9,0,35,24,0,338,150,-0.0292,584.6923,6.8213,0.4212,54.883915,9.807358,108.3,5.845,1.85,335.95,54.884842,9.807329,54.895069,9.793790
1386875750,1,0,545.9,0,35,28,0,420,175,-0.0292,575.3589,6.8213,0.4212,54.883900,9.807340,108.3,5.845,1.85,335.95,54.884842,9.807329,54.895069,9.793790
1386875750,1,0,545.9,0,29,32,0,498,200,-0.0292,567.6256,6.8213,0.4212,54.883884,9.807324,108.3,5.845,1.85,335.95,54.884842,9.807329,54.895069,9.793790
1386875750,1,0,545.9,0,22,28,0,500,225,-0.0292,561.7590,6.8213,0.4212,54.883865,9.807313,108.3,5.845,1.85,335.95,54.884842,9.807329,54.895069,9.793790
1386875751,1,0,545.9,0,16,24,0,500,250,-0.0292,557.4923,6.8213,0.4212,54.883846,9.807303,108.3,5.845,1.85,335.95,54.884842,9.807329,54.895069,9.793790
1386875751,1,0,545.9,0,12,20,0,409,275,-0.0292,554.2923,6.8213,0.4212,54.883831,9.807296,108.3,5.845,1.85,335.95,54.884842,9.807329,54.895069,9.793790
1386875751,1,0,545.9,0,8,16,0,409,300,-0.0292,552.1589,6.8213,0.4212,54.883812,9.807289,108.3,5.845,1.85,335.95,54.884842,9.807329,54.895069,9.793790
1386875751,1,0,545.9,0,6,12,0,0,275,-0.0292,550.5590,6.8213,0.4212,54.883793,9.807283,108.3,5.845,1.85,335.95,54.884842,9.807329,54.895069,9.793790
1386875752,1,0,545.9,0,5,8,0,0,250,-0.0292,549.2256,6.8213,0.4212,54.883774,9.807279,108.3,5.845,1.85,335.95,54.884842,9.807329,54.895069,9.793790
1386875752,1,0,545.9,0,3,4,0,0,225,-0.0292,548.4257,6.8213,0.4212,54.883759,9.807274,108.3,5.845,1.85,335.95,54.884842,9.807329,54.895069,9.793790
1386875752,1,0,545.9,0,2,0,0,0,200,-0.0292,547.8923,6.8213,0.4212,54.883739,9.807270,108.3,5.845,1.85,335.95,54.884842,9.807329,54.895069,9.793790
1386875752,1,0,545.9,0,2,4,0,0,175,-0.0292,547.3590,6.8213,0.4212,54.883720,9.807266,108.3,5.845,1.85,335.95,54.884842,9.807329,54.895069,9.793790
1386875753,1,0,545.9,0,1,0,0,0,150,-0.0292,547.0923,6.8213,0.4212,54.883701,9.807262,108.3,5.845,1.85,335.95,54.884842,9.807329,54.895069,9.793790
1386875753,1,0,545.9,0,1,4,0,0,125,-0.0292,546.8257,6.8213,0.4212,54.883686,9.807259,108.3,5.845,1.85,335.95,54.884842,9.807329,54.895069,9.793790
1386875753,1,0,545.9,0,1,0,0,0,100,-0.0292,546.5590,6.8213,0.4212,54.883667,9.807255,108.3,5.845,1.85,335.95,54.884842,9.807329,54.895069,9.793790
1386875753,1,0,545.9,0,1,4,0,0,75,-0.0292,546.2924,6.8213,0.4212,54.883648,9.807251,108.3,5.845,1.85,335.95,54.884842,9.807329,54.895069,9.793790
1386875754,1,0,545.9,0,0,0,0,0,50,-0.0292,546.2924,6.8213,0.4212,54.883629,9.807247,108.3,5.845,1.85,335.95,54.884842,9.807329,54.895069,9.793790
1386875754,1,0,545.9,0,0,4,0,0,25,-0.0292,546.2924,6.8213,0.4212,54.883614,9.807244,108.3,5.845,1.85,335.95,54.884842,9.807329,54.895069,9.793790
1386875754,1,0,545.9,0,0,0,0,0,0,-0.0292,546.2924,6.8213,0.4212,54.883595,9.807241,108.3,5.845,1.85,335.95,54.884842,9.807329,54.895069,9.793790
1386875754,1,0,545.9,0,0,4,0,0,25,-0.0292,546.2924,6.8213,0.4212,54.883575,9.807239,108.3,5.845,1.85,335.95,54.884842,9.807329,54.895069,9.793790
1386875755,1,0,485.9,0,35,8,0,0,0,-0.0292,536.9590,6.8213,0.4212,54.883556,9.807240,108.3,5.845,1.85,335.95,54.884842,9.807329,54.895069,9.793790
1386875755,1,0,485.9,0,35,12,0,0,25,-0.0292,527.6257,6.8213,0.4212,54.883541,9.807247,108.3,5.845,1.85,335.95,54.884842,9.807329,54.895069,9.793790
1386875755,1,0,485.9,0,35,16,0,0,0,-0.0292,518.2924,6.8213,0.4212,54.883522,9.807260,108.3,5.845,1.85,335.95,54.884842,9.807329,54.895069,9.793790
1386875755,1,0,485.9,0,32,20,0,0,25,-0.0292,509.7591,6.8213,0.4212,54.883507,9.807275,108.3,5.845,1.85,335.95,54.884842,9.807329,54.895069,9.793790
1386875756,1,0,485.9,0,24,24,0,0,0,-0.0292,503.3591,6.8213,0.4212,54.883495,9.807294,108.3,5.845,1.85,335.95,54.884842,9.807329,54.895069,9.793790
1386875756,1,0,485.9,0,17,20,0,0,25,-0.0292,498.8258,6.8213,0.4212,54.883480,9.807314,108.3,5.845,1.85,335.95,54.884842,9.807329,54.895069,9.793790
1386875756,1,0,485.9,0,13,16,0,0,0,-0.0292,495.3591,6.8213,0.4212,54.883469,9.807336,108.3,5.845,1.85,335.95,54.884842,9.807329,54.895069,9.793790
1386875756,1,0,485.9,0,9,12,0,0,25,-0.0292,492.9591,6.8213,0.4212,54.883457,9.807358,108.3,5.845,1.85,335.95,54.884842,9.807329,54.895069,9.793790
1386875757,1,0,485.9,0,7,8,0,409,50,-0.0292,491.0924,6.8213,0.4212,54.883446,9.807382,108.3,5.845,1.85,335.95,54.884842,9.807329,54.895069,9.793790
1386875757,1,0,485.9,0,5,4,0,409,75,-0.0292,489.7591,6.8213,0.4212,54.883434,9.807405,108.3,5.845,1.85,335.95,54.884842,9.807329,54.895069,9.793790
1386875757,1,0,485.9,0,4,8,0,409,100,-0.0292,488.6924,6.8213,0.4212,54.883427,9.807430,108.3,5.845,1.85,335.95,54.884842,9.807329,54.895069,9.793790
1386875757,1,0,485.9,0,3,4,0,409,125,-0.0292,487.8924,6.8213,0.4212,54.883415,9.807455,108.3,5.845,1.85,335.95,54.884842,9.807329,54.895069,9.793790
1386875758,1,0,485.9,0,2,0,0,409,150,-0.0292,487.3591,6.8213,0.4212,54.883404,9.807480,108.3,5.845,1.85,335.95,54.884842,9.807329,54.895069,9.793790
1386875758,1,0,485.9,0,1,4,0,409,175,-0.0292,487.0924,6.8213,0.4212,54.883392,9.807505,108.3,5.845,1.85,335.95,54.884842,9.807329,54.895069,9.793790
1386875758,1,0,485.9,0,1,0,0,409,200,-0.0292,486.8258,6.8213,0.4212,54.883381,9.807530,108.3,5.845,1.85,335.95,54.884842,9.807329,54.895069,9.793790
1386875758,1,0,485.9,0,1,4,0,409,225,-0.0292,486.5591,6.8213,0.4212,54.883369,9.807555,108.3,5.845,1.85,335.95,54.884842,9.807329,54.895069,9.793790
1386875759,1,0,485.9,0,1,0,0,409,250,-0.0292,486.2924,6.8213,0.4212,54.883358,9.807580,108.3,5.845,1.85,335.95,54.884842,9.807329,54.895069,9.793790
1386875759,1,0,485.9,0,0,4,0,409,275,-0.0292,486.2924,6.8213,0.4212,54.883350,9.807606,108.3,5.845,1.85,335.95,54.884842,9.807329,54.895069,9.793790
1386875759,1,0,485.9,0,0,0,0,409,300,-0.0292,486.2924,6.8213,0.4212,54.883339,9.807631,108.3,5.845,1.85,335.95,54.884842,9.807329,54.895069,9.793790
1386875759,1,0,485.9,0,0,4,0,409,325,-0.0292,486.2924,6.8213,0.4212,54.883327,9.807656,108.3,5.845,1.85,335.95,54.884842,9.807329,54.895069,9.793790
1386875760,1,0,390.9,0,35,8,0,409,350,-0.0292,476.9591,6.8213,0.4212,54.883320,9.807684,108.3,5.845,1.85,335.95,54.884842,9.807329,54.895069,9.793790
1386875760,1,0,390.9,0,35,12,0,409,375,-0.0292,467.6258,6.8213,0.4212,54.883312,9.807714,108.3,5.845,1.85,335.95,54.884842,9.807329,54.895069,9.793790
1386875760,1,0,390.9,0,35,16,0,500,400,-0.0292,458.2924,6.8213,0.4212,54.883312,9.807745,108.3,5.845,1.85,335.95,54.884842,9.807329,54.895069,9.793790
1386875760,1,0,390.9,0,35,20,0,500,425,-0.0292,448.9591,6.8213,0.4212,54.883316,9.807776,108.3,5.845,1.85,335.95,54.884842,9.807329,54.895069,9.793790
1386875761,1,0,390.9,0,35,24,0,435,450,-0.0292,439.6257,6.8213,0.4212,54.883316,9.807807,108.3,5.845,1.85,335.95,54.884842,9.807329,54.895069,9.793790
1386875761,1,0,390.9,0,35,28,0,354,425,-0.0292,430.2924,6.8213,0.4212,54.883320,9.807836,108.3,5.845,1.85,335.95,54.884842,9.807329,54.895069,9.793790
1386875761,1,0,390.9,0,35,32,0,269,400,-0.0292,420.9590,6.8213,0.4212,54.883327,9.807863,108.3,5.845,1.85,335.95,54.884842,9.807329,54.895069,9.793790
1386875761,1,0,390.9,0,30,28,0,183,375,-0.0292,412.9590,6.8213,0.4212,54.883339,9.807888,108.3,5.845,1.85,335.95,54.884842,9.807329,54.895069,9.793790
1386875762,1,0,390.9,0,22,24,0,113,350,-0.0292,407.0924,6.8213,0.4212,54.883350,9.807911,108.3,5.845,1.85,335.95,54.884842,9.807329,54.895069,9.793790
1386875762,1,0,390.9,0,16,20,0,67,325,-0.0292,402.8257,6.8213,0.4212,54.883366,9.807932,108.3,5.845,1.85,335.95,54.884842,9.807329,54.895069,9.793790
1386875762,1,0,390.9,0,12,16,0,39,300,-0.0292,399.6257,6.8213,0.4212,54.883377,9.807952,108.3,5.845,1.85,335.95,54.884842,9.807329,54.895069,9.793790
1386875762,1,0,390.9,0,9,12,0,21,275,-0.0292,397.2257,6.8213,0.4212,54.883392,9.807971,108.3,5.845,1.85,335.95,54.884842,9.807329,54.895069,9.793790
1386875763,1,0,390.9,0,6,8,0,11,250,-0.0292,395.6257,6.8213,0.4212,54.883408,9.807989,108.3,5.845,1.85,335.95,54.884842,9.807329,54.895069,9.793790
1386875763,1,0,390.9,0,5,4,0,6,225,-0.0292,394.2924,6.8213,0.4212,54.883423,9.808006,108.3,5.845,1.85,335.95,54.884842,9.807329,54.895069,9.793790
1386875763,1,0,390.9,0,3,0,0,3,200,-0.0292,393.4924,6.8213,0.4212,54.883438,9.808023,108.3,5.845,1.85,335.95,54.884842,9.807329,54.895069,9.793790
1386875763,1,0,390.9,0,3,4,0,1,175,-0.0292,392.6924,6.8213,0.4212,54.883453,9.808040,108.3,5.845,1.85,335.95,54.884842,9.807329,54.895069,9.793790
1386875764,1,0,390.9,0,2,0,0,0,150,-0.0292,392.1591,6.8213,0.4212,54.883469,9.808056,108.3,5.845,1.85,335.95,54.884842,9.807329,54.895069,9.793790
1386875764,1,0,390.9,0,1,4,0,0,125,-0.0292,391.8924,6.8213,0.4212,54.883484,9.808073,108.3,5.845,1.85,335.95,54.884842,9.807329,54.895069,9.793790
1386875764,1,0,390.9,0,1,0,0,0,100,-0.0292,391.6257,6.8213,0.4212,54.883503,9.808089,108.3,5.845,1.85,335.95,54.884842,9.807329,54.895069,9.793790
1386875764,1,0,390.9,0,1,4,0,0,75,-0.0292,391.3591,6.8213,0.4212,54.883518,9.808105,108.3,5.845,1.85,335.95,54.884842,9.807329,54.895069,9.793790
1386875765,1,0,390.9,0,0,0,0,0,50,-0.0292,391.3591,6.8213,0.4212,54.883533,9.808123,108.3,5.845,1.85,335.95,54.884842,9.807329,54.895069,9.793790
1386875765,1,0,390.9,0,0,4,0,0,25,-0.0292,391.3591,6.8213,0.4212,54.883553,9.808139,108.3,5.845,1.85,335.95,54.884842,9.807329,54.895069,9.793790
1386875765,1,0,390.9,0,0,0,0,0,0,-0.0292,391.3591,6.8213,0.4212,54.883568,9.808155,108.3,5.845,1.85,335.95,54.884842,9.807329,54.895069,9.793790
1386875765,1,0,390.9,0,0,4,0,0,25,-0.0292,391.3591,6.8213,0.4212,54.883583,9.808171,108.3,5.845,1.85,335.95,54.884842,9.807329,54.895069,9.793790
1386875766,1,0,390.9,0,0,0,0,0,0,-0.0292,391.3591,6.8213,0.4212,54.883602,9.808187,108.3,5.845,1.85,335.95,54.884842,9.807329,54.895069,9.793790
1386875766,1,0,390.9,0,0,4,0,0,25,-0.0292,391.3591,6.8213,0.4212,54.883617,9.808204,108.3,5.845,1.85,335.95,54.884842,9.807329,54.895069,9.793790
1386875766,1,0,390.9,0,0,0,0,0,0,-0.0292,391.3591,6.8213,0.4212,54.883633,9.808220,108.3,5.845,1.85,335.95,54.884842,9.807329,54.895069,9.793790
1386875767,1,0,390.9,0,0,4,0,0,25,-0.0292,391.3591,6.8213,0.4212,54.883644,9.808236,108.3,5.845,1.85,335.95,54.884842,9.807329,54.895069,9.793790
1386875767,1,0,390.9,0,0,0,0,0,0,-0.0292,391.3591,6.8213,0.4212,54.883659,9.808252,108.3,5.845,1.85,335.95,54.884842,9.807329,54.895069,9.793790
1386875767,1,0,390.9,0,0,4,0,0,25,-0.0292,391.3591,6.8213,0.4212,54.883675,9.808269,108.3,5.845,1.85,335.95,54.884842,9.807329,54.895069,9.793790
1386875767,1,0,390.9,0,0,0,0,0,0,-0.0292,391.3591,6.8213,0.4212,54.883690,9.808285,108.3,5.845,1.85,335.95,54.884842,9.807329,54.895069,9.793790
1386875768,1,0,390.9,0,0,4,0,0,25,-0.0292,391.3591,6.8213,0.4212,54.883705,9.808301,108.3,5.845,1.85,335.95,54.884842,9.807329,54.895069,9.793790
1386875768,1,0,390.9,0,0,0,0,0,0,-0.0292,391.3591,6.8213,0.4212,54.883724,9.808317,108.3,5.845,1.85,335.95,54.884842,9.807329,54.895069,9.793790
1386875768,1,0,390.9,0,0,4,0,0,25,-0.0292,391.3591,6.8213,0.4212,54.883739,9.808333,108.3,5.845,1.85,335.95,54.884842,9.807329,54.895069,9.793790
1386875768,1,0,390.9,0,0,0,0,0,0,-0.0292,391.3591,6.8213,0.4212,54.883755,9.808350,108.3,5.845,1.85,335.95,54.884842,9.807329,54.895069,9.793790
1386875769,1,0,390.9,0,0,4,0,0,25,-0.0292,391.3591,6.8213,0.4212,54.883774,9.808366,108.3,5.845,1.85,335.95,54.884842,9.807329,54.895069,9.793790
1386875769,1,0,390.9,0,0,0,0,0,0,-0.0292,391.3591,6.8213,0.4212,54.883789,9.808382,108.3,5.845,1.85,335.95,54.884842,9.807329,54.895069,9.793790
1386875769,1,0,390.9,0,0,4,0,0,25,-0.0292,391.3591,6.8213,0.4212,54.883804,9.808398,108.3,5.845,1.85,335.95,54.884842,9.807329,54.895069,9.793790
1386875769,1,0,390.9,0,0,0,0,0,0,-0.0292,391.3591,6.8213,0.4212,54.883823,9.808414,108.3,5.845,1.85,335.95,54.884842,9.807329,54.895069,9.793790
1386875770,1,0,390.9,0,0,4,0,0,25,-0.0292,391.3591,6.8213,0.4212,54.883839,9.808431,108.3,5.845,1.85,335.95,54.884842,9.807329,54.895069,9.793790
1386875770,1,0,390.9,0,0,0,0,0,0,-0.0292,391.3591,6.8213,0.4212,54.883854,9.808447,108.3,5.845,1.85,335.95,54.884842,9.807329,54.895069,9.793790
1386875770,1,0,390.9,0,0,4,0,0,25,-0.0292,391.3591,6.8213,0.4212,54.883865,9.808463,108.3,5.845,1.85,335.95,54.884842,9.807329,54.895069,9.793790
1386875770,1,0,390.9,0,0,0,0,0,0,-0.0292,391.3591,6.8213,0.4212,54.883881,9.808479,108.3,5.845,1.85,335.95,54.884842,9.807329,54.895069,9.793790
1386875771,1,0,390.9,0,0,4,0,0,25,-0.0292,391.3591,6.8213,0.4212,54.883896,9.808496,108.3,5.845,1.85,335.95,54.884842,9.807329,54.895069,9.793790
1386875771,1,0,390.9,0,0,0,0,0,0,-0.0292,391.3591,6.8213,0.4212,54.883911,9.808512,108.3,5.845,1.85,335.95,54.884842,9.807329,54.895069,9.793790
1386875771,1,0,390.9,0,0,4,0,0,25,-0.0292,391.3591,6.8213,0.4212,54.883926,9.808528,108.3,5.845,1.85,335.95,54.884842,9.807329,54.895069,9.793790
1386875771,1,0,390.9,0,0,0,0,0,0,-0.0292,391.3591,6.8213,0.4212,54.883945,9.808544,108.3,5.845,1.85,335.95,54.884842,9.807329,54.895069,9.793790
1386875772,1,0,390.9,0,0,4,0,0,25,-0.0292,391.3591,6.8213,0.4212,54.883961,9.808560,108.3,5.845,1.85,335.95,54.884842,9.807329,54.895069,9.793790
1386875772,1,0,390.9,0,0,0,0,0,0,-0.0292,391.3591,6.8213,0.4212,54.883976,9.808577,108.3,5.845,1.85,335.95,54.884842,9.807329,54.895069,9.793790
1386875772,1,0,390.9,0,0,4,0,0,25,-0.0292,391.3591,6.8213,0.4212,54.883995,9.808594,108.3,5.845,1.85,335.95,54.884842,9.807329,54.895069,9.793790
1386875772,1,0,390.9,0,0,0,0,0,0,-0.0292,391.3591,6.8213,0.4212,54.884010,9.808610,108.3,5.845,1.85,335.95,54.884842,9.807329,54.895069,9.793790
1386875773,1,0,390.9,0,0,4,0,0,25,-0.0292,391.3591,6.8213,0.4212,54.884026,9.808626,108.3,5.845,1.85,335.95,54.884842,9.807329,54.895069,9.793790
1386875773,1,0,390.9,0,0,0,0,0,0,-0.0292,391.3591,6.8213,0.4212,54.884045,9.808642,108.3,5.845,1.85,335.95,54.884842,9.807329,54.895069,9.793790
1386875773,1,0,390.9,0,0,4,0,0,25,-0.0292,391.3591,6.8213,0.4212,54.884060,9.808659,108.3,5.845,1.85,335.95,54.884842,9.807329,54.895069,9.793790
1386875773,1,0,390.9,0,0,0,0,0,0,-0.0292,391.3591,6.8213,0.4212,54.884075,9.808675,108.3,5.845,1.85,335.95,54.884842,9.807329,54.895069,9.793790
1386875774,1,0,390.9,0,0,4,0,0,25,-0.0292,391.3591,6.8213,0.4212,54.884094,9.808691,108.3,5.845,1.85,335.95,54.884842,9.807329,54.895069,9.793790
1386875774,1,0,390.9,0,0,0,0,0,0,-0.0292,391.3591,6.8213,0.4212,54.884109,9.808707,108.3,5.845,1.85,335.95,54.884842,9.807329,54.895069,9.793790
1386875774,1,0,390.9,0,0,4,0,0,25,-0.0292,391.3591,6.8213,0.4212,54.884125,9.808723,108.3,5.845,1.85,335.95,54.884842,9.807329,54.895069,9.793790
1386875774,1,0,390.9,0,0,0,0,0,0,-0.0292,391.3591,6.8213,0.4212,54.884136,9.808740,108.3,5.845,1.85,335.95,54.884842,9.807329,54.895069,9.793790
1386875775,1,0,390.9,0,0,4,0,0,25,-0.0292,391.3591,6.8213,0.4212,54.884151,9.808756,108.3,5.845,1.85,335.95,54.884842,9.807329,54.895069,9.793790
1386875775,1,0,390.9,0,0,0,0,0,0,-0.0292,391.3591,6.8213,0.4212,54.884167,9.808772,108.3,5.845,1.85,335.95,54.884842,9.807329,54.895069,9.793790
1386875775,1,0,390.9,0,0,4,0,0,25,-0.0292,391.3591,6.8213,0.4212,54.884182,9.808788,108.3,5.845,1.85,335.95,54.884842,9.807329,54.895069,9.793790
1386875775,1,0,390.9,0,0,0,0,0,0,-0.0292,391.3591,6.8213,0.4212,54.884197,9.808805,108.3,5.845,1.85,335.95,54.884842,9.807329,54.895069,9.793790
1386875776,1,0,390.9,0,0,4,0,0,25,-0.0292,391.3591,6.8213,0.4212,54.884216,9.808821,108.3,5.845,1.85,335.95,54.884842,9.807329,54.895069,9.793790
1386875776,1,0,390.9,0,0,0,0,0,0,-0.0292,391.3591,6.8213,0.4212,54.884232,9.808837,108.3,5.845,1.85,335.95,54.884842,9.807329,54.895069,9.793790
1386875776,1,0,390.9,0,0,4,0,0,25,-0.0292,391.3591,6.8213,0.4212,54.884247,9.808853,108.3,5.845,1.85,335.95,54.884842,9.807329,54.895069,9.793790
1386875776,1,0,390.9,0,0,0,0,0,0,-0.0292,391.3591,6.8213,0.4212,54.884266,9.808869,108.3,5.845,1.85,335.95,54.884842,9.807329,54.895069,9.793790
1386875777,1,0,390.9,0,0,4,0,0,25,-0.0292,391.3591,6.8213,0.4212,54.884281,9.808886,108.3,5.845,1.85,335.95,54.884842,9.807329,54.895069,9.793790
1386875777,1,0,390.9,0,0,0,0,0,0,-0.0292,391.3591,6.8213,0.4212,54.884296,9.808902,108.3,5.845,1.85,335.95,54.884842,9.807329,54.895069,9.793790
1386875777,1,0,390.9,0,0,4,0,0,25,-0.0292,391.3591,6.8213,0.4212,54.884315,9.808918,108.3,5.845,1.85,335.95,54.884842,9.807329,54.895069,9.793790
1386875777,1,0,390.9,0,0,0,0,0,0,-0.0292,391.3591,6.8213,0.4212,54.884331,9.808934,108.3,5.845,1.85,335.95,54.884842,9.807329,54.895069,9.793790
1386875778,1,0,390.9,0,0,4,0,0,25,-0.0292,391.3591,6.8213,0.4212,54.884346,9.808950,108.3,5.845,1.85,335.95,54.884842,9.807329,54.895069,9.793790
1386875778,1,0,390.9,0,0,0,0,0,0,-0.0292,391.3591,6.8213,0.4212,54.884357,9.808967,108.3,5.845,1.85,335.95,54.884842,9.807329,54.895069,9.793790
1386875778,1,0,485.9,0,-35,-4,0,0,25,-0.0292,400.6924,6.8213,0.4212,54.884373,9.808987,108.3,5.845,1.85,335.95,54.884842,9.807329,54.895069,9.793790
1386875778,1,0,485.9,0,-35,-8,0,27,50,-0.0292,410.0258,6.8213,0.4212,54.884384,9.809011,108.3,5.845,1.85,335.95,54.884842,9.807329,54.895069,9.793790
1386875779,1,0,485.9,0,-35,-12,0,90,75,-0.0292,419.3591,6.8213,0.4212,54.884392,9.809037,108.3,5.845,1.85,335.95,54.884842,9.807329,54.895069,9.793790
1386875779,1,0,485.9,0,-35,-16,0,169,100,-0.0292,428.6924,6.8213,0.4212,54.884399,9.809067,108.3,5.845,1.85,335.95,54.884842,9.807329,54.895069,9.793790
1386875779,1,0,485.9,0,-35,-20,0,254,125,-0.0292,438.0258,6.8213,0.4212,54.884403,9.809097,108.3,5.845,1.85,335.95,54.884842,9.807329,54.895069,9.793790
1386875779,1,0,485.9,0,-35,-24,0,339,150,-0.0292,447.3591,6.8213,0.4212,54.884403,9.809128,108.3,5.845,1.85,335.95,54.884842,9.807329,54.895069,9.793790
1386875780,1,0,485.9,0,-35,-28,0,422,175,-0.0292,456.6925,6.8213,0.4212,54.884399,9.809159,108.3,5.845,1.85,335.95,54.884842,9.807329,54.895069,9.793790
1386875780,1,0,485.9,0,-29,-32,0,499,200,-0.0292,464.4258,6.8213,0.4212,54.884392,9.809190,108.3,5.845,1.85,335.95,54.884842,9.807329,54.895069,9.793790
1386875780,1,0,485.9,0,-22,-28,0,500,225,-0.0292,470.2925,6.8213,0.4212,54.884388,9.809218,108.3,5.845,1.85,335.95,54.884842,9.807329,54.895069,9.793790
1386875780,1,0,485.9,0,-16,-24,0,500,250,-0.0292,474.5591,6.8213,0.4212,54.884380,9.809247,108.3,5.845,1.85,335.95,54.884842,9.807329,54.895069,9.793790
1386875781,1,0,485.9,0,-11,-20,0,409,275,-0.0292,477.4925,6.8213,0.4212,54.884373,9.809275,108.3,5.845,1.85,335.95,54.884842,9.807329,54.895069,9.793790
1386875781,1,0,485.9,0,-8,-16,0,409,300,-0.0292,479.6258,6.8213,0.4212,54.884361,9.809301,108.3,5.845,1.85,335.95,54.884842,9.807329,54.895069,9.793790
1386875781,1,0,485.9,0,-6,-12,0,0,275,-0.0292,481.2258,6.8213,0.4212,54.884354,9.809328,108.3,5.845,1.85,335.95,54.884842,9.807329,54.895069,9.793790
1386875781,1,0,485.9,0,-5,-8,0,0,250,-0.0292,482.5591,6.8213,0.4212,54.884342,9.809355,108.3,5.845,1.85,335.95,54.884842,9.807329,54.895069,9.793790
1386875782,1,0,485.9,0,-3,-4,0,0,225,-0.0292,483.3591,6.8213,0.4212,54.884335,9.809381,108.3,5.845,1.85,335.95,54.884842,9.807329,54.895069,9.793790
1386875782,1,0,485.9,0,-3,0,0,0,200,-0.0292,484.1591,6.8213,0.4212,54.884323,9.809406,108.3,5.845,1.85,335.95,54.884842,9.807329,54.895069,9.793790
1386875782,1,0,485.9,0,-2,-4,0,0,175,-0.0292,484.6924,6.8213,0.4212,54.884312,9.809432,108.3,5.845,1.85,335.95,54.884842,9.807329,54.895069,9.793790
1386875782,1,0,485.9,0,-1,0,0,0,150,-0.0292,484.9591,6.8213,0.4212,54.884300,9.809458,108.3,5.845,1.85,335.95,54.884842,9.807329,54.895069,9.793790
1386875783,1,0,485.9,0,-1,-4,0,0,125,-0.0292,485.2258,6.8213,0.4212,54.884289,9.809484,108.3,5.845,1.85,335.95,54.884842,9.807329,54.895069,9.793790
1386875783,1,0,485.9,0,-1,0,0,0,100,-0.0292,485.4924,6.8213,0.4212,54.884277,9.809508,108.3,5.845,1.85,335.95,54.884842,9.807329,54.895069,9.793790
1386875783,1,0,485.9,0,0,4,0,0,75,-0.0292,485.4924,6.8213,0.4212,54.884266,9.809534,108.3,5.845,1.85,335.95,54.884842,9.807329,54.895069,9.793790
1386875783,1,0,485.9,0,0,0,0,0,50,-0.0292,485.4924,6.8213,0.4212,54.884258,9.809559,108.3,5.845,1.85,335.95,54.884842,9.807329,54.895069,9.793790
1386875784,1,0,485.9,0,0,4,0,0,25,-0.0292,485.4924,6.8213,0.4212,54.884247,9.809585,108.3,5.845,1.85,335.95,54.884842,9.807329,54.895069,9.793790
1386875784,1,0,485.9,0,0,0,0,0,0,-0.0292,485.4924,6.8213,0.4212,54.884239,9.809610,108.3,5.845,1.85,335.95,54.884842,9.807329,54.895069,9.793790
1386875784,1,0,485.9,0,0,4,0,0,25,-0.0292,485.4924,6.8213,0.4212,54.884228,9.809635,108.3,5.845,1.85,335.95,54.884842,9.807329,54.895069,9.793790
1386875784,1,0,545.9,0,-35,0,0,0,0,-0.0292,494.8258,6.8213,0.4212,54.884212,9.809657,108.3,5.845,1.85,335.95,54.884842,9.807329,54.895069,9.793790
1386875785,1,0,545.9,0,-35,-4,0,0,25,-0.0292,504.1591,6.8213,0.4212,54.884197,9.809675,108.3,5.845,1.85,335.95,54.884842,9.807329,54.895069,9.793790
1386875785,1,0,545.9,0,-35,-8,0,0,0,-0.0292,513.4924,6.8213,0.4212,54.884182,9.809690,108.3,5.845,1.85,335.95,54.884842,9.807329,54.895069,9.793790
1386875785,1,0,545.9,0,-32,-12,0,0,25,-0.0292,522.0258,6.8213,0.4212,54.884163,9.809700,108.3,5.845,1.85,335.95,54.884842,9.807329,54.895069,9.793790
1386875785,1,0,545.9,0,-24,-16,0,0,0,-0.0292,528.4258,6.8213,0.4212,54.884144,9.809706,108.3,5.845,1.85,335.95,54.884842,9.807329,54.895069,9.793790
1386875786,1,0,545.9,0,-18,-20,0,0,25,-0.0292,533.2258,6.8213,0.4212,54.884129,9.809710,108.3,5.845,1.85,335.95,54.884842,9.807329,54.895069,9.793790
1386875786,1,0,545.9,0,-13,-16,0,0,0,-0.0292,536.6924,6.8213,0.4212,54.884109,9.809711,108.3,5.845,1.85,335.95,54.884842,9.807329,54.895069,9.793790
1386875786,1,0,545.9,0,-9,-12,0,0,25,-0.0292,539.0925,6.8213,0.4212,54.884090,9.809711,108.3,5.845,1.85,335.95,54.884842,9.807329,54.895069,9.793790
1386875786,1,0,545.9,0,-7,-8,0,409,50,-0.0292,540.9591,6.8213,0.4212,54.884071,9.809711,108.3,5.845,1.85,335.95,54.884842,9.807329,54.895069,9.793790
1386875787,1,0,545.9,0,-5,-4,0,409,75,-0.0292,542.2924,6.8213,0.4212,54.884056,9.809710,108.3,5.845,1.85,335.95,54.884842,9.807329,54.895069,9.793790
1386875787,1,0,545.9,0,-4,0,0,409,100,-0.0292,543.3591,6.8213,0.4212,54.884037,9.809708,108.3,5.845,1.85,335.95,54.884842,9.807329,54.895069,9.793790
1386875787,1,0,545.9,0,-3,-4,0,409,125,-0.0292,544.1591,6.8213,0.4212,54.884018,9.809705,108.3,5.845,1.85,335.95,54.884842,9.807329,54.895069,9.793790
1386875787,1,0,545.9,0,-2,0,0,409,150,-0.0292,544.6924,6.8213,0.4212,54.883999,9.809702,108.3,5.845,1.85,335.95,54.884842,9.807329,54.895069,9.793790
1386875788,1,0,545.9,0,-1,-4,0,409,175,-0.0292,544.9590,6.8213,0.4212,54.883984,9.809699,108.3,5.845,1.85,335.95,54.884842,9.807329,54.895069,9.793790
1386875788,1,0,545.9,0,-1,0,0,409,200,-0.0292,545.2257,6.8213,0.4212,54.883965,9.809696,108.3,5.845,1.85,335.95,54.884842,9.807329,54.895069,9.793790
1386875788,1,0,545.9,0,-1,-4,0,409,225,-0.0292,545.4924,6.8213,0.4212,54.883945,9.809692,108.3,5.845,1.85,335.95,54.884842,9.807329,54.895069,9.793790
1386875788,1,0,545.9,0,0,0,0,409,250,-0.0292,545.4924,6.8213,0.4212,54.883930,9.809689,108.3,5.845,1.85,335.95,54.884842,9.807329,54.895069,9.793790
1386875789,1,0,545.9,0,0,4,0,409,275,-0.0292,545.4924,6.8213,0.4212,54.883911,9.809686,108.3,5.845,1.85,335.95,54.884842,9.807329,54.895069,9.793790
1386875789,1,0,545.9,0,0,0,0,409,300,-0.0292,545.4924,6.8213,0.4212,54.883892,9.809683,108.3,5.845,1.85,335.95,54.884842,9.807329,54.895069,9.793790
1386875789,1,0,545.9,0,0,4,0,409,325,-0.0292,545.4924,6.8213,0.4212,54.883873,9.809680,108.3,5.845,1.85,335.95,54.884842,9.807329,54.895069,9.793790
1386875789,1,0,280.9,0,-35,0,0,409,350,-0.0292,554.8257,6.8213,0.4212,54.883858,9.809672,108.3,5.845,1.85,335.95,54.884842,9.807329,54.895069,9.793790
