MCU_timestamp,Navigation_System,Manual_Control,Guidance_Heading,Manual_Ctrl_Rudder,Rudder_Desired_Angle,Rudder_Feedback,Manual_Ctrl_Sail,Sail_Desired_Pos,Sail_Feedback,Rate,Heading,Pitch,Roll,Latitude,Longitude,COG,SOG,Wind_Speed,Wind_Angle,Point_Start_Lat,Point_Start_Lon,Point_End_Lat,Point_End_Lon
1389971983,3,0,0.0,0,-35,-4,0,713,750,-0.0292,201.2922,6.8213,0.4212,54.879795,9.770599,108.3,5.845,1.85,335.95,0.000000,0.000000,54.879810,9.770611
1389971984,3,0,0.0,0,31,0,0,870,800,-0.0292,190.9589,6.8213,0.4212,54.879780,9.770593,108.3,5.845,1.85,335.95,0.000000,0.000000,54.879810,9.770611
1389971984,3,0,0.0,0,21,4,0,713,750,-0.0292,183.9589,6.8213,0.4212,54.879761,9.770591,108.3,5.845,1.85,335.95,0.000000,0.000000,54.879810,9.770611
1389971984,3,0,0.0,0,14,8,0,713,700,-0.0292,179.2922,6.8213,0.4212,54.879742,9.770592,108.3,5.845,1.85,335.95,0.000000,0.000000,54.879810,9.770611
1389971984,3,0,0.0,0,9,12,0,713,750,-0.0292,176.2922,6.8213,0.4212,54.879726,9.770594,108.3,5.845,1.85,335.95,0.000000,0.000000,54.879810,9.770611
1389971985,3,0,0.0,0,6,8,0,713,700,-0.0292,174.2922,6.8213,0.4212,54.879707,9.770597,108.3,5.845,1.85,335.95,0.000000,0.000000,54.879810,9.770611
1389971985,3,0,0.0,0,4,4,0,713,750,-0.0292,172.9589,6.8213,0.4212,54.879688,9.770602,108.3,5.845,1.85,335.95,0.000000,0.000000,54.879810,9.770611
1389971985,3,0,0.0,0,3,0,0,713,700,-0.0292,171.9589,6.8213,0.4212,54.879669,9.770606,108.3,5.845,1.85,335.95,0.000000,0.000000,54.879810,9.770611
1389971985,3,0,0.0,0,2,4,0,713,750,-0.0292,171.2922,6.8213,0.4212,54.879654,9.770611,108.3,5.845,1.85,335.95,0.000000,0.000000,54.879810,9.770611
1389971986,3,0,0.0,0,1,0,0,713,700,-0.0292,170.9589,6.8213,0.4212,54.879635,9.770616,108.3,5.845,1.85,335.95,0.000000,0.000000,54.879810,9.770611
1389971986,3,0,0.0,0,1,4,0,713,750,-0.0292,170.6255,6.8213,0.4212,54.879616,9.770620,108.3,5.845,1.85,335.95,0.000000,0.000000,54.879810,9.770611
1389971986,3,0,0.0,0,1,0,0,713,700,-0.0292,170.2922,6.8213,0.4212,54.879601,9.770626,108.3,5.845,1.85,335.95,0.000000,0.000000,54.879810,9.770611
1389971986,3,0,0.0,0,0,4,0,713,750,-0.0292,170.2922,6.8213,0.4212,54.879581,9.770632,108.3,5.845,1.85,335.95,0.000000,0.000000,54.879810,9.770611
1389971987,3,0,0.0,0,0,0,0,713,700,-0.0292,170.2922,6.8213,0.4212,54.879562,9.770638,108.3,5.845,1.85,335.95,0.000000,0.000000,54.879810,9.770611
1389971987,3,0,0.0,0,0,4,0,713,750,-0.0292,170.2922,6.8213,0.4212,54.879543,9.770643,108.3,5.845,1.85,335.95,0.000000,0.000000,54.879810,9.770611
1389971987,3,0,0.0,0,0,0,0,713,700,-0.0292,170.2922,6.8213,0.4212,54.879528,9.770648,108.3,5.845,1.85,335.95,0.000000,0.000000,54.879810,9.770611
1389971987,3,0,0.0,0,0,4,0,713,750,-0.0292,170.2922,6.8213,0.4212,54.879509,9.770653,108.3,5.845,1.85,335.95,0.000000,0.000000,54.879810,9.770611
1389971988,3,0,0.0,0,0,0,0,713,700,-0.0292,170.2922,6.8213,0.4212,54.879490,9.770658,108.3,5.845,1.85,335.95,0.000000,0.000000,54.879810,9.770611
1389971988,3,0,0.0,0,0,4,0,713,750,-0.0292,170.2922,6.8213,0.4212,54.879471,9.770662,108.3,5.845,1.85,335.95,0.000000,0.000000,54.879810,9.770611
1389971988,3,0,0.0,0,0,0,0,713,700,-0.0292,170.2922,6.8213,0.4212,54.879456,9.770668,108.3,5.845,1.85,335.95,0.000000,0.000000,54.879810,9.770611
1389971988,3,0,0.0,0,0,4,0,713,750,-0.0292,170.2922,6.8213,0.4212,54.879436,9.770674,108.3,5.845,1.85,335.95,0.000000,0.000000,54.879810,9.770611
1389971989,3,0,0.0,0,0,0,0,713,700,-0.0292,170.2922,6.8213,0.4212,54.879417,9.770679,108.3,5.845,1.85,335.95,0.000000,0.000000,54.879810,9.770611
1389971989,3,0,0.0,0,0,4,0,713,750,-0.0292,170.2922,6.8213,0.4212,54.879398,9.770685,108.3,5.845,1.85,335.95,0.000000,0.000000,54.879810,9.770611
1389971989,3,0,0.0,0,0,0,0,713,700,-0.0292,170.2922,6.8213,0.4212,54.879383,9.770690,108.3,5.845,1.85,335.95,0.000000,0.000000,54.879810,9.770611
1389971989,3,0,0.0,0,0,4,0,713,750,-0.0292,170.2922,6.8213,0.4212,54.879364,9.770695,108.3,5.845,1.85,335.95,0.000000,0.000000,54.879810,9.770611
1389971990,3,0,0.0,0,0,0,0,713,700,-0.0292,170.2922,6.8213,0.4212,54.879345,9.770700,108.3,5.845,1.85,335.95,0.000000,0.000000,54.879810,9.770611
1389971990,3,0,0.0,0,0,4,0,713,750,-0.0292,170.2922,6.8213,0.4212,54.879330,9.770704,108.3,5.845,1.85,335.95,0.000000,0.000000,54.879810,9.770611
1389971990,3,0,0.0,0,0,0,0,713,700,-0.0292,170.2922,6.8213,0.4212,54.879311,9.770710,108.3,5.845,1.85,335.95,0.000000,0.000000,54.879810,9.770611
1389971990,3,0,0.0,0,0,4,0,713,750,-0.0292,170.2922,6.8213,0.4212,54.879292,9.770716,108.3,5.845,1.85,335.95,0.000000,0.000000,54.879810,9.770611
1389971991,3,0,0.0,0,0,0,0,713,700,-0.0292,170.2922,6.8213,0.4212,54.879272,9.770721,108.3,5.845,1.85,335.95,0.000000,0.000000,54.879810,9.770611
1389971991,3,0,0.0,0,0,4,0,713,750,-0.0292,170.2922,6.8213,0.4212,54.879257,9.770727,108.3,5.845,1.85,335.95,0.000000,0.000000,54.879810,9.770611
1389971991,3,0,0.0,0,0,0,0,713,700,-0.0292,170.2922,6.8213,0.4212,54.879238,9.770732,108.3,5.845,1.85,335.95,0.000000,0.000000,54.879810,9.770611
1389971991,3,0,0.0,0,0,4,0,713,750,-0.0292,170.2922,6.8213,0.4212,54.879219,9.770737,108.3,5.845,1.85,335.95,0.000000,0.000000,54.879810,9.770611
1389971992,3,0,0.0,0,0,0,0,713,700,-0.0292,170.2922,6.8213,0.4212,54.879200,9.770741,108.3,5.845,1.85,335.95,0.000000,0.000000,54.879810,9.770611
1389971992,3,0,0.0,0,0,4,0,713,750,-0.0292,170.2922,6.8213,0.4212,54.879185,9.770746,108.3,5.845,1.85,335.95,0.000000,0.000000,54.879810,9.770611
1389971992,0,0,0.0,0,0,4,0,713,750,-0.0292,170.2922,6.8213,0.4212,54.879185,9.770746,108.3,5.845,1.85,335.95,0.000000,0.000000,54.879810,9.770611
1389971992,0,0,0.0,0,0,4,0,713,750,-0.0292,170.2922,6.8213,0.4212,54.879185,9.770746,108.3,5.845,1.85,335.95,0.000000,0.000000,54.879810,9.770611
1389971993,0,0,0.0,0,0,4,0,713,750,-0.0292,170.2922,6.8213,0.4212,54.879185,9.770746,108.3,5.845,1.85,335.95,0.000000,0.000000,54.879810,9.770611
1389971993,0,0,0.0,0,0,4,0,713,750,-0.0292,170.2922,6.8213,0.4212,54.879185,9.770746,108.3,5.845,1.85,335.95,0.000000,0.000000,54.879810,9.770611
1389971993,0,0,0.0,0,0,4,0,713,750,-0.0292,170.2922,6.8213,0.4212,54.879185,9.770746,108.3,5.845,1.85,335.95,0.000000,0.000000,54.879810,9.770611
1389971993,0,0,0.0,0,0,4,0,713,750,-0.0292,170.2922,6.8213,0.4212,54.879185,9.770746,108.3,5.845,1.85,335.95,0.000000,0.000000,54.879810,9.770611
1389971994,0,0,0.0,0,0,4,0,713,750,-0.0292,170.2922,6.8213,0.4212,54.879185,9.770746,108.3,5.845,1.85,335.95,0.000000,0.000000,54.879810,9.770611
1389971994,0,0,0.0,0,0,4,0,713,750,-0.0292,170.2922,6.8213,0.4212,54.879185,9.770746,108.3,5.845,1.85,335.95,0.000000,0.000000,54.879810,9.770611
1389971994,0,0,0.0,0,0,4,0,713,750,-0.0292,170.2922,6.8213,0.4212,54.879185,9.770746,108.3,5.845,1.85,335.95,0.000000,0.000000,54.879810,9.770611
1389971994,0,0,0.0,0,0,4,0,713,750,-0.0292,170.2922,6.8213,0.4212,54.879185,9.770746,108.3,5.845,1.85,335.95,0.000000,0.000000,54.879810,9.770611
1389971995,0,0,0.0,0,0,4,0,713,750,-0.0292,170.2922,6.8213,0.4212,54.879185,9.770746,108.3,5.845,1.85,335.95,0.000000,0.000000,54.879810,9.770611
1389971995,0,0,0.0,0,0,4,0,713,750,-0.0292,170.2922,6.8213,0.4212,54.879185,9.770746,108.3,5.845,1.85,335.95,0.000000,0.000000,54.879810,9.770611
1389971995,0,0,0.0,0,0,4,0,713,750,-0.0292,170.2922,6.8213,0.4212,54.879185,9.770746,108.3,5.845,1.85,335.95,0.000000,0.000000,54.879810,9.770611
1389971995,4,0,0.0,0,0,4,0,713,750,-0.0292,170.2922,6.8213,0.4212,54.879185,9.770746,108.3,5.845,1.85,335.95,0.000000,0.000000,54.879810,9.770611
1389971996,1,0,0.0,0,0,0,0,713,700,-0.0292,170.2922,6.8213,0.4212,54.879166,9.770751,108.3,5.845,1.85,335.95,54.895069,9.793790,54.895348,9.797490
1389971996,1,0,0.0,0,0,4,0,713,750,-0.0292,170.2922,6.8213,0.4212,54.879147,9.770757,108.3,5.845,1.85,335.95,54.895348,9.797490,54.894039,9.801540
1389971996,1,0,0.0,0,0,0,0,713,700,-0.0292,170.2922,6.8213,0.4212,54.879128,9.770762,108.3,5.845,1.85,335.95,54.894039,9.801540,54.893795,9.802299
1389971996,1,0,0.0,0,0,4,0,713,750,-0.0292,170.2922,6.8213,0.4212,54.879112,9.770768,108.3,5.845,1.85,335.95,54.893795,9.802299,54.893364,9.803688
1389971997,1,0,0.0,0,0,0,0,713,700,-0.0292,170.2922,6.8213,0.4212,54.879093,9.770774,108.3,5.845,1.85,335.95,54.893364,9.803688,54.892704,9.801139
1389971997,1,0,0.0,0,0,4,0,713,750,-0.0292,170.2922,6.8213,0.4212,54.879074,9.770779,108.3,5.845,1.85,335.95,54.892704,9.801139,54.891663,9.800174
1389971997,1,0,0.0,0,-20,0,0,713,700,-0.0292,176.9589,6.8213,0.4212,54.879055,9.770780,108.3,5.845,1.85,335.95,54.891663,9.800174,54.892929,9.805077
1389971997,1,0,0.0,0,-13,-4,0,713,750,-0.0292,181.2922,6.8213,0.4212,54.879040,9.770779,108.3,5.845,1.85,335.95,54.892929,9.805077,54.892498,9.806466
1389971998,1,0,0.0,0,-9,-8,0,713,700,-0.0292,184.2922,6.8213,0.4212,54.879021,9.770776,108.3,5.845,1.85,335.95,54.892498,9.806466,54.891232,9.801563
1389971998,1,0,0.0,0,-6,-4,0,713,750,-0.0292,186.2922,6.8213,0.4212,54.879002,9.770772,108.3,5.845,1.85,335.95,54.891232,9.801563,54.890800,9.802953
1389971998,1,0,0.0,0,-4,0,0,713,700,-0.0292,187.6255,6.8213,0.4212,54.878986,9.770767,108.3,5.845,1.85,335.95,54.890800,9.802953,54.891651,9.806246
1389971998,1,0,0.0,0,-2,-4,0,713,750,-0.0292,188.2922,6.8213,0.4212,54.878967,9.770763,108.3,5.845,1.85,335.95,54.891651,9.806246,54.890560,9.805087
1389971999,1,0,0.0,0,-2,0,0,713,700,-0.0292,188.9589,6.8213,0.4212,54.878948,9.770759,108.3,5.845,1.85,335.95,54.890560,9.805087,54.890366,9.804342
1389971999,1,0,0.0,0,-1,-4,0,713,750,-0.0292,189.2922,6.8213,0.4212,54.878929,9.770754,108.3,5.845,1.85,335.95,54.890366,9.804342,54.890846,9.801930
1389971999,1,0,0.0,0,-1,0,0,713,700,-0.0292,189.6255,6.8213,0.4212,54.878914,9.770749,108.3,5.845,1.85,335.95,54.890846,9.801930,54.889477,9.798280
1389971999,1,0,0.0,0,0,4,0,713,750,-0.0292,189.6255,6.8213,0.4212,54.878895,9.770744,108.3,5.845,1.85,335.95,54.889477,9.798280,54.891819,9.794550
1389972000,1,0,0.0,0,0,0,0,713,700,-0.0292,189.6255,6.8213,0.4212,54.878876,9.770739,108.3,5.845,1.85,335.95,54.891819,9.794550,54.895348,9.797490
1389972000,1,0,0.0,0,0,4,0,713,750,-0.0292,189.6255,6.8213,0.4212,54.878857,9.770733,108.3,5.845,1.85,335.95,54.895348,9.797490,54.895069,9.793790
1389972000,1,0,0.0,0,0,0,0,713,700,-0.0292,189.6255,6.8213,0.4212,54.878841,9.770727,108.3,5.845,1.85,335.95,54.895348,9.797490,54.895069,9.793790
1389972000,3,0,0.0,0,0,4,0,713,750,-0.0292,189.6255,6.8213,0.4212,54.878822,9.770721,108.3,5.845,1.85,335.95,54.895348,9.797490,54.878841,9.770727
1389972001,3,0,0.0,0,0,0,0,713,700,-0.0292,189.6255,6.8213,0.4212,54.878803,9.770717,108.3,5.845,1.85,335.95,54.895348,9.797490,54.878841,9.770727
1389972001,3,0,0.0,0,0,4,0,713,750,-0.0292,189.6255,6.8213,0.4212,54.878784,9.770712,108.3,5.845,1.85,335.95,54.895348,9.797490,54.878841,9.770727
1389972001,3,0,0.0,0,0,0,0,713,700,-0.0292,189.6255,6.8213,0.4212,54.878769,9.770707,108.3,5.845,1.85,335.95,54.895348,9.797490,54.878841,9.770727
1389972001,3,0,0.0,0,0,4,0,713,750,-0.0292,189.6255,6.8213,0.4212,54.878750,9.770702,108.3,5.845,1.85,335.95,54.895348,9.797490,54.878841,9.770727
1389972002,3,0,0.0,0,0,0,0,713,700,-0.0292,189.6255,6.8213,0.4212,54.878731,9.770697,108.3,5.845,1.85,335.95,54.895348,9.797490,54.878841,9.770727
1389972002,3,0,0.0,0,0,4,0,713,750,-0.0292,189.6255,6.8213,0.4212,54.878716,9.770691,108.3,5.845,1.85,335.95,54.895348,9.797490,54.878841,9.770727
1389972002,3,0,0.0,0,0,0,0,713,700,-0.0292,189.6255,6.8213,0.4212,54.878696,9.770685,108.3,5.845,1.85,335.95,54.895348,9.797490,54.878841,9.770727
1389972003,3,0,0.0,0,0,4,0,713,750,-0.0292,189.6255,6.8213,0.4212,54.878677,9.770679,108.3,5.845,1.85,335.95,54.895348,9.797490,54.878841,9.770727
1389972003,3,0,0.0,0,0,0,0,713,700,-0.0292,189.6255,6.8213,0.4212,54.878658,9.770675,108.3,5.845,1.85,335.95,54.895348,9.797490,54.878841,9.770727
1389972003,3,0,0.0,0,0,4,0,713,750,-0.0292,189.6255,6.8213,0.4212,54.878643,9.770670,108.3,5.845,1.85,335.95,54.895348,9.797490,54.878841,9.770727
1389972003,3,0,0.0,0,0,0,0,713,700,-0.0292,189.6255,6.8213,0.4212,54.878624,9.770665,108.3,5.845,1.85,335.95,54.895348,9.797490,54.878841,9.770727
1389972004,3,0,0.0,0,0,4,0,713,750,-0.0292,189.6255,6.8213,0.4212,54.878605,9.770660,108.3,5.845,1.85,335.95,54.895348,9.797490,54.878841,9.770727
1389972004,3,0,0.0,0,0,0,0,713,700,-0.0292,189.6255,6.8213,0.4212,54.878586,9.770655,108.3,5.845,1.85,335.95,54.895348,9.797490,54.878841,9.770727
1389972004,3,0,0.0,0,0,4,0,713,750,-0.0292,189.6255,6.8213,0.4212,54.878571,9.770649,108.3,5.845,1.85,335.95,54.895348,9.797490,54.878841,9.770727
1389972004,3,0,0.0,0,0,0,0,713,700,-0.0292,189.6255,6.8213,0.4212,54.878551,9.770643,108.3,5.845,1.85,335.95,54.895348,9.797490,54.878841,9.770727
1389972005,3,0,0.0,0,0,4,0,713,750,-0.0292,189.6255,6.8213,0.4212,54.878532,9.770638,108.3,5.845,1.85,335.95,54.895348,9.797490,54.878841,9.770727
1389972005,3,0,0.0,0,0,0,0,713,700,-0.0292,189.6255,6.8213,0.4212,54.878513,9.770633,108.3,5.845,1.85,335.95,54.895348,9.797490,54.878841,9.770727
1389972005,3,0,0.0,0,0,4,0,713,750,-0.0292,189.6255,6.8213,0.4212,54.878498,9.770628,108.3,5.845,1.85,335.95,54.895348,9.797490,54.878841,9.770727
1389972005,3,0,0.0,0,0,0,0,713,700,-0.0292,189.6255,6.8213,0.4212,54.878479,9.770623,108.3,5.845,1.85,335.95,54.895348,9.797490,54.878841,9.770727
1389972006,3,0,0.0,0,0,4,0,713,750,-0.0292,189.6255,6.8213,0.4212,54.878460,9.770618,108.3,5.845,1.85,335.95,54.895348,9.797490,54.878841,9.770727
1389972006,3,0,0.0,0,0,0,0,713,700,-0.0292,189.6255,6.8213,0.4212,54.878445,9.770614,108.3,5.845,1.85,335.95,54.895348,9.797490,54.878841,9.770727
1389972006,3,0,0.0,0,0,4,0,713,750,-0.0292,189.6255,6.8213,0.4212,54.878426,9.770608,108.3,5.845,1.85,335.95,54.895348,9.797490,54.878841,9.770727
1389972006,3,0,0.0,0,0,0,0,713,700,-0.0292,189.6255,6.8213,0.4212,54.878407,9.770602,108.3,5.845,1.85,335.95,54.895348,9.797490,54.878841,9.770727
1389972007,3,0,0.0,0,0,4,0,713,750,-0.0292,189.6255,6.8213,0.4212,54.878387,9.770597,108.3,5.845,1.85,335.95,54.895348,9.797490,54.878841,9.770727
1389972007,0,0,0.0,0,0,4,0,713,750,-0.0292,189.6255,6.8213,0.4212,54.878387,9.770597,108.3,5.845,1.85,335.95,54.895348,9.797490,54.878841,9.770727
1389972007,0,0,0.0,0,0,4,0,713,750,-0.0292,189.6255,6.8213,0.4212,54.878387,9.770597,108.3,5.845,1.85,335.95,54.895348,9.797490,54.878841,9.770727
1389972007,4,0,0.0,0,0,4,0,713,750,-0.0292,189.6255,6.8213,0.4212,54.878387,9.770597,108.3,5.845,1.85,335.95,54.895348,9.797490,54.878841,9.770727
1389972008,1,0,0.0,0,0,0,0,713,700,-0.0292,189.6255,6.8213,0.4212,54.878372,9.770592,108.3,5.845,1.85,335.95,54.895069,9.793790,54.895348,9.797490
1389972008,1,0,0.0,0,0,4,0,713,750,-0.0292,189.6255,6.8213,0.4212,54.878353,9.770587,108.3,5.845,1.85,335.95,54.895348,9.797490,54.894039,9.801540
1389972008,1,0,0.0,0,0,0,0,713,700,-0.0292,189.6255,6.8213,0.4212,54.878334,9.770582,108.3,5.845,1.85,335.95,54.894039,9.801540,54.893795,9.802299
1389972008,1,0,0.0,0,0,4,0,713,750,-0.0292,189.6255,6.8213,0.4212,54.878315,9.770577,108.3,5.845,1.85,335.95,54.893795,9.802299,54.893364,9.803688
1389972009,1,0,0.0,0,0,0,0,713,700,-0.0292,189.6255,6.8213,0.4212,54.878300,9.770573,108.3,5.845,1.85,335.95,54.893364,9.803688,54.892704,9.801139
1389972009,1,0,0.0,0,0,4,0,713,750,-0.0292,189.6255,6.8213,0.4212,54.878281,9.770567,108.3,5.845,1.85,335.95,54.892704,9.801139,54.891663,9.800174
1389972009,1,0,0.0,0,0,0,0,713,700,-0.0292,189.6255,6.8213,0.4212,54.878262,9.770561,108.3,5.845,1.85,335.95,54.891663,9.800174,54.892929,9.805077
1389972009,1,0,0.0,0,0,4,0,713,750,-0.0292,189.6255,6.8213,0.4212,54.878242,9.770555,108.3,5.845,1.85,335.95,54.892929,9.805077,54.892498,9.806466
1389972010,1,0,0.0,0,0,0,0,713,700,-0.0292,189.6255,6.8213,0.4212,54.878227,9.770550,108.3,5.845,1.85,335.95,54.892498,9.806466,54.891232,9.801563
1389972010,1,0,0.0,0,0,4,0,713,750,-0.0292,189.6255,6.8213,0.4212,54.878208,9.770545,108.3,5.845,1.85,335.95,54.891232,9.801563,54.890800,9.802953
1389972010,1,0,0.0,0,0,0,0,713,700,-0.0292,189.6255,6.8213,0.4212,54.878189,9.770540,108.3,5.845,1.85,335.95,54.890800,9.802953,54.891651,9.806246
1389972010,1,0,0.0,0,0,4,0,713,750,-0.0292,189.6255,6.8213,0.4212,54.878174,9.770535,108.3,5.845,1.85,335.95,54.891651,9.806246,54.890560,9.805087
1389972011,1,0,0.0,0,0,0,0,713,700,-0.0292,189.6255,6.8213,0.4212,54.878155,9.770531,108.3,5.845,1.85,335.95,54.890560,9.805087,54.890366,9.804342
1389972011,1,0,0.0,0,0,4,0,713,750,-0.0292,189.6255,6.8213,0.4212,54.878136,9.770525,108.3,5.845,1.85,335.95,54.890366,9.804342,54.890846,9.801930
1389972011,1,0,0.0,0,0,0,0,713,700,-0.0292,189.6255,6.8213,0.4212,54.878117,9.770519,108.3,5.845,1.85,335.95,54.890846,9.801930,54.889477,9.798280
1389972011,1,0,0.0,0,0,4,0,713,750,-0.0292,189.6255,6.8213,0.4212,54.878101,9.770514,108.3,5.845,1.85,335.95,54.889477,9.798280,54.891819,9.794550
