MCU_timestamp,Navigation_System,Manual_Control,Guidance_Heading,Manual_Ctrl_Rudder,Rudder_Desired_Angle,Rudder_Feedback,Manual_Ctrl_Sail,Sail_Desired_Pos,Sail_Feedback,Rate,Heading,Pitch,Roll,Latitude,Longitude,COG,SOG,Wind_Speed,Wind_Angle,Point_Start_Lat,Point_Start_Lon,Point_End_Lat,Point_End_Lon
1390066079,0,0,0.0,0,0,0,0,0,0,-0.0292,19.6258,6.8213,0.4212,54.893127,9.798909,108.3,5.845,1.85,335.95,0.000000,0.000000,0.000000,0.000000
1390066079,0,0,0.0,0,0,0,0,0,0,-0.0292,19.6258,6.8213,0.4212,54.893127,9.798909,108.3,5.845,1.85,335.95,0.000000,0.000000,0.000000,0.000000
1390066079,0,0,0.0,0,0,0,0,0,0,-0.0292,19.6258,6.8213,0.4212,54.893127,9.798909,108.3,5.845,1.85,335.95,0.000000,0.000000,0.000000,0.000000
1390066079,0,0,0.0,0,0,0,0,0,0,-0.0292,19.6258,6.8213,0.4212,54.893127,9.798909,108.3,5.845,1.85,335.95,0.000000,0.000000,0.000000,0.000000
1390066080,0,0,0.0,0,0,0,0,0,0,-0.0292,19.6258,6.8213,0.4212,54.893127,9.798909,108.3,5.845,1.85,335.95,0.000000,0.000000,0.000000,0.000000
1390066080,0,0,0.0,0,0,0,0,0,0,-0.0292,19.6258,6.8213,0.4212,54.893127,9.798909,108.3,5.845,1.85,335.95,0.000000,0.000000,0.000000,0.000000
1390066080,0,0,0.0,0,0,0,0,0,0,-0.0292,19.6258,6.8213,0.4212,54.893127,9.798909,108.3,5.845,1.85,335.95,0.000000,0.000000,0.000000,0.000000
1390066080,0,0,0.0,0,0,0,0,0,0,-0.0292,19.6258,6.8213,0.4212,54.893127,9.798909,108.3,5.845,1.85,335.95,0.000000,0.000000,0.000000,0.000000
1390066081,0,0,0.0,0,0,0,0,0,0,-0.0292,19.6258,6.8213,0.4212,54.893127,9.798909,108.3,5.845,1.85,335.95,0.000000,0.000000,0.000000,0.000000
1390066081,0,0,0.0,0,0,0,0,0,0,-0.0292,19.6258,6.8213,0.4212,54.893127,9.798909,108.3,5.845,1.85,335.95,0.000000,0.000000,0.000000,0.000000
1390066081,0,0,0.0,0,0,0,0,0,0,-0.0292,19.6258,6.8213,0.4212,54.893127,9.798909,108.3,5.845,1.85,335.95,0.000000,0.000000,0.000000,0.000000
1390066081,0,0,0.0,0,0,0,0,0,0,-0.0292,19.6258,6.8213,0.4212,54.893127,9.798909,108.3,5.845,1.85,335.95,0.000000,0.000000,0.000000,0.000000
1390066082,0,0,0.0,0,0,0,0,0,0,-0.0292,19.6258,6.8213,0.4212,54.893127,9.798909,108.3,5.845,1.85,335.95,0.000000,0.000000,0.000000,0.000000
1390066082,0,0,0.0,0,0,0,0,0,0,-0.0292,19.6258,6.8213,0.4212,54.893127,9.798909,108.3,5.845,1.85,335.95,0.000000,0.000000,0.000000,0.000000
1390066082,0,0,0.0,0,0,0,0,0,0,-0.0292,19.6258,6.8213,0.4212,54.893127,9.798909,108.3,5.845,1.85,335.95,0.000000,0.000000,0.000000,0.000000
1390066082,0,0,0.0,0,0,0,0,0,0,-0.0292,19.6258,6.8213,0.4212,54.893127,9.798909,108.3,5.845,1.85,335.95,0.000000,0.000000,0.000000,0.000000
1390066083,0,0,0.0,0,0,0,0,0,0,-0.0292,19.6258,6.8213,0.4212,54.893127,9.798909,108.3,5.845,1.85,335.95,0.000000,0.000000,0.000000,0.000000
1390066083,0,0,0.0,0,0,0,0,0,0,-0.0292,19.6258,6.8213,0.4212,54.893127,9.798909,108.3,5.845,1.85,335.95,0.000000,0.000000,0.000000,0.000000
1390066083,0,0,0.0,0,0,0,0,0,0,-0.0292,19.6258,6.8213,0.4212,54.893127,9.798909,108.3,5.845,1.85,335.95,0.000000,0.000000,0.000000,0.000000
1390066083,4,0,0.0,0,0,0,0,0,0,-0.0292,19.6258,6.8213,0.4212,54.893127,9.798909,108.3,5.845,1.85,335.95,0.000000,0.000000,0.000000,0.000000
1390066084,1,0,0.0,0,-35,-4,0,0,0,-0.0292,31.2925,6.8213,0.4212,54.893131,9.798914,108.3,5.845,1.85,335.95,54.895069,9.793790,54.895348,9.797490
1390066084,1,0,0.0,0,-35,-8,0,0,0,-0.0292,42.9591,6.8213,0.4212,54.893135,9.798923,108.3,5.845,1.85,335.95,54.895348,9.797490,54.894039,9.801540
1390066084,1,0,0.0,0,-35,-12,0,70,50,-0.0292,54.6258,6.8213,0.4212,54.893139,9.798936,108.3,5.845,1.85,335.95,54.894039,9.801540,54.893795,9.802299
1390066084,1,0,0.0,0,-35,-16,0,223,100,-0.0292,66.2925,6.8213,0.4212,54.893143,9.798952,108.3,5.845,1.85,335.95,54.893795,9.802299,54.893364,9.803688
1390066085,1,0,0.0,0,-35,-20,0,405,150,-0.0292,77.9591,6.8213,0.4212,54.893147,9.798972,108.3,5.845,1.85,335.95,54.893364,9.803688,54.892704,9.801139
1390066085,1,0,0.0,0,-35,-24,0,590,200,-0.0292,89.6258,6.8213,0.4212,54.893147,9.798996,108.3,5.845,1.85,335.95,54.892704,9.801139,54.891663,9.800174
1390066085,1,0,0.0,0,-35,-28,0,768,250,-0.0292,101.2925,6.8213,0.4212,54.893147,9.799021,108.3,5.845,1.85,335.95,54.891663,9.800174,54.892929,9.805077
1390066085,1,0,0.0,0,-35,-32,0,870,300,-0.0292,112.9591,6.8213,0.4212,54.893143,9.799045,108.3,5.845,1.85,335.95,54.892929,9.805077,54.892498,9.806466
1390066086,1,0,0.0,0,-35,-36,0,713,350,-0.0292,124.6258,6.8213,0.4212,54.893135,9.799067,108.3,5.845,1.85,335.95,54.892498,9.806466,54.891232,9.801563
1390066086,1,0,0.0,0,-35,-32,0,713,400,-0.0292,136.2924,6.8213,0.4212,54.893124,9.799088,108.3,5.845,1.85,335.95,54.891232,9.801563,54.890800,9.802953
1390066086,1,0,0.0,0,-34,-36,0,713,450,-0.0292,147.6258,6.8213,0.4212,54.893112,9.799104,108.3,5.845,1.85,335.95,54.890800,9.802953,54.891651,9.806246
1390066086,1,0,0.0,0,-22,-32,0,0,400,-0.0292,154.9591,6.8213,0.4212,54.893097,9.799117,108.3,5.845,1.85,335.95,54.891651,9.806246,54.890560,9.805087
1390066087,1,0,0.0,0,-15,-28,0,0,350,-0.0292,159.9591,6.8213,0.4212,54.893082,9.799128,108.3,5.845,1.85,335.95,54.890560,9.805087,54.890366,9.804342
1390066087,1,0,0.0,0,-10,-24,0,0,300,-0.0292,163.2924,6.8213,0.4212,54.893063,9.799136,108.3,5.845,1.85,335.95,54.890366,9.804342,54.890846,9.801930
1390066087,1,0,0.0,0,-7,-20,0,0,250,-0.0292,165.6258,6.8213,0.4212,54.893044,9.799144,108.3,5.845,1.85,335.95,54.890846,9.801930,54.889477,9.798280
1390066087,1,0,0.0,0,-4,-16,0,0,200,-0.0292,166.9591,6.8213,0.4212,54.893028,9.799151,108.3,5.845,1.85,335.95,54.889477,9.798280,54.891819,9.794550
1390066088,1,0,0.0,0,-3,-12,0,713,250,-0.0292,167.9591,6.8213,0.4212,54.893009,9.799157,108.3,5.845,1.85,335.95,54.891819,9.794550,54.895348,9.797490
1390066088,1,0,0.0,0,-2,-8,0,713,300,-0.0292,168.6258,6.8213,0.4212,54.892990,9.799163,108.3,5.845,1.85,335.95,54.895348,9.797490,54.895069,9.793790
1390066088,1,0,0.0,0,-1,-4,0,713,350,-0.0292,168.9591,6.8213,0.4212,54.892971,9.799169,108.3,5.845,1.85,335.95,54.895348,9.797490,54.895069,9.793790
1390066088,3,0,0.0,0,-1,0,0,713,400,-0.0292,169.2924,6.8213,0.4212,54.892956,9.799174,108.3,5.845,1.85,335.95,54.895348,9.797490,54.892971,9.799169
1390066089,3,0,0.0,0,-1,-4,0,713,450,-0.0292,169.6257,6.8213,0.4212,54.892937,9.799180,108.3,5.845,1.85,335.95,54.895348,9.797490,54.892971,9.799169
1390066089,3,0,0.0,0,10,0,0,713,500,-0.0292,166.2924,6.8213,0.4212,54.892918,9.799188,108.3,5.845,1.85,335.95,54.895348,9.797490,54.892971,9.799169
1390066089,3,0,0.0,0,6,4,0,713,550,-0.0292,164.2924,6.8213,0.4212,54.892902,9.799196,108.3,5.845,1.85,335.95,54.895348,9.797490,54.892971,9.799169
1390066089,3,0,0.0,0,4,8,0,0,500,-0.0292,162.9591,6.8213,0.4212,54.892887,9.799205,108.3,5.845,1.85,335.95,54.895348,9.797490,54.892971,9.799169
1390066090,3,0,0.0,0,3,4,0,0,450,-0.0292,161.9591,6.8213,0.4212,54.892868,9.799214,108.3,5.845,1.85,335.95,54.895348,9.797490,54.892971,9.799169
1390066090,3,0,0.0,0,2,0,0,0,400,-0.0292,161.2924,6.8213,0.4212,54.892853,9.799224,108.3,5.845,1.85,335.95,54.895348,9.797490,54.892971,9.799169
1390066090,3,0,0.0,0,1,4,0,0,350,-0.0292,160.9591,6.8213,0.4212,54.892838,9.799234,108.3,5.845,1.85,335.95,54.895348,9.797490,54.892971,9.799169
1390066090,3,0,0.0,0,1,0,0,0,300,-0.0292,160.6258,6.8213,0.4212,54.892818,9.799244,108.3,5.845,1.85,335.95,54.895348,9.797490,54.892971,9.799169
1390066091,3,0,0.0,0,1,4,0,0,250,-0.0292,160.2924,6.8213,0.4212,54.892803,9.799254,108.3,5.845,1.85,335.95,54.895348,9.797490,54.892971,9.799169
1390066091,3,0,0.0,0,0,0,0,0,200,-0.0292,160.2924,6.8213,0.4212,54.892788,9.799265,108.3,5.845,1.85,335.95,54.895348,9.797490,54.892971,9.799169
1390066091,3,0,0.0,0,0,4,0,0,150,-0.0292,160.2924,6.8213,0.4212,54.892769,9.799275,108.3,5.845,1.85,335.95,54.895348,9.797490,54.892971,9.799169
1390066091,3,0,0.0,0,0,0,0,0,100,-0.0292,160.2924,6.8213,0.4212,54.892754,9.799286,108.3,5.845,1.85,335.95,54.895348,9.797490,54.892971,9.799169
1390066092,3,0,0.0,0,0,4,0,0,50,-0.0292,160.2924,6.8213,0.4212,54.892738,9.799296,108.3,5.845,1.85,335.95,54.895348,9.797490,54.892971,9.799169
1390066092,3,0,0.0,0,0,0,0,0,0,-0.0292,160.2924,6.8213,0.4212,54.892719,9.799307,108.3,5.845,1.85,335.95,54.895348,9.797490,54.892971,9.799169
1390066092,3,0,0.0,0,0,4,0,0,0,-0.0292,160.2924,6.8213,0.4212,54.892704,9.799317,108.3,5.845,1.85,335.95,54.895348,9.797490,54.892971,9.799169
1390066092,3,0,0.0,0,0,0,0,0,0,-0.0292,160.2924,6.8213,0.4212,54.892689,9.799328,108.3,5.845,1.85,335.95,54.895348,9.797490,54.892971,9.799169
1390066093,3,0,0.0,0,0,4,0,0,0,-0.0292,160.2924,6.8213,0.4212,54.892670,9.799338,108.3,5.845,1.85,335.95,54.895348,9.797490,54.892971,9.799169
1390066093,3,0,0.0,0,0,0,0,0,0,-0.0292,160.2924,6.8213,0.4212,54.892654,9.799349,108.3,5.845,1.85,335.95,54.895348,9.797490,54.892971,9.799169
1390066093,3,0,0.0,0,0,4,0,0,0,-0.0292,160.2924,6.8213,0.4212,54.892639,9.799359,108.3,5.845,1.85,335.95,54.895348,9.797490,54.892971,9.799169
1390066093,3,0,0.0,0,0,0,0,0,0,-0.0292,160.2924,6.8213,0.4212,54.892620,9.799370,108.3,5.845,1.85,335.95,54.895348,9.797490,54.892971,9.799169
1390066094,3,0,0.0,0,0,4,0,0,0,-0.0292,160.2924,6.8213,0.4212,54.892605,9.799380,108.3,5.845,1.85,335.95,54.895348,9.797490,54.892971,9.799169
1390066094,3,0,0.0,0,10,8,0,0,0,-0.0292,156.9591,6.8213,0.4212,54.892590,9.799393,108.3,5.845,1.85,335.95,54.895348,9.797490,54.892971,9.799169
1390066094,3,0,0.0,0,7,4,0,0,0,-0.0292,154.6258,6.8213,0.4212,54.892570,9.799406,108.3,5.845,1.85,335.95,54.895348,9.797490,54.892971,9.799169
1390066094,3,0,0.0,0,5,8,0,0,0,-0.0292,152.9591,6.8213,0.4212,54.892555,9.799419,108.3,5.845,1.85,335.95,54.895348,9.797490,54.892971,9.799169
1390066095,3,0,0.0,0,3,4,0,0,0,-0.0292,151.9591,6.8213,0.4212,54.892540,9.799434,108.3,5.845,1.85,335.95,54.895348,9.797490,54.892971,9.799169
1390066095,3,0,0.0,0,2,0,0,0,0,-0.0292,151.2924,6.8213,0.4212,54.892525,9.799448,108.3,5.845,1.85,335.95,54.895348,9.797490,54.892971,9.799169
1390066095,3,0,0.0,0,1,4,0,0,0,-0.0292,150.9591,6.8213,0.4212,54.892509,9.799462,108.3,5.845,1.85,335.95,54.895348,9.797490,54.892971,9.799169
1390066095,3,0,0.0,0,1,0,0,0,0,-0.0292,150.6258,6.8213,0.4212,54.892498,9.799477,108.3,5.845,1.85,335.95,54.895348,9.797490,54.892971,9.799169
1390066096,3,0,0.0,0,1,4,0,0,0,-0.0292,150.2924,6.8213,0.4212,54.892483,9.799492,108.3,5.845,1.85,335.95,54.895348,9.797490,54.892971,9.799169
1390066096,3,0,0.0,0,0,0,0,0,0,-0.0292,150.2924,6.8213,0.4212,54.892467,9.799506,108.3,5.845,1.85,335.95,54.895348,9.797490,54.892971,9.799169
1390066096,3,0,0.0,0,0,4,0,0,0,-0.0292,150.2924,6.8213,0.4212,54.892452,9.799521,108.3,5.845,1.85,335.95,54.895348,9.797490,54.892971,9.799169
1390066097,3,0,0.0,0,0,0,0,0,0,-0.0292,150.2924,6.8213,0.4212,54.892437,9.799537,108.3,5.845,1.85,335.95,54.895348,9.797490,54.892971,9.799169
1390066097,3,0,0.0,0,0,4,0,0,0,-0.0292,150.2924,6.8213,0.4212,54.892426,9.799551,108.3,5.845,1.85,335.95,54.895348,9.797490,54.892971,9.799169
1390066097,3,0,0.0,0,0,0,0,0,0,-0.0292,150.2924,6.8213,0.4212,54.892410,9.799566,108.3,5.845,1.85,335.95,54.895348,9.797490,54.892971,9.799169
1390066097,3,0,0.0,0,0,4,0,0,0,-0.0292,150.2924,6.8213,0.4212,54.892395,9.799582,108.3,5.845,1.85,335.95,54.895348,9.797490,54.892971,9.799169
1390066098,3,0,0.0,0,0,0,0,0,0,-0.0292,150.2924,6.8213,0.4212,54.892380,9.799596,108.3,5.845,1.85,335.95,54.895348,9.797490,54.892971,9.799169
1390066098,3,0,0.0,0,0,4,0,0,0,-0.0292,150.2924,6.8213,0.4212,54.892365,9.799611,108.3,5.845,1.85,335.95,54.895348,9.797490,54.892971,9.799169
1390066098,3,0,0.0,0,0,0,0,0,0,-0.0292,150.2924,6.8213,0.4212,54.892345,9.799626,108.3,5.845,1.85,335.95,54.895348,9.797490,54.892971,9.799169
1390066098,3,0,0.0,0,0,4,0,0,0,-0.0292,150.2924,6.8213,0.4212,54.892330,9.799641,108.3,5.845,1.85,335.95,54.895348,9.797490,54.892971,9.799169
1390066099,3,0,0.0,0,0,0,0,0,0,-0.0292,150.2924,6.8213,0.4212,54.892315,9.799656,108.3,5.845,1.85,335.95,54.895348,9.797490,54.892971,9.799169
1390066099,3,0,0.0,0,0,4,0,0,0,-0.0292,150.2924,6.8213,0.4212,54.892296,9.799671,108.3,5.845,1.85,335.95,54.895348,9.797490,54.892971,9.799169
1390066099,3,0,0.0,0,10,8,0,0,0,-0.0292,146.9591,6.8213,0.4212,54.892281,9.799687,108.3,5.845,1.85,335.95,54.895348,9.797490,54.892971,9.799169
1390066099,3,0,0.0,0,7,4,0,0,0,-0.0292,144.6258,6.8213,0.4212,54.892265,9.799705,108.3,5.845,1.85,335.95,54.895348,9.797490,54.892971,9.799169
1390066100,3,0,0.0,0,5,8,0,713,50,-0.0292,142.9591,6.8213,0.4212,54.892250,9.799722,108.3,5.845,1.85,335.95,54.895348,9.797490,54.892971,9.799169
1390066100,3,0,0.0,0,3,4,0,713,100,-0.0292,141.9591,6.8213,0.4212,54.892235,9.799740,108.3,5.845,1.85,335.95,54.895348,9.797490,54.892971,9.799169
1390066100,3,0,0.0,0,2,0,0,713,150,-0.0292,141.2924,6.8213,0.4212,54.892223,9.799759,108.3,5.845,1.85,335.95,54.895348,9.797490,54.892971,9.799169
1390066100,3,0,0.0,0,1,4,0,713,200,-0.0292,140.9591,6.8213,0.4212,54.892208,9.799777,108.3,5.845,1.85,335.95,54.895348,9.797490,54.892971,9.799169
1390066101,3,0,0.0,0,1,0,0,713,250,-0.0292,140.6258,6.8213,0.4212,54.892197,9.799796,108.3,5.845,1.85,335.95,54.895348,9.797490,54.892971,9.799169
1390066101,3,0,0.0,0,1,4,0,713,300,-0.0292,140.2925,6.8213,0.4212,54.892181,9.799814,108.3,5.845,1.85,335.95,54.895348,9.797490,54.892971,9.799169
1390066101,3,0,0.0,0,0,0,0,713,350,-0.0292,140.2925,6.8213,0.4212,54.892170,9.799833,108.3,5.845,1.85,335.95,54.895348,9.797490,54.892971,9.799169
1390066101,3,0,0.0,0,0,4,0,713,400,-0.0292,140.2925,6.8213,0.4212,54.892155,9.799851,108.3,5.845,1.85,335.95,54.895348,9.797490,54.892971,9.799169
1390066102,3,0,0.0,0,0,0,0,713,450,-0.0292,140.2925,6.8213,0.4212,54.892143,9.799870,108.3,5.845,1.85,335.95,54.895348,9.797490,54.892971,9.799169
1390066102,3,0,0.0,0,0,4,0,713,500,-0.0292,140.2925,6.8213,0.4212,54.892128,9.799890,108.3,5.845,1.85,335.95,54.895348,9.797490,54.892971,9.799169
1390066102,3,0,0.0,0,0,0,0,713,550,-0.0292,140.2925,6.8213,0.4212,54.892113,9.799909,108.3,5.845,1.85,335.95,54.895348,9.797490,54.892971,9.799169
1390066102,3,0,0.0,0,0,4,0,713,600,-0.0292,140.2925,6.8213,0.4212,54.892101,9.799928,108.3,5.845,1.85,335.95,54.895348,9.797490,54.892971,9.799169
1390066103,3,0,0.0,0,0,0,0,713,650,-0.0292,140.2925,6.8213,0.4212,54.892086,9.799947,108.3,5.845,1.85,335.95,54.895348,9.797490,54.892971,9.799169
1390066103,3,0,0.0,0,0,4,0,713,700,-0.0292,140.2925,6.8213,0.4212,54.892075,9.799966,108.3,5.845,1.85,335.95,54.895348,9.797490,54.892971,9.799169
1390066103,3,0,0.0,0,0,0,0,713,750,-0.0292,140.2925,6.8213,0.4212,54.892059,9.799984,108.3,5.845,1.85,335.95,54.895348,9.797490,54.892971,9.799169
1390066103,3,0,0.0,0,0,4,0,713,700,-0.0292,140.2925,6.8213,0.4212,54.892048,9.800003,108.3,5.845,1.85,335.95,54.895348,9.797490,54.892971,9.799169
1390066104,3,0,0.0,0,0,0,0,713,750,-0.0292,140.2925,6.8213,0.4212,54.892033,9.800022,108.3,5.845,1.85,335.95,54.895348,9.797490,54.892971,9.799169
1390066104,3,0,0.0,0,0,4,0,713,700,-0.0292,140.2925,6.8213,0.4212,54.892021,9.800041,108.3,5.845,1.85,335.95,54.895348,9.797490,54.892971,9.799169
1390066104,3,0,0.0,0,10,8,0,713,750,-0.0292,136.9591,6.8213,0.4212,54.892006,9.800061,108.3,5.845,1.85,335.95,54.895348,9.797490,54.892971,9.799169
1390066104,3,0,0.0,0,7,4,0,713,700,-0.0292,134.6258,6.8213,0.4212,54.891994,9.800082,108.3,5.845,1.85,335.95,54.895348,9.797490,54.892971,9.799169
1390066105,3,0,0.0,0,5,8,0,713,750,-0.0292,132.9591,6.8213,0.4212,54.891987,9.800104,108.3,5.845,1.85,335.95,54.895348,9.797490,54.892971,9.799169
1390066105,3,0,0.0,0,3,4,0,713,700,-0.0292,131.9591,6.8213,0.4212,54.891975,9.800125,108.3,5.845,1.85,335.95,54.895348,9.797490,54.892971,9.799169
1390066105,3,0,0.0,0,2,0,0,713,750,-0.0292,131.2925,6.8213,0.4212,54.891964,9.800147,108.3,5.845,1.85,335.95,54.895348,9.797490,54.892971,9.799169
1390066105,3,0,0.0,0,1,4,0,713,700,-0.0292,130.9591,6.8213,0.4212,54.891953,9.800169,108.3,5.845,1.85,335.95,54.895348,9.797490,54.892971,9.799169
1390066106,3,0,0.0,0,1,0,0,713,750,-0.0292,130.6258,6.8213,0.4212,54.891941,9.800191,108.3,5.845,1.85,335.95,54.895348,9.797490,54.892971,9.799169
1390066106,3,0,0.0,0,1,4,0,713,700,-0.0292,130.2925,6.8213,0.4212,54.891933,9.800213,108.3,5.845,1.85,335.95,54.895348,9.797490,54.892971,9.799169
1390066106,3,0,0.0,0,0,0,0,713,750,-0.0292,130.2925,6.8213,0.4212,54.891922,9.800235,108.3,5.845,1.85,335.95,54.895348,9.797490,54.892971,9.799169
1390066106,3,0,0.0,0,0,4,0,713,700,-0.0292,130.2925,6.8213,0.4212,54.891911,9.800257,108.3,5.845,1.85,335.95,54.895348,9.797490,54.892971,9.799169
1390066107,3,0,0.0,0,0,0,0,713,750,-0.0292,130.2925,6.8213,0.4212,54.891899,9.800279,108.3,5.845,1.85,335.95,54.895348,9.797490,54.892971,9.799169
1390066107,3,0,0.0,0,0,4,0,713,700,-0.0292,130.2925,6.8213,0.4212,54.891888,9.800301,108.3,5.845,1.85,335.95,54.895348,9.797490,54.892971,9.799169
1390066107,3,0,0.0,0,0,0,0,713,750,-0.0292,130.2925,6.8213,0.4212,54.891876,9.800323,108.3,5.845,1.85,335.95,54.895348,9.797490,54.892971,9.799169
1390066107,3,0,0.0,0,0,4,0,713,700,-0.0292,130.2925,6.8213,0.4212,54.891865,9.800344,108.3,5.845,1.85,335.95,54.895348,9.797490,54.892971,9.799169
1390066108,3,0,0.0,0,0,0,0,713,750,-0.0292,130.2925,6.8213,0.4212,54.891853,9.800366,108.3,5.845,1.85,335.95,54.895348,9.797490,54.892971,9.799169
1390066108,3,0,0.0,0,0,4,0,713,700,-0.0292,130.2925,6.8213,0.4212,54.891842,9.800388,108.3,5.845,1.85,335.95,54.895348,9.797490,54.892971,9.799169
1390066108,3,0,0.0,0,0,0,0,713,750,-0.0292,130.2925,6.8213,0.4212,54.891834,9.800410,108.3,5.845,1.85,335.95,54.895348,9.797490,54.892971,9.799169
1390066108,3,0,0.0,0,0,4,0,713,700,-0.0292,130.2925,6.8213,0.4212,54.891823,9.800432,108.3,5.845,1.85,335.95,54.895348,9.797490,54.892971,9.799169
1390066109,3,0,0.0,0,0,0,0,713,750,-0.0292,130.2925,6.8213,0.4212,54.891811,9.800454,108.3,5.845,1.85,335.95,54.895348,9.797490,54.892971,9.799169
1390066109,3,0,0.0,0,0,4,0,713,700,-0.0292,130.2925,6.8213,0.4212,54.891800,9.800476,108.3,5.845,1.85,335.95,54.895348,9.797490,54.892971,9.799169
1390066109,3,0,0.0,0,10,8,0,713,750,-0.0292,126.9591,6.8213,0.4212,54.891788,9.800498,108.3,5.845,1.85,335.95,54.895348,9.797490,54.892971,9.799169
1390066109,3,0,0.0,0,7,4,0,713,700,-0.0292,124.6258,6.8213,0.4212,54.891781,9.800521,108.3,5.845,1.85,335.95,54.895348,9.797490,54.892971,9.799169
1390066110,3,0,0.0,0,5,8,0,713,750,-0.0292,122.9591,6.8213,0.4212,54.891769,9.800544,108.3,5.845,1.85,335.95,54.895348,9.797490,54.892971,9.799169
1390066110,3,0,0.0,0,3,4,0,713,700,-0.0292,121.9591,6.8213,0.4212,54.891762,9.800568,108.3,5.845,1.85,335.95,54.895348,9.797490,54.892971,9.799169
1390066110,3,0,0.0,0,2,0,0,713,750,-0.0292,121.2925,6.8213,0.4212,54.891754,9.800591,108.3,5.845,1.85,335.95,54.895348,9.797490,54.892971,9.799169
1390066110,3,0,0.0,0,1,4,0,713,700,-0.0292,120.9591,6.8213,0.4212,54.891747,9.800614,108.3,5.845,1.85,335.95,54.895348,9.797490,54.892971,9.799169
1390066111,3,0,0.0,0,1,0,0,713,750,-0.0292,120.6258,6.8213,0.4212,54.891739,9.800638,108.3,5.845,1.85,335.95,54.895348,9.797490,54.892971,9.799169
1390066111,3,0,0.0,0,1,4,0,713,700,-0.0292,120.2925,6.8213,0.4212,54.891731,9.800662,108.3,5.845,1.85,335.95,54.895348,9.797490,54.892971,9.799169
1390066111,3,0,0.0,0,0,0,0,713,750,-0.0292,120.2925,6.8213,0.4212,54.891724,9.800686,108.3,5.845,1.85,335.95,54.895348,9.797490,54.892971,9.799169
1390066111,3,0,0.0,0,0,4,0,713,700,-0.0292,120.2925,6.8213,0.4212,54.891716,9.800710,108.3,5.845,1.85,335.95,54.895348,9.797490,54.892971,9.799169
1390066112,3,0,0.0,0,0,0,0,713,750,-0.0292,120.2925,6.8213,0.4212,54.891708,9.800734,108.3,5.845,1.85,335.95,54.895348,9.797490,54.892971,9.799169
1390066112,3,0,0.0,0,0,4,0,713,700,-0.0292,120.2925,6.8213,0.4212,54.891701,9.800757,108.3,5.845,1.85,335.95,54.895348,9.797490,54.892971,9.799169
1390066112,3,0,0.0,0,0,0,0,713,750,-0.0292,120.2925,6.8213,0.4212,54.891689,9.800781,108.3,5.845,1.85,335.95,54.895348,9.797490,54.892971,9.799169
1390066112,3,0,0.0,0,0,4,0,713,700,-0.0292,120.2925,6.8213,0.4212,54.891682,9.800805,108.3,5.845,1.85,335.95,54.895348,9.797490,54.892971,9.799169
1390066113,3,0,0.0,0,0,0,0,713,750,-0.0292,120.2925,6.8213,0.4212,54.891674,9.800829,108.3,5.845,1.85,335.95,54.895348,9.797490,54.892971,9.799169
1390066113,3,0,0.0,0,0,4,0,713,700,-0.0292,120.2925,6.8213,0.4212,54.891666,9.800853,108.3,5.845,1.85,335.95,54.895348,9.797490,54.892971,9.799169
1390066113,3,0,0.0,0,0,0,0,713,750,-0.0292,120.2925,6.8213,0.4212,54.891659,9.800877,108.3,5.845,1.85,335.95,54.895348,9.797490,54.892971,9.799169
1390066113,3,0,0.0,0,0,4,0,713,700,-0.0292,120.2925,6.8213,0.4212,54.891651,9.800900,108.3,5.845,1.85,335.95,54.895348,9.797490,54.892971,9.799169
1390066114,3,0,0.0,0,0,0,0,713,750,-0.0292,120.2925,6.8213,0.4212,54.891640,9.800924,108.3,5.845,1.85,335.95,54.895348,9.797490,54.892971,9.799169
1390066114,3,0,0.0,0,0,4,0,713,700,-0.0292,120.2925,6.8213,0.4212,54.891632,9.800948,108.3,5.845,1.85,335.95,54.895348,9.797490,54.892971,9.799169
1390066114,3,0,0.0,0,10,8,0,713,750,-0.0292,116.9591,6.8213,0.4212,54.891624,9.800972,108.3,5.845,1.85,335.95,54.895348,9.797490,54.892971,9.799169
1390066114,3,0,0.0,0,7,4,0,713,700,-0.0292,114.6258,6.8213,0.4212,54.891621,9.800997,108.3,5.845,1.85,335.95,54.895348,9.797490,54.892971,9.799169
1390066115,3,0,0.0,0,5,8,0,713,750,-0.0292,112.9591,6.8213,0.4212,54.891617,9.801021,108.3,5.845,1.85,335.95,54.895348,9.797490,54.892971,9.799169
1390066115,3,0,0.0,0,3,4,0,713,700,-0.0292,111.9591,6.8213,0.4212,54.891613,9.801045,108.3,5.845,1.85,335.95,54.895348,9.797490,54.892971,9.799169
1390066115,3,0,0.0,0,2,0,0,713,750,-0.0292,111.2925,6.8213,0.4212,54.891609,9.801070,108.3,5.845,1.85,335.95,54.895348,9.797490,54.892971,9.799169
1390066115,3,0,0.0,0,1,4,0,713,700,-0.0292,110.9591,6.8213,0.4212,54.891602,9.801095,108.3,5.845,1.85,335.95,54.895348,9.797490,54.892971,9.799169
1390066116,3,0,0.0,0,1,0,0,713,750,-0.0292,110.6258,6.8213,0.4212,54.891594,9.801120,108.3,5.845,1.85,335.95,54.895348,9.797490,54.892971,9.799169
1390066116,3,0,0.0,0,1,4,0,870,800,-0.0292,110.2925,6.8213,0.4212,54.891590,9.801144,108.3,5.845,1.85,335.95,54.895348,9.797490,54.892971,9.799169
1390066116,3,0,0.0,0,0,0,0,870,850,-0.0292,110.2925,6.8213,0.4212,54.891586,9.801168,108.3,5.845,1.85,335.95,54.895348,9.797490,54.892971,9.799169
1390066116,3,0,0.0,0,0,4,0,870,900,-0.0292,110.2925,6.8213,0.4212,54.891579,9.801193,108.3,5.845,1.85,335.95,54.895348,9.797490,54.892971,9.799169
1390066117,3,0,0.0,0,0,0,0,870,850,-0.0292,110.2925,6.8213,0.4212,54.891571,9.801218,108.3,5.845,1.85,335.95,54.895348,9.797490,54.892971,9.799169
1390066117,3,0,0.0,0,0,4,0,870,900,-0.0292,110.2925,6.8213,0.4212,54.891567,9.801243,108.3,5.845,1.85,335.95,54.895348,9.797490,54.892971,9.799169
1390066117,3,0,0.0,0,0,0,0,870,850,-0.0292,110.2925,6.8213,0.4212,54.891563,9.801268,108.3,5.845,1.85,335.95,54.895348,9.797490,54.892971,9.799169
1390066117,3,0,0.0,0,0,4,0,870,900,-0.0292,110.2925,6.8213,0.4212,54.891560,9.801292,108.3,5.845,1.85,335.95,54.895348,9.797490,54.892971,9.799169
1390066118,3,0,0.0,0,0,0,0,870,850,-0.0292,110.2925,6.8213,0.4212,54.891552,9.801316,108.3,5.845,1.85,335.95,54.895348,9.797490,54.892971,9.799169
1390066118,3,0,0.0,0,0,4,0,870,900,-0.0292,110.2925,6.8213,0.4212,54.891544,9.801341,108.3,5.845,1.85,335.95,54.895348,9.797490,54.892971,9.799169
1390066118,3,0,0.0,0,0,0,0,870,850,-0.0292,110.2925,6.8213,0.4212,54.891541,9.801366,108.3,5.845,1.85,335.95,54.895348,9.797490,54.892971,9.799169
1390066118,3,0,0.0,0,0,4,0,870,900,-0.0292,110.2925,6.8213,0.4212,54.891537,9.801391,108.3,5.845,1.85,335.95,54.895348,9.797490,54.892971,9.799169
1390066119,3,0,0.0,0,0,0,0,870,850,-0.0292,110.2925,6.8213,0.4212,54.891529,9.801415,108.3,5.845,1.85,335.95,54.895348,9.797490,54.892971,9.799169
1390066119,3,0,0.0,0,0,4,0,870,900,-0.0292,110.2925,6.8213,0.4212,54.891521,9.801440,108.3,5.845,1.85,335.95,54.895348,9.797490,54.892971,9.799169
1390066119,3,0,0.0,0,10,8,0,870,850,-0.0292,106.9591,6.8213,0.4212,54.891518,9.801465,108.3,5.845,1.85,335.95,54.895348,9.797490,54.892971,9.799169
1390066119,3,0,0.0,0,7,4,0,870,900,-0.0292,104.6258,6.8213,0.4212,54.891514,9.801489,108.3,5.845,1.85,335.95,54.895348,9.797490,54.892971,9.799169
1390066120,3,0,0.0,0,5,8,0,870,850,-0.0292,102.9591,6.8213,0.4212,54.891510,9.801514,108.3,5.845,1.85,335.95,54.895348,9.797490,54.892971,9.799169
1390066120,3,0,0.0,0,3,4,0,870,900,-0.0292,101.9591,6.8213,0.4212,54.891506,9.801538,108.3,5.845,1.85,335.95,54.895348,9.797490,54.892971,9.799169
1390066120,3,0,0.0,0,2,0,0,870,850,-0.0292,101.2925,6.8213,0.4212,54.891502,9.801563,108.3,5.845,1.85,335.95,54.895348,9.797490,54.892971,9.799169
1390066120,3,0,0.0,0,1,4,0,870,900,-0.0292,100.9591,6.8213,0.4212,54.891502,9.801588,108.3,5.845,1.85,335.95,54.895348,9.797490,54.892971,9.799169
1390066121,3,0,0.0,0,1,0,0,870,850,-0.0292,100.6258,6.8213,0.4212,54.891502,9.801613,108.3,5.845,1.85,335.95,54.895348,9.797490,54.892971,9.799169
1390066121,3,0,0.0,0,1,4,0,870,900,-0.0292,100.2925,6.8213,0.4212,54.891502,9.801638,108.3,5.845,1.85,335.95,54.895348,9.797490,54.892971,9.799169
1390066121,3,0,0.0,0,0,0,0,870,850,-0.0292,100.2925,6.8213,0.4212,54.891502,9.801661,108.3,5.845,1.85,335.95,54.895348,9.797490,54.892971,9.799169
1390066121,3,0,0.0,0,0,4,0,870,900,-0.0292,100.2925,6.8213,0.4212,54.891502,9.801686,108.3,5.845,1.85,335.95,54.895348,9.797490,54.892971,9.799169
1390066122,3,0,0.0,0,0,0,0,870,850,-0.0292,100.2925,6.8213,0.4212,54.891502,9.801710,108.3,5.845,1.85,335.95,54.895348,9.797490,54.892971,9.799169
1390066122,3,0,0.0,0,0,4,0,870,900,-0.0292,100.2925,6.8213,0.4212,54.891502,9.801735,108.3,5.845,1.85,335.95,54.895348,9.797490,54.892971,9.799169
1390066122,3,0,0.0,0,0,0,0,870,850,-0.0292,100.2925,6.8213,0.4212,54.891502,9.801760,108.3,5.845,1.85,335.95,54.895348,9.797490,54.892971,9.799169
1390066122,3,0,0.0,0,0,4,0,870,900,-0.0292,100.2925,6.8213,0.4212,54.891502,9.801785,108.3,5.845,1.85,335.95,54.895348,9.797490,54.892971,9.799169
1390066123,3,0,0.0,0,0,0,0,870,850,-0.0292,100.2925,6.8213,0.4212,54.891502,9.801809,108.3,5.845,1.85,335.95,54.895348,9.797490,54.892971,9.799169
1390066123,3,0,0.0,0,0,4,0,870,900,-0.0292,100.2925,6.8213,0.4212,54.891502,9.801833,108.3,5.845,1.85,335.95,54.895348,9.797490,54.892971,9.799169
1390066123,3,0,0.0,0,0,0,0,870,850,-0.0292,100.2925,6.8213,0.4212,54.891502,9.801858,108.3,5.845,1.85,335.95,54.895348,9.797490,54.892971,9.799169
1390066123,3,0,0.0,0,0,4,0,870,900,-0.0292,100.2925,6.8213,0.4212,54.891502,9.801882,108.3,5.845,1.85,335.95,54.895348,9.797490,54.892971,9.799169
1390066124,3,0,0.0,0,0,0,0,870,850,-0.0292,100.2925,6.8213,0.4212,54.891502,9.801907,108.3,5.845,1.85,335.95,54.895348,9.797490,54.892971,9.799169
1390066124,3,0,0.0,0,0,4,0,870,900,-0.0292,100.2925,6.8213,0.4212,54.891502,9.801931,108.3,5.845,1.85,335.95,54.895348,9.797490,54.892971,9.799169
