MCU_timestamp,Navigation_System,Manual_Control,Guidance_Heading,Manual_Ctrl_Rudder,Rudder_Desired_Angle,Rudder_Feedback,Manual_Ctrl_Sail,Sail_Desired_Pos,Sail_Feedback,Rate,Heading,Pitch,Roll,Latitude,Longitude,COG,SOG,Wind_Speed,Wind_Angle,Point_Start_Lat,Point_Start_Lon,Point_End_Lat,Point_End_Lon
1386950556,1,0,485.9,0,-35,-4,0,587,550,-0.0292,87.0922,6.8213,0.4212,54.895069,9.795396,108.3,5.845,1.85,335.95,54.895069,9.795364,0.000000,0.000000
1386950556,1,0,485.9,0,-35,-8,0,730,600,-0.0292,96.4255,6.8213,0.4212,54.895065,9.795427,108.3,5.845,1.85,335.95,54.895069,9.795364,0.000000,0.000000
1386950556,1,0,485.9,0,-30,-12,0,865,650,-0.0292,104.4255,6.8213,0.4212,54.895061,9.795457,108.3,5.845,1.85,335.95,54.895069,9.795364,0.000000,0.000000
1386950556,1,0,485.9,0,-22,-16,0,870,700,-0.0292,110.2922,6.8213,0.4212,54.895058,9.795486,108.3,5.845,1.85,335.95,54.895069,9.795364,0.000000,0.000000
1386950557,1,0,485.9,0,-16,-12,0,870,750,-0.0292,114.5588,6.8213,0.4212,54.895050,9.795515,108.3,5.845,1.85,335.95,54.895069,9.795364,0.000000,0.000000
1386950557,1,0,485.9,0,-11,-8,0,713,700,-0.0292,117.4922,6.8213,0.4212,54.895042,9.795543,108.3,5.845,1.85,335.95,54.895069,9.795364,0.000000,0.000000
1386950557,1,0,485.9,0,-8,-4,0,713,750,-0.0292,119.6255,6.8213,0.4212,54.895035,9.795570,108.3,5.845,1.85,335.95,54.895069,9.795364,0.000000,0.000000
1386950557,1,0,485.9,0,-6,-8,0,713,700,-0.0292,121.2255,6.8213,0.4212,54.895027,9.795597,108.3,5.845,1.85,335.95,54.895069,9.795364,0.000000,0.000000
1386950558,1,0,485.9,0,-5,-4,0,713,750,-0.0292,122.5588,6.8213,0.4212,54.895016,9.795623,108.3,5.845,1.85,335.95,54.895069,9.795364,0.000000,0.000000
1386950558,1,0,485.9,0,-3,0,0,0,700,-0.0292,123.3588,6.8213,0.4212,54.895008,9.795650,108.3,5.845,1.85,335.95,54.895069,9.795364,0.000000,0.000000
1386950558,1,0,485.9,0,-3,-4,0,0,650,-0.0292,124.1589,6.8213,0.4212,54.894997,9.795675,108.3,5.845,1.85,335.95,54.895069,9.795364,0.000000,0.000000
1386950558,1,0,485.9,0,-2,0,0,0,600,-0.0292,124.6922,6.8213,0.4212,54.894985,9.795700,108.3,5.845,1.85,335.95,54.895069,9.795364,0.000000,0.000000
1386950559,1,0,485.9,0,-1,-4,0,0,550,-0.0292,124.9589,6.8213,0.4212,54.894974,9.795726,108.3,5.845,1.85,335.95,54.895069,9.795364,0.000000,0.000000
1386950559,1,0,485.9,0,-1,0,0,0,500,-0.0292,125.2255,6.8213,0.4212,54.894962,9.795751,108.3,5.845,1.85,335.95,54.895069,9.795364,0.000000,0.000000
1386950559,1,0,485.9,0,-1,-4,0,0,450,-0.0292,125.4922,6.8213,0.4212,54.894951,9.795776,108.3,5.845,1.85,335.95,54.895069,9.795364,0.000000,0.000000
1386950559,1,0,485.9,0,0,0,0,0,400,-0.0292,125.4922,6.8213,0.4212,54.894939,9.795802,108.3,5.845,1.85,335.95,54.895069,9.795364,0.000000,0.000000
1386950560,1,0,485.9,0,0,4,0,0,350,-0.0292,125.4922,6.8213,0.4212,54.894932,9.795828,108.3,5.845,1.85,335.95,54.895069,9.795364,0.000000,0.000000
1386950560,1,0,485.9,0,0,0,0,0,300,-0.0292,125.4922,6.8213,0.4212,54.894920,9.795854,108.3,5.845,1.85,335.95,54.895069,9.795364,0.000000,0.000000
1386950560,1,0,485.9,0,0,4,0,0,250,-0.0292,125.4922,6.8213,0.4212,54.894913,9.795878,108.3,5.845,1.85,335.95,54.895069,9.795364,0.000000,0.000000
1386950560,1,0,485.9,0,0,0,0,0,200,-0.0292,125.4922,6.8213,0.4212,54.894901,9.795904,108.3,5.845,1.85,335.95,54.895069,9.795364,0.000000,0.000000
1386950561,1,0,485.9,0,0,4,0,0,150,-0.0292,125.4922,6.8213,0.4212,54.894890,9.795929,108.3,5.845,1.85,335.95,54.895069,9.795364,0.000000,0.000000
1386950561,1,0,485.9,0,0,0,0,0,100,-0.0292,125.4922,6.8213,0.4212,54.894882,9.795955,108.3,5.845,1.85,335.95,54.895069,9.795364,0.000000,0.000000
1386950561,1,0,485.9,0,0,4,0,0,50,-0.0292,125.4922,6.8213,0.4212,54.894871,9.795980,108.3,5.845,1.85,335.95,54.895069,9.795364,0.000000,0.000000
1386950561,1,0,485.9,0,0,0,0,0,0,-0.0292,125.4922,6.8213,0.4212,54.894863,9.796005,108.3,5.845,1.85,335.95,54.895069,9.795364,0.000000,0.000000
1386950562,1,0,485.9,0,0,4,0,0,0,-0.0292,125.4922,6.8213,0.4212,54.894852,9.796031,108.3,5.845,1.85,335.95,54.895069,9.795364,0.000000,0.000000
1386950562,1,0,545.9,0,-35,0,0,0,0,-0.0292,134.8255,6.8213,0.4212,54.894836,9.796053,108.3,5.845,1.85,335.95,54.895069,9.795364,0.000000,0.000000
1386950562,1,0,545.9,0,-35,-4,0,0,0,-0.0292,144.1589,6.8213,0.4212,54.894821,9.796071,108.3,5.845,1.85,335.95,54.895069,9.795364,0.000000,0.000000
1386950562,1,0,545.9,0,-35,-8,0,0,0,-0.0292,153.4922,6.8213,0.4212,54.894806,9.796084,108.3,5.845,1.85,335.95,54.895069,9.795364,0.000000,0.000000
1386950563,1,0,545.9,0,-32,-12,0,0,0,-0.0292,162.0255,6.8213,0.4212,54.894787,9.796094,108.3,5.845,1.85,335.95,54.895069,9.795364,0.000000,0.000000
1386950563,1,0,545.9,0,-24,-16,0,0,0,-0.0292,168.4255,6.8213,0.4212,54.894768,9.796101,108.3,5.845,1.85,335.95,54.895069,9.795364,0.000000,0.000000
1386950563,1,0,545.9,0,-18,-20,0,0,0,-0.0292,173.2255,6.8213,0.4212,54.894753,9.796104,108.3,5.845,1.85,335.95,54.895069,9.795364,0.000000,0.000000
1386950563,1,0,545.9,0,-13,-16,0,0,0,-0.0292,176.6922,6.8213,0.4212,54.894733,9.796105,108.3,5.845,1.85,335.95,54.895069,9.795364,0.000000,0.000000
1386950564,1,0,545.9,0,-9,-12,0,0,0,-0.0292,179.0922,6.8213,0.4212,54.894714,9.796105,108.3,5.845,1.85,335.95,54.895069,9.795364,0.000000,0.000000
1386950564,1,0,545.9,0,-7,-8,0,0,0,-0.0292,180.9588,6.8213,0.4212,54.894695,9.796104,108.3,5.845,1.85,335.95,54.895069,9.795364,0.000000,0.000000
1386950564,1,0,545.9,0,-5,-4,0,0,0,-0.0292,182.2922,6.8213,0.4212,54.894680,9.796103,108.3,5.845,1.85,335.95,54.895069,9.795364,0.000000,0.000000
1386950564,1,0,545.9,0,-4,0,0,713,50,-0.0292,183.3588,6.8213,0.4212,54.894661,9.796102,108.3,5.845,1.85,335.95,54.895069,9.795364,0.000000,0.000000
1386950565,1,0,545.9,0,-3,-4,0,713,100,-0.0292,184.1588,6.8213,0.4212,54.894642,9.796100,108.3,5.845,1.85,335.95,54.895069,9.795364,0.000000,0.000000
1386950565,0,0,545.9,0,-3,-4,0,713,100,-0.0292,184.1588,6.8213,0.4212,54.894642,9.796100,108.3,5.845,1.85,335.95,54.895069,9.795364,0.000000,0.000000
1386950565,0,0,545.9,0,-3,-4,0,713,100,-0.0292,184.1588,6.8213,0.4212,54.894642,9.796100,108.3,5.845,1.85,335.95,54.895069,9.795364,0.000000,0.000000
1386950565,0,0,545.9,0,-3,-4,0,713,100,-0.0292,184.1588,6.8213,0.4212,54.894642,9.796100,108.3,5.845,1.85,335.95,54.895069,9.795364,0.000000,0.000000
1386950566,0,0,545.9,0,-3,-4,0,713,100,-0.0292,184.1588,6.8213,0.4212,54.894642,9.796100,108.3,5.845,1.85,335.95,54.895069,9.795364,0.000000,0.000000
1386950566,0,0,545.9,0,-3,-4,0,713,100,-0.0292,184.1588,6.8213,0.4212,54.894642,9.796100,108.3,5.845,1.85,335.95,54.895069,9.795364,0.000000,0.000000
1386950566,4,0,545.9,0,-3,-4,0,713,100,-0.0292,184.1588,6.8213,0.4212,54.894642,9.796100,108.3,5.845,1.85,335.95,54.895069,9.795364,0.000000,0.000000
1386950566,1,0,545.9,0,-2,0,0,713,150,-0.0292,184.6922,6.8213,0.4212,54.894623,9.796098,108.3,5.845,1.85,335.95,54.894642,9.796100,54.895069,9.793790
1386950567,1,0,545.9,0,-1,-4,0,713,200,-0.0292,184.9588,6.8213,0.4212,54.894608,9.796096,108.3,5.845,1.85,335.95,54.894642,9.796100,54.895069,9.793790
1386950567,1,0,545.9,0,-1,0,0,713,250,-0.0292,185.2255,6.8213,0.4212,54.894588,9.796093,108.3,5.845,1.85,335.95,54.894642,9.796100,54.895069,9.793790
1386950567,1,0,545.9,0,-1,-4,0,713,300,-0.0292,185.4922,6.8213,0.4212,54.894569,9.796090,108.3,5.845,1.85,335.95,54.894642,9.796100,54.895069,9.793790
1386950567,1,0,545.9,0,0,0,0,713,350,-0.0292,185.4922,6.8213,0.4212,54.894554,9.796087,108.3,5.845,1.85,335.95,54.894642,9.796100,54.895069,9.793790
1386950568,1,0,545.9,0,0,4,0,713,400,-0.0292,185.4922,6.8213,0.4212,54.894535,9.796084,108.3,5.845,1.85,335.95,54.894642,9.796100,54.895069,9.793790
1386950568,1,0,280.9,0,-35,0,0,713,450,-0.0292,194.8255,6.8213,0.4212,54.894516,9.796077,108.3,5.845,1.85,335.95,54.894642,9.796100,54.895069,9.793790
1386950568,1,0,280.9,0,-35,-4,0,713,500,-0.0292,204.1588,6.8213,0.4212,54.894501,9.796063,108.3,5.845,1.85,335.95,54.894642,9.796100,54.895069,9.793790
1386950568,1,0,280.9,0,-35,-8,0,870,550,-0.0292,213.4922,6.8213,0.4212,54.894489,9.796045,108.3,5.845,1.85,335.95,54.894642,9.796100,54.895069,9.793790
1386950569,1,0,280.9,0,-35,-12,0,870,600,-0.0292,222.8255,6.8213,0.4212,54.894474,9.796024,108.3,5.845,1.85,335.95,54.894642,9.796100,54.895069,9.793790
1386950569,1,0,280.9,0,-35,-16,0,759,650,-0.0292,232.1588,6.8213,0.4212,54.894463,9.796000,108.3,5.845,1.85,335.95,54.894642,9.796100,54.895069,9.793790
1386950569,1,0,280.9,0,-35,-20,0,617,600,-0.0292,241.4921,6.8213,0.4212,54.894455,9.795972,108.3,5.845,1.85,335.95,54.894642,9.796100,54.895069,9.793790
1386950569,1,0,280.9,0,-35,-24,0,470,550,-0.0292,250.8255,6.8213,0.4212,54.894447,9.795943,108.3,5.845,1.85,335.95,54.894642,9.796100,54.895069,9.793790
1386950570,1,0,280.9,0,-30,-28,0,321,500,-0.0292,258.8255,6.8213,0.4212,54.894444,9.795913,108.3,5.845,1.85,335.95,54.894642,9.796100,54.895069,9.793790
1386950570,1,0,280.9,0,-22,-24,0,199,450,-0.0292,264.6921,6.8213,0.4212,54.894444,9.795881,108.3,5.845,1.85,335.95,54.894642,9.796100,54.895069,9.793790
1386950570,1,0,280.9,0,-16,-20,0,119,400,-0.0292,268.9588,6.8213,0.4212,54.894444,9.795851,108.3,5.845,1.85,335.95,54.894642,9.796100,54.895069,9.793790
1386950570,1,0,280.9,0,-12,-16,0,69,350,-0.0292,272.1588,6.8213,0.4212,54.894444,9.795819,108.3,5.845,1.85,335.95,54.894642,9.796100,54.895069,9.793790
1386950571,1,0,280.9,0,-9,-12,0,38,300,-0.0292,274.5588,6.8213,0.4212,54.894444,9.795788,108.3,5.845,1.85,335.95,54.894642,9.796100,54.895069,9.793790
1386950571,1,0,280.9,0,-6,-8,0,21,250,-0.0292,276.1588,6.8213,0.4212,54.894447,9.795757,108.3,5.845,1.85,335.95,54.894642,9.796100,54.895069,9.793790
1386950571,1,0,280.9,0,-5,-4,0,11,200,-0.0292,277.4922,6.8213,0.4212,54.894451,9.795727,108.3,5.845,1.85,335.95,54.894642,9.796100,54.895069,9.793790
1386950571,1,0,280.9,0,-3,0,0,6,150,-0.0292,278.2921,6.8213,0.4212,54.894455,9.795695,108.3,5.845,1.85,335.95,54.894642,9.796100,54.895069,9.793790
1386950572,1,0,280.9,0,-3,-4,0,3,100,-0.0292,279.0921,6.8213,0.4212,54.894455,9.795665,108.3,5.845,1.85,335.95,54.894642,9.796100,54.895069,9.793790
1386950572,1,0,280.9,0,-2,0,0,1,50,-0.0292,279.6255,6.8213,0.4212,54.894455,9.795634,108.3,5.845,1.85,335.95,54.894642,9.796100,54.895069,9.793790
1386950572,1,0,280.9,0,-1,-4,0,0,0,-0.0292,279.8921,6.8213,0.4212,54.894455,9.795603,108.3,5.845,1.85,335.95,54.894642,9.796100,54.895069,9.793790
1386950572,1,0,280.9,0,-1,0,0,0,0,-0.0292,280.1588,6.8213,0.4212,54.894455,9.795572,108.3,5.845,1.85,335.95,54.894642,9.796100,54.895069,9.793790
1386950573,1,0,280.9,0,-1,-4,0,0,0,-0.0292,280.4254,6.8213,0.4212,54.894455,9.795542,108.3,5.845,1.85,335.95,54.894642,9.796100,54.895069,9.793790
1386950573,1,0,280.9,0,-1,0,0,0,0,-0.0292,280.6921,6.8213,0.4212,54.894455,9.795511,108.3,5.845,1.85,335.95,54.894642,9.796100,54.895069,9.793790
1386950573,1,0,280.9,0,0,4,0,0,0,-0.0292,280.6921,6.8213,0.4212,54.894455,9.795481,108.3,5.845,1.85,335.95,54.894642,9.796100,54.895069,9.793790
1386950573,1,0,280.9,0,0,0,0,0,0,-0.0292,280.6921,6.8213,0.4212,54.894455,9.795450,108.3,5.845,1.85,335.95,54.894642,9.796100,54.895069,9.793790
1386950574,1,0,280.9,0,0,4,0,0,0,-0.0292,280.6921,6.8213,0.4212,54.894455,9.795420,108.3,5.845,1.85,335.95,54.894642,9.796100,54.895069,9.793790
1386950574,1,0,280.9,0,0,0,0,0,0,-0.0292,280.6921,6.8213,0.4212,54.894455,9.795388,108.3,5.845,1.85,335.95,54.894642,9.796100,54.895069,9.793790
1386950574,1,0,280.9,0,0,4,0,0,0,-0.0292,280.6921,6.8213,0.4212,54.894455,9.795358,108.3,5.845,1.85,335.95,54.894642,9.796100,54.895069,9.793790
1386950574,1,0,280.9,0,0,0,0,0,0,-0.0292,280.6921,6.8213,0.4212,54.894455,9.795327,108.3,5.845,1.85,335.95,54.894642,9.796100,54.895069,9.793790
1386950575,1,0,280.9,0,0,4,0,0,0,-0.0292,280.6921,6.8213,0.4212,54.894455,9.795297,108.3,5.845,1.85,335.95,54.894642,9.796100,54.895069,9.793790
1386950575,1,0,280.9,0,0,0,0,0,0,-0.0292,280.6921,6.8213,0.4212,54.894455,9.795266,108.3,5.845,1.85,335.95,54.894642,9.796100,54.895069,9.793790
1386950575,1,0,280.9,0,0,4,0,0,0,-0.0292,280.6921,6.8213,0.4212,54.894455,9.795236,108.3,5.845,1.85,335.95,54.894642,9.796100,54.895069,9.793790
1386950575,1,0,280.9,0,0,0,0,0,0,-0.0292,280.6921,6.8213,0.4212,54.894455,9.795205,108.3,5.845,1.85,335.95,54.894642,9.796100,54.895069,9.793790
1386950576,1,0,280.9,0,0,4,0,0,0,-0.0292,280.6921,6.8213,0.4212,54.894455,9.795174,108.3,5.845,1.85,335.95,54.894642,9.796100,54.895069,9.793790
1386950576,1,0,280.9,0,0,0,0,0,0,-0.0292,280.6921,6.8213,0.4212,54.894455,9.795143,108.3,5.845,1.85,335.95,54.894642,9.796100,54.895069,9.793790
1386950576,1,0,390.9,0,-35,-4,0,0,0,-0.0292,290.0255,6.8213,0.4212,54.894459,9.795114,108.3,5.845,1.85,335.95,54.894642,9.796100,54.895069,9.793790
1386950576,1,0,390.9,0,-35,-8,0,0,0,-0.0292,299.3588,6.8213,0.4212,54.894466,9.795087,108.3,5.845,1.85,335.95,54.894642,9.796100,54.895069,9.793790
1386950577,1,0,390.9,0,-35,-12,0,0,0,-0.0292,308.6921,6.8213,0.4212,54.894478,9.795062,108.3,5.845,1.85,335.95,54.894642,9.796100,54.895069,9.793790
1386950577,1,0,390.9,0,-35,-16,0,0,0,-0.0292,318.0255,6.8213,0.4212,54.894493,9.795041,108.3,5.845,1.85,335.95,54.894642,9.796100,54.895069,9.793790
1386950577,1,0,390.9,0,-35,-20,0,0,0,-0.0292,327.3588,6.8213,0.4212,54.894508,9.795024,108.3,5.845,1.85,335.95,54.894642,9.796100,54.895069,9.793790
1386950577,1,0,390.9,0,-35,-24,0,0,0,-0.0292,336.6922,6.8213,0.4212,54.894524,9.795012,108.3,5.845,1.85,335.95,54.894642,9.796100,54.895069,9.793790
1386950578,1,0,390.9,0,-35,-28,0,0,0,-0.0292,346.0255,6.8213,0.4212,54.894543,9.795004,108.3,5.845,1.85,335.95,54.894642,9.796100,54.895069,9.793790
1386950578,1,0,390.9,0,-35,-32,0,0,0,-0.0292,355.3589,6.8213,0.4212,54.894562,9.795001,108.3,5.845,1.85,335.95,54.894642,9.796100,54.895069,9.793790
1386950578,1,0,390.9,0,-35,-36,0,0,0,-0.0292,364.6922,6.8213,0.4212,54.894581,9.795003,108.3,5.845,1.85,335.95,54.894642,9.796100,54.895069,9.793790
1386950578,1,0,390.9,0,-26,-32,0,0,0,-0.0292,371.6255,6.8213,0.4212,54.894596,9.795009,108.3,5.845,1.85,335.95,54.894642,9.796100,54.895069,9.793790
1386950579,1,0,390.9,0,-19,-28,0,0,0,-0.0292,376.6922,6.8213,0.4212,54.894615,9.795017,108.3,5.845,1.85,335.95,54.894642,9.796100,54.895069,9.793790
1386950579,1,0,390.9,0,-14,-24,0,0,0,-0.0292,380.4255,6.8213,0.4212,54.894630,9.795029,108.3,5.845,1.85,335.95,54.894642,9.796100,54.895069,9.793790
1386950579,1,0,390.9,0,-11,-20,0,0,0,-0.0292,383.3589,6.8213,0.4212,54.894646,9.795041,108.3,5.845,1.85,335.95,54.894642,9.796100,54.895069,9.793790
1386950579,1,0,390.9,0,-8,-16,0,0,0,-0.0292,385.4922,6.8213,0.4212,54.894665,9.795054,108.3,5.845,1.85,335.95,54.894642,9.796100,54.895069,9.793790
1386950580,1,0,390.9,0,-5,-12,0,0,0,-0.0292,386.8255,6.8213,0.4212,54.894680,9.795069,108.3,5.845,1.85,335.95,54.894642,9.796100,54.895069,9.793790
1386950580,1,0,390.9,0,-4,-8,0,0,0,-0.0292,387.8922,6.8213,0.4212,54.894695,9.795084,108.3,5.845,1.85,335.95,54.894642,9.796100,54.895069,9.793790
1386950580,1,0,390.9,0,-3,-4,0,0,0,-0.0292,388.6922,6.8213,0.4212,54.894714,9.795098,108.3,5.845,1.85,335.95,54.894642,9.796100,54.895069,9.793790
1386950580,1,0,390.9,0,-2,0,0,0,0,-0.0292,389.2255,6.8213,0.4212,54.894730,9.795114,108.3,5.845,1.85,335.95,54.894642,9.796100,54.895069,9.793790
1386950581,1,0,390.9,0,-2,-4,0,0,0,-0.0292,389.7589,6.8213,0.4212,54.894745,9.795130,108.3,5.845,1.85,335.95,54.894642,9.796100,54.895069,9.793790
1386950581,1,0,390.9,0,-1,0,0,0,0,-0.0292,390.0255,6.8213,0.4212,54.894760,9.795145,108.3,5.845,1.85,335.95,54.894642,9.796100,54.895069,9.793790
1386950581,1,0,390.9,0,-1,-4,0,0,0,-0.0292,390.2922,6.8213,0.4212,54.894775,9.795161,108.3,5.845,1.85,335.95,54.894642,9.796100,54.895069,9.793790
1386950581,1,0,390.9,0,-1,0,0,0,0,-0.0292,390.5588,6.8213,0.4212,54.894791,9.795177,108.3,5.845,1.85,335.95,54.894642,9.796100,54.895069,9.793790
1386950582,1,0,390.9,0,0,4,0,0,0,-0.0292,390.5588,6.8213,0.4212,54.894806,9.795193,108.3,5.845,1.85,335.95,54.894642,9.796100,54.895069,9.793790
1386950582,1,0,390.9,0,0,0,0,0,0,-0.0292,390.5588,6.8213,0.4212,54.894821,9.795209,108.3,5.845,1.85,335.95,54.894642,9.796100,54.895069,9.793790
1386950582,1,0,390.9,0,0,4,0,0,0,-0.0292,390.5588,6.8213,0.4212,54.894840,9.795224,108.3,5.845,1.85,335.95,54.894642,9.796100,54.895069,9.793790
1386950582,1,0,390.9,0,0,0,0,0,0,-0.0292,390.5588,6.8213,0.4212,54.894855,9.795240,108.3,5.845,1.85,335.95,54.894642,9.796100,54.895069,9.793790
1386950583,1,0,390.9,0,0,4,0,0,0,-0.0292,390.5588,6.8213,0.4212,54.894871,9.795257,108.3,5.845,1.85,335.95,54.894642,9.796100,54.895069,9.793790
1386950583,1,0,390.9,0,0,0,0,0,0,-0.0292,390.5588,6.8213,0.4212,54.894890,9.795272,108.3,5.845,1.85,335.95,54.894642,9.796100,54.895069,9.793790
1386950583,1,0,390.9,0,0,4,0,0,0,-0.0292,390.5588,6.8213,0.4212,54.894905,9.795288,108.3,5.845,1.85,335.95,54.894642,9.796100,54.895069,9.793790
1386950583,1,0,390.9,0,0,0,0,0,0,-0.0292,390.5588,6.8213,0.4212,54.894920,9.795304,108.3,5.845,1.85,335.95,54.894642,9.796100,54.895069,9.793790
1386950584,1,0,390.9,0,0,4,0,0,0,-0.0292,390.5588,6.8213,0.4212,54.894939,9.795320,108.3,5.845,1.85,335.95,54.894642,9.796100,54.895069,9.793790
1386950584,1,0,390.9,0,0,0,0,0,0,-0.0292,390.5588,6.8213,0.4212,54.894955,9.795336,108.3,5.845,1.85,335.95,54.894642,9.796100,54.895069,9.793790
1386950584,1,0,390.9,0,0,4,0,0,0,-0.0292,390.5588,6.8213,0.4212,54.894970,9.795351,108.3,5.845,1.85,335.95,54.894642,9.796100,54.895069,9.793790
1386950584,1,0,390.9,0,0,0,0,0,0,-0.0292,390.5588,6.8213,0.4212,54.894989,9.795367,108.3,5.845,1.85,335.95,54.894642,9.796100,54.895069,9.793790
1386950585,1,0,390.9,0,0,4,0,0,0,-0.0292,390.5588,6.8213,0.4212,54.895004,9.795383,108.3,5.845,1.85,335.95,54.894642,9.796100,54.895069,9.793790
1386950585,1,0,390.9,0,0,0,0,0,0,-0.0292,390.5588,6.8213,0.4212,54.895020,9.795399,108.3,5.845,1.85,335.95,54.894642,9.796100,54.895069,9.793790
1386950585,1,0,390.9,0,0,4,0,0,0,-0.0292,390.5588,6.8213,0.4212,54.895039,9.795415,108.3,5.845,1.85,335.95,54.894642,9.796100,54.895069,9.793790
1386950585,1,0,390.9,0,0,0,0,0,0,-0.0292,390.5588,6.8213,0.4212,54.895054,9.795431,108.3,5.845,1.85,335.95,54.894642,9.796100,54.895069,9.793790
1386950586,1,0,390.9,0,0,4,0,0,0,-0.0292,390.5588,6.8213,0.4212,54.895069,9.795446,108.3,5.845,1.85,335.95,54.894642,9.796100,54.895069,9.793790
1386950586,1,0,390.9,0,0,0,0,0,0,-0.0292,390.5588,6.8213,0.4212,54.895081,9.795463,108.3,5.845,1.85,335.95,54.894642,9.796100,54.895069,9.793790
1386950586,1,0,390.9,0,0,4,0,0,0,-0.0292,390.5588,6.8213,0.4212,54.895096,9.795478,108.3,5.845,1.85,335.95,54.894642,9.796100,54.895069,9.793790
1386950587,1,0,390.9,0,0,0,0,0,0,-0.0292,390.5588,6.8213,0.4212,54.895111,9.795494,108.3,5.845,1.85,335.95,54.894642,9.796100,54.895069,9.793790
1386950587,1,0,390.9,0,0,4,0,0,0,-0.0292,390.5588,6.8213,0.4212,54.895126,9.795510,108.3,5.845,1.85,335.95,54.894642,9.796100,54.895069,9.793790
1386950587,1,0,390.9,0,0,0,0,0,0,-0.0292,390.5588,6.8213,0.4212,54.895142,9.795526,108.3,5.845,1.85,335.95,54.894642,9.796100,54.895069,9.793790
1386950587,1,0,390.9,0,0,4,0,0,0,-0.0292,390.5588,6.8213,0.4212,54.895161,9.795542,108.3,5.845,1.85,335.95,54.894642,9.796100,54.895069,9.793790
1386950588,1,0,390.9,0,0,0,0,0,0,-0.0292,390.5588,6.8213,0.4212,54.895176,9.795558,108.3,5.845,1.85,335.95,54.894642,9.796100,54.895069,9.793790
1386950588,1,0,390.9,0,0,4,0,0,0,-0.0292,390.5588,6.8213,0.4212,54.895191,9.795573,108.3,5.845,1.85,335.95,54.894642,9.796100,54.895069,9.793790
1386950588,1,0,390.9,0,0,0,0,0,0,-0.0292,390.5588,6.8213,0.4212,54.895210,9.795589,108.3,5.845,1.85,335.95,54.894642,9.796100,54.895069,9.793790
1386950588,1,0,390.9,0,0,4,0,0,0,-0.0292,390.5588,6.8213,0.4212,54.895226,9.795605,108.3,5.845,1.85,335.95,54.894642,9.796100,54.895069,9.793790
1386950589,1,0,390.9,0,0,0,0,0,0,-0.0292,390.5588,6.8213,0.4212,54.895241,9.795621,108.3,5.845,1.85,335.95,54.894642,9.796100,54.895069,9.793790
1386950589,1,0,260.8,0,35,4,0,0,0,-0.0292,381.2255,6.8213,0.4212,54.895260,9.795632,108.3,5.845,1.85,335.95,54.894642,9.796100,54.895069,9.793790
1386950589,1,0,259.9,0,35,8,0,0,0,-0.0292,371.8922,6.8213,0.4212,54.895279,9.795638,108.3,5.845,1.85,335.95,54.894642,9.796100,54.895069,9.793790
1386950589,1,0,258.9,0,35,12,0,0,0,-0.0292,362.5588,6.8213,0.4212,54.895298,9.795639,108.3,5.845,1.85,335.95,54.894642,9.796100,54.895069,9.793790
1386950590,1,0,257.9,0,35,16,0,0,0,-0.0292,353.2255,6.8213,0.4212,54.895313,9.795635,108.3,5.845,1.85,335.95,54.894642,9.796100,54.895069,9.793790
1386950590,1,0,257.1,0,35,20,0,0,0,-0.0292,343.8921,6.8213,0.4212,54.895332,9.795626,108.3,5.845,1.85,335.95,54.894642,9.796100,54.895069,9.793790
1386950590,1,0,256.1,0,35,24,0,0,0,-0.0292,334.5588,6.8213,0.4212,54.895351,9.795612,108.3,5.845,1.85,335.95,54.894642,9.796100,54.895069,9.793790
1386950590,1,0,255.0,0,35,28,0,0,0,-0.0292,325.2254,6.8213,0.4212,54.895367,9.795594,108.3,5.845,1.85,335.95,54.894642,9.796100,54.895069,9.793790
1386950591,1,0,254.1,0,35,32,0,0,0,-0.0292,315.8921,6.8213,0.4212,54.895378,9.795572,108.3,5.845,1.85,335.95,54.894642,9.796100,54.895069,9.793790
1386950591,1,0,253.3,0,35,36,0,0,0,-0.0292,306.5587,6.8213,0.4212,54.895390,9.795547,108.3,5.845,1.85,335.95,54.894642,9.796100,54.895069,9.793790
1386950591,1,0,252.5,0,35,32,0,0,0,-0.0292,297.2254,6.8213,0.4212,54.895397,9.795519,108.3,5.845,1.85,335.95,54.894642,9.796100,54.895069,9.793790
1386950591,1,0,251.8,0,35,36,0,0,0,-0.0292,287.8921,6.8213,0.4212,54.895401,9.795489,108.3,5.845,1.85,335.95,54.894642,9.796100,54.895069,9.793790
1386950592,1,0,251.4,0,35,32,0,0,0,-0.0292,278.5587,6.8213,0.4212,54.895405,9.795459,108.3,5.845,1.85,335.95,54.894642,9.796100,54.895069,9.793790
1386950592,1,0,250.8,0,28,28,0,3,50,-0.0292,271.0920,6.8213,0.4212,54.895405,9.795428,108.3,5.845,1.85,335.95,54.894642,9.796100,54.895069,9.793790
1386950592,1,0,250.5,0,21,24,0,48,0,-0.0292,265.4920,6.8213,0.4212,54.895405,9.795397,108.3,5.845,1.85,335.95,54.894642,9.796100,54.895069,9.793790
1386950592,1,0,250.1,0,15,20,0,109,50,-0.0292,261.4920,6.8213,0.4212,54.895401,9.795366,108.3,5.845,1.85,335.95,54.894642,9.796100,54.895069,9.793790
1386950593,1,0,250.0,0,11,16,0,161,100,-0.0292,258.5587,6.8213,0.4212,54.895397,9.795336,108.3,5.845,1.85,335.95,54.894642,9.796100,54.895069,9.793790
1386950593,1,0,249.9,0,9,12,0,203,150,-0.0292,256.1587,6.8213,0.4212,54.895393,9.795305,108.3,5.845,1.85,335.95,54.894642,9.796100,54.895069,9.793790
1386950593,1,0,249.7,0,6,8,0,239,200,-0.0292,254.5587,6.8213,0.4212,54.895386,9.795275,108.3,5.845,1.85,335.95,54.894642,9.796100,54.895069,9.793790
1386950593,1,0,249.8,0,5,4,0,263,250,-0.0292,253.2254,6.8213,0.4212,54.895382,9.795245,108.3,5.845,1.85,335.95,54.894642,9.796100,54.895069,9.793790
1386950594,1,0,249.6,0,4,8,0,284,300,-0.0292,252.1587,6.8213,0.4212,54.895378,9.795216,108.3,5.845,1.85,335.95,54.894642,9.796100,54.895069,9.793790
1386950594,1,0,249.5,0,3,4,0,300,300,-0.0292,251.3587,6.8213,0.4212,54.895374,9.795186,108.3,5.845,1.85,335.95,54.894642,9.796100,54.895069,9.793790
1386950594,1,0,249.3,0,2,0,0,313,350,-0.0292,250.8254,6.8213,0.4212,54.895367,9.795156,108.3,5.845,1.85,335.95,54.894642,9.796100,54.895069,9.793790
1386950594,1,0,249.4,0,1,4,0,321,300,-0.0292,250.5587,6.8213,0.4212,54.895359,9.795128,108.3,5.845,1.85,335.95,54.894642,9.796100,54.895069,9.793790
1386950595,1,0,249.5,0,1,0,0,325,350,-0.0292,250.2921,6.8213,0.4212,54.895355,9.795098,108.3,5.845,1.85,335.95,54.894642,9.796100,54.895069,9.793790
1386950595,1,0,249.3,0,1,4,0,330,300,-0.0292,250.0254,6.8213,0.4212,54.895351,9.795069,108.3,5.845,1.85,335.95,54.894642,9.796100,54.895069,9.793790
1386950595,1,0,249.1,0,1,0,0,334,350,-0.0292,249.7587,6.8213,0.4212,54.895344,9.795040,108.3,5.845,1.85,335.95,54.894642,9.796100,54.895069,9.793790
1386950595,1,0,249.2,0,1,4,0,338,300,-0.0292,249.4921,6.8213,0.4212,54.895336,9.795011,108.3,5.845,1.85,335.95,54.894642,9.796100,54.895069,9.793790
1386950596,1,0,249.3,0,0,0,0,342,350,-0.0292,249.4921,6.8213,0.4212,54.895332,9.794981,108.3,5.845,1.85,335.95,54.894642,9.796100,54.895069,9.793790
1386950596,1,0,249.1,0,0,4,0,342,300,-0.0292,249.4921,6.8213,0.4212,54.895329,9.794952,108.3,5.845,1.85,335.95,54.894642,9.796100,54.895069,9.793790
1386950596,1,0,248.9,0,1,0,0,342,350,-0.0292,249.2254,6.8213,0.4212,54.895321,9.794923,108.3,5.845,1.85,335.95,54.894642,9.796100,54.895069,9.793790
1386950596,1,0,249.0,0,0,4,0,346,300,-0.0292,249.2254,6.8213,0.4212,54.895313,9.794893,108.3,5.845,1.85,335.95,54.894642,9.796100,54.895069,9.793790
1386950597,1,0,249.1,0,0,0,0,346,350,-0.0292,249.2254,6.8213,0.4212,54.895309,9.794865,108.3,5.845,1.85,335.95,54.894642,9.796100,54.895069,9.793790
1386950597,1,0,248.9,0,0,4,0,346,300,-0.0292,249.2254,6.8213,0.4212,54.895306,9.794835,108.3,5.845,1.85,335.95,54.894642,9.796100,54.895069,9.793790
1386950597,1,0,248.6,0,1,0,0,346,350,-0.0292,248.9587,6.8213,0.4212,54.895298,9.794806,108.3,5.845,1.85,335.95,54.894642,9.796100,54.895069,9.793790
1386950597,1,0,248.7,0,0,4,0,351,400,-0.0292,248.9587,6.8213,0.4212,54.895290,9.794777,108.3,5.845,1.85,335.95,54.894642,9.796100,54.895069,9.793790
1386950598,1,0,248.8,0,0,0,0,351,350,-0.0292,248.9587,6.8213,0.4212,54.895283,9.794747,108.3,5.845,1.85,335.95,54.894642,9.796100,54.895069,9.793790
1386950598,1,0,248.9,0,0,4,0,351,400,-0.0292,248.9587,6.8213,0.4212,54.895279,9.794718,108.3,5.845,1.85,335.95,54.894642,9.796100,54.895069,9.793790
1386950598,1,0,248.7,0,0,0,0,351,350,-0.0292,248.9587,6.8213,0.4212,54.895271,9.794689,108.3,5.845,1.85,335.95,54.894642,9.796100,54.895069,9.793790
1386950598,1,0,248.8,0,0,4,0,351,400,-0.0292,248.9587,6.8213,0.4212,54.895264,9.794660,108.3,5.845,1.85,335.95,54.894642,9.796100,54.895069,9.793790
1386950599,1,0,248.9,0,0,0,0,351,350,-0.0292,248.9587,6.8213,0.4212,54.895260,9.794630,108.3,5.845,1.85,335.95,54.894642,9.796100,54.895069,9.793790
1386950599,1,0,248.6,0,0,4,0,351,400,-0.0292,248.9587,6.8213,0.4212,54.895256,9.794601,108.3,5.845,1.85,335.95,54.894642,9.796100,54.895069,9.793790
1386950599,1,0,248.3,0,1,0,0,351,350,-0.0292,248.6921,6.8213,0.4212,54.895248,9.794573,108.3,5.845,1.85,335.95,54.894642,9.796100,54.895069,9.793790
1386950599,1,0,248.4,0,0,4,0,355,400,-0.0292,248.6921,6.8213,0.4212,54.895241,9.794543,108.3,5.845,1.85,335.95,54.894642,9.796100,54.895069,9.793790
1386950600,1,0,248.5,0,0,0,0,355,350,-0.0292,248.6921,6.8213,0.4212,54.895237,9.794515,108.3,5.845,1.85,335.95,54.894642,9.796100,54.895069,9.793790
1386950600,1,0,248.2,0,1,4,0,355,400,-0.0292,248.4254,6.8213,0.4212,54.895233,9.794486,108.3,5.845,1.85,335.95,54.894642,9.796100,54.895069,9.793790
1386950600,1,0,247.8,0,1,0,0,359,350,-0.0292,248.1588,6.8213,0.4212,54.895226,9.794456,108.3,5.845,1.85,335.95,54.894642,9.796100,54.895069,9.793790
1386950600,1,0,247.9,0,0,4,0,363,400,-0.0292,248.1588,6.8213,0.4212,54.895218,9.794428,108.3,5.845,1.85,335.95,54.894642,9.796100,54.895069,9.793790
1386950601,1,0,248.1,0,0,0,0,363,350,-0.0292,248.1588,6.8213,0.4212,54.895210,9.794399,108.3,5.845,1.85,335.95,54.894642,9.796100,54.895069,9.793790
1386950601,1,0,248.2,0,0,4,0,363,400,-0.0292,248.1588,6.8213,0.4212,54.895206,9.794370,108.3,5.845,1.85,335.95,54.894642,9.796100,54.895069,9.793790
1386950601,1,0,247.7,0,0,0,0,363,350,-0.0292,248.1588,6.8213,0.4212,54.895199,9.794341,108.3,5.845,1.85,335.95,54.894642,9.796100,54.895069,9.793790
1386950601,1,0,247.9,0,0,4,0,363,400,-0.0292,248.1588,6.8213,0.4212,54.895191,9.794312,108.3,5.845,1.85,335.95,54.894642,9.796100,54.895069,9.793790
1386950602,1,0,248.0,0,0,0,0,363,350,-0.0292,248.1588,6.8213,0.4212,54.895187,9.794283,108.3,5.845,1.85,335.95,54.894642,9.796100,54.895069,9.793790
1386950602,1,0,247.5,0,1,4,0,363,400,-0.0292,247.8921,6.8213,0.4212,54.895184,9.794254,108.3,5.845,1.85,335.95,54.894642,9.796100,54.895069,9.793790
1386950602,1,0,246.9,0,1,0,0,368,350,-0.0292,247.6254,6.8213,0.4212,54.895176,9.794226,108.3,5.845,1.85,335.95,54.894642,9.796100,54.895069,9.793790
1386950602,1,0,247.0,0,1,4,0,372,400,-0.0292,247.3588,6.8213,0.4212,54.895168,9.794196,108.3,5.845,1.85,335.95,54.894642,9.796100,54.895069,9.793790
1386950603,1,0,247.1,0,0,0,0,376,350,-0.0292,247.3588,6.8213,0.4212,54.895161,9.794168,108.3,5.845,1.85,335.95,54.894642,9.796100,54.895069,9.793790
1386950603,1,0,247.3,0,0,4,0,376,400,-0.0292,247.3588,6.8213,0.4212,54.895153,9.794139,108.3,5.845,1.85,335.95,54.894642,9.796100,54.895069,9.793790
1386950603,1,0,247.4,0,0,0,0,376,350,-0.0292,247.3588,6.8213,0.4212,54.895145,9.794109,108.3,5.845,1.85,335.95,54.894642,9.796100,54.895069,9.793790
1386950603,1,0,247.6,0,0,4,0,376,400,-0.0292,247.3588,6.8213,0.4212,54.895138,9.794081,108.3,5.845,1.85,335.95,54.894642,9.796100,54.895069,9.793790
1386950604,1,0,247.8,0,0,0,0,376,350,-0.0292,247.3588,6.8213,0.4212,54.895134,9.794052,108.3,5.845,1.85,335.95,54.894642,9.796100,54.895069,9.793790
1386950604,1,0,246.9,0,0,4,0,376,400,-0.0292,247.3588,6.8213,0.4212,54.895126,9.794023,108.3,5.845,1.85,335.95,54.894642,9.796100,54.895069,9.793790
1386950604,1,0,247.0,0,0,0,0,376,350,-0.0292,247.3588,6.8213,0.4212,54.895119,9.793994,108.3,5.845,1.85,335.95,54.894642,9.796100,54.895069,9.793790
1386950604,1,0,247.2,0,0,4,0,376,400,-0.0292,247.3588,6.8213,0.4212,54.895111,9.793965,108.3,5.845,1.85,335.95,54.894642,9.796100,54.895069,9.793790
1386950605,1,0,247.5,0,0,0,0,376,350,-0.0292,247.3588,6.8213,0.4212,54.895103,9.793936,108.3,5.845,1.85,335.95,54.894642,9.796100,54.895069,9.793790
1386950605,1,0,247.9,0,-1,-4,0,376,400,-0.0292,247.6254,6.8213,0.4212,54.895096,9.793907,108.3,5.845,1.85,335.95,54.894642,9.796100,54.895069,9.793790
1386950605,1,0,248.5,0,-1,0,0,372,350,-0.0292,247.8921,6.8213,0.4212,54.895088,9.793879,108.3,5.845,1.85,335.95,54.894642,9.796100,54.895069,9.793790
1386950605,1,0,249.6,0,-2,-4,0,368,400,-0.0292,248.4254,6.8213,0.4212,54.895084,9.793849,108.3,5.845,1.85,335.95,54.894642,9.796100,54.895069,9.793790
1386950606,1,0,246.0,0,2,0,0,359,350,-0.0292,247.8921,6.8213,0.4212,54.895077,9.793820,108.3,5.845,1.85,335.95,54.895069,9.793790,54.895348,9.797490
1386950606,1,0,545.9,0,35,4,0,368,400,-0.0292,238.5588,6.8213,0.4212,54.895065,9.793794,108.3,5.845,1.85,335.95,54.895069,9.793790,54.895348,9.797490
1386950606,1,0,545.9,0,35,8,0,517,450,-0.0292,229.2254,6.8213,0.4212,54.895054,9.793770,108.3,5.845,1.85,335.95,54.895069,9.793790,54.895348,9.797490
1386950606,1,0,545.9,0,35,12,0,663,500,-0.0292,219.8921,6.8213,0.4212,54.895039,9.793750,108.3,5.845,1.85,335.95,54.895069,9.793790,54.895348,9.797490
1386950607,1,0,545.9,0,34,16,0,802,550,-0.0292,210.8254,6.8213,0.4212,54.895023,9.793734,108.3,5.845,1.85,335.95,54.895069,9.793790,54.895348,9.797490
1386950607,1,0,545.9,0,25,20,0,870,600,-0.0292,204.1588,6.8213,0.4212,54.895004,9.793721,108.3,5.845,1.85,335.95,54.895069,9.793790,54.895348,9.797490
1386950607,1,0,545.9,0,18,16,0,870,650,-0.0292,199.3588,6.8213,0.4212,54.894985,9.793711,108.3,5.845,1.85,335.95,54.895069,9.793790,54.895348,9.797490
1386950607,1,0,545.9,0,13,12,0,713,700,-0.0292,195.8921,6.8213,0.4212,54.894970,9.793702,108.3,5.845,1.85,335.95,54.895069,9.793790,54.895348,9.797490
1386950608,1,0,545.9,0,10,8,0,713,750,-0.0292,193.2254,6.8213,0.4212,54.894955,9.793695,108.3,5.845,1.85,335.95,54.895069,9.793790,54.895348,9.797490
1386950608,1,0,545.9,0,7,4,0,713,700,-0.0292,191.3588,6.8213,0.4212,54.894936,9.793690,108.3,5.845,1.85,335.95,54.895069,9.793790,54.895348,9.797490
1386950608,1,0,545.9,0,5,8,0,713,750,-0.0292,190.0254,6.8213,0.4212,54.894917,9.793685,108.3,5.845,1.85,335.95,54.895069,9.793790,54.895348,9.797490
1386950608,1,0,545.9,0,4,4,0,713,700,-0.0292,188.9588,6.8213,0.4212,54.894901,9.793680,108.3,5.845,1.85,335.95,54.895069,9.793790,54.895348,9.797490
1386950609,1,0,545.9,0,3,0,0,0,650,-0.0292,188.1588,6.8213,0.4212,54.894882,9.793675,108.3,5.845,1.85,335.95,54.895069,9.793790,54.895348,9.797490
1386950609,1,0,545.9,0,2,4,0,0,600,-0.0292,187.6254,6.8213,0.4212,54.894863,9.793672,108.3,5.845,1.85,335.95,54.895069,9.793790,54.895348,9.797490
1386950609,1,0,545.9,0,2,0,0,0,550,-0.0292,187.0921,6.8213,0.4212,54.894844,9.793668,108.3,5.845,1.85,335.95,54.895069,9.793790,54.895348,9.797490
1386950609,1,0,545.9,0,1,4,0,0,500,-0.0292,186.8254,6.8213,0.4212,54.894829,9.793664,108.3,5.845,1.85,335.95,54.895069,9.793790,54.895348,9.797490
1386950610,1,0,545.9,0,1,0,0,0,450,-0.0292,186.5588,6.8213,0.4212,54.894810,9.793660,108.3,5.845,1.85,335.95,54.895069,9.793790,54.895348,9.797490
1386950610,1,0,545.9,0,1,4,0,0,400,-0.0292,186.2921,6.8213,0.4212,54.894791,9.793656,108.3,5.845,1.85,335.95,54.895069,9.793790,54.895348,9.797490
1386950610,0,0,545.9,0,1,4,0,0,400,-0.0292,186.2921,6.8213,0.4212,54.894791,9.793656,108.3,5.845,1.85,335.95,54.895069,9.793790,54.895348,9.797490
1386950610,0,0,545.9,0,1,4,0,0,400,-0.0292,186.2921,6.8213,0.4212,54.894791,9.793656,108.3,5.845,1.85,335.95,54.895069,9.793790,54.895348,9.797490
1386950611,0,0,545.9,0,1,4,0,0,400,-0.0292,186.2921,6.8213,0.4212,54.894791,9.793656,108.3,5.845,1.85,335.95,54.895069,9.793790,54.895348,9.797490
1386950611,0,0,545.9,0,1,4,0,0,400,-0.0292,186.2921,6.8213,0.4212,54.894791,9.793656,108.3,5.845,1.85,335.95,54.895069,9.793790,54.895348,9.797490
1386950611,0,0,545.9,0,1,4,0,0,400,-0.0292,186.2921,6.8213,0.4212,54.894791,9.793656,108.3,5.845,1.85,335.95,54.895069,9.793790,54.895348,9.797490
1386950611,0,0,545.9,0,1,4,0,0,400,-0.0292,186.2921,6.8213,0.4212,54.894791,9.793656,108.3,5.845,1.85,335.95,54.895069,9.793790,54.895348,9.797490
1386950612,0,0,545.9,0,1,4,0,0,400,-0.0292,186.2921,6.8213,0.4212,54.894791,9.793656,108.3,5.845,1.85,335.95,54.895069,9.793790,54.895348,9.797490
1386950612,0,0,545.9,0,1,4,0,0,400,-0.0292,186.2921,6.8213,0.4212,54.894791,9.793656,108.3,5.845,1.85,335.95,54.895069,9.793790,54.895348,9.797490
1386950612,0,0,545.9,0,1,4,0,0,400,-0.0292,186.2921,6.8213,0.4212,54.894791,9.793656,108.3,5.845,1.85,335.95,54.895069,9.793790,54.895348,9.797490
1386950612,0,0,545.9,0,1,4,0,0,400,-0.0292,186.2921,6.8213,0.4212,54.894791,9.793656,108.3,5.845,1.85,335.95,54.895069,9.793790,54.895348,9.797490
1386950613,0,0,545.9,0,1,4,0,0,400,-0.0292,186.2921,6.8213,0.4212,54.894791,9.793656,108.3,5.845,1.85,335.95,54.895069,9.793790,54.895348,9.797490
1386950613,0,0,545.9,0,1,4,0,0,400,-0.0292,186.2921,6.8213,0.4212,54.894791,9.793656,108.3,5.845,1.85,335.95,54.895069,9.793790,54.895348,9.797490
1386950613,0,0,545.9,0,1,4,0,0,400,-0.0292,186.2921,6.8213,0.4212,54.894791,9.793656,108.3,5.845,1.85,335.95,54.895069,9.793790,54.895348,9.797490
1386950613,0,0,545.9,0,1,4,0,0,400,-0.0292,186.2921,6.8213,0.4212,54.894791,9.793656,108.3,5.845,1.85,335.95,54.895069,9.793790,54.895348,9.797490
1386950614,0,0,545.9,0,1,4,0,0,400,-0.0292,186.2921,6.8213,0.4212,54.894791,9.793656,108.3,5.845,1.85,335.95,54.895069,9.793790,54.895348,9.797490
1386950614,0,0,545.9,0,1,4,0,0,400,-0.0292,186.2921,6.8213,0.4212,54.894791,9.793656,108.3,5.845,1.85,335.95,54.895069,9.793790,54.895348,9.797490
1386950614,0,0,545.9,0,1,4,0,0,400,-0.0292,186.2921,6.8213,0.4212,54.894791,9.793656,108.3,5.845,1.85,335.95,54.895069,9.793790,54.895348,9.797490
1386950614,0,0,545.9,0,1,4,0,0,400,-0.0292,186.2921,6.8213,0.4212,54.894791,9.793656,108.3,5.845,1.85,335.95,54.895069,9.793790,54.895348,9.797490
1386950615,0,0,545.9,0,1,4,0,0,400,-0.0292,186.2921,6.8213,0.4212,54.894791,9.793656,108.3,5.845,1.85,335.95,54.895069,9.793790,54.895348,9.797490
1386950615,0,0,545.9,0,1,4,0,0,400,-0.0292,186.2921,6.8213,0.4212,54.894791,9.793656,108.3,5.845,1.85,335.95,54.895069,9.793790,54.895348,9.797490
1386950615,0,0,545.9,0,1,4,0,0,400,-0.0292,186.2921,6.8213,0.4212,54.894791,9.793656,108.3,5.845,1.85,335.95,54.895069,9.793790,54.895348,9.797490
1386950615,0,0,545.9,0,1,4,0,0,400,-0.0292,186.2921,6.8213,0.4212,54.894791,9.793656,108.3,5.845,1.85,335.95,54.895069,9.793790,54.895348,9.797490
1386950616,0,0,545.9,0,1,4,0,0,400,-0.0292,186.2921,6.8213,0.4212,54.894791,9.793656,108.3,5.845,1.85,335.95,54.895069,9.793790,54.895348,9.797490
1386950616,0,0,545.9,0,1,4,0,0,400,-0.0292,186.2921,6.8213,0.4212,54.894791,9.793656,108.3,5.845,1.85,335.95,54.895069,9.793790,54.895348,9.797490
1386950616,0,0,545.9,0,1,4,0,0,400,-0.0292,186.2921,6.8213,0.4212,54.894791,9.793656,108.3,5.845,1.85,335.95,54.895069,9.793790,54.895348,9.797490
1386950616,0,0,545.9,0,1,4,0,0,400,-0.0292,186.2921,6.8213,0.4212,54.894791,9.793656,108.3,5.845,1.85,335.95,54.895069,9.793790,54.895348,9.797490
1386950617,0,0,545.9,0,1,4,0,0,400,-0.0292,186.2921,6.8213,0.4212,54.894791,9.793656,108.3,5.845,1.85,335.95,54.895069,9.793790,54.895348,9.797490
1386950617,0,0,545.9,0,1,4,0,0,400,-0.0292,186.2921,6.8213,0.4212,54.894791,9.793656,108.3,5.845,1.85,335.95,54.895069,9.793790,54.895348,9.797490
1386950617,0,0,545.9,0,1,4,0,0,400,-0.0292,186.2921,6.8213,0.4212,54.894791,9.793656,108.3,5.845,1.85,335.95,54.895069,9.793790,54.895348,9.797490
1386950617,0,0,545.9,0,1,4,0,0,400,-0.0292,186.2921,6.8213,0.4212,54.894791,9.793656,108.3,5.845,1.85,335.95,54.895069,9.793790,54.895348,9.797490
1386950618,0,0,545.9,0,1,4,0,0,400,-0.0292,186.2921,6.8213,0.4212,54.894791,9.793656,108.3,5.845,1.85,335.95,54.895069,9.793790,54.895348,9.797490
1386950618,0,0,545.9,0,1,4,0,0,400,-0.0292,186.2921,6.8213,0.4212,54.894791,9.793656,108.3,5.845,1.85,335.95,54.895069,9.793790,54.895348,9.797490
1386950618,0,0,545.9,0,1,4,0,0,400,-0.0292,186.2921,6.8213,0.4212,54.894791,9.793656,108.3,5.845,1.85,335.95,54.895069,9.793790,54.895348,9.797490
1386950618,0,0,545.9,0,1,4,0,0,400,-0.0292,186.2921,6.8213,0.4212,54.894791,9.793656,108.3,5.845,1.85,335.95,54.895069,9.793790,54.895348,9.797490
1386950619,0,0,545.9,0,1,4,0,0,400,-0.0292,186.2921,6.8213,0.4212,54.894791,9.793656,108.3,5.845,1.85,335.95,54.895069,9.793790,54.895348,9.797490
1386950619,0,0,545.9,0,1,4,0,0,400,-0.0292,186.2921,6.8213,0.4212,54.894791,9.793656,108.3,5.845,1.85,335.95,54.895069,9.793790,54.895348,9.797490
1386950619,0,0,545.9,0,1,4,0,0,400,-0.0292,186.2921,6.8213,0.4212,54.894791,9.793656,108.3,5.845,1.85,335.95,54.895069,9.793790,54.895348,9.797490
1386950619,0,0,545.9,0,1,4,0,0,400,-0.0292,186.2921,6.8213,0.4212,54.894791,9.793656,108.3,5.845,1.85,335.95,54.895069,9.793790,54.895348,9.797490
1386950620,0,0,545.9,0,1,4,0,0,400,-0.0292,186.2921,6.8213,0.4212,54.894791,9.793656,108.3,5.845,1.85,335.95,54.895069,9.793790,54.895348,9.797490
1386950620,0,0,545.9,0,1,4,0,0,400,-0.0292,186.2921,6.8213,0.4212,54.894791,9.793656,108.3,5.845,1.85,335.95,54.895069,9.793790,54.895348,9.797490
1386950620,0,0,545.9,0,1,4,0,0,400,-0.0292,186.2921,6.8213,0.4212,54.894791,9.793656,108.3,5.845,1.85,335.95,54.895069,9.793790,54.895348,9.797490
1386950620,0,0,545.9,0,1,4,0,0,400,-0.0292,186.2921,6.8213,0.4212,54.894791,9.793656,108.3,5.845,1.85,335.95,54.895069,9.793790,54.895348,9.797490
1386950621,0,0,545.9,0,1,4,0,0,400,-0.0292,186.2921,6.8213,0.4212,54.894791,9.793656,108.3,5.845,1.85,335.95,54.895069,9.793790,54.895348,9.797490
1386950621,0,0,545.9,0,1,4,0,0,400,-0.0292,186.2921,6.8213,0.4212,54.894791,9.793656,108.3,5.845,1.85,335.95,54.895069,9.793790,54.895348,9.797490
1386950621,0,0,545.9,0,1,4,0,0,400,-0.0292,186.2921,6.8213,0.4212,54.894791,9.793656,108.3,5.845,1.85,335.95,54.895069,9.793790,54.895348,9.797490
1386950621,0,0,545.9,0,1,4,0,0,400,-0.0292,186.2921,6.8213,0.4212,54.894791,9.793656,108.3,5.845,1.85,335.95,54.895069,9.793790,54.895348,9.797490
1386950622,0,0,545.9,0,1,4,0,0,400,-0.0292,186.2921,6.8213,0.4212,54.894791,9.793656,108.3,5.845,1.85,335.95,54.895069,9.793790,54.895348,9.797490
1386950622,0,0,545.9,0,1,4,0,0,400,-0.0292,186.2921,6.8213,0.4212,54.894791,9.793656,108.3,5.845,1.85,335.95,54.895069,9.793790,54.895348,9.797490
1386950622,0,0,545.9,0,1,4,0,0,400,-0.0292,186.2921,6.8213,0.4212,54.894791,9.793656,108.3,5.845,1.85,335.95,54.895069,9.793790,54.895348,9.797490
1386950622,0,0,545.9,0,1,4,0,0,400,-0.0292,186.2921,6.8213,0.4212,54.894791,9.793656,108.3,5.845,1.85,335.95,54.895069,9.793790,54.895348,9.797490
1386950623,0,0,545.9,0,1,4,0,0,400,-0.0292,186.2921,6.8213,0.4212,54.894791,9.793656,108.3,5.845,1.85,335.95,54.895069,9.793790,54.895348,9.797490
1386950623,0,0,545.9,0,1,4,0,0,400,-0.0292,186.2921,6.8213,0.4212,54.894791,9.793656,108.3,5.845,1.85,335.95,54.895069,9.793790,54.895348,9.797490
1386950623,0,0,545.9,0,1,4,0,0,400,-0.0292,186.2921,6.8213,0.4212,54.894791,9.793656,108.3,5.845,1.85,335.95,54.895069,9.793790,54.895348,9.797490
1386950623,0,0,545.9,0,1,4,0,0,400,-0.0292,186.2921,6.8213,0.4212,54.894791,9.793656,108.3,5.845,1.85,335.95,54.895069,9.793790,54.895348,9.797490
1386950624,0,0,545.9,0,1,4,0,0,400,-0.0292,186.2921,6.8213,0.4212,54.894791,9.793656,108.3,5.845,1.85,335.95,54.895069,9.793790,54.895348,9.797490
1386950624,0,0,545.9,0,1,4,0,0,400,-0.0292,186.2921,6.8213,0.4212,54.894791,9.793656,108.3,5.845,1.85,335.95,54.895069,9.793790,54.895348,9.797490
1386950624,0,0,545.9,0,1,4,0,0,400,-0.0292,186.2921,6.8213,0.4212,54.894791,9.793656,108.3,5.845,1.85,335.95,54.895069,9.793790,54.895348,9.797490
1386950624,0,0,545.9,0,1,4,0,0,400,-0.0292,186.2921,6.8213,0.4212,54.894791,9.793656,108.3,5.845,1.85,335.95,54.895069,9.793790,54.895348,9.797490
1386950625,0,0,545.9,0,1,4,0,0,400,-0.0292,186.2921,6.8213,0.4212,54.894791,9.793656,108.3,5.845,1.85,335.95,54.895069,9.793790,54.895348,9.797490
1386950625,0,0,545.9,0,1,4,0,0,400,-0.0292,186.2921,6.8213,0.4212,54.894791,9.793656,108.3,5.845,1.85,335.95,54.895069,9.793790,54.895348,9.797490
1386950625,0,0,545.9,0,1,4,0,0,400,-0.0292,186.2921,6.8213,0.4212,54.894791,9.793656,108.3,5.845,1.85,335.95,54.895069,9.793790,54.895348,9.797490
1386950625,0,0,545.9,0,1,4,0,0,400,-0.0292,186.2921,6.8213,0.4212,54.894791,9.793656,108.3,5.845,1.85,335.95,54.895069,9.793790,54.895348,9.797490
1386950626,0,0,545.9,0,1,4,0,0,400,-0.0292,186.2921,6.8213,0.4212,54.894791,9.793656,108.3,5.845,1.85,335.95,54.895069,9.793790,54.895348,9.797490
1386950626,0,0,545.9,0,1,4,0,0,400,-0.0292,186.2921,6.8213,0.4212,54.894791,9.793656,108.3,5.845,1.85,335.95,54.895069,9.793790,54.895348,9.797490
1386950626,0,0,545.9,0,1,4,0,0,400,-0.0292,186.2921,6.8213,0.4212,54.894791,9.793656,108.3,5.845,1.85,335.95,54.895069,9.793790,54.895348,9.797490
1386950626,0,0,545.9,0,1,4,0,0,400,-0.0292,186.2921,6.8213,0.4212,54.894791,9.793656,108.3,5.845,1.85,335.95,54.895069,9.793790,54.895348,9.797490
1386950627,0,0,545.9,0,1,4,0,0,400,-0.0292,186.2921,6.8213,0.4212,54.894791,9.793656,108.3,5.845,1.85,335.95,54.895069,9.793790,54.895348,9.797490
1386950627,0,0,545.9,0,1,4,0,0,400,-0.0292,186.2921,6.8213,0.4212,54.894791,9.793656,108.3,5.845,1.85,335.95,54.895069,9.793790,54.895348,9.797490
1386950627,0,0,545.9,0,1,4,0,0,400,-0.0292,186.2921,6.8213,0.4212,54.894791,9.793656,108.3,5.845,1.85,335.95,54.895069,9.793790,54.895348,9.797490
1386950627,0,0,545.9,0,1,4,0,0,400,-0.0292,186.2921,6.8213,0.4212,54.894791,9.793656,108.3,5.845,1.85,335.95,54.895069,9.793790,54.895348,9.797490
1386950628,0,0,545.9,0,1,4,0,0,400,-0.0292,186.2921,6.8213,0.4212,54.894791,9.793656,108.3,5.845,1.85,335.95,54.895069,9.793790,54.895348,9.797490
1386950628,0,0,545.9,0,1,4,0,0,400,-0.0292,186.2921,6.8213,0.4212,54.894791,9.793656,108.3,5.845,1.85,335.95,54.895069,9.793790,54.895348,9.797490
1386950628,0,0,545.9,0,1,4,0,0,400,-0.0292,186.2921,6.8213,0.4212,54.894791,9.793656,108.3,5.845,1.85,335.95,54.895069,9.793790,54.895348,9.797490
1386950628,0,0,545.9,0,1,4,0,0,400,-0.0292,186.2921,6.8213,0.4212,54.894791,9.793656,108.3,5.845,1.85,335.95,54.895069,9.793790,54.895348,9.797490
1386950629,0,0,545.9,0,1,4,0,0,400,-0.0292,186.2921,6.8213,0.4212,54.894791,9.793656,108.3,5.845,1.85,335.95,54.895069,9.793790,54.895348,9.797490
1386950629,0,0,545.9,0,1,4,0,0,400,-0.0292,186.2921,6.8213,0.4212,54.894791,9.793656,108.3,5.845,1.85,335.95,54.895069,9.793790,54.895348,9.797490
1386950629,0,0,545.9,0,1,4,0,0,400,-0.0292,186.2921,6.8213,0.4212,54.894791,9.793656,108.3,5.845,1.85,335.95,54.895069,9.793790,54.895348,9.797490
1386950629,0,0,545.9,0,1,4,0,0,400,-0.0292,186.2921,6.8213,0.4212,54.894791,9.793656,108.3,5.845,1.85,335.95,54.895069,9.793790,54.895348,9.797490
1386950630,0,0,545.9,0,1,4,0,0,400,-0.0292,186.2921,6.8213,0.4212,54.894791,9.793656,108.3,5.845,1.85,335.95,54.895069,9.793790,54.895348,9.797490
1386950630,0,0,545.9,0,1,4,0,0,400,-0.0292,186.2921,6.8213,0.4212,54.894791,9.793656,108.3,5.845,1.85,335.95,54.895069,9.793790,54.895348,9.797490
1386950630,0,0,545.9,0,1,4,0,0,400,-0.0292,186.2921,6.8213,0.4212,54.894791,9.793656,108.3,5.845,1.85,335.95,54.895069,9.793790,54.895348,9.797490
1386950630,0,0,545.9,0,1,4,0,0,400,-0.0292,186.2921,6.8213,0.4212,54.894791,9.793656,108.3,5.845,1.85,335.95,54.895069,9.793790,54.895348,9.797490
1386950631,0,0,545.9,0,1,4,0,0,400,-0.0292,186.2921,6.8213,0.4212,54.894791,9.793656,108.3,5.845,1.85,335.95,54.895069,9.793790,54.895348,9.797490
1386950631,0,0,545.9,0,1,4,0,0,400,-0.0292,186.2921,6.8213,0.4212,54.894791,9.793656,108.3,5.845,1.85,335.95,54.895069,9.793790,54.895348,9.797490
1386950631,0,0,545.9,0,1,4,0,0,400,-0.0292,186.2921,6.8213,0.4212,54.894791,9.793656,108.3,5.845,1.85,335.95,54.895069,9.793790,54.895348,9.797490
1386950631,0,0,545.9,0,1,4,0,0,400,-0.0292,186.2921,6.8213,0.4212,54.894791,9.793656,108.3,5.845,1.85,335.95,54.895069,9.793790,54.895348,9.797490
1386950632,0,0,545.9,0,1,4,0,0,400,-0.0292,186.2921,6.8213,0.4212,54.894791,9.793656,108.3,5.845,1.85,335.95,54.895069,9.793790,54.895348,9.797490
1386950632,0,0,545.9,0,1,4,0,0,400,-0.0292,186.2921,6.8213,0.4212,54.894791,9.793656,108.3,5.845,1.85,335.95,54.895069,9.793790,54.895348,9.797490
1386950632,0,0,545.9,0,1,4,0,0,400,-0.0292,186.2921,6.8213,0.4212,54.894791,9.793656,108.3,5.845,1.85,335.95,54.895069,9.793790,54.895348,9.797490
1386950633,0,0,545.9,0,1,4,0,0,400,-0.0292,186.2921,6.8213,0.4212,54.894791,9.793656,108.3,5.845,1.85,335.95,54.895069,9.793790,54.895348,9.797490
1386950633,0,0,545.9,0,1,4,0,0,400,-0.0292,186.2921,6.8213,0.4212,54.894791,9.793656,108.3,5.845,1.85,335.95,54.895069,9.793790,54.895348,9.797490
1386950633,0,0,545.9,0,1,4,0,0,400,-0.0292,186.2921,6.8213,0.4212,54.894791,9.793656,108.3,5.845,1.85,335.95,54.895069,9.793790,54.895348,9.797490
1386950633,0,0,545.9,0,1,4,0,0,400,-0.0292,186.2921,6.8213,0.4212,54.894791,9.793656,108.3,5.845,1.85,335.95,54.895069,9.793790,54.895348,9.797490
1386950634,0,0,545.9,0,1,4,0,0,400,-0.0292,186.2921,6.8213,0.4212,54.894791,9.793656,108.3,5.845,1.85,335.95,54.895069,9.793790,54.895348,9.797490
1386950634,0,0,545.9,0,1,4,0,0,400,-0.0292,186.2921,6.8213,0.4212,54.894791,9.793656,108.3,5.845,1.85,335.95,54.895069,9.793790,54.895348,9.797490
1386950634,0,0,545.9,0,1,4,0,0,400,-0.0292,186.2921,6.8213,0.4212,54.894791,9.793656,108.3,5.845,1.85,335.95,54.895069,9.793790,54.895348,9.797490
1386950634,0,0,545.9,0,1,4,0,0,400,-0.0292,186.2921,6.8213,0.4212,54.894791,9.793656,108.3,5.845,1.85,335.95,54.895069,9.793790,54.895348,9.797490
1386950635,0,0,545.9,0,1,4,0,0,400,-0.0292,186.2921,6.8213,0.4212,54.894791,9.793656,108.3,5.845,1.85,335.95,54.895069,9.793790,54.895348,9.797490
1386950635,0,0,545.9,0,1,4,0,0,400,-0.0292,186.2921,6.8213,0.4212,54.894791,9.793656,108.3,5.845,1.85,335.95,54.895069,9.793790,54.895348,9.797490
1386950635,0,0,545.9,0,1,4,0,0,400,-0.0292,186.2921,6.8213,0.4212,54.894791,9.793656,108.3,5.845,1.85,335.95,54.895069,9.793790,54.895348,9.797490
1386950635,0,0,545.9,0,1,4,0,0,400,-0.0292,186.2921,6.8213,0.4212,54.894791,9.793656,108.3,5.845,1.85,335.95,54.895069,9.793790,54.895348,9.797490
1386950636,0,0,545.9,0,1,4,0,0,400,-0.0292,186.2921,6.8213,0.4212,54.894791,9.793656,108.3,5.845,1.85,335.95,54.895069,9.793790,54.895348,9.797490
1386950636,0,0,545.9,0,1,4,0,0,400,-0.0292,186.2921,6.8213,0.4212,54.894791,9.793656,108.3,5.845,1.85,335.95,54.895069,9.793790,54.895348,9.797490
1386950636,0,0,545.9,0,1,4,0,0,400,-0.0292,186.2921,6.8213,0.4212,54.894791,9.793656,108.3,5.845,1.85,335.95,54.895069,9.793790,54.895348,9.797490
1386950636,0,0,545.9,0,1,4,0,0,400,-0.0292,186.2921,6.8213,0.4212,54.894791,9.793656,108.3,5.845,1.85,335.95,54.895069,9.793790,54.895348,9.797490
1386950637,0,0,545.9,0,1,4,0,0,400,-0.0292,186.2921,6.8213,0.4212,54.894791,9.793656,108.3,5.845,1.85,335.95,54.895069,9.793790,54.895348,9.797490
1386950637,0,0,545.9,0,1,4,0,0,400,-0.0292,186.2921,6.8213,0.4212,54.894791,9.793656,108.3,5.845,1.85,335.95,54.895069,9.793790,54.895348,9.797490
1386950637,0,0,545.9,0,1,4,0,0,400,-0.0292,186.2921,6.8213,0.4212,54.894791,9.793656,108.3,5.845,1.85,335.95,54.895069,9.793790,54.895348,9.797490
1386950637,0,0,545.9,0,1,4,0,0,400,-0.0292,186.2921,6.8213,0.4212,54.894791,9.793656,108.3,5.845,1.85,335.95,54.895069,9.793790,54.895348,9.797490
1386950638,0,0,545.9,0,1,4,0,0,400,-0.0292,186.2921,6.8213,0.4212,54.894791,9.793656,108.3,5.845,1.85,335.95,54.895069,9.793790,54.895348,9.797490
1386950638,0,0,545.9,0,1,4,0,0,400,-0.0292,186.2921,6.8213,0.4212,54.894791,9.793656,108.3,5.845,1.85,335.95,54.895069,9.793790,54.895348,9.797490
1386950638,0,0,545.9,0,1,4,0,0,400,-0.0292,186.2921,6.8213,0.4212,54.894791,9.793656,108.3,5.845,1.85,335.95,54.895069,9.793790,54.895348,9.797490
1386950638,0,0,545.9,0,1,4,0,0,400,-0.0292,186.2921,6.8213,0.4212,54.894791,9.793656,108.3,5.845,1.85,335.95,54.895069,9.793790,54.895348,9.797490
1386950639,0,0,545.9,0,1,4,0,0,400,-0.0292,186.2921,6.8213,0.4212,54.894791,9.793656,108.3,5.845,1.85,335.95,54.895069,9.793790,54.895348,9.797490
1386950639,0,0,545.9,0,1,4,0,0,400,-0.0292,186.2921,6.8213,0.4212,54.894791,9.793656,108.3,5.845,1.85,335.95,54.895069,9.793790,54.895348,9.797490
1386950639,0,0,545.9,0,1,4,0,0,400,-0.0292,186.2921,6.8213,0.4212,54.894791,9.793656,108.3,5.845,1.85,335.95,54.895069,9.793790,54.895348,9.797490
1386950639,0,0,545.9,0,1,4,0,0,400,-0.0292,186.2921,6.8213,0.4212,54.894791,9.793656,108.3,5.845,1.85,335.95,54.895069,9.793790,54.895348,9.797490
1386950640,0,0,545.9,0,1,4,0,0,400,-0.0292,186.2921,6.8213,0.4212,54.894791,9.793656,108.3,5.845,1.85,335.95,54.895069,9.793790,54.895348,9.797490
1386950640,0,0,545.9,0,1,4,0,0,400,-0.0292,186.2921,6.8213,0.4212,54.894791,9.793656,108.3,5.845,1.85,335.95,54.895069,9.793790,54.895348,9.797490
1386950640,0,0,545.9,0,1,4,0,0,400,-0.0292,186.2921,6.8213,0.4212,54.894791,9.793656,108.3,5.845,1.85,335.95,54.895069,9.793790,54.895348,9.797490
1386950640,0,0,545.9,0,1,4,0,0,400,-0.0292,186.2921,6.8213,0.4212,54.894791,9.793656,108.3,5.845,1.85,335.95,54.895069,9.793790,54.895348,9.797490
1386950641,0,0,545.9,0,1,4,0,0,400,-0.0292,186.2921,6.8213,0.4212,54.894791,9.793656,108.3,5.845,1.85,335.95,54.895069,9.793790,54.895348,9.797490
1386950641,0,0,545.9,0,1,4,0,0,400,-0.0292,186.2921,6.8213,0.4212,54.894791,9.793656,108.3,5.845,1.85,335.95,54.895069,9.793790,54.895348,9.797490
1386950641,0,0,545.9,0,1,4,0,0,400,-0.0292,186.2921,6.8213,0.4212,54.894791,9.793656,108.3,5.845,1.85,335.95,54.895069,9.793790,54.895348,9.797490
1386950641,0,0,545.9,0,1,4,0,0,400,-0.0292,186.2921,6.8213,0.4212,54.894791,9.793656,108.3,5.845,1.85,335.95,54.895069,9.793790,54.895348,9.797490
1386950642,0,0,545.9,0,1,4,0,0,400,-0.0292,186.2921,6.8213,0.4212,54.894791,9.793656,108.3,5.845,1.85,335.95,54.895069,9.793790,54.895348,9.797490
1386950642,0,0,545.9,0,1,4,0,0,400,-0.0292,186.2921,6.8213,0.4212,54.894791,9.793656,108.3,5.845,1.85,335.95,54.895069,9.793790,54.895348,9.797490
1386950642,0,0,545.9,0,1,4,0,0,400,-0.0292,186.2921,6.8213,0.4212,54.894791,9.793656,108.3,5.845,1.85,335.95,54.895069,9.793790,54.895348,9.797490
1386950642,0,0,545.9,0,1,4,0,0,400,-0.0292,186.2921,6.8213,0.4212,54.894791,9.793656,108.3,5.845,1.85,335.95,54.895069,9.793790,54.895348,9.797490
1386950643,0,0,545.9,0,1,4,0,0,400,-0.0292,186.2921,6.8213,0.4212,54.894791,9.793656,108.3,5.845,1.85,335.95,54.895069,9.793790,54.895348,9.797490
1386950643,0,0,545.9,0,1,4,0,0,400,-0.0292,186.2921,6.8213,0.4212,54.894791,9.793656,108.3,5.845,1.85,335.95,54.895069,9.793790,54.895348,9.797490
1386950643,0,0,545.9,0,1,4,0,0,400,-0.0292,186.2921,6.8213,0.4212,54.894791,9.793656,108.3,5.845,1.85,335.95,54.895069,9.793790,54.895348,9.797490
1386950643,0,0,545.9,0,1,4,0,0,400,-0.0292,186.2921,6.8213,0.4212,54.894791,9.793656,108.3,5.845,1.85,335.95,54.895069,9.793790,54.895348,9.797490
1386950644,0,0,545.9,0,1,4,0,0,400,-0.0292,186.2921,6.8213,0.4212,54.894791,9.793656,108.3,5.845,1.85,335.95,54.895069,9.793790,54.895348,9.797490
1386950644,0,0,545.9,0,1,4,0,0,400,-0.0292,186.2921,6.8213,0.4212,54.894791,9.793656,108.3,5.845,1.85,335.95,54.895069,9.793790,54.895348,9.797490
1386950644,0,0,545.9,0,1,4,0,0,400,-0.0292,186.2921,6.8213,0.4212,54.894791,9.793656,108.3,5.845,1.85,335.95,54.895069,9.793790,54.895348,9.797490
1386950644,0,0,545.9,0,1,4,0,0,400,-0.0292,186.2921,6.8213,0.4212,54.894791,9.793656,108.3,5.845,1.85,335.95,54.895069,9.793790,54.895348,9.797490
1386950645,0,0,545.9,0,1,4,0,0,400,-0.0292,186.2921,6.8213,0.4212,54.894791,9.793656,108.3,5.845,1.85,335.95,54.895069,9.793790,54.895348,9.797490
1386950645,0,0,545.9,0,1,4,0,0,400,-0.0292,186.2921,6.8213,0.4212,54.894791,9.793656,108.3,5.845,1.85,335.95,54.895069,9.793790,54.895348,9.797490
1386950645,0,0,545.9,0,1,4,0,0,400,-0.0292,186.2921,6.8213,0.4212,54.894791,9.793656,108.3,5.845,1.85,335.95,54.895069,9.793790,54.895348,9.797490
1386950645,0,0,545.9,0,1,4,0,0,400,-0.0292,186.2921,6.8213,0.4212,54.894791,9.793656,108.3,5.845,1.85,335.95,54.895069,9.793790,54.895348,9.797490
1386950646,0,0,545.9,0,1,4,0,0,400,-0.0292,186.2921,6.8213,0.4212,54.894791,9.793656,108.3,5.845,1.85,335.95,54.895069,9.793790,54.895348,9.797490
1386950646,0,0,545.9,0,1,4,0,0,400,-0.0292,186.2921,6.8213,0.4212,54.894791,9.793656,108.3,5.845,1.85,335.95,54.895069,9.793790,54.895348,9.797490
1386950646,0,0,545.9,0,1,4,0,0,400,-0.0292,186.2921,6.8213,0.4212,54.894791,9.793656,108.3,5.845,1.85,335.95,54.895069,9.793790,54.895348,9.797490
1386950646,0,0,545.9,0,1,4,0,0,400,-0.0292,186.2921,6.8213,0.4212,54.894791,9.793656,108.3,5.845,1.85,335.95,54.895069,9.793790,54.895348,9.797490
1386950647,0,0,545.9,0,1,4,0,0,400,-0.0292,186.2921,6.8213,0.4212,54.894791,9.793656,108.3,5.845,1.85,335.95,54.895069,9.793790,54.895348,9.797490
1386950647,0,0,545.9,0,1,4,0,0,400,-0.0292,186.2921,6.8213,0.4212,54.894791,9.793656,108.3,5.845,1.85,335.95,54.895069,9.793790,54.895348,9.797490
1386950647,0,0,545.9,0,1,4,0,0,400,-0.0292,186.2921,6.8213,0.4212,54.894791,9.793656,108.3,5.845,1.85,335.95,54.895069,9.793790,54.895348,9.797490
1386950647,0,0,545.9,0,1,4,0,0,400,-0.0292,186.2921,6.8213,0.4212,54.894791,9.793656,108.3,5.845,1.85,335.95,54.895069,9.793790,54.895348,9.797490
1386950648,0,0,545.9,0,1,4,0,0,400,-0.0292,186.2921,6.8213,0.4212,54.894791,9.793656,108.3,5.845,1.85,335.95,54.895069,9.793790,54.895348,9.797490
1386950648,0,0,545.9,0,1,4,0,0,400,-0.0292,186.2921,6.8213,0.4212,54.894791,9.793656,108.3,5.845,1.85,335.95,54.895069,9.793790,54.895348,9.797490
1386950648,0,0,545.9,0,1,4,0,0,400,-0.0292,186.2921,6.8213,0.4212,54.894791,9.793656,108.3,5.845,1.85,335.95,54.895069,9.793790,54.895348,9.797490
1386950648,0,0,545.9,0,1,4,0,0,400,-0.0292,186.2921,6.8213,0.4212,54.894791,9.793656,108.3,5.845,1.85,335.95,54.895069,9.793790,54.895348,9.797490
1386950649,0,0,545.9,0,1,4,0,0,400,-0.0292,186.2921,6.8213,0.4212,54.894791,9.793656,108.3,5.845,1.85,335.95,54.895069,9.793790,54.895348,9.797490
1386950649,0,0,545.9,0,1,4,0,0,400,-0.0292,186.2921,6.8213,0.4212,54.894791,9.793656,108.3,5.845,1.85,335.95,54.895069,9.793790,54.895348,9.797490
1386950649,0,0,545.9,0,1,4,0,0,400,-0.0292,186.2921,6.8213,0.4212,54.894791,9.793656,108.3,5.845,1.85,335.95,54.895069,9.793790,54.895348,9.797490
1386950649,0,0,545.9,0,1,4,0,0,400,-0.0292,186.2921,6.8213,0.4212,54.894791,9.793656,108.3,5.845,1.85,335.95,54.895069,9.793790,54.895348,9.797490
1386950650,0,0,545.9,0,1,4,0,0,400,-0.0292,186.2921,6.8213,0.4212,54.894791,9.793656,108.3,5.845,1.85,335.95,54.895069,9.793790,54.895348,9.797490
1386950650,0,0,545.9,0,1,4,0,0,400,-0.0292,186.2921,6.8213,0.4212,54.894791,9.793656,108.3,5.845,1.85,335.95,54.895069,9.793790,54.895348,9.797490
1386950650,0,0,545.9,0,1,4,0,0,400,-0.0292,186.2921,6.8213,0.4212,54.894791,9.793656,108.3,5.845,1.85,335.95,54.895069,9.793790,54.895348,9.797490
1386950650,0,0,545.9,0,1,4,0,0,400,-0.0292,186.2921,6.8213,0.4212,54.894791,9.793656,108.3,5.845,1.85,335.95,54.895069,9.793790,54.895348,9.797490
1386950651,0,0,545.9,0,1,4,0,0,400,-0.0292,186.2921,6.8213,0.4212,54.894791,9.793656,108.3,5.845,1.85,335.95,54.895069,9.793790,54.895348,9.797490
1386950651,0,0,545.9,0,1,4,0,0,400,-0.0292,186.2921,6.8213,0.4212,54.894791,9.793656,108.3,5.845,1.85,335.95,54.895069,9.793790,54.895348,9.797490
1386950651,0,0,545.9,0,1,4,0,0,400,-0.0292,186.2921,6.8213,0.4212,54.894791,9.793656,108.3,5.845,1.85,335.95,54.895069,9.793790,54.895348,9.797490
1386950651,0,0,545.9,0,1,4,0,0,400,-0.0292,186.2921,6.8213,0.4212,54.894791,9.793656,108.3,5.845,1.85,335.95,54.895069,9.793790,54.895348,9.797490
1386950652,0,0,545.9,0,1,4,0,0,400,-0.0292,186.2921,6.8213,0.4212,54.894791,9.793656,108.3,5.845,1.85,335.95,54.895069,9.793790,54.895348,9.797490
1386950652,0,0,545.9,0,1,4,0,0,400,-0.0292,186.2921,6.8213,0.4212,54.894791,9.793656,108.3,5.845,1.85,335.95,54.895069,9.793790,54.895348,9.797490
1386950652,0,0,545.9,0,1,4,0,0,400,-0.0292,186.2921,6.8213,0.4212,54.894791,9.793656,108.3,5.845,1.85,335.95,54.895069,9.793790,54.895348,9.797490
1386950652,0,0,545.9,0,1,4,0,0,400,-0.0292,186.2921,6.8213,0.4212,54.894791,9.793656,108.3,5.845,1.85,335.95,54.895069,9.793790,54.895348,9.797490
1386950653,0,0,545.9,0,1,4,0,0,400,-0.0292,186.2921,6.8213,0.4212,54.894791,9.793656,108.3,5.845,1.85,335.95,54.895069,9.793790,54.895348,9.797490
1386950653,0,0,545.9,0,1,4,0,0,400,-0.0292,186.2921,6.8213,0.4212,54.894791,9.793656,108.3,5.845,1.85,335.95,54.895069,9.793790,54.895348,9.797490
1386950653,0,0,545.9,0,1,4,0,0,400,-0.0292,186.2921,6.8213,0.4212,54.894791,9.793656,108.3,5.845,1.85,335.95,54.895069,9.793790,54.895348,9.797490
1386950653,0,0,545.9,0,1,4,0,0,400,-0.0292,186.2921,6.8213,0.4212,54.894791,9.793656,108.3,5.845,1.85,335.95,54.895069,9.793790,54.895348,9.797490
1386950654,0,0,545.9,0,1,4,0,0,400,-0.0292,186.2921,6.8213,0.4212,54.894791,9.793656,108.3,5.845,1.85,335.95,54.895069,9.793790,54.895348,9.797490
1386950654,0,0,545.9,0,1,4,0,0,400,-0.0292,186.2921,6.8213,0.4212,54.894791,9.793656,108.3,5.845,1.85,335.95,54.895069,9.793790,54.895348,9.797490
1386950654,0,0,545.9,0,1,4,0,0,400,-0.0292,186.2921,6.8213,0.4212,54.894791,9.793656,108.3,5.845,1.85,335.95,54.895069,9.793790,54.895348,9.797490
1386950654,0,0,545.9,0,1,4,0,0,400,-0.0292,186.2921,6.8213,0.4212,54.894791,9.793656,108.3,5.845,1.85,335.95,54.895069,9.793790,54.895348,9.797490
1386950655,0,0,545.9,0,1,4,0,0,400,-0.0292,186.2921,6.8213,0.4212,54.894791,9.793656,108.3,5.845,1.85,335.95,54.895069,9.793790,54.895348,9.797490
1386950655,0,0,545.9,0,1,4,0,0,400,-0.0292,186.2921,6.8213,0.4212,54.894791,9.793656,108.3,5.845,1.85,335.95,54.895069,9.793790,54.895348,9.797490
1386950655,0,0,545.9,0,1,4,0,0,400,-0.0292,186.2921,6.8213,0.4212,54.894791,9.793656,108.3,5.845,1.85,335.95,54.895069,9.793790,54.895348,9.797490
1386950655,0,0,545.9,0,1,4,0,0,400,-0.0292,186.2921,6.8213,0.4212,54.894791,9.793656,108.3,5.845,1.85,335.95,54.895069,9.793790,54.895348,9.797490
1386950656,0,0,545.9,0,1,4,0,0,400,-0.0292,186.2921,6.8213,0.4212,54.894791,9.793656,108.3,5.845,1.85,335.95,54.895069,9.793790,54.895348,9.797490
1386950656,0,0,545.9,0,1,4,0,0,400,-0.0292,186.2921,6.8213,0.4212,54.894791,9.793656,108.3,5.845,1.85,335.95,54.895069,9.793790,54.895348,9.797490
1386950656,0,0,545.9,0,1,4,0,0,400,-0.0292,186.2921,6.8213,0.4212,54.894791,9.793656,108.3,5.845,1.85,335.95,54.895069,9.793790,54.895348,9.797490
1386950656,0,0,545.9,0,1,4,0,0,400,-0.0292,186.2921,6.8213,0.4212,54.894791,9.793656,108.3,5.845,1.85,335.95,54.895069,9.793790,54.895348,9.797490
1386950657,0,0,545.9,0,1,4,0,0,400,-0.0292,186.2921,6.8213,0.4212,54.894791,9.793656,108.3,5.845,1.85,335.95,54.895069,9.793790,54.895348,9.797490
1386950657,0,0,545.9,0,1,4,0,0,400,-0.0292,186.2921,6.8213,0.4212,54.894791,9.793656,108.3,5.845,1.85,335.95,54.895069,9.793790,54.895348,9.797490
