MCU_timestamp,Navigation_System,Manual_Control,Guidance_Heading,Manual_Ctrl_Rudder,Rudder_Desired_Angle,Rudder_Feedback,Manual_Ctrl_Sail,Sail_Desired_Pos,Sail_Feedback,Rate,Heading,Pitch,Roll,Latitude,Longitude,COG,SOG,Wind_Speed,Wind_Angle,Point_Start_Lat,Point_Start_Lon,Point_End_Lat,Point_End_Lon
1386956940,1,0,150.0,0,35,4,0,713,750,-0.0292,5240.4253,6.8213,0.4212,54.893864,9.794951,108.3,5.845,1.85,0.00,54.893879,9.794963,0.000000,0.000000
1386956940,1,0,150.0,0,35,8,0,713,700,-0.0292,5231.0918,6.8213,0.4212,54.893848,9.794945,108.3,5.845,1.85,0.00,54.893879,9.794963,0.000000,0.000000
1386956941,1,0,150.0,0,35,12,0,713,750,-0.0292,5221.7583,6.8213,0.4212,54.893829,9.794944,108.3,5.845,1.85,0.00,54.893879,9.794963,0.000000,0.000000
1386956941,1,0,150.0,0,32,16,0,0,700,-0.0292,5213.2251,6.8213,0.4212,54.893810,9.794948,108.3,5.845,1.85,0.00,54.893879,9.794963,0.000000,0.000000
1386956941,1,0,150.0,0,23,20,0,0,650,-0.0292,5207.0918,6.8213,0.4212,54.893795,9.794954,108.3,5.845,1.85,0.00,54.893879,9.794963,0.000000,0.000000
1386956941,1,0,150.0,0,17,16,0,713,700,-0.0292,5202.5586,6.8213,0.4212,54.893776,9.794963,108.3,5.845,1.85,0.00,54.893879,9.794963,0.000000,0.000000
1386956942,1,0,150.0,0,13,12,0,713,750,-0.0292,5199.0918,6.8213,0.4212,54.893757,9.794974,108.3,5.845,1.85,0.00,54.893879,9.794963,0.000000,0.000000
1386956942,1,0,150.0,0,9,8,0,713,700,-0.0292,5196.6919,6.8213,0.4212,54.893742,9.794987,108.3,5.845,1.85,0.00,54.893879,9.794963,0.000000,0.000000
1386956942,1,0,150.0,0,7,4,0,713,750,-0.0292,5194.8252,6.8213,0.4212,54.893723,9.795000,108.3,5.845,1.85,0.00,54.893879,9.794963,0.000000,0.000000
1386956942,1,0,150.0,0,5,8,0,713,700,-0.0292,5193.4917,6.8213,0.4212,54.893703,9.795013,108.3,5.845,1.85,0.00,54.893879,9.794963,0.000000,0.000000
1386956943,1,0,150.0,0,3,4,0,0,650,-0.0292,5192.6919,6.8213,0.4212,54.893688,9.795028,108.3,5.845,1.85,0.00,54.893879,9.794963,0.000000,0.000000
1386956943,1,0,150.0,0,3,0,0,0,600,-0.0292,5191.8921,6.8213,0.4212,54.893673,9.795043,108.3,5.845,1.85,0.00,54.893879,9.794963,0.000000,0.000000
1386956943,1,0,150.0,0,2,4,0,0,550,-0.0292,5191.3589,6.8213,0.4212,54.893658,9.795057,108.3,5.845,1.85,0.00,54.893879,9.794963,0.000000,0.000000
1386956943,1,0,150.0,0,1,0,0,0,500,-0.0292,5191.0923,6.8213,0.4212,54.893642,9.795073,108.3,5.845,1.85,0.00,54.893879,9.794963,0.000000,0.000000
1386956944,1,0,150.0,0,1,4,0,0,450,-0.0292,5190.8257,6.8213,0.4212,54.893623,9.795088,108.3,5.845,1.85,0.00,54.893879,9.794963,0.000000,0.000000
1386956944,1,0,150.0,0,1,0,0,0,400,-0.0292,5190.5591,6.8213,0.4212,54.893608,9.795103,108.3,5.845,1.85,0.00,54.893879,9.794963,0.000000,0.000000
1386956944,1,0,150.0,0,1,4,0,0,350,-0.0292,5190.2925,6.8213,0.4212,54.893593,9.795118,108.3,5.845,1.85,0.00,54.893879,9.794963,0.000000,0.000000
1386956944,1,0,150.0,0,0,0,0,0,300,-0.0292,5190.2925,6.8213,0.4212,54.893578,9.795134,108.3,5.845,1.85,0.00,54.893879,9.794963,0.000000,0.000000
1386956945,1,0,150.0,0,0,4,0,0,250,-0.0292,5190.2925,6.8213,0.4212,54.893562,9.795149,108.3,5.845,1.85,0.00,54.893879,9.794963,0.000000,0.000000
1386956945,1,0,150.0,0,0,0,0,0,200,-0.0292,5190.2925,6.8213,0.4212,54.893547,9.795164,108.3,5.845,1.85,0.00,54.893879,9.794963,0.000000,0.000000
1386956945,1,0,150.0,0,0,4,0,0,150,-0.0292,5190.2925,6.8213,0.4212,54.893528,9.795179,108.3,5.845,1.85,0.00,54.893879,9.794963,0.000000,0.000000
1386956945,1,0,150.0,0,0,0,0,0,100,-0.0292,5190.2925,6.8213,0.4212,54.893513,9.795195,108.3,5.845,1.85,0.00,54.893879,9.794963,0.000000,0.000000
1386956946,1,0,150.0,0,0,4,0,0,50,-0.0292,5190.2925,6.8213,0.4212,54.893497,9.795211,108.3,5.845,1.85,0.00,54.893879,9.794963,0.000000,0.000000
1386956946,1,0,150.0,0,0,0,0,0,0,-0.0292,5190.2925,6.8213,0.4212,54.893478,9.795226,108.3,5.845,1.85,0.00,54.893879,9.794963,0.000000,0.000000
1386956946,1,0,150.0,0,0,4,0,0,0,-0.0292,5190.2925,6.8213,0.4212,54.893463,9.795241,108.3,5.845,1.85,0.00,54.893879,9.794963,0.000000,0.000000
1386956946,1,0,210.0,0,-35,0,0,0,0,-0.0292,5199.6260,6.8213,0.4212,54.893448,9.795253,108.3,5.845,1.85,0.00,54.893879,9.794963,0.000000,0.000000
1386956947,1,0,210.0,0,-35,-4,0,0,0,-0.0292,5208.9595,6.8213,0.4212,54.893429,9.795259,108.3,5.845,1.85,0.00,54.893879,9.794963,0.000000,0.000000
1386956947,1,0,210.0,0,-35,-8,0,0,0,-0.0292,5218.2930,6.8213,0.4212,54.893410,9.795259,108.3,5.845,1.85,0.00,54.893879,9.794963,0.000000,0.000000
1386956947,1,0,210.0,0,-32,-12,0,0,0,-0.0292,5226.8262,6.8213,0.4212,54.893391,9.795256,108.3,5.845,1.85,0.00,54.893879,9.794963,0.000000,0.000000
1386956947,1,0,210.0,0,-23,-16,0,0,0,-0.0292,5232.9595,6.8213,0.4212,54.893375,9.795248,108.3,5.845,1.85,0.00,54.893879,9.794963,0.000000,0.000000
1386956948,1,0,210.0,0,-17,-20,0,0,0,-0.0292,5237.4927,6.8213,0.4212,54.893356,9.795238,108.3,5.845,1.85,0.00,54.893879,9.794963,0.000000,0.000000
1386956948,1,0,210.0,0,-13,-16,0,0,0,-0.0292,5240.9595,6.8213,0.4212,54.893337,9.795228,108.3,5.845,1.85,0.00,54.893879,9.794963,0.000000,0.000000
1386956948,1,0,210.0,0,-9,-12,0,0,0,-0.0292,5243.3594,6.8213,0.4212,54.893322,9.795216,108.3,5.845,1.85,0.00,54.893879,9.794963,0.000000,0.000000
1386956948,1,0,210.0,0,-7,-8,0,0,0,-0.0292,5245.2261,6.8213,0.4212,54.893307,9.795202,108.3,5.845,1.85,0.00,54.893879,9.794963,0.000000,0.000000
1386956949,1,0,210.0,0,-5,-4,0,0,0,-0.0292,5246.5596,6.8213,0.4212,54.893291,9.795189,108.3,5.845,1.85,0.00,54.893879,9.794963,0.000000,0.000000
1386956949,1,0,210.0,0,-3,0,0,713,50,-0.0292,5247.3594,6.8213,0.4212,54.893276,9.795175,108.3,5.845,1.85,0.00,54.893879,9.794963,0.000000,0.000000
1386956949,1,0,210.0,0,-3,-4,0,713,100,-0.0292,5248.1592,6.8213,0.4212,54.893257,9.795159,108.3,5.845,1.85,0.00,54.893879,9.794963,0.000000,0.000000
1386956949,1,0,210.0,0,-2,0,0,713,150,-0.0292,5248.6924,6.8213,0.4212,54.893242,9.795145,108.3,5.845,1.85,0.00,54.893879,9.794963,0.000000,0.000000
1386956950,1,0,210.0,0,-1,-4,0,713,200,-0.0292,5248.9590,6.8213,0.4212,54.893227,9.795130,108.3,5.845,1.85,0.00,54.893879,9.794963,0.000000,0.000000
1386956950,1,0,210.0,0,-1,0,0,713,250,-0.0292,5249.2256,6.8213,0.4212,54.893208,9.795115,108.3,5.845,1.85,0.00,54.893879,9.794963,0.000000,0.000000
1386956950,1,0,210.0,0,-1,-4,0,713,300,-0.0292,5249.4922,6.8213,0.4212,54.893192,9.795099,108.3,5.845,1.85,0.00,54.893879,9.794963,0.000000,0.000000
