MCU_timestamp,Navigation_System,Manual_Control,Guidance_Heading,Manual_Ctrl_Rudder,Rudder_Desired_Angle,Rudder_Feedback,Manual_Ctrl_Sail,Sail_Desired_Pos,Sail_Feedback,Rate,Heading,Pitch,Roll,Latitude,Longitude,COG,SOG,Wind_Speed,Wind_Angle,Point_Start_Lat,Point_Start_Lon,Point_End_Lat,Point_End_Lon
1386888858,0,0,0.0,0,0,-4,0,0,0,-0.0292,2010.8903,6.8213,0.4212,54.899010,9.790697,108.3,5.845,1.85,335.95,0.000000,0.000000,0.000000,0.000000
1386888858,0,0,0.0,0,0,-4,0,0,0,-0.0292,2010.8903,6.8213,0.4212,54.899010,9.790697,108.3,5.845,1.85,335.95,0.000000,0.000000,0.000000,0.000000
1386888858,0,0,0.0,0,0,-4,0,0,0,-0.0292,2010.8903,6.8213,0.4212,54.899010,9.790697,108.3,5.845,1.85,335.95,0.000000,0.000000,0.000000,0.000000
1386888859,0,0,0.0,0,0,-4,0,0,0,-0.0292,2010.8903,6.8213,0.4212,54.899010,9.790697,108.3,5.845,1.85,335.95,0.000000,0.000000,0.000000,0.000000
1386888859,0,0,0.0,0,0,-4,0,0,0,-0.0292,2010.8903,6.8213,0.4212,54.899010,9.790697,108.3,5.845,1.85,335.95,0.000000,0.000000,0.000000,0.000000
1386888859,0,0,0.0,0,0,-4,0,0,0,-0.0292,2010.8903,6.8213,0.4212,54.899010,9.790697,108.3,5.845,1.85,335.95,0.000000,0.000000,0.000000,0.000000
1386888859,0,0,0.0,0,0,-4,0,0,0,-0.0292,2010.8903,6.8213,0.4212,54.899010,9.790697,108.3,5.845,1.85,335.95,0.000000,0.000000,0.000000,0.000000
1386888860,0,0,0.0,0,0,-4,0,0,0,-0.0292,2010.8903,6.8213,0.4212,54.899010,9.790697,108.3,5.845,1.85,335.95,0.000000,0.000000,0.000000,0.000000
1386888860,0,0,0.0,0,0,-4,0,0,0,-0.0292,2010.8903,6.8213,0.4212,54.899010,9.790697,108.3,5.845,1.85,335.95,0.000000,0.000000,0.000000,0.000000
1386888860,0,0,0.0,0,0,-4,0,0,0,-0.0292,2010.8903,6.8213,0.4212,54.899010,9.790697,108.3,5.845,1.85,335.95,0.000000,0.000000,0.000000,0.000000
1386888860,4,0,0.0,0,0,-4,0,0,0,-0.0292,2010.8903,6.8213,0.4212,54.899010,9.790697,108.3,5.845,1.85,335.95,0.000000,0.000000,0.000000,0.000000
1386888861,1,0,485.9,0,35,0,0,870,650,-0.0292,2057.7588,6.8213,0.4212,54.899006,9.790667,108.3,5.845,1.85,335.95,54.899010,9.790697,54.895069,9.793790
1386888861,1,0,485.9,0,35,4,0,215,600,-0.0292,2104.6272,6.8213,0.4212,54.899014,9.790641,108.3,5.845,1.85,335.95,54.899010,9.790697,54.895069,9.793790
1386888861,1,0,485.9,0,35,8,0,0,550,-0.0292,2151.4956,6.8213,0.4212,54.899033,9.790636,108.3,5.845,1.85,335.95,54.899010,9.790697,54.895069,9.793790
1386888861,1,0,485.9,0,-35,4,0,0,500,-0.0292,2198.3640,6.8213,0.4212,54.899044,9.790655,108.3,5.845,1.85,335.95,54.899010,9.790697,54.895069,9.793790
1386888862,1,0,485.9,0,-35,0,0,28,450,-0.0292,2245.2324,6.8213,0.4212,54.899048,9.790687,108.3,5.845,1.85,335.95,54.899010,9.790697,54.895069,9.793790
1386888862,1,0,485.9,0,-35,-4,0,702,500,-0.0292,2292.1008,6.8213,0.4212,54.899036,9.790709,108.3,5.845,1.85,335.95,54.899010,9.790697,54.895069,9.793790
1386888862,1,0,485.9,0,6,0,0,713,550,-0.0292,2242.3032,6.8213,0.4212,54.899036,9.790740,108.3,5.845,1.85,335.95,54.899010,9.790697,54.895069,9.793790
1386888862,1,0,485.9,0,-35,-4,0,657,600,-0.0292,2289.1716,6.8213,0.4212,54.899025,9.790765,108.3,5.845,1.85,335.95,54.899010,9.790697,54.895069,9.793790
1386888863,1,0,485.9,0,3,0,0,713,650,-0.0292,2340.5159,6.8213,0.4212,54.899010,9.790765,108.3,5.845,1.85,335.95,54.899010,9.790697,54.895069,9.793790
1386888863,1,0,485.9,0,35,4,0,713,700,-0.0292,2387.3843,6.8213,0.4212,54.898994,9.790742,108.3,5.845,1.85,335.95,54.899010,9.790697,54.895069,9.793790
1386888863,1,0,485.9,0,35,8,0,691,650,-0.0292,2434.2527,6.8213,0.4212,54.898994,9.790711,108.3,5.845,1.85,335.95,54.899010,9.790697,54.895069,9.793790
1386888863,1,0,485.9,0,35,12,0,23,600,-0.0292,2481.1211,6.8213,0.4212,54.899010,9.790691,108.3,5.845,1.85,335.95,54.899010,9.790697,54.895069,9.793790
1386888864,1,0,485.9,0,-35,8,0,0,550,-0.0292,2527.9895,6.8213,0.4212,54.899025,9.790696,108.3,5.845,1.85,335.95,54.899010,9.790697,54.895069,9.793790
1386888864,1,0,485.9,0,-35,4,0,0,500,-0.0292,2574.8579,6.8213,0.4212,54.899036,9.790722,108.3,5.845,1.85,335.95,54.899010,9.790697,54.895069,9.793790
1386888864,1,0,485.9,0,-35,0,0,226,450,-0.0292,2621.7263,6.8213,0.4212,54.899033,9.790752,108.3,5.845,1.85,335.95,54.899010,9.790697,54.895069,9.793790
1386888864,1,0,485.9,0,-24,-4,0,870,500,-0.0292,2599.7271,6.8213,0.4212,54.899033,9.790783,108.3,5.845,1.85,335.95,54.899010,9.790697,54.895069,9.793790
1386888865,1,0,485.9,0,-35,-8,0,617,550,-0.0292,2646.5955,6.8213,0.4212,54.899021,9.790809,108.3,5.845,1.85,335.95,54.899010,9.790697,54.895069,9.793790
1386888865,1,0,485.9,0,1,-4,0,713,600,-0.0292,2618.5735,6.8213,0.4212,54.899021,9.790839,108.3,5.845,1.85,335.95,54.899010,9.790697,54.895069,9.793790
1386888865,1,0,485.9,0,-27,-8,0,870,650,-0.0292,2633.7249,6.8213,0.4212,54.899014,9.790868,108.3,5.845,1.85,335.95,54.899010,9.790697,54.895069,9.793790
1386888865,1,0,485.9,0,-12,-12,0,713,700,-0.0292,2589.9597,6.8213,0.4212,54.899017,9.790897,108.3,5.845,1.85,335.95,54.899010,9.790697,54.895069,9.793790
1386888866,1,0,485.9,0,-35,-16,0,463,650,-0.0292,2636.8281,6.8213,0.4212,54.899010,9.790925,108.3,5.845,1.85,335.95,54.899010,9.790697,54.895069,9.793790
1386888866,1,0,485.9,0,-9,-12,0,713,700,-0.0292,2684.0825,6.8213,0.4212,54.898991,9.790934,108.3,5.845,1.85,335.95,54.899010,9.790697,54.895069,9.793790
1386888866,1,0,485.9,0,35,-8,0,0,650,-0.0292,2730.9509,6.8213,0.4212,54.898975,9.790917,108.3,5.845,1.85,335.95,54.899010,9.790697,54.895069,9.793790
1386888866,1,0,485.9,0,35,-4,0,870,700,-0.0292,2777.8193,6.8213,0.4212,54.898972,9.790887,108.3,5.845,1.85,335.95,54.899010,9.790697,54.895069,9.793790
1386888867,1,0,485.9,0,35,0,0,214,650,-0.0292,2824.6877,6.8213,0.4212,54.898983,9.790861,108.3,5.845,1.85,335.95,54.899010,9.790697,54.895069,9.793790
1386888867,1,0,485.9,0,35,4,0,0,600,-0.0292,2871.5562,6.8213,0.4212,54.898998,9.790856,108.3,5.845,1.85,335.95,54.899010,9.790697,54.895069,9.793790
1386888867,1,0,485.9,0,-35,0,0,0,550,-0.0292,2918.4246,6.8213,0.4212,54.899014,9.790875,108.3,5.845,1.85,335.95,54.899010,9.790697,54.895069,9.793790
1386888867,1,0,485.9,0,-35,-4,0,28,500,-0.0292,2965.2930,6.8213,0.4212,54.899014,9.790906,108.3,5.845,1.85,335.95,54.899010,9.790697,54.895069,9.793790
1386888868,1,0,485.9,0,-35,-8,0,703,550,-0.0292,3012.1614,6.8213,0.4212,54.899002,9.790930,108.3,5.845,1.85,335.95,54.899010,9.790697,54.895069,9.793790
1386888868,1,0,485.9,0,6,-4,0,713,600,-0.0292,2962.3638,6.8213,0.4212,54.899006,9.790960,108.3,5.845,1.85,335.95,54.899010,9.790697,54.895069,9.793790
1386888868,1,0,485.9,0,-35,-8,0,658,650,-0.0292,3009.2322,6.8213,0.4212,54.898994,9.790984,108.3,5.845,1.85,335.95,54.899010,9.790697,54.895069,9.793790
1386888868,1,0,485.9,0,3,-4,0,713,700,-0.0292,3060.5764,6.8213,0.4212,54.898975,9.790984,108.3,5.845,1.85,335.95,54.899010,9.790697,54.895069,9.793790
1386888869,1,0,485.9,0,35,0,0,713,750,-0.0292,3107.4448,6.8213,0.4212,54.898964,9.790961,108.3,5.845,1.85,335.95,54.899010,9.790697,54.895069,9.793790
1386888869,1,0,485.9,0,35,4,0,690,700,-0.0292,3154.3132,6.8213,0.4212,54.898964,9.790930,108.3,5.845,1.85,335.95,54.899010,9.790697,54.895069,9.793790
1386888869,1,0,485.9,0,35,8,0,22,650,-0.0292,3201.1816,6.8213,0.4212,54.898979,9.790910,108.3,5.845,1.85,335.95,54.899010,9.790697,54.895069,9.793790
1386888869,0,0,485.9,0,35,8,0,22,650,-0.0292,3201.1816,6.8213,0.4212,54.898979,9.790910,108.3,5.845,1.85,335.95,54.899010,9.790697,54.895069,9.793790
1386888870,0,0,485.9,0,35,8,0,22,650,-0.0292,3201.1816,6.8213,0.4212,54.898979,9.790910,108.3,5.845,1.85,335.95,54.899010,9.790697,54.895069,9.793790
1386888870,0,0,485.9,0,35,8,0,22,650,-0.0292,3201.1816,6.8213,0.4212,54.898979,9.790910,108.3,5.845,1.85,335.95,54.899010,9.790697,54.895069,9.793790
1386888870,0,0,485.9,0,35,8,0,22,650,-0.0292,3201.1816,6.8213,0.4212,54.898979,9.790910,108.3,5.845,1.85,335.95,54.899010,9.790697,54.895069,9.793790
1386888870,0,0,485.9,0,35,8,0,22,650,-0.0292,3201.1816,6.8213,0.4212,54.898979,9.790910,108.3,5.845,1.85,335.95,54.899010,9.790697,54.895069,9.793790
1386888871,0,0,485.9,0,35,8,0,22,650,-0.0292,3201.1816,6.8213,0.4212,54.898979,9.790910,108.3,5.845,1.85,335.95,54.899010,9.790697,54.895069,9.793790
1386888871,0,0,485.9,0,35,8,0,22,650,-0.0292,3201.1816,6.8213,0.4212,54.898979,9.790910,108.3,5.845,1.85,335.95,54.899010,9.790697,54.895069,9.793790
1386888871,0,0,485.9,0,35,8,0,22,650,-0.0292,3201.1816,6.8213,0.4212,54.898979,9.790910,108.3,5.845,1.85,335.95,54.899010,9.790697,54.895069,9.793790
1386888871,0,0,485.9,0,35,8,0,22,650,-0.0292,3201.1816,6.8213,0.4212,54.898979,9.790910,108.3,5.845,1.85,335.95,54.899010,9.790697,54.895069,9.793790
1386888872,0,0,485.9,0,35,8,0,22,650,-0.0292,3201.1816,6.8213,0.4212,54.898979,9.790910,108.3,5.845,1.85,335.95,54.899010,9.790697,54.895069,9.793790
1386888872,0,0,485.9,0,35,8,0,22,650,-0.0292,3201.1816,6.8213,0.4212,54.898979,9.790910,108.3,5.845,1.85,335.95,54.899010,9.790697,54.895069,9.793790
1386888872,0,0,485.9,0,35,8,0,22,650,-0.0292,3201.1816,6.8213,0.4212,54.898979,9.790910,108.3,5.845,1.85,335.95,54.899010,9.790697,54.895069,9.793790
