MCU_timestamp,Navigation_System,Manual_Control,Guidance_Heading,Manual_Ctrl_Rudder,Rudder_Desired_Angle,Rudder_Feedback,Manual_Ctrl_Sail,Sail_Desired_Pos,Sail_Feedback,Rate,Heading,Pitch,Roll,Latitude,Longitude,COG,SOG,Wind_Speed,Wind_Angle,Point_Start_Lat,Point_Start_Lon,Point_End_Lat,Point_End_Lon
1386788026,0,0,0.0,0,0,0,0,0,0,-0.0292,76.9577,6.8213,0.4212,54.895260,9.796818,108.3,5.845,1.85,335.95,0.000000,0.000000,0.000000,0.000000
1386788026,0,0,0.0,0,0,0,0,0,0,-0.0292,76.9577,6.8213,0.4212,54.895260,9.796818,108.3,5.845,1.85,335.95,0.000000,0.000000,0.000000,0.000000
1386788026,0,0,0.0,0,0,0,0,0,0,-0.0292,76.9577,6.8213,0.4212,54.895260,9.796818,108.3,5.845,1.85,335.95,0.000000,0.000000,0.000000,0.000000
1386788027,0,0,0.0,0,0,0,0,0,0,-0.0292,76.9577,6.8213,0.4212,54.895260,9.796818,108.3,5.845,1.85,335.95,0.000000,0.000000,0.000000,0.000000
1386788027,0,0,0.0,0,0,0,0,0,0,-0.0292,76.9577,6.8213,0.4212,54.895260,9.796818,108.3,5.845,1.85,335.95,0.000000,0.000000,0.000000,0.000000
1386788027,0,0,0.0,0,0,0,0,0,0,-0.0292,76.9577,6.8213,0.4212,54.895260,9.796818,108.3,5.845,1.85,335.95,0.000000,0.000000,0.000000,0.000000
1386788027,0,0,0.0,0,0,0,0,0,0,-0.0292,76.9577,6.8213,0.4212,54.895260,9.796818,108.3,5.845,1.85,335.95,0.000000,0.000000,0.000000,0.000000
1386788028,0,0,0.0,0,0,0,0,0,0,-0.0292,76.9577,6.8213,0.4212,54.895260,9.796818,108.3,5.845,1.85,335.95,0.000000,0.000000,0.000000,0.000000
1386788028,0,0,0.0,0,0,0,0,0,0,-0.0292,76.9577,6.8213,0.4212,54.895260,9.796818,108.3,5.845,1.85,335.95,0.000000,0.000000,0.000000,0.000000
1386788028,0,0,0.0,0,0,0,0,0,0,-0.0292,76.9577,6.8213,0.4212,54.895260,9.796818,108.3,5.845,1.85,335.95,0.000000,0.000000,0.000000,0.000000
1386788028,0,0,0.0,0,0,0,0,0,0,-0.0292,76.9577,6.8213,0.4212,54.895260,9.796818,108.3,5.845,1.85,335.95,0.000000,0.000000,0.000000,0.000000
1386788029,0,0,0.0,0,0,0,0,0,0,-0.0292,76.9577,6.8213,0.4212,54.895260,9.796818,108.3,5.845,1.85,335.95,0.000000,0.000000,0.000000,0.000000
1386788029,0,0,0.0,0,0,0,0,0,0,-0.0292,76.9577,6.8213,0.4212,54.895260,9.796818,108.3,5.845,1.85,335.95,0.000000,0.000000,0.000000,0.000000
1386788029,0,0,0.0,0,0,0,0,0,0,-0.0292,76.9577,6.8213,0.4212,54.895260,9.796818,108.3,5.845,1.85,335.95,0.000000,0.000000,0.000000,0.000000
1386788029,4,0,0.0,0,0,0,0,0,0,-0.0292,76.9577,6.8213,0.4212,54.895260,9.796818,108.3,5.845,1.85,335.95,0.000000,0.000000,0.000000,0.000000
1386788030,1,0,485.9,0,-35,-4,0,1,0,-0.0292,86.2910,6.8213,0.4212,54.895264,9.796849,108.3,5.845,1.85,-0.42,54.895260,9.796818,54.895069,9.793790
1386788030,1,0,485.9,0,-35,-8,0,1,25,-0.0292,95.6244,6.8213,0.4212,54.895264,9.796880,108.3,5.845,1.85,-0.42,54.895260,9.796818,54.895069,9.793790
1386788030,1,0,485.9,0,-30,-12,0,1,0,-0.0292,103.6244,6.8213,0.4212,54.895260,9.796909,108.3,5.845,1.85,-0.42,54.895260,9.796818,54.895069,9.793790
1386788030,1,0,485.9,0,-22,-16,0,1,25,-0.0292,109.4910,6.8213,0.4212,54.895256,9.796939,108.3,5.845,1.85,-0.42,54.895260,9.796818,54.895069,9.793790
1386788031,1,0,485.9,0,-16,-12,0,1,0,-0.0292,113.7577,6.8213,0.4212,54.895248,9.796968,108.3,5.845,1.85,-0.42,54.895260,9.796818,54.895069,9.793790
1386788031,1,0,485.9,0,-12,-8,0,1,25,-0.0292,116.9577,6.8213,0.4212,54.895241,9.796995,108.3,5.845,1.85,-0.42,54.895260,9.796818,54.895069,9.793790
1386788031,1,0,485.9,0,-9,-12,0,1,0,-0.0292,119.3577,6.8213,0.4212,54.895233,9.797023,108.3,5.845,1.85,-0.42,54.895260,9.796818,54.895069,9.793790
1386788031,1,0,485.9,0,-7,-8,0,1,25,-0.0292,121.2244,6.8213,0.4212,54.895226,9.797050,108.3,5.845,1.85,-0.42,54.895260,9.796818,54.895069,9.793790
1386788032,1,0,545.9,0,-35,-12,0,1,0,-0.0292,130.5577,6.8213,0.4212,54.895214,9.797072,108.3,5.845,1.85,-0.42,54.895260,9.796818,54.895069,9.793790
1386788032,1,0,545.9,0,-35,-16,0,1,25,-0.0292,139.8910,6.8213,0.4212,54.895203,9.797092,108.3,5.845,1.85,-0.42,54.895260,9.796818,54.895069,9.793790
1386788032,1,0,545.9,0,-35,-20,0,1,0,-0.0292,149.2244,6.8213,0.4212,54.895187,9.797108,108.3,5.845,1.85,-0.42,54.895260,9.796818,54.895069,9.793790
1386788032,1,0,545.9,0,-35,-24,0,1,25,-0.0292,158.5577,6.8213,0.4212,54.895172,9.797119,108.3,5.845,1.85,-0.42,54.895260,9.796818,54.895069,9.793790
1386788033,1,0,545.9,0,-27,-28,0,1,0,-0.0292,165.7577,6.8213,0.4212,54.895153,9.797127,108.3,5.845,1.85,-0.42,54.895260,9.796818,54.895069,9.793790
1386788033,1,0,545.9,0,-20,-24,0,1,25,-0.0292,171.0910,6.8213,0.4212,54.895134,9.797132,108.3,5.845,1.85,-0.42,54.895260,9.796818,54.895069,9.793790
1386788033,1,0,545.9,0,-15,-20,0,1,0,-0.0292,175.0910,6.8213,0.4212,54.895115,9.797134,108.3,5.845,1.85,-0.42,54.895260,9.796818,54.895069,9.793790
1386788033,1,0,545.9,0,-11,-16,0,1,25,-0.0292,178.0244,6.8213,0.4212,54.895100,9.797135,108.3,5.845,1.85,-0.42,54.895260,9.796818,54.895069,9.793790
1386788034,1,0,545.9,0,-8,-12,0,1,0,-0.0292,180.1577,6.8213,0.4212,54.895081,9.797134,108.3,5.845,1.85,-0.42,54.895260,9.796818,54.895069,9.793790
1386788034,1,0,545.9,0,-6,-8,0,1,25,-0.0292,181.7577,6.8213,0.4212,54.895061,9.797133,108.3,5.845,1.85,-0.42,54.895260,9.796818,54.895069,9.793790
1386788034,1,0,280.9,0,-35,-12,0,337,50,-0.0292,191.0910,6.8213,0.4212,54.895046,9.797127,108.3,5.845,1.85,-0.42,54.895260,9.796818,54.895069,9.793790
1386788034,1,0,280.9,0,-35,-16,0,402,75,-0.0292,200.4243,6.8213,0.4212,54.895027,9.797116,108.3,5.845,1.85,-0.42,54.895260,9.796818,54.895069,9.793790
1386788035,1,0,280.9,0,-35,-20,0,464,100,-0.0292,209.7577,6.8213,0.4212,54.895012,9.797101,108.3,5.845,1.85,-0.42,54.895260,9.796818,54.895069,9.793790
1386788035,1,0,280.9,0,-35,-24,0,1,75,-0.0292,219.0910,6.8213,0.4212,54.895000,9.797081,108.3,5.845,1.85,-0.42,54.895260,9.796818,54.895069,9.793790
1386788035,1,0,280.9,0,-35,-28,0,1,50,-0.0292,228.4243,6.8213,0.4212,54.894989,9.797058,108.3,5.845,1.85,-0.42,54.895260,9.796818,54.895069,9.793790
1386788035,1,0,280.9,0,-35,-32,0,1,25,-0.0292,237.7577,6.8213,0.4212,54.894981,9.797031,108.3,5.845,1.85,-0.42,54.895260,9.796818,54.895069,9.793790
1386788036,1,0,280.9,0,-35,-36,0,1,0,-0.0292,247.0910,6.8213,0.4212,54.894974,9.797003,108.3,5.845,1.85,-0.42,54.895260,9.796818,54.895069,9.793790
1386788036,1,0,280.9,0,-34,-32,0,1,25,-0.0292,256.1577,6.8213,0.4212,54.894966,9.796973,108.3,5.845,1.85,-0.42,54.895260,9.796818,54.895069,9.793790
1386788036,1,0,280.9,0,-25,-28,0,1,0,-0.0292,262.8243,6.8213,0.4212,54.894966,9.796942,108.3,5.845,1.85,-0.42,54.895260,9.796818,54.895069,9.793790
1386788036,1,0,280.9,0,-18,-24,0,1,25,-0.0292,267.6243,6.8213,0.4212,54.894966,9.796910,108.3,5.845,1.85,-0.42,54.895260,9.796818,54.895069,9.793790
1386788037,1,0,280.9,0,-13,-20,0,1,0,-0.0292,271.0910,6.8213,0.4212,54.894966,9.796880,108.3,5.845,1.85,-0.42,54.895260,9.796818,54.895069,9.793790
1386788037,1,0,280.9,0,-10,-16,0,1,25,-0.0292,273.7576,6.8213,0.4212,54.894970,9.796848,108.3,5.845,1.85,-0.42,54.895260,9.796818,54.895069,9.793790
1386788037,1,0,280.9,0,-7,-12,0,1,0,-0.0292,275.6243,6.8213,0.4212,54.894974,9.796817,108.3,5.845,1.85,-0.42,54.895260,9.796818,54.895069,9.793790
1386788037,1,0,280.9,0,-5,-8,0,1,25,-0.0292,276.9576,6.8213,0.4212,54.894974,9.796786,108.3,5.845,1.85,-0.42,54.895260,9.796818,54.895069,9.793790
1386788038,1,0,280.9,0,-4,-4,0,1,0,-0.0292,278.0243,6.8213,0.4212,54.894974,9.796756,108.3,5.845,1.85,-0.42,54.895260,9.796818,54.895069,9.793790
1386788038,1,0,280.9,0,-3,0,0,1,25,-0.0292,278.8243,6.8213,0.4212,54.894974,9.796724,108.3,5.845,1.85,-0.42,54.895260,9.796818,54.895069,9.793790
1386788038,1,0,280.9,0,-2,-4,0,1,0,-0.0292,279.3576,6.8213,0.4212,54.894974,9.796694,108.3,5.845,1.85,-0.42,54.895260,9.796818,54.895069,9.793790
1386788038,1,0,280.9,0,-2,0,0,1,25,-0.0292,279.8910,6.8213,0.4212,54.894974,9.796663,108.3,5.845,1.85,-0.42,54.895260,9.796818,54.895069,9.793790
1386788039,1,0,280.9,0,-1,-4,0,1,0,-0.0292,280.1576,6.8213,0.4212,54.894974,9.796632,108.3,5.845,1.85,-0.42,54.895260,9.796818,54.895069,9.793790
1386788039,1,0,280.9,0,-1,0,0,1,25,-0.0292,280.4243,6.8213,0.4212,54.894974,9.796601,108.3,5.845,1.85,-0.42,54.895260,9.796818,54.895069,9.793790
1386788039,1,0,280.9,0,-1,-4,0,1,0,-0.0292,280.6909,6.8213,0.4212,54.894974,9.796571,108.3,5.845,1.85,-0.42,54.895260,9.796818,54.895069,9.793790
1386788039,1,0,280.9,0,0,0,0,1,25,-0.0292,280.6909,6.8213,0.4212,54.894974,9.796540,108.3,5.845,1.85,-0.42,54.895260,9.796818,54.895069,9.793790
1386788040,1,0,280.9,0,0,4,0,1,0,-0.0292,280.6909,6.8213,0.4212,54.894974,9.796510,108.3,5.845,1.85,-0.42,54.895260,9.796818,54.895069,9.793790
1386788040,1,0,280.9,0,0,0,0,1,25,-0.0292,280.6909,6.8213,0.4212,54.894974,9.796479,108.3,5.845,1.85,-0.42,54.895260,9.796818,54.895069,9.793790
1386788040,1,0,280.9,0,0,4,0,1,0,-0.0292,280.6909,6.8213,0.4212,54.894974,9.796449,108.3,5.845,1.85,-0.42,54.895260,9.796818,54.895069,9.793790
1386788040,1,0,280.9,0,0,0,0,1,25,-0.0292,280.6909,6.8213,0.4212,54.894974,9.796417,108.3,5.845,1.85,-0.42,54.895260,9.796818,54.895069,9.793790
1386788041,1,0,280.9,0,0,4,0,1,0,-0.0292,280.6909,6.8213,0.4212,54.894974,9.796387,108.3,5.845,1.85,-0.42,54.895260,9.796818,54.895069,9.793790
1386788041,1,0,280.9,0,0,0,0,1,25,-0.0292,280.6909,6.8213,0.4212,54.894974,9.796356,108.3,5.845,1.85,-0.42,54.895260,9.796818,54.895069,9.793790
1386788041,1,0,280.9,0,0,4,0,1,0,-0.0292,280.6909,6.8213,0.4212,54.894974,9.796326,108.3,5.845,1.85,-0.42,54.895260,9.796818,54.895069,9.793790
1386788041,1,0,280.9,0,0,0,0,1,25,-0.0292,280.6909,6.8213,0.4212,54.894974,9.796295,108.3,5.845,1.85,-0.42,54.895260,9.796818,54.895069,9.793790
1386788042,1,0,280.9,0,0,4,0,1,0,-0.0292,280.6909,6.8213,0.4212,54.894974,9.796265,108.3,5.845,1.85,-0.42,54.895260,9.796818,54.895069,9.793790
1386788042,1,0,280.9,0,0,0,0,1,25,-0.0292,280.6909,6.8213,0.4212,54.894974,9.796234,108.3,5.845,1.85,-0.42,54.895260,9.796818,54.895069,9.793790
1386788042,1,0,280.9,0,0,4,0,1,0,-0.0292,280.6909,6.8213,0.4212,54.894974,9.796203,108.3,5.845,1.85,-0.42,54.895260,9.796818,54.895069,9.793790
1386788042,1,0,280.9,0,0,0,0,1,25,-0.0292,280.6909,6.8213,0.4212,54.894974,9.796172,108.3,5.845,1.85,-0.42,54.895260,9.796818,54.895069,9.793790
1386788043,1,0,280.9,0,0,4,0,1,0,-0.0292,280.6909,6.8213,0.4212,54.894974,9.796142,108.3,5.845,1.85,-0.42,54.895260,9.796818,54.895069,9.793790
1386788043,1,0,280.9,0,0,0,0,1,25,-0.0292,280.6909,6.8213,0.4212,54.894974,9.796111,108.3,5.845,1.85,-0.42,54.895260,9.796818,54.895069,9.793790
1386788043,1,0,280.9,0,0,4,0,1,0,-0.0292,280.6909,6.8213,0.4212,54.894974,9.796081,108.3,5.845,1.85,-0.42,54.895260,9.796818,54.895069,9.793790
1386788043,1,0,280.9,0,0,0,0,1,25,-0.0292,280.6909,6.8213,0.4212,54.894974,9.796050,108.3,5.845,1.85,-0.42,54.895260,9.796818,54.895069,9.793790
1386788044,1,0,280.9,0,0,4,0,1,0,-0.0292,280.6909,6.8213,0.4212,54.894974,9.796020,108.3,5.845,1.85,-0.42,54.895260,9.796818,54.895069,9.793790
1386788044,1,0,280.9,0,0,0,0,1,25,-0.0292,280.6909,6.8213,0.4212,54.894974,9.795988,108.3,5.845,1.85,-0.42,54.895260,9.796818,54.895069,9.793790
1386788044,1,0,280.9,0,0,4,0,1,0,-0.0292,280.6909,6.8213,0.4212,54.894974,9.795958,108.3,5.845,1.85,-0.42,54.895260,9.796818,54.895069,9.793790
1386788044,1,0,280.9,0,0,0,0,1,25,-0.0292,280.6909,6.8213,0.4212,54.894974,9.795927,108.3,5.845,1.85,-0.42,54.895260,9.796818,54.895069,9.793790
1386788045,1,0,280.9,0,0,4,0,1,0,-0.0292,280.6909,6.8213,0.4212,54.894974,9.795897,108.3,5.845,1.85,-0.42,54.895260,9.796818,54.895069,9.793790
1386788045,1,0,280.9,0,0,0,0,1,25,-0.0292,280.6909,6.8213,0.4212,54.894974,9.795866,108.3,5.845,1.85,-0.42,54.895260,9.796818,54.895069,9.793790
1386788045,1,0,280.9,0,0,4,0,1,0,-0.0292,280.6909,6.8213,0.4212,54.894974,9.795835,108.3,5.845,1.85,-0.42,54.895260,9.796818,54.895069,9.793790
1386788045,1,0,280.9,0,0,0,0,1,25,-0.0292,280.6909,6.8213,0.4212,54.894974,9.795805,108.3,5.845,1.85,-0.42,54.895260,9.796818,54.895069,9.793790
1386788046,1,0,280.9,0,0,4,0,1,0,-0.0292,280.6909,6.8213,0.4212,54.894974,9.795774,108.3,5.845,1.85,-0.42,54.895260,9.796818,54.895069,9.793790
1386788046,1,0,280.9,0,0,0,0,1,25,-0.0292,280.6909,6.8213,0.4212,54.894974,9.795743,108.3,5.845,1.85,-0.42,54.895260,9.796818,54.895069,9.793790
1386788046,1,0,280.9,0,0,4,0,1,0,-0.0292,280.6909,6.8213,0.4212,54.894974,9.795712,108.3,5.845,1.85,-0.42,54.895260,9.796818,54.895069,9.793790
1386788046,1,0,280.9,0,0,0,0,1,25,-0.0292,280.6909,6.8213,0.4212,54.894974,9.795682,108.3,5.845,1.85,-0.42,54.895260,9.796818,54.895069,9.793790
1386788047,1,0,280.9,0,0,4,0,1,0,-0.0292,280.6909,6.8213,0.4212,54.894974,9.795651,108.3,5.845,1.85,-0.42,54.895260,9.796818,54.895069,9.793790
1386788047,1,0,280.9,0,0,0,0,1,25,-0.0292,280.6909,6.8213,0.4212,54.894974,9.795621,108.3,5.845,1.85,-0.42,54.895260,9.796818,54.895069,9.793790
1386788047,1,0,280.9,0,0,4,0,1,0,-0.0292,280.6909,6.8213,0.4212,54.894974,9.795590,108.3,5.845,1.85,-0.42,54.895260,9.796818,54.895069,9.793790
1386788047,1,0,280.9,0,0,0,0,1,25,-0.0292,280.6909,6.8213,0.4212,54.894974,9.795559,108.3,5.845,1.85,-0.42,54.895260,9.796818,54.895069,9.793790
1386788048,1,0,280.9,0,0,4,0,1,0,-0.0292,280.6909,6.8213,0.4212,54.894974,9.795528,108.3,5.845,1.85,-0.42,54.895260,9.796818,54.895069,9.793790
1386788048,1,0,280.9,0,0,0,0,1,25,-0.0292,280.6909,6.8213,0.4212,54.894974,9.795498,108.3,5.845,1.85,-0.42,54.895260,9.796818,54.895069,9.793790
1386788048,1,0,280.9,0,0,4,0,1,0,-0.0292,280.6909,6.8213,0.4212,54.894974,9.795467,108.3,5.845,1.85,-0.42,54.895260,9.796818,54.895069,9.793790
1386788048,1,0,280.9,0,0,0,0,1,25,-0.0292,280.6909,6.8213,0.4212,54.894974,9.795436,108.3,5.845,1.85,-0.42,54.895260,9.796818,54.895069,9.793790
1386788049,1,0,280.9,0,0,4,0,1,0,-0.0292,280.6909,6.8213,0.4212,54.894974,9.795405,108.3,5.845,1.85,-0.42,54.895260,9.796818,54.895069,9.793790
1386788049,1,0,280.9,0,0,0,0,1,25,-0.0292,280.6909,6.8213,0.4212,54.894974,9.795375,108.3,5.845,1.85,-0.42,54.895260,9.796818,54.895069,9.793790
1386788049,1,0,280.9,0,0,4,0,1,0,-0.0292,280.6909,6.8213,0.4212,54.894974,9.795343,108.3,5.845,1.85,-0.42,54.895260,9.796818,54.895069,9.793790
1386788050,1,0,280.9,0,0,0,0,1,25,-0.0292,280.6909,6.8213,0.4212,54.894974,9.795313,108.3,5.845,1.85,-0.42,54.895260,9.796818,54.895069,9.793790
1386788050,1,0,280.9,0,0,4,0,1,0,-0.0292,280.6909,6.8213,0.4212,54.894974,9.795282,108.3,5.845,1.85,-0.42,54.895260,9.796818,54.895069,9.793790
1386788050,1,0,280.9,0,0,0,0,1,25,-0.0292,280.6909,6.8213,0.4212,54.894974,9.795252,108.3,5.845,1.85,-0.42,54.895260,9.796818,54.895069,9.793790
1386788050,1,0,280.9,0,0,4,0,1,0,-0.0292,280.6909,6.8213,0.4212,54.894974,9.795220,108.3,5.845,1.85,-0.42,54.895260,9.796818,54.895069,9.793790
1386788051,1,0,280.9,0,0,0,0,1,25,-0.0292,280.6909,6.8213,0.4212,54.894974,9.795190,108.3,5.845,1.85,-0.42,54.895260,9.796818,54.895069,9.793790
1386788051,1,0,280.9,0,0,4,0,1,0,-0.0292,280.6909,6.8213,0.4212,54.894974,9.795159,108.3,5.845,1.85,-0.42,54.895260,9.796818,54.895069,9.793790
1386788051,1,0,280.9,0,0,0,0,1,25,-0.0292,280.6909,6.8213,0.4212,54.894974,9.795129,108.3,5.845,1.85,-0.42,54.895260,9.796818,54.895069,9.793790
1386788051,1,0,280.9,0,0,4,0,1,0,-0.0292,280.6909,6.8213,0.4212,54.894974,9.795098,108.3,5.845,1.85,-0.42,54.895260,9.796818,54.895069,9.793790
1386788052,1,0,280.9,0,0,0,0,1,25,-0.0292,280.6909,6.8213,0.4212,54.894974,9.795068,108.3,5.845,1.85,-0.42,54.895260,9.796818,54.895069,9.793790
1386788052,1,0,280.9,0,0,4,0,1,0,-0.0292,280.6909,6.8213,0.4212,54.894974,9.795037,108.3,5.845,1.85,-0.42,54.895260,9.796818,54.895069,9.793790
1386788052,1,0,280.9,0,0,0,0,1,25,-0.0292,280.6909,6.8213,0.4212,54.894974,9.795006,108.3,5.845,1.85,-0.42,54.895260,9.796818,54.895069,9.793790
1386788052,1,0,280.9,0,0,4,0,1,0,-0.0292,280.6909,6.8213,0.4212,54.894974,9.794975,108.3,5.845,1.85,-0.42,54.895260,9.796818,54.895069,9.793790
1386788053,1,0,280.9,0,0,0,0,1,25,-0.0292,280.6909,6.8213,0.4212,54.894974,9.794945,108.3,5.845,1.85,-0.42,54.895260,9.796818,54.895069,9.793790
1386788053,1,0,280.9,0,0,4,0,1,0,-0.0292,280.6909,6.8213,0.4212,54.894974,9.794914,108.3,5.845,1.85,-0.42,54.895260,9.796818,54.895069,9.793790
1386788053,1,0,280.9,0,0,0,0,1,25,-0.0292,280.6909,6.8213,0.4212,54.894974,9.794884,108.3,5.845,1.85,-0.42,54.895260,9.796818,54.895069,9.793790
1386788053,1,0,545.9,0,35,4,0,45,50,-0.0292,271.3576,6.8213,0.4212,54.898186,9.794314,108.3,5.845,1.85,-0.42,54.895260,9.796818,54.895069,9.793790
1386788054,1,0,545.9,0,35,8,0,98,75,-0.0292,262.0243,6.8213,0.4212,54.898186,9.794283,108.3,5.845,1.85,-0.42,54.895260,9.796818,54.895069,9.793790
1386788054,1,0,545.9,0,35,12,0,160,100,-0.0292,252.6909,6.8213,0.4212,54.898182,9.794253,108.3,5.845,1.85,-0.42,54.895260,9.796818,54.895069,9.793790
1386788054,1,0,545.9,0,35,16,0,225,125,-0.0292,243.3576,6.8213,0.4212,54.898174,9.794226,108.3,5.845,1.85,-0.42,54.895260,9.796818,54.895069,9.793790
1386788054,1,0,545.9,0,35,20,0,292,150,-0.0292,234.0243,6.8213,0.4212,54.898163,9.794200,108.3,5.845,1.85,-0.42,54.895260,9.796818,54.895069,9.793790
1386788055,1,0,545.9,0,35,24,0,358,175,-0.0292,224.6909,6.8213,0.4212,54.898151,9.794178,108.3,5.845,1.85,-0.42,54.895260,9.796818,54.895069,9.793790
1386788055,1,0,545.9,0,35,28,0,422,200,-0.0292,215.3576,6.8213,0.4212,54.898136,9.794160,108.3,5.845,1.85,-0.42,54.895260,9.796818,54.895069,9.793790
1386788055,1,0,545.9,0,29,32,0,1,175,-0.0292,207.6243,6.8213,0.4212,54.898121,9.794146,108.3,5.845,1.85,-0.42,54.895260,9.796818,54.895069,9.793790
1386788055,1,0,545.9,0,22,28,0,1,150,-0.0292,201.7576,6.8213,0.4212,54.898102,9.794134,108.3,5.845,1.85,-0.42,54.895260,9.796818,54.895069,9.793790
1386788056,1,0,545.9,0,16,24,0,1,125,-0.0292,197.4910,6.8213,0.4212,54.898083,9.794125,108.3,5.845,1.85,-0.42,54.895260,9.796818,54.895069,9.793790
1386788056,1,0,545.9,0,12,20,0,1,100,-0.0292,194.2910,6.8213,0.4212,54.898064,9.794117,108.3,5.845,1.85,-0.42,54.895260,9.796818,54.895069,9.793790
1386788056,1,0,545.9,0,8,16,0,1,75,-0.0292,192.1576,6.8213,0.4212,54.898048,9.794110,108.3,5.845,1.85,-0.42,54.895260,9.796818,54.895069,9.793790
1386788056,1,0,545.9,0,6,12,0,0,50,-0.0292,190.5576,6.8213,0.4212,54.898029,9.794105,108.3,5.845,1.85,-0.42,54.895260,9.796818,54.895069,9.793790
1386788057,1,0,545.9,0,5,8,0,0,25,-0.0292,189.2243,6.8213,0.4212,54.898010,9.794100,108.3,5.845,1.85,-0.42,54.895260,9.796818,54.895069,9.793790
1386788057,1,0,545.9,0,3,4,0,0,0,-0.0292,188.4243,6.8213,0.4212,54.897991,9.794095,108.3,5.845,1.85,-0.42,54.895260,9.796818,54.895069,9.793790
1386788057,1,0,545.9,0,2,0,0,0,25,-0.0292,187.8909,6.8213,0.4212,54.897976,9.794090,108.3,5.845,1.85,-0.42,54.895260,9.796818,54.895069,9.793790
1386788057,1,0,485.9,0,35,4,0,0,0,-0.0292,178.5576,6.8213,0.4212,54.897957,9.794090,108.3,5.845,1.85,-0.42,54.895260,9.796818,54.895069,9.793790
1386788058,1,0,485.9,0,35,8,0,0,25,-0.0292,169.2243,6.8213,0.4212,54.897938,9.794096,108.3,5.845,1.85,-0.42,54.895260,9.796818,54.895069,9.793790
1386788058,1,0,485.9,0,35,12,0,0,0,-0.0292,159.8910,6.8213,0.4212,54.897923,9.794106,108.3,5.845,1.85,-0.42,54.895260,9.796818,54.895069,9.793790
1386788058,1,0,485.9,0,34,16,0,0,25,-0.0292,150.8243,6.8213,0.4212,54.897903,9.794122,108.3,5.845,1.85,-0.42,54.895260,9.796818,54.895069,9.793790
1386788058,1,0,485.9,0,25,20,0,0,0,-0.0292,144.1576,6.8213,0.4212,54.897888,9.794140,108.3,5.845,1.85,-0.42,54.895260,9.796818,54.895069,9.793790
1386788059,1,0,485.9,0,18,16,0,0,25,-0.0292,139.3576,6.8213,0.4212,54.897877,9.794160,108.3,5.845,1.85,-0.42,54.895260,9.796818,54.895069,9.793790
1386788059,1,0,485.9,0,13,12,0,0,0,-0.0292,135.8910,6.8213,0.4212,54.897861,9.794182,108.3,5.845,1.85,-0.42,54.895260,9.796818,54.895069,9.793790
1386788059,1,0,485.9,0,10,8,0,0,25,-0.0292,133.2243,6.8213,0.4212,54.897850,9.794205,108.3,5.845,1.85,-0.42,54.895260,9.796818,54.895069,9.793790
1386788059,1,0,485.9,0,7,4,0,1,0,-0.0292,131.3576,6.8213,0.4212,54.897835,9.794229,108.3,5.845,1.85,-0.42,54.895260,9.796818,54.895069,9.793790
1386788060,1,0,485.9,0,5,8,0,1,25,-0.0292,130.0243,6.8213,0.4212,54.897823,9.794252,108.3,5.845,1.85,-0.42,54.895260,9.796818,54.895069,9.793790
1386788060,1,0,485.9,0,4,4,0,1,0,-0.0292,128.9576,6.8213,0.4212,54.897816,9.794277,108.3,5.845,1.85,-0.42,54.895260,9.796818,54.895069,9.793790
1386788060,1,0,485.9,0,3,0,0,1,25,-0.0292,128.1576,6.8213,0.4212,54.897804,9.794302,108.3,5.845,1.85,-0.42,54.895260,9.796818,54.895069,9.793790
1386788060,1,0,485.9,0,2,4,0,1,0,-0.0292,127.6243,6.8213,0.4212,54.897793,9.794327,108.3,5.845,1.85,-0.42,54.895260,9.796818,54.895069,9.793790
1386788061,1,0,485.9,0,2,0,0,0,25,-0.0292,127.0910,6.8213,0.4212,54.897781,9.794352,108.3,5.845,1.85,-0.42,54.895260,9.796818,54.895069,9.793790
1386788061,1,0,545.9,0,-35,-4,0,0,0,-0.0292,136.4243,6.8213,0.4212,54.897766,9.794373,108.3,5.845,1.85,-0.42,54.895260,9.796818,54.895069,9.793790
1386788061,1,0,545.9,0,-35,-8,0,0,25,-0.0292,145.7576,6.8213,0.4212,54.897751,9.794391,108.3,5.845,1.85,-0.42,54.895260,9.796818,54.895069,9.793790
1386788061,1,0,545.9,0,-35,-12,0,0,0,-0.0292,155.0909,6.8213,0.4212,54.897732,9.794403,108.3,5.845,1.85,-0.42,54.895260,9.796818,54.895069,9.793790
1386788062,1,0,545.9,0,-31,-16,0,0,25,-0.0292,163.3576,6.8213,0.4212,54.897713,9.794412,108.3,5.845,1.85,-0.42,54.895260,9.796818,54.895069,9.793790
1386788062,1,0,545.9,0,-23,-20,0,0,0,-0.0292,169.4909,6.8213,0.4212,54.897694,9.794417,108.3,5.845,1.85,-0.42,54.895260,9.796818,54.895069,9.793790
1386788062,1,0,545.9,0,-16,-16,0,0,25,-0.0292,173.7576,6.8213,0.4212,54.897678,9.794421,108.3,5.845,1.85,-0.42,54.895260,9.796818,54.895069,9.793790
1386788062,1,0,545.9,0,-12,-12,0,0,0,-0.0292,176.9576,6.8213,0.4212,54.897659,9.794423,108.3,5.845,1.85,-0.42,54.895260,9.796818,54.895069,9.793790
1386788063,1,0,545.9,0,-9,-8,0,0,25,-0.0292,179.3576,6.8213,0.4212,54.897640,9.794424,108.3,5.845,1.85,-0.42,54.895260,9.796818,54.895069,9.793790
1386788063,1,0,546.2,0,-7,-4,0,1,0,-0.0292,181.2243,6.8213,0.4212,54.897621,9.794424,108.3,5.845,1.85,-0.42,54.895260,9.796818,54.895069,9.793790
1386788063,1,0,548.2,0,-7,-8,0,1,25,-0.0292,183.0909,6.8213,0.4212,54.897606,9.794423,108.3,5.845,1.85,-0.42,54.895260,9.796818,54.895069,9.793790
1386788063,1,0,548.2,0,-5,-4,0,1,0,-0.0292,184.4243,6.8213,0.4212,54.897587,9.794421,108.3,5.845,1.85,-0.42,54.895260,9.796818,54.895069,9.793790
1386788064,1,0,548.3,0,-4,0,0,1,25,-0.0292,185.4909,6.8213,0.4212,54.897568,9.794418,108.3,5.845,1.85,-0.42,54.895260,9.796818,54.895069,9.793790
1386788064,1,0,548.3,0,-3,-4,0,1,0,-0.0292,186.2909,6.8213,0.4212,54.897549,9.794415,108.3,5.845,1.85,-0.42,54.895260,9.796818,54.895069,9.793790
1386788064,1,0,548.3,0,-2,0,0,1,25,-0.0292,186.8243,6.8213,0.4212,54.897533,9.794412,108.3,5.845,1.85,-0.42,54.895260,9.796818,54.895069,9.793790
1386788064,1,0,548.3,0,-1,-4,0,1,0,-0.0292,187.0909,6.8213,0.4212,54.897514,9.794408,108.3,5.845,1.85,-0.42,54.895260,9.796818,54.895069,9.793790
1386788065,1,0,548.3,0,-1,0,0,1,25,-0.0292,187.3576,6.8213,0.4212,54.897495,9.794404,108.3,5.845,1.85,-0.42,54.895260,9.796818,54.895069,9.793790
1386788065,1,0,548.3,0,-1,-4,0,1,0,-0.0292,187.6243,6.8213,0.4212,54.897476,9.794400,108.3,5.845,1.85,-0.42,54.895260,9.796818,54.895069,9.793790
1386788065,1,0,548.3,0,-1,0,0,1,25,-0.0292,187.8909,6.8213,0.4212,54.897461,9.794395,108.3,5.845,1.85,-0.42,54.895260,9.796818,54.895069,9.793790
1386788065,1,0,548.3,0,0,4,0,1,0,-0.0292,187.8909,6.8213,0.4212,54.897442,9.794391,108.3,5.845,1.85,-0.42,54.895260,9.796818,54.895069,9.793790
1386788066,1,0,548.3,0,0,0,0,1,25,-0.0292,187.8909,6.8213,0.4212,54.897423,9.794386,108.3,5.845,1.85,-0.42,54.895260,9.796818,54.895069,9.793790
1386788066,1,0,548.3,0,0,4,0,1,0,-0.0292,187.8909,6.8213,0.4212,54.897408,9.794382,108.3,5.845,1.85,-0.42,54.895260,9.796818,54.895069,9.793790
1386788066,1,0,548.3,0,0,0,0,1,25,-0.0292,187.8909,6.8213,0.4212,54.897388,9.794378,108.3,5.845,1.85,-0.42,54.895260,9.796818,54.895069,9.793790
1386788066,1,0,548.4,0,0,4,0,1,0,-0.0292,187.8909,6.8213,0.4212,54.897369,9.794374,108.3,5.845,1.85,-0.42,54.895260,9.796818,54.895069,9.793790
1386788067,1,0,548.4,0,0,0,0,1,25,-0.0292,187.8909,6.8213,0.4212,54.897350,9.794371,108.3,5.845,1.85,-0.42,54.895260,9.796818,54.895069,9.793790
1386788067,1,0,548.4,0,0,4,0,1,0,-0.0292,187.8909,6.8213,0.4212,54.897335,9.794367,108.3,5.845,1.85,-0.42,54.895260,9.796818,54.895069,9.793790
1386788067,1,0,548.4,0,0,0,0,1,25,-0.0292,187.8909,6.8213,0.4212,54.897316,9.794362,108.3,5.845,1.85,-0.42,54.895260,9.796818,54.895069,9.793790
1386788067,1,0,548.4,0,0,4,0,1,0,-0.0292,187.8909,6.8213,0.4212,54.897297,9.794357,108.3,5.845,1.85,-0.42,54.895260,9.796818,54.895069,9.793790
1386788068,1,0,548.4,0,0,0,0,1,25,-0.0292,187.8909,6.8213,0.4212,54.897278,9.794353,108.3,5.845,1.85,-0.42,54.895260,9.796818,54.895069,9.793790
1386788068,1,0,548.4,0,0,4,0,1,0,-0.0292,187.8909,6.8213,0.4212,54.897263,9.794348,108.3,5.845,1.85,-0.42,54.895260,9.796818,54.895069,9.793790
1386788068,1,0,548.4,0,0,0,0,1,25,-0.0292,187.8909,6.8213,0.4212,54.897243,9.794343,108.3,5.845,1.85,-0.42,54.895260,9.796818,54.895069,9.793790
1386788068,1,0,548.4,0,0,4,0,1,0,-0.0292,187.8909,6.8213,0.4212,54.897224,9.794339,108.3,5.845,1.85,-0.42,54.895260,9.796818,54.895069,9.793790
1386788069,1,0,548.4,0,0,0,0,1,25,-0.0292,187.8909,6.8213,0.4212,54.897205,9.794335,108.3,5.845,1.85,-0.42,54.895260,9.796818,54.895069,9.793790
1386788069,1,0,548.4,0,-1,-4,0,1,0,-0.0292,188.1576,6.8213,0.4212,54.897190,9.794332,108.3,5.845,1.85,-0.42,54.895260,9.796818,54.895069,9.793790
1386788069,1,0,548.4,0,0,0,0,1,25,-0.0292,188.1576,6.8213,0.4212,54.897171,9.794328,108.3,5.845,1.85,-0.42,54.895260,9.796818,54.895069,9.793790
1386788069,1,0,548.4,0,0,4,0,1,0,-0.0292,188.1576,6.8213,0.4212,54.897152,9.794323,108.3,5.845,1.85,-0.42,54.895260,9.796818,54.895069,9.793790
1386788070,1,0,548.4,0,0,0,0,1,25,-0.0292,188.1576,6.8213,0.4212,54.897137,9.794318,108.3,5.845,1.85,-0.42,54.895260,9.796818,54.895069,9.793790
1386788070,1,0,548.4,0,0,4,0,1,0,-0.0292,188.1576,6.8213,0.4212,54.897118,9.794313,108.3,5.845,1.85,-0.42,54.895260,9.796818,54.895069,9.793790
1386788070,1,0,548.4,0,0,0,0,1,25,-0.0292,188.1576,6.8213,0.4212,54.897099,9.794309,108.3,5.845,1.85,-0.42,54.895260,9.796818,54.895069,9.793790
1386788070,1,0,548.4,0,0,4,0,1,0,-0.0292,188.1576,6.8213,0.4212,54.897079,9.794304,108.3,5.845,1.85,-0.42,54.895260,9.796818,54.895069,9.793790
1386788071,1,0,548.4,0,0,0,0,1,25,-0.0292,188.1576,6.8213,0.4212,54.897064,9.794299,108.3,5.845,1.85,-0.42,54.895260,9.796818,54.895069,9.793790
1386788071,1,0,548.4,0,0,4,0,1,0,-0.0292,188.1576,6.8213,0.4212,54.897045,9.794295,108.3,5.845,1.85,-0.42,54.895260,9.796818,54.895069,9.793790
1386788071,1,0,548.4,0,0,0,0,1,25,-0.0292,188.1576,6.8213,0.4212,54.897026,9.794291,108.3,5.845,1.85,-0.42,54.895260,9.796818,54.895069,9.793790
1386788071,1,0,548.4,0,0,4,0,1,0,-0.0292,188.1576,6.8213,0.4212,54.897007,9.794288,108.3,5.845,1.85,-0.42,54.895260,9.796818,54.895069,9.793790
1386788072,1,0,548.5,0,0,0,0,1,25,-0.0292,188.1576,6.8213,0.4212,54.896992,9.794284,108.3,5.845,1.85,-0.42,54.895260,9.796818,54.895069,9.793790
1386788072,1,0,548.5,0,0,4,0,1,0,-0.0292,188.1576,6.8213,0.4212,54.896973,9.794279,108.3,5.845,1.85,-0.42,54.895260,9.796818,54.895069,9.793790
1386788072,1,0,548.5,0,0,0,0,1,25,-0.0292,188.1576,6.8213,0.4212,54.896954,9.794274,108.3,5.845,1.85,-0.42,54.895260,9.796818,54.895069,9.793790
1386788072,1,0,548.5,0,0,4,0,1,0,-0.0292,188.1576,6.8213,0.4212,54.896935,9.794270,108.3,5.845,1.85,-0.42,54.895260,9.796818,54.895069,9.793790
1386788073,1,0,548.5,0,0,0,0,1,25,-0.0292,188.1576,6.8213,0.4212,54.896919,9.794265,108.3,5.845,1.85,-0.42,54.895260,9.796818,54.895069,9.793790
1386788073,1,0,548.4,0,0,4,0,1,0,-0.0292,188.1576,6.8213,0.4212,54.896900,9.794260,108.3,5.845,1.85,-0.42,54.895260,9.796818,54.895069,9.793790
1386788073,1,0,548.5,0,0,0,0,1,25,-0.0292,188.1576,6.8213,0.4212,54.896881,9.794256,108.3,5.845,1.85,-0.42,54.895260,9.796818,54.895069,9.793790
1386788073,1,0,548.5,0,0,4,0,1,0,-0.0292,188.1576,6.8213,0.4212,54.896866,9.794252,108.3,5.845,1.85,-0.42,54.895260,9.796818,54.895069,9.793790
1386788074,1,0,548.5,0,0,0,0,1,25,-0.0292,188.1576,6.8213,0.4212,54.896847,9.794249,108.3,5.845,1.85,-0.42,54.895260,9.796818,54.895069,9.793790
1386788074,1,0,545.9,0,2,4,0,1,0,-0.0292,187.6242,6.8213,0.4212,54.898396,9.790823,108.3,5.845,1.85,-0.42,54.895260,9.796818,54.895069,9.793790
1386788074,1,0,545.9,0,2,0,0,0,25,-0.0292,187.0909,6.8213,0.4212,54.898376,9.790819,108.3,5.845,1.85,-0.42,54.895260,9.796818,54.895069,9.793790
1386788074,1,0,485.9,0,35,4,0,0,0,-0.0292,177.7576,6.8213,0.4212,54.898357,9.790821,108.3,5.845,1.85,-0.42,54.895260,9.796818,54.895069,9.793790
1386788075,1,0,485.9,0,35,8,0,0,25,-0.0292,168.4242,6.8213,0.4212,54.898342,9.790828,108.3,5.845,1.85,-0.42,54.895260,9.796818,54.895069,9.793790
1386788075,1,0,485.9,0,35,12,0,0,0,-0.0292,159.0909,6.8213,0.4212,54.898323,9.790839,108.3,5.845,1.85,-0.42,54.895260,9.796818,54.895069,9.793790
1386788075,1,0,485.9,0,33,16,0,0,25,-0.0292,150.2909,6.8213,0.4212,54.898308,9.790854,108.3,5.845,1.85,-0.42,54.895260,9.796818,54.895069,9.793790
1386788075,1,0,485.9,0,24,20,0,0,0,-0.0292,143.8909,6.8213,0.4212,54.898293,9.790873,108.3,5.845,1.85,-0.42,54.895260,9.796818,54.895069,9.793790
1386788076,1,0,485.9,0,18,16,0,0,25,-0.0292,139.0909,6.8213,0.4212,54.898277,9.790894,108.3,5.845,1.85,-0.42,54.895260,9.796818,54.895069,9.793790
1386788076,1,0,485.9,0,13,12,0,0,0,-0.0292,135.6243,6.8213,0.4212,54.898266,9.790915,108.3,5.845,1.85,-0.42,54.895260,9.796818,54.895069,9.793790
1386788076,1,0,485.9,0,10,8,0,0,25,-0.0292,132.9576,6.8213,0.4212,54.898254,9.790938,108.3,5.845,1.85,-0.42,54.895260,9.796818,54.895069,9.793790
1386788076,1,0,485.9,0,7,4,0,1,0,-0.0292,131.0909,6.8213,0.4212,54.898243,9.790962,108.3,5.845,1.85,-0.42,54.895260,9.796818,54.895069,9.793790
1386788077,1,0,485.9,0,5,8,0,1,25,-0.0292,129.7576,6.8213,0.4212,54.898228,9.790986,108.3,5.845,1.85,-0.42,54.895260,9.796818,54.895069,9.793790
1386788077,1,0,485.9,0,4,4,0,1,0,-0.0292,128.6909,6.8213,0.4212,54.898216,9.791011,108.3,5.845,1.85,-0.42,54.895260,9.796818,54.895069,9.793790
1386788077,1,0,485.9,0,3,0,0,1,25,-0.0292,127.8909,6.8213,0.4212,54.898209,9.791036,108.3,5.845,1.85,-0.42,54.895260,9.796818,54.895069,9.793790
1386788078,1,0,485.9,0,2,4,0,1,0,-0.0292,127.3576,6.8213,0.4212,54.898197,9.791060,108.3,5.845,1.85,-0.42,54.895260,9.796818,54.895069,9.793790
1386788078,1,0,485.9,0,1,0,0,1,25,-0.0292,127.0909,6.8213,0.4212,54.898186,9.791085,108.3,5.845,1.85,-0.42,54.895260,9.796818,54.895069,9.793790
1386788078,1,0,485.9,0,1,4,0,1,0,-0.0292,126.8242,6.8213,0.4212,54.898174,9.791111,108.3,5.845,1.85,-0.42,54.895260,9.796818,54.895069,9.793790
1386788078,1,0,485.9,0,1,0,0,1,25,-0.0292,126.5576,6.8213,0.4212,54.898163,9.791136,108.3,5.845,1.85,-0.42,54.895260,9.796818,54.895069,9.793790
1386788079,1,0,485.9,0,1,4,0,1,0,-0.0292,126.2909,6.8213,0.4212,54.898155,9.791161,108.3,5.845,1.85,-0.42,54.895260,9.796818,54.895069,9.793790
1386788079,1,0,485.9,0,0,0,0,1,25,-0.0292,126.2909,6.8213,0.4212,54.898144,9.791186,108.3,5.845,1.85,-0.42,54.895260,9.796818,54.895069,9.793790
1386788079,1,0,485.9,0,0,4,0,1,0,-0.0292,126.2909,6.8213,0.4212,54.898132,9.791211,108.3,5.845,1.85,-0.42,54.895260,9.796818,54.895069,9.793790
1386788079,1,0,485.9,0,0,0,0,1,25,-0.0292,126.2909,6.8213,0.4212,54.898121,9.791237,108.3,5.845,1.85,-0.42,54.895260,9.796818,54.895069,9.793790
1386788080,1,0,485.9,0,0,4,0,1,0,-0.0292,126.2909,6.8213,0.4212,54.898109,9.791262,108.3,5.845,1.85,-0.42,54.895260,9.796818,54.895069,9.793790
1386788080,1,0,485.9,0,0,0,0,1,25,-0.0292,126.2909,6.8213,0.4212,54.898098,9.791286,108.3,5.845,1.85,-0.42,54.895260,9.796818,54.895069,9.793790
1386788080,1,0,485.9,0,0,4,0,1,0,-0.0292,126.2909,6.8213,0.4212,54.898087,9.791312,108.3,5.845,1.85,-0.42,54.895260,9.796818,54.895069,9.793790
1386788080,1,0,485.9,0,0,0,0,1,25,-0.0292,126.2909,6.8213,0.4212,54.898075,9.791337,108.3,5.845,1.85,-0.42,54.895260,9.796818,54.895069,9.793790
1386788081,1,0,485.9,0,0,4,0,1,0,-0.0292,126.2909,6.8213,0.4212,54.898064,9.791363,108.3,5.845,1.85,-0.42,54.895260,9.796818,54.895069,9.793790
1386788081,1,0,485.9,0,0,0,0,1,25,-0.0292,126.2909,6.8213,0.4212,54.898056,9.791388,108.3,5.845,1.85,-0.42,54.895260,9.796818,54.895069,9.793790
1386788081,1,0,485.9,0,0,4,0,1,0,-0.0292,126.2909,6.8213,0.4212,54.898045,9.791413,108.3,5.845,1.85,-0.42,54.895260,9.796818,54.895069,9.793790
1386788081,1,0,485.9,0,0,0,0,1,25,-0.0292,126.2909,6.8213,0.4212,54.898037,9.791438,108.3,5.845,1.85,-0.42,54.895260,9.796818,54.895069,9.793790
1386788082,1,0,485.9,0,0,4,0,1,0,-0.0292,126.2909,6.8213,0.4212,54.898026,9.791463,108.3,5.845,1.85,-0.42,54.895260,9.796818,54.895069,9.793790
1386788082,1,0,485.9,0,0,0,0,1,25,-0.0292,126.2909,6.8213,0.4212,54.898014,9.791489,108.3,5.845,1.85,-0.42,54.895260,9.796818,54.895069,9.793790
1386788082,1,0,485.9,0,0,4,0,1,0,-0.0292,126.2909,6.8213,0.4212,54.898003,9.791513,108.3,5.845,1.85,-0.42,54.895260,9.796818,54.895069,9.793790
1386788082,1,0,485.9,0,0,0,0,1,25,-0.0292,126.2909,6.8213,0.4212,54.897991,9.791539,108.3,5.845,1.85,-0.42,54.895260,9.796818,54.895069,9.793790
1386788083,1,0,485.9,0,0,4,0,1,0,-0.0292,126.2909,6.8213,0.4212,54.897984,9.791564,108.3,5.845,1.85,-0.42,54.895260,9.796818,54.895069,9.793790
1386788083,1,0,485.9,0,0,0,0,1,25,-0.0292,126.2909,6.8213,0.4212,54.897972,9.791589,108.3,5.845,1.85,-0.42,54.895260,9.796818,54.895069,9.793790
1386788083,1,0,485.9,0,0,4,0,1,0,-0.0292,126.2909,6.8213,0.4212,54.897961,9.791615,108.3,5.845,1.85,-0.42,54.895260,9.796818,54.895069,9.793790
1386788083,1,0,485.9,0,0,0,0,1,25,-0.0292,126.2909,6.8213,0.4212,54.897949,9.791639,108.3,5.845,1.85,-0.42,54.895260,9.796818,54.895069,9.793790
1386788084,1,0,485.9,0,0,4,0,1,0,-0.0292,126.2909,6.8213,0.4212,54.897938,9.791665,108.3,5.845,1.85,-0.42,54.895260,9.796818,54.895069,9.793790
1386788084,1,0,485.9,0,0,0,0,1,25,-0.0292,126.2909,6.8213,0.4212,54.897926,9.791690,108.3,5.845,1.85,-0.42,54.895260,9.796818,54.895069,9.793790
1386788084,1,0,485.9,0,0,4,0,1,0,-0.0292,126.2909,6.8213,0.4212,54.897915,9.791715,108.3,5.845,1.85,-0.42,54.895260,9.796818,54.895069,9.793790
1386788084,1,0,485.9,0,0,0,0,1,25,-0.0292,126.2909,6.8213,0.4212,54.897903,9.791740,108.3,5.845,1.85,-0.42,54.895260,9.796818,54.895069,9.793790
1386788085,1,0,485.9,0,0,4,0,1,0,-0.0292,126.2909,6.8213,0.4212,54.897892,9.791765,108.3,5.845,1.85,-0.42,54.895260,9.796818,54.895069,9.793790
1386788085,1,0,485.9,0,0,0,0,1,25,-0.0292,126.2909,6.8213,0.4212,54.897884,9.791791,108.3,5.845,1.85,-0.42,54.895260,9.796818,54.895069,9.793790
1386788085,1,0,485.9,0,0,4,0,1,0,-0.0292,126.2909,6.8213,0.4212,54.897873,9.791816,108.3,5.845,1.85,-0.42,54.895260,9.796818,54.895069,9.793790
1386788085,1,0,485.9,0,0,0,0,1,25,-0.0292,126.2909,6.8213,0.4212,54.897861,9.791842,108.3,5.845,1.85,-0.42,54.895260,9.796818,54.895069,9.793790
1386788086,1,0,485.9,0,0,4,0,1,0,-0.0292,126.2909,6.8213,0.4212,54.897850,9.791866,108.3,5.845,1.85,-0.42,54.895260,9.796818,54.895069,9.793790
1386788086,1,0,485.9,0,0,0,0,1,25,-0.0292,126.2909,6.8213,0.4212,54.897839,9.791891,108.3,5.845,1.85,-0.42,54.895260,9.796818,54.895069,9.793790
1386788086,1,0,485.9,0,0,4,0,1,0,-0.0292,126.2909,6.8213,0.4212,54.897827,9.791917,108.3,5.845,1.85,-0.42,54.895260,9.796818,54.895069,9.793790
1386788086,1,0,485.9,0,0,0,0,1,25,-0.0292,126.2909,6.8213,0.4212,54.897816,9.791942,108.3,5.845,1.85,-0.42,54.895260,9.796818,54.895069,9.793790
1386788087,1,0,485.9,0,0,4,0,1,0,-0.0292,126.2909,6.8213,0.4212,54.897804,9.791967,108.3,5.845,1.85,-0.42,54.895260,9.796818,54.895069,9.793790
1386788087,1,0,485.9,0,0,0,0,1,25,-0.0292,126.2909,6.8213,0.4212,54.897793,9.791992,108.3,5.845,1.85,-0.42,54.895260,9.796818,54.895069,9.793790
1386788087,1,0,485.9,0,0,4,0,1,0,-0.0292,126.2909,6.8213,0.4212,54.897785,9.792017,108.3,5.845,1.85,-0.42,54.895260,9.796818,54.895069,9.793790
1386788087,1,0,485.9,0,0,0,0,1,25,-0.0292,126.2909,6.8213,0.4212,54.897774,9.792043,108.3,5.845,1.85,-0.42,54.895260,9.796818,54.895069,9.793790
1386788088,1,0,485.9,0,0,4,0,1,0,-0.0292,126.2909,6.8213,0.4212,54.897766,9.792068,108.3,5.845,1.85,-0.42,54.895260,9.796818,54.895069,9.793790
1386788088,1,0,485.9,0,0,0,0,1,25,-0.0292,126.2909,6.8213,0.4212,54.897755,9.792093,108.3,5.845,1.85,-0.42,54.895260,9.796818,54.895069,9.793790
1386788088,1,0,485.9,0,0,4,0,1,0,-0.0292,126.2909,6.8213,0.4212,54.897743,9.792118,108.3,5.845,1.85,-0.42,54.895260,9.796818,54.895069,9.793790
1386788088,1,0,485.9,0,0,0,0,1,25,-0.0292,126.2909,6.8213,0.4212,54.897732,9.792143,108.3,5.845,1.85,-0.42,54.895260,9.796818,54.895069,9.793790
1386788089,1,0,485.9,0,0,4,0,1,0,-0.0292,126.2909,6.8213,0.4212,54.897720,9.792168,108.3,5.845,1.85,-0.42,54.895260,9.796818,54.895069,9.793790
1386788089,1,0,485.9,0,0,0,0,1,25,-0.0292,126.2909,6.8213,0.4212,54.897713,9.792192,108.3,5.845,1.85,-0.42,54.895260,9.796818,54.895069,9.793790
1386788089,1,0,485.9,0,0,4,0,1,0,-0.0292,126.2909,6.8213,0.4212,54.897701,9.792218,108.3,5.845,1.85,-0.42,54.895260,9.796818,54.895069,9.793790
1386788089,1,0,485.9,0,0,0,0,1,25,-0.0292,126.2909,6.8213,0.4212,54.897690,9.792243,108.3,5.845,1.85,-0.42,54.895260,9.796818,54.895069,9.793790
1386788090,1,0,485.9,0,0,4,0,1,0,-0.0292,126.2909,6.8213,0.4212,54.897678,9.792269,108.3,5.845,1.85,-0.42,54.895260,9.796818,54.895069,9.793790
1386788090,1,0,485.9,0,0,0,0,1,25,-0.0292,126.2909,6.8213,0.4212,54.897667,9.792294,108.3,5.845,1.85,-0.42,54.895260,9.796818,54.895069,9.793790
1386788090,1,0,485.9,0,0,4,0,1,0,-0.0292,126.2909,6.8213,0.4212,54.897655,9.792318,108.3,5.845,1.85,-0.42,54.895260,9.796818,54.895069,9.793790
1386788090,1,0,485.9,0,0,0,0,1,25,-0.0292,126.2909,6.8213,0.4212,54.897644,9.792344,108.3,5.845,1.85,-0.42,54.895260,9.796818,54.895069,9.793790
1386788091,1,0,485.9,0,0,4,0,1,0,-0.0292,126.2909,6.8213,0.4212,54.897633,9.792369,108.3,5.845,1.85,-0.42,54.895260,9.796818,54.895069,9.793790
1386788091,1,0,485.9,0,0,0,0,1,25,-0.0292,126.2909,6.8213,0.4212,54.897621,9.792395,108.3,5.845,1.85,-0.42,54.895260,9.796818,54.895069,9.793790
1386788091,1,0,485.9,0,0,4,0,1,0,-0.0292,126.2909,6.8213,0.4212,54.897614,9.792419,108.3,5.845,1.85,-0.42,54.895260,9.796818,54.895069,9.793790
1386788091,1,0,485.9,0,0,0,0,1,25,-0.0292,126.2909,6.8213,0.4212,54.897602,9.792444,108.3,5.845,1.85,-0.42,54.895260,9.796818,54.895069,9.793790
1386788092,1,0,485.9,0,0,4,0,1,0,-0.0292,126.2909,6.8213,0.4212,54.897591,9.792470,108.3,5.845,1.85,-0.42,54.895260,9.796818,54.895069,9.793790
1386788092,1,0,485.9,0,0,0,0,1,25,-0.0292,126.2909,6.8213,0.4212,54.897579,9.792495,108.3,5.845,1.85,-0.42,54.895260,9.796818,54.895069,9.793790
1386788092,1,0,485.9,0,0,4,0,1,0,-0.0292,126.2909,6.8213,0.4212,54.897568,9.792521,108.3,5.845,1.85,-0.42,54.895260,9.796818,54.895069,9.793790
1386788092,1,0,485.9,0,0,0,0,1,25,-0.0292,126.2909,6.8213,0.4212,54.897556,9.792545,108.3,5.845,1.85,-0.42,54.895260,9.796818,54.895069,9.793790
1386788093,1,0,485.9,0,0,4,0,1,0,-0.0292,126.2909,6.8213,0.4212,54.897545,9.792571,108.3,5.845,1.85,-0.42,54.895260,9.796818,54.895069,9.793790
1386788093,1,0,485.9,0,0,0,0,1,25,-0.0292,126.2909,6.8213,0.4212,54.897533,9.792596,108.3,5.845,1.85,-0.42,54.895260,9.796818,54.895069,9.793790
1386788093,1,0,485.9,0,0,4,0,1,0,-0.0292,126.2909,6.8213,0.4212,54.897522,9.792621,108.3,5.845,1.85,-0.42,54.895260,9.796818,54.895069,9.793790
1386788093,1,0,485.9,0,0,0,0,1,25,-0.0292,126.2909,6.8213,0.4212,54.897511,9.792646,108.3,5.845,1.85,-0.42,54.895260,9.796818,54.895069,9.793790
1386788094,1,0,485.9,0,0,4,0,1,0,-0.0292,126.2909,6.8213,0.4212,54.897499,9.792671,108.3,5.845,1.85,-0.42,54.895260,9.796818,54.895069,9.793790
1386788094,1,0,485.9,0,0,0,0,1,25,-0.0292,126.2909,6.8213,0.4212,54.897491,9.792697,108.3,5.845,1.85,-0.42,54.895260,9.796818,54.895069,9.793790
1386788094,1,0,485.9,0,0,4,0,1,0,-0.0292,126.2909,6.8213,0.4212,54.897480,9.792722,108.3,5.845,1.85,-0.42,54.895260,9.796818,54.895069,9.793790
1386788094,1,0,485.9,0,0,0,0,1,25,-0.0292,126.2909,6.8213,0.4212,54.897469,9.792747,108.3,5.845,1.85,-0.42,54.895260,9.796818,54.895069,9.793790
1386788095,1,0,485.9,0,0,4,0,1,0,-0.0292,126.2909,6.8213,0.4212,54.897457,9.792772,108.3,5.845,1.85,-0.42,54.895260,9.796818,54.895069,9.793790
1386788095,1,0,485.9,0,0,0,0,1,25,-0.0292,126.2909,6.8213,0.4212,54.897446,9.792797,108.3,5.845,1.85,-0.42,54.895260,9.796818,54.895069,9.793790
1386788095,1,0,485.9,0,0,4,0,1,0,-0.0292,126.2909,6.8213,0.4212,54.897434,9.792823,108.3,5.845,1.85,-0.42,54.895260,9.796818,54.895069,9.793790
1386788095,1,0,485.9,0,0,0,0,1,25,-0.0292,126.2909,6.8213,0.4212,54.897423,9.792848,108.3,5.845,1.85,-0.42,54.895260,9.796818,54.895069,9.793790
1386788096,1,0,485.9,0,0,4,0,1,0,-0.0292,126.2909,6.8213,0.4212,54.897411,9.792872,108.3,5.845,1.85,-0.42,54.895260,9.796818,54.895069,9.793790
1386788096,1,0,485.9,0,0,0,0,1,25,-0.0292,126.2909,6.8213,0.4212,54.897400,9.792898,108.3,5.845,1.85,-0.42,54.895260,9.796818,54.895069,9.793790
1386788096,1,0,485.9,0,0,4,0,1,0,-0.0292,126.2909,6.8213,0.4212,54.897392,9.792923,108.3,5.845,1.85,-0.42,54.895260,9.796818,54.895069,9.793790
1386788096,1,0,485.9,0,0,0,0,1,25,-0.0292,126.2909,6.8213,0.4212,54.897381,9.792949,108.3,5.845,1.85,-0.42,54.895260,9.796818,54.895069,9.793790
1386788097,1,0,485.9,0,0,4,0,1,0,-0.0292,126.2909,6.8213,0.4212,54.897369,9.792974,108.3,5.845,1.85,-0.42,54.895260,9.796818,54.895069,9.793790
1386788097,1,0,485.9,0,0,0,0,1,25,-0.0292,126.2909,6.8213,0.4212,54.897358,9.792999,108.3,5.845,1.85,-0.42,54.895260,9.796818,54.895069,9.793790
1386788097,1,0,485.9,0,0,4,0,1,0,-0.0292,126.2909,6.8213,0.4212,54.897346,9.793024,108.3,5.845,1.85,-0.42,54.895260,9.796818,54.895069,9.793790
1386788097,1,0,485.9,0,0,0,0,1,25,-0.0292,126.2909,6.8213,0.4212,54.897335,9.793049,108.3,5.845,1.85,-0.42,54.895260,9.796818,54.895069,9.793790
1386788098,1,0,485.9,0,0,4,0,1,0,-0.0292,126.2909,6.8213,0.4212,54.897324,9.793075,108.3,5.845,1.85,-0.42,54.895260,9.796818,54.895069,9.793790
1386788098,1,0,485.9,0,0,0,0,1,25,-0.0292,126.2909,6.8213,0.4212,54.897312,9.793099,108.3,5.845,1.85,-0.42,54.895260,9.796818,54.895069,9.793790
1386788098,1,0,485.9,0,0,4,0,1,0,-0.0292,126.2909,6.8213,0.4212,54.897301,9.793125,108.3,5.845,1.85,-0.42,54.895260,9.796818,54.895069,9.793790
1386788098,1,0,485.9,0,0,0,0,1,25,-0.0292,126.2909,6.8213,0.4212,54.897289,9.793150,108.3,5.845,1.85,-0.42,54.895260,9.796818,54.895069,9.793790
1386788099,1,0,485.9,0,0,4,0,1,0,-0.0292,126.2909,6.8213,0.4212,54.897278,9.793175,108.3,5.845,1.85,-0.42,54.895260,9.796818,54.895069,9.793790
1386788099,1,0,485.9,0,0,0,0,1,25,-0.0292,126.2909,6.8213,0.4212,54.897270,9.793200,108.3,5.845,1.85,-0.42,54.895260,9.796818,54.895069,9.793790
1386788099,1,0,485.9,0,0,4,0,1,0,-0.0292,126.2909,6.8213,0.4212,54.897259,9.793225,108.3,5.845,1.85,-0.42,54.895260,9.796818,54.895069,9.793790
1386788099,1,0,485.9,0,0,0,0,1,25,-0.0292,126.2909,6.8213,0.4212,54.897247,9.793251,108.3,5.845,1.85,-0.42,54.895260,9.796818,54.895069,9.793790
1386788100,1,0,485.9,0,0,4,0,1,0,-0.0292,126.2909,6.8213,0.4212,54.897236,9.793276,108.3,5.845,1.85,-0.42,54.895260,9.796818,54.895069,9.793790
1386788100,1,0,485.9,0,0,0,0,1,25,-0.0292,126.2909,6.8213,0.4212,54.897224,9.793301,108.3,5.845,1.85,-0.42,54.895260,9.796818,54.895069,9.793790
1386788100,1,0,485.9,0,0,4,0,1,0,-0.0292,126.2909,6.8213,0.4212,54.897213,9.793325,108.3,5.845,1.85,-0.42,54.895260,9.796818,54.895069,9.793790
1386788100,1,0,485.9,0,0,0,0,1,25,-0.0292,126.2909,6.8213,0.4212,54.897202,9.793350,108.3,5.845,1.85,-0.42,54.895260,9.796818,54.895069,9.793790
1386788101,1,0,485.9,0,0,4,0,1,0,-0.0292,126.2909,6.8213,0.4212,54.897190,9.793376,108.3,5.845,1.85,-0.42,54.895260,9.796818,54.895069,9.793790
1386788101,1,0,485.9,0,0,0,0,1,25,-0.0292,126.2909,6.8213,0.4212,54.897179,9.793401,108.3,5.845,1.85,-0.42,54.895260,9.796818,54.895069,9.793790
1386788101,1,0,485.9,0,0,4,0,1,0,-0.0292,126.2909,6.8213,0.4212,54.897171,9.793427,108.3,5.845,1.85,-0.42,54.895260,9.796818,54.895069,9.793790
1386788101,1,0,485.9,0,0,0,0,1,25,-0.0292,126.2909,6.8213,0.4212,54.897160,9.793451,108.3,5.845,1.85,-0.42,54.895260,9.796818,54.895069,9.793790
1386788102,1,0,485.9,0,0,4,0,1,0,-0.0292,126.2909,6.8213,0.4212,54.897148,9.793476,108.3,5.845,1.85,-0.42,54.895260,9.796818,54.895069,9.793790
1386788102,1,0,485.9,0,0,0,0,1,25,-0.0292,126.2909,6.8213,0.4212,54.897137,9.793502,108.3,5.845,1.85,-0.42,54.895260,9.796818,54.895069,9.793790
1386788102,1,0,485.9,0,0,4,0,1,0,-0.0292,126.2909,6.8213,0.4212,54.897125,9.793527,108.3,5.845,1.85,-0.42,54.895260,9.796818,54.895069,9.793790
1386788103,1,0,485.9,0,0,0,0,1,25,-0.0292,126.2909,6.8213,0.4212,54.897114,9.793552,108.3,5.845,1.85,-0.42,54.895260,9.796818,54.895069,9.793790
1386788103,1,0,485.9,0,0,4,0,1,0,-0.0292,126.2909,6.8213,0.4212,54.897102,9.793577,108.3,5.845,1.85,-0.42,54.895260,9.796818,54.895069,9.793790
1386788103,1,0,485.9,0,0,0,0,1,25,-0.0292,126.2909,6.8213,0.4212,54.897091,9.793602,108.3,5.845,1.85,-0.42,54.895260,9.796818,54.895069,9.793790
1386788103,1,0,485.9,0,0,4,0,1,0,-0.0292,126.2909,6.8213,0.4212,54.897079,9.793628,108.3,5.845,1.85,-0.42,54.895260,9.796818,54.895069,9.793790
1386788104,1,0,485.9,0,0,0,0,1,25,-0.0292,126.2909,6.8213,0.4212,54.897068,9.793653,108.3,5.845,1.85,-0.42,54.895260,9.796818,54.895069,9.793790
1386788104,1,0,485.9,0,0,4,0,1,0,-0.0292,126.2909,6.8213,0.4212,54.897057,9.793678,108.3,5.845,1.85,-0.42,54.895260,9.796818,54.895069,9.793790
1386788104,1,0,485.9,0,0,0,0,1,25,-0.0292,126.2909,6.8213,0.4212,54.897049,9.793703,108.3,5.845,1.85,-0.42,54.895260,9.796818,54.895069,9.793790
1386788104,1,0,485.9,0,0,4,0,1,0,-0.0292,126.2909,6.8213,0.4212,54.897038,9.793728,108.3,5.845,1.85,-0.42,54.895260,9.796818,54.895069,9.793790
1386788105,1,0,485.9,0,0,0,0,1,25,-0.0292,126.2909,6.8213,0.4212,54.897026,9.793753,108.3,5.845,1.85,-0.42,54.895260,9.796818,54.895069,9.793790
1386788105,1,0,485.9,0,0,4,0,1,0,-0.0292,126.2909,6.8213,0.4212,54.897015,9.793777,108.3,5.845,1.85,-0.42,54.895260,9.796818,54.895069,9.793790
1386788105,1,0,485.9,0,0,0,0,1,25,-0.0292,126.2909,6.8213,0.4212,54.897003,9.793803,108.3,5.845,1.85,-0.42,54.895260,9.796818,54.895069,9.793790
1386788105,1,0,485.9,0,0,4,0,1,0,-0.0292,126.2909,6.8213,0.4212,54.896992,9.793828,108.3,5.845,1.85,-0.42,54.895260,9.796818,54.895069,9.793790
1386788106,1,0,485.9,0,0,0,0,1,25,-0.0292,126.2909,6.8213,0.4212,54.896980,9.793854,108.3,5.845,1.85,-0.42,54.895260,9.796818,54.895069,9.793790
1386788106,1,0,485.9,0,0,4,0,1,0,-0.0292,126.2909,6.8213,0.4212,54.896969,9.793879,108.3,5.845,1.85,-0.42,54.895260,9.796818,54.895069,9.793790
1386788106,1,0,485.9,0,0,0,0,1,25,-0.0292,126.2909,6.8213,0.4212,54.896957,9.793903,108.3,5.845,1.85,-0.42,54.895260,9.796818,54.895069,9.793790
1386788106,1,0,485.9,0,0,4,0,1,0,-0.0292,126.2909,6.8213,0.4212,54.896950,9.793929,108.3,5.845,1.85,-0.42,54.895260,9.796818,54.895069,9.793790
1386788107,1,0,485.9,0,0,0,0,1,25,-0.0292,126.2909,6.8213,0.4212,54.896938,9.793954,108.3,5.845,1.85,-0.42,54.895260,9.796818,54.895069,9.793790
1386788107,1,0,485.9,0,0,4,0,1,0,-0.0292,126.2909,6.8213,0.4212,54.896927,9.793980,108.3,5.845,1.85,-0.42,54.895260,9.796818,54.895069,9.793790
1386788107,1,0,485.9,0,0,0,0,1,25,-0.0292,126.2909,6.8213,0.4212,54.896915,9.794004,108.3,5.845,1.85,-0.42,54.895260,9.796818,54.895069,9.793790
1386788107,1,0,485.9,0,0,4,0,1,0,-0.0292,126.2909,6.8213,0.4212,54.896904,9.794029,108.3,5.845,1.85,-0.42,54.895260,9.796818,54.895069,9.793790
1386788108,1,0,485.9,0,0,0,0,1,25,-0.0292,126.2909,6.8213,0.4212,54.896893,9.794054,108.3,5.845,1.85,-0.42,54.895260,9.796818,54.895069,9.793790
1386788108,1,0,485.9,0,0,4,0,1,0,-0.0292,126.2909,6.8213,0.4212,54.896881,9.794079,108.3,5.845,1.85,-0.42,54.895260,9.796818,54.895069,9.793790
1386788108,1,0,485.9,0,0,0,0,1,25,-0.0292,126.2909,6.8213,0.4212,54.896870,9.794105,108.3,5.845,1.85,-0.42,54.895260,9.796818,54.895069,9.793790
1386788108,1,0,485.9,0,0,4,0,1,0,-0.0292,126.2909,6.8213,0.4212,54.896858,9.794129,108.3,5.845,1.85,-0.42,54.895260,9.796818,54.895069,9.793790
1386788109,1,0,485.9,0,0,0,0,1,25,-0.0292,126.2909,6.8213,0.4212,54.896847,9.794155,108.3,5.845,1.85,-0.42,54.895260,9.796818,54.895069,9.793790
1386788109,1,0,485.9,0,0,4,0,0,0,-0.0292,126.2909,6.8213,0.4212,54.896835,9.794180,108.3,5.845,1.85,-0.42,54.895260,9.796818,54.895069,9.793790
1386788109,1,0,485.9,0,0,0,0,0,25,-0.0292,126.2909,6.8213,0.4212,54.896828,9.794205,108.3,5.845,1.85,-0.42,54.895260,9.796818,54.895069,9.793790
1386788109,1,0,545.9,0,-35,-4,0,0,0,-0.0292,135.6242,6.8213,0.4212,54.896816,9.794227,108.3,5.845,1.85,-0.42,54.895260,9.796818,54.895069,9.793790
1386788110,1,0,545.9,0,-35,-8,0,0,25,-0.0292,144.9576,6.8213,0.4212,54.896801,9.794245,108.3,5.845,1.85,-0.42,54.895260,9.796818,54.895069,9.793790
1386788110,1,0,545.9,0,-35,-12,0,0,0,-0.0292,154.2909,6.8213,0.4212,54.896786,9.794258,108.3,5.845,1.85,-0.42,54.895260,9.796818,54.895069,9.793790
1386788110,1,0,545.9,0,-32,-16,0,0,25,-0.0292,162.8242,6.8213,0.4212,54.896770,9.794268,108.3,5.845,1.85,-0.42,54.895260,9.796818,54.895069,9.793790
1386788110,1,0,545.9,0,-23,-20,0,0,0,-0.0292,168.9576,6.8213,0.4212,54.896751,9.794273,108.3,5.845,1.85,-0.42,54.895260,9.796818,54.895069,9.793790
1386788111,1,0,545.9,0,-17,-16,0,0,25,-0.0292,173.4909,6.8213,0.4212,54.896732,9.794277,108.3,5.845,1.85,-0.42,54.895260,9.796818,54.895069,9.793790
1386788111,1,0,545.9,0,-12,-12,0,0,0,-0.0292,176.6909,6.8213,0.4212,54.896713,9.794279,108.3,5.845,1.85,-0.42,54.895260,9.796818,54.895069,9.793790
1386788111,1,0,545.9,0,-9,-8,0,0,25,-0.0292,179.0909,6.8213,0.4212,54.896698,9.794279,108.3,5.845,1.85,-0.42,54.895260,9.796818,54.895069,9.793790
1386788111,1,0,546.3,0,-7,-4,0,1,0,-0.0292,180.9576,6.8213,0.4212,54.896679,9.794278,108.3,5.845,1.85,-0.42,54.895260,9.796818,54.895069,9.793790
1386788112,1,0,550.0,0,-9,-8,0,1,25,-0.0292,183.3576,6.8213,0.4212,54.896660,9.794276,108.3,5.845,1.85,-0.42,54.895260,9.796818,54.895069,9.793790
1386788112,1,0,550.0,0,-7,-4,0,1,0,-0.0292,185.2242,6.8213,0.4212,54.896645,9.794273,108.3,5.845,1.85,-0.42,54.895260,9.796818,54.895069,9.793790
1386788112,1,0,550.1,0,-5,-8,0,1,25,-0.0292,186.5576,6.8213,0.4212,54.896626,9.794270,108.3,5.845,1.85,-0.42,54.895260,9.796818,54.895069,9.793790
1386788112,1,0,550.1,0,-4,-4,0,1,0,-0.0292,187.6242,6.8213,0.4212,54.896606,9.794265,108.3,5.845,1.85,-0.42,54.895260,9.796818,54.895069,9.793790
1386788113,1,0,550.1,0,-3,0,0,1,25,-0.0292,188.4242,6.8213,0.4212,54.896587,9.794260,108.3,5.845,1.85,-0.42,54.895260,9.796818,54.895069,9.793790
1386788113,1,0,550.2,0,-2,-4,0,1,0,-0.0292,188.9576,6.8213,0.4212,54.896572,9.794255,108.3,5.845,1.85,-0.42,54.895260,9.796818,54.895069,9.793790
1386788113,1,0,550.2,0,-1,0,0,1,25,-0.0292,189.2242,6.8213,0.4212,54.896553,9.794250,108.3,5.845,1.85,-0.42,54.895260,9.796818,54.895069,9.793790
1386788113,1,0,550.2,0,-1,-4,0,1,0,-0.0292,189.4909,6.8213,0.4212,54.896534,9.794246,108.3,5.845,1.85,-0.42,54.895260,9.796818,54.895069,9.793790
1386788114,1,0,550.2,0,-1,0,0,1,25,-0.0292,189.7576,6.8213,0.4212,54.896515,9.794241,108.3,5.845,1.85,-0.42,54.895260,9.796818,54.895069,9.793790
1386788114,1,0,550.2,0,0,4,0,1,0,-0.0292,189.7576,6.8213,0.4212,54.896500,9.794236,108.3,5.845,1.85,-0.42,54.895260,9.796818,54.895069,9.793790
1386788114,1,0,550.2,0,0,0,0,1,25,-0.0292,189.7576,6.8213,0.4212,54.896481,9.794230,108.3,5.845,1.85,-0.42,54.895260,9.796818,54.895069,9.793790
1386788114,1,0,550.2,0,0,4,0,1,0,-0.0292,189.7576,6.8213,0.4212,54.896461,9.794225,108.3,5.845,1.85,-0.42,54.895260,9.796818,54.895069,9.793790
1386788115,1,0,550.2,0,0,0,0,1,25,-0.0292,189.7576,6.8213,0.4212,54.896442,9.794219,108.3,5.845,1.85,-0.42,54.895260,9.796818,54.895069,9.793790
1386788115,1,0,550.2,0,0,4,0,1,0,-0.0292,189.7576,6.8213,0.4212,54.896427,9.794213,108.3,5.845,1.85,-0.42,54.895260,9.796818,54.895069,9.793790
1386788115,1,0,550.2,0,0,0,0,1,25,-0.0292,189.7576,6.8213,0.4212,54.896408,9.794209,108.3,5.845,1.85,-0.42,54.895260,9.796818,54.895069,9.793790
1386788115,1,0,550.3,0,0,4,0,1,0,-0.0292,189.7576,6.8213,0.4212,54.896389,9.794204,108.3,5.845,1.85,-0.42,54.895260,9.796818,54.895069,9.793790
1386788116,1,0,550.3,0,-1,0,0,1,25,-0.0292,190.0242,6.8213,0.4212,54.896374,9.794198,108.3,5.845,1.85,-0.42,54.895260,9.796818,54.895069,9.793790
1386788116,1,0,550.3,0,0,4,0,1,0,-0.0292,190.0242,6.8213,0.4212,54.896355,9.794192,108.3,5.845,1.85,-0.42,54.895260,9.796818,54.895069,9.793790
1386788116,1,0,550.3,0,0,0,0,1,25,-0.0292,190.0242,6.8213,0.4212,54.896336,9.794187,108.3,5.845,1.85,-0.42,54.895260,9.796818,54.895069,9.793790
1386788116,1,0,550.3,0,0,4,0,1,0,-0.0292,190.0242,6.8213,0.4212,54.896317,9.794181,108.3,5.845,1.85,-0.42,54.895260,9.796818,54.895069,9.793790
1386788117,1,0,550.3,0,0,0,0,1,25,-0.0292,190.0242,6.8213,0.4212,54.896301,9.794175,108.3,5.845,1.85,-0.42,54.895260,9.796818,54.895069,9.793790
1386788117,1,0,550.3,0,0,4,0,1,0,-0.0292,190.0242,6.8213,0.4212,54.896282,9.794169,108.3,5.845,1.85,-0.42,54.895260,9.796818,54.895069,9.793790
1386788117,1,0,550.3,0,0,0,0,1,25,-0.0292,190.0242,6.8213,0.4212,54.896263,9.794165,108.3,5.845,1.85,-0.42,54.895260,9.796818,54.895069,9.793790
1386788117,1,0,550.3,0,0,4,0,1,0,-0.0292,190.0242,6.8213,0.4212,54.896244,9.794160,108.3,5.845,1.85,-0.42,54.895260,9.796818,54.895069,9.793790
1386788118,1,0,550.3,0,0,0,0,1,25,-0.0292,190.0242,6.8213,0.4212,54.896229,9.794154,108.3,5.845,1.85,-0.42,54.895260,9.796818,54.895069,9.793790
1386788118,1,0,550.3,0,0,4,0,1,0,-0.0292,190.0242,6.8213,0.4212,54.896210,9.794148,108.3,5.845,1.85,-0.42,54.895260,9.796818,54.895069,9.793790
1386788118,1,0,550.3,0,0,0,0,1,25,-0.0292,190.0242,6.8213,0.4212,54.896191,9.794143,108.3,5.845,1.85,-0.42,54.895260,9.796818,54.895069,9.793790
1386788118,1,0,550.3,0,0,4,0,1,0,-0.0292,190.0242,6.8213,0.4212,54.896172,9.794137,108.3,5.845,1.85,-0.42,54.895260,9.796818,54.895069,9.793790
1386788119,1,0,550.3,0,0,0,0,1,25,-0.0292,190.0242,6.8213,0.4212,54.896156,9.794131,108.3,5.845,1.85,-0.42,54.895260,9.796818,54.895069,9.793790
1386788119,1,0,550.3,0,0,4,0,1,0,-0.0292,190.0242,6.8213,0.4212,54.896137,9.794127,108.3,5.845,1.85,-0.42,54.895260,9.796818,54.895069,9.793790
1386788119,1,0,550.3,0,0,0,0,1,25,-0.0292,190.0242,6.8213,0.4212,54.896118,9.794122,108.3,5.845,1.85,-0.42,54.895260,9.796818,54.895069,9.793790
1386788119,1,0,550.4,0,0,4,0,1,0,-0.0292,190.0242,6.8213,0.4212,54.896103,9.794117,108.3,5.845,1.85,-0.42,54.895260,9.796818,54.895069,9.793790
1386788120,1,0,550.4,0,0,0,0,1,25,-0.0292,190.0242,6.8213,0.4212,54.896084,9.794111,108.3,5.845,1.85,-0.42,54.895260,9.796818,54.895069,9.793790
1386788120,1,0,550.4,0,0,4,0,1,0,-0.0292,190.0242,6.8213,0.4212,54.896065,9.794106,108.3,5.845,1.85,-0.42,54.895260,9.796818,54.895069,9.793790
1386788120,1,0,550.4,0,0,0,0,1,25,-0.0292,190.0242,6.8213,0.4212,54.896046,9.794100,108.3,5.845,1.85,-0.42,54.895260,9.796818,54.895069,9.793790
1386788120,1,0,550.4,0,0,4,0,1,0,-0.0292,190.0242,6.8213,0.4212,54.896030,9.794094,108.3,5.845,1.85,-0.42,54.895260,9.796818,54.895069,9.793790
1386788121,1,0,550.4,0,0,0,0,1,25,-0.0292,190.0242,6.8213,0.4212,54.896011,9.794088,108.3,5.845,1.85,-0.42,54.895260,9.796818,54.895069,9.793790
1386788121,1,0,550.4,0,0,4,0,1,0,-0.0292,190.0242,6.8213,0.4212,54.895992,9.794084,108.3,5.845,1.85,-0.42,54.895260,9.796818,54.895069,9.793790
1386788121,1,0,550.4,0,0,0,0,1,25,-0.0292,190.0242,6.8213,0.4212,54.895973,9.794079,108.3,5.845,1.85,-0.42,54.895260,9.796818,54.895069,9.793790
1386788121,1,0,550.5,0,0,4,0,1,0,-0.0292,190.0242,6.8213,0.4212,54.895958,9.794074,108.3,5.845,1.85,-0.42,54.895260,9.796818,54.895069,9.793790
1386788122,1,0,550.5,0,0,0,0,1,25,-0.0292,190.0242,6.8213,0.4212,54.895939,9.794068,108.3,5.845,1.85,-0.42,54.895260,9.796818,54.895069,9.793790
1386788122,1,0,550.5,0,0,4,0,1,0,-0.0292,190.0242,6.8213,0.4212,54.895920,9.794063,108.3,5.845,1.85,-0.42,54.895260,9.796818,54.895069,9.793790
1386788122,1,0,550.5,0,0,0,0,1,25,-0.0292,190.0242,6.8213,0.4212,54.895901,9.794057,108.3,5.845,1.85,-0.42,54.895260,9.796818,54.895069,9.793790
1386788122,1,0,550.5,0,-1,-4,0,1,0,-0.0292,190.2909,6.8213,0.4212,54.895885,9.794051,108.3,5.845,1.85,-0.42,54.895260,9.796818,54.895069,9.793790
1386788123,1,0,550.5,0,0,0,0,1,25,-0.0292,190.2909,6.8213,0.4212,54.895866,9.794045,108.3,5.845,1.85,-0.42,54.895260,9.796818,54.895069,9.793790
1386788123,1,0,550.5,0,0,4,0,1,0,-0.0292,190.2909,6.8213,0.4212,54.895847,9.794041,108.3,5.845,1.85,-0.42,54.895260,9.796818,54.895069,9.793790
1386788123,1,0,550.6,0,0,0,0,1,25,-0.0292,190.2909,6.8213,0.4212,54.895832,9.794036,108.3,5.845,1.85,-0.42,54.895260,9.796818,54.895069,9.793790
1386788123,1,0,550.6,0,0,4,0,1,0,-0.0292,190.2909,6.8213,0.4212,54.895813,9.794030,108.3,5.845,1.85,-0.42,54.895260,9.796818,54.895069,9.793790
1386788124,1,0,550.6,0,0,0,0,1,25,-0.0292,190.2909,6.8213,0.4212,54.895794,9.794024,108.3,5.845,1.85,-0.42,54.895260,9.796818,54.895069,9.793790
1386788124,1,0,550.6,0,0,4,0,1,0,-0.0292,190.2909,6.8213,0.4212,54.895775,9.794019,108.3,5.845,1.85,-0.42,54.895260,9.796818,54.895069,9.793790
1386788124,1,0,550.6,0,0,0,0,1,25,-0.0292,190.2909,6.8213,0.4212,54.895760,9.794013,108.3,5.845,1.85,-0.42,54.895260,9.796818,54.895069,9.793790
1386788124,1,0,550.6,0,0,4,0,1,0,-0.0292,190.2909,6.8213,0.4212,54.895741,9.794007,108.3,5.845,1.85,-0.42,54.895260,9.796818,54.895069,9.793790
1386788125,1,0,550.6,0,0,0,0,1,25,-0.0292,190.2909,6.8213,0.4212,54.895721,9.794002,108.3,5.845,1.85,-0.42,54.895260,9.796818,54.895069,9.793790
1386788125,1,0,550.6,0,0,4,0,1,0,-0.0292,190.2909,6.8213,0.4212,54.895702,9.793997,108.3,5.845,1.85,-0.42,54.895260,9.796818,54.895069,9.793790
1386788125,1,0,550.7,0,0,0,0,1,25,-0.0292,190.2909,6.8213,0.4212,54.895687,9.793992,108.3,5.845,1.85,-0.42,54.895260,9.796818,54.895069,9.793790
1386788125,1,0,550.7,0,0,4,0,1,0,-0.0292,190.2909,6.8213,0.4212,54.895668,9.793986,108.3,5.845,1.85,-0.42,54.895260,9.796818,54.895069,9.793790
1386788126,1,0,550.7,0,0,0,0,1,25,-0.0292,190.2909,6.8213,0.4212,54.895649,9.793981,108.3,5.845,1.85,-0.42,54.895260,9.796818,54.895069,9.793790
1386788126,1,0,550.8,0,0,4,0,1,0,-0.0292,190.2909,6.8213,0.4212,54.895630,9.793975,108.3,5.845,1.85,-0.42,54.895260,9.796818,54.895069,9.793790
1386788126,1,0,550.8,0,-1,0,0,1,25,-0.0292,190.5575,6.8213,0.4212,54.895615,9.793969,108.3,5.845,1.85,-0.42,54.895260,9.796818,54.895069,9.793790
1386788126,1,0,550.8,0,0,4,0,1,0,-0.0292,190.5575,6.8213,0.4212,54.895596,9.793963,108.3,5.845,1.85,-0.42,54.895260,9.796818,54.895069,9.793790
1386788127,1,0,550.8,0,0,0,0,1,25,-0.0292,190.5575,6.8213,0.4212,54.895576,9.793958,108.3,5.845,1.85,-0.42,54.895260,9.796818,54.895069,9.793790
1386788127,1,0,550.8,0,0,4,0,1,0,-0.0292,190.5575,6.8213,0.4212,54.895561,9.793952,108.3,5.845,1.85,-0.42,54.895260,9.796818,54.895069,9.793790
1386788127,1,0,550.8,0,0,0,0,1,25,-0.0292,190.5575,6.8213,0.4212,54.895542,9.793946,108.3,5.845,1.85,-0.42,54.895260,9.796818,54.895069,9.793790
1386788127,1,0,550.8,0,0,4,0,1,0,-0.0292,190.5575,6.8213,0.4212,54.895523,9.793941,108.3,5.845,1.85,-0.42,54.895260,9.796818,54.895069,9.793790
1386788128,1,0,550.9,0,0,0,0,1,25,-0.0292,190.5575,6.8213,0.4212,54.895504,9.793935,108.3,5.845,1.85,-0.42,54.895260,9.796818,54.895069,9.793790
1386788128,1,0,550.9,0,0,4,0,1,0,-0.0292,190.5575,6.8213,0.4212,54.895489,9.793929,108.3,5.845,1.85,-0.42,54.895260,9.796818,54.895069,9.793790
1386788128,1,0,550.9,0,0,0,0,1,25,-0.0292,190.5575,6.8213,0.4212,54.895470,9.793923,108.3,5.845,1.85,-0.42,54.895260,9.796818,54.895069,9.793790
1386788128,1,0,550.9,0,0,4,0,1,0,-0.0292,190.5575,6.8213,0.4212,54.895451,9.793918,108.3,5.845,1.85,-0.42,54.895260,9.796818,54.895069,9.793790
1386788129,1,0,551.0,0,0,0,0,1,25,-0.0292,190.5575,6.8213,0.4212,54.895432,9.793912,108.3,5.845,1.85,-0.42,54.895260,9.796818,54.895069,9.793790
1386788129,1,0,551.0,0,0,4,0,1,0,-0.0292,190.5575,6.8213,0.4212,54.895416,9.793906,108.3,5.845,1.85,-0.42,54.895260,9.796818,54.895069,9.793790
1386788129,1,0,551.0,0,0,0,0,1,25,-0.0292,190.5575,6.8213,0.4212,54.895397,9.793900,108.3,5.845,1.85,-0.42,54.895260,9.796818,54.895069,9.793790
