MCU_timestamp,Navigation_System,Manual_Control,Guidance_Heading,Manual_Ctrl_Rudder,Rudder_Desired_Angle,Rudder_Feedback,Manual_Ctrl_Sail,Sail_Desired_Pos,Sail_Feedback,Rate,Heading,Pitch,Roll,Latitude,Longitude,COG,SOG,Wind_Speed,Wind_Angle,Point_Start_Lat,Point_Start_Lon,Point_End_Lat,Point_End_Lon
1389972363,1,0,0.0,0,-35,-4,0,713,700,-0.0292,201.2922,6.8213,0.4212,54.878082,9.770502,108.3,5.845,1.85,335.95,54.878101,9.770514,0.000000,0.000000
1389972363,3,0,0.0,0,31,0,0,870,750,-0.0292,190.9589,6.8213,0.4212,54.878063,9.770496,108.3,5.845,1.85,335.95,54.878101,9.770514,54.878082,9.770502
1389972364,3,0,0.0,0,21,4,0,713,700,-0.0292,183.9589,6.8213,0.4212,54.878044,9.770494,108.3,5.845,1.85,335.95,54.878101,9.770514,54.878082,9.770502
1389972364,3,0,0.0,0,14,8,0,713,750,-0.0292,179.2922,6.8213,0.4212,54.878029,9.770495,108.3,5.845,1.85,335.95,54.878101,9.770514,54.878082,9.770502
1389972364,3,0,0.0,0,9,12,0,713,700,-0.0292,176.2922,6.8213,0.4212,54.878010,9.770497,108.3,5.845,1.85,335.95,54.878101,9.770514,54.878082,9.770502
1389972364,3,0,0.0,0,6,8,0,713,750,-0.0292,174.2922,6.8213,0.4212,54.877991,9.770500,108.3,5.845,1.85,335.95,54.878101,9.770514,54.878082,9.770502
1389972365,3,0,0.0,0,4,4,0,713,700,-0.0292,172.9589,6.8213,0.4212,54.877972,9.770504,108.3,5.845,1.85,335.95,54.878101,9.770514,54.878082,9.770502
1389972365,3,0,0.0,0,3,0,0,713,750,-0.0292,171.9589,6.8213,0.4212,54.877956,9.770509,108.3,5.845,1.85,335.95,54.878101,9.770514,54.878082,9.770502
1389972365,3,0,0.0,0,2,4,0,713,700,-0.0292,171.2922,6.8213,0.4212,54.877937,9.770514,108.3,5.845,1.85,335.95,54.878101,9.770514,54.878082,9.770502
1389972365,3,0,0.0,0,1,0,0,713,750,-0.0292,170.9589,6.8213,0.4212,54.877918,9.770518,108.3,5.845,1.85,335.95,54.878101,9.770514,54.878082,9.770502
1389972366,3,0,0.0,0,1,4,0,713,700,-0.0292,170.6255,6.8213,0.4212,54.877903,9.770523,108.3,5.845,1.85,335.95,54.878101,9.770514,54.878082,9.770502
1389972366,3,0,0.0,0,1,0,0,713,750,-0.0292,170.2922,6.8213,0.4212,54.877884,9.770528,108.3,5.845,1.85,335.95,54.878101,9.770514,54.878082,9.770502
1389972366,3,0,0.0,0,0,4,0,713,700,-0.0292,170.2922,6.8213,0.4212,54.877865,9.770533,108.3,5.845,1.85,335.95,54.878101,9.770514,54.878082,9.770502
1389972366,3,0,0.0,0,0,0,0,713,750,-0.0292,170.2922,6.8213,0.4212,54.877846,9.770538,108.3,5.845,1.85,335.95,54.878101,9.770514,54.878082,9.770502
1389972367,3,0,0.0,0,0,4,0,713,700,-0.0292,170.2922,6.8213,0.4212,54.877831,9.770544,108.3,5.845,1.85,335.95,54.878101,9.770514,54.878082,9.770502
1389972367,3,0,0.0,0,0,0,0,713,750,-0.0292,170.2922,6.8213,0.4212,54.877811,9.770550,108.3,5.845,1.85,335.95,54.878101,9.770514,54.878082,9.770502
1389972367,3,0,0.0,0,0,4,0,713,700,-0.0292,170.2922,6.8213,0.4212,54.877792,9.770555,108.3,5.845,1.85,335.95,54.878101,9.770514,54.878082,9.770502
1389972367,3,0,0.0,0,0,0,0,713,750,-0.0292,170.2922,6.8213,0.4212,54.877773,9.770560,108.3,5.845,1.85,335.95,54.878101,9.770514,54.878082,9.770502
1389972368,3,0,0.0,0,0,4,0,713,700,-0.0292,170.2922,6.8213,0.4212,54.877758,9.770565,108.3,5.845,1.85,335.95,54.878101,9.770514,54.878082,9.770502
1389972368,3,0,0.0,0,0,0,0,713,750,-0.0292,170.2922,6.8213,0.4212,54.877739,9.770570,108.3,5.845,1.85,335.95,54.878101,9.770514,54.878082,9.770502
1389972368,3,0,0.0,0,0,4,0,713,700,-0.0292,170.2922,6.8213,0.4212,54.877720,9.770575,108.3,5.845,1.85,335.95,54.878101,9.770514,54.878082,9.770502
1389972368,3,0,0.0,0,0,0,0,713,750,-0.0292,170.2922,6.8213,0.4212,54.877701,9.770579,108.3,5.845,1.85,335.95,54.878101,9.770514,54.878082,9.770502
1389972369,3,0,0.0,0,0,4,0,713,700,-0.0292,170.2922,6.8213,0.4212,54.877686,9.770585,108.3,5.845,1.85,335.95,54.878101,9.770514,54.878082,9.770502
1389972369,3,0,0.0,0,0,0,0,713,750,-0.0292,170.2922,6.8213,0.4212,54.877666,9.770591,108.3,5.845,1.85,335.95,54.878101,9.770514,54.878082,9.770502
1389972369,3,0,0.0,0,0,4,0,713,700,-0.0292,170.2922,6.8213,0.4212,54.877647,9.770597,108.3,5.845,1.85,335.95,54.878101,9.770514,54.878082,9.770502
1389972369,3,0,0.0,0,0,0,0,713,750,-0.0292,170.2922,6.8213,0.4212,54.877632,9.770602,108.3,5.845,1.85,335.95,54.878101,9.770514,54.878082,9.770502
1389972370,3,0,0.0,0,0,4,0,713,700,-0.0292,170.2922,6.8213,0.4212,54.877613,9.770607,108.3,5.845,1.85,335.95,54.878101,9.770514,54.878082,9.770502
1389972370,3,0,0.0,0,0,0,0,713,750,-0.0292,170.2922,6.8213,0.4212,54.877594,9.770612,108.3,5.845,1.85,335.95,54.878101,9.770514,54.878082,9.770502
1389972370,3,0,0.0,0,0,4,0,713,700,-0.0292,170.2922,6.8213,0.4212,54.877575,9.770617,108.3,5.845,1.85,335.95,54.878101,9.770514,54.878082,9.770502
1389972370,3,0,0.0,0,0,0,0,713,750,-0.0292,170.2922,6.8213,0.4212,54.877560,9.770621,108.3,5.845,1.85,335.95,54.878101,9.770514,54.878082,9.770502
1389972371,3,0,0.0,0,0,4,0,713,700,-0.0292,170.2922,6.8213,0.4212,54.877541,9.770627,108.3,5.845,1.85,335.95,54.878101,9.770514,54.878082,9.770502
1389972371,3,0,0.0,0,0,0,0,713,750,-0.0292,170.2922,6.8213,0.4212,54.877522,9.770633,108.3,5.845,1.85,335.95,54.878101,9.770514,54.878082,9.770502
1389972371,3,0,0.0,0,0,4,0,713,700,-0.0292,170.2922,6.8213,0.4212,54.877502,9.770638,108.3,5.845,1.85,335.95,54.878101,9.770514,54.878082,9.770502
1389972371,3,0,0.0,0,0,0,0,713,750,-0.0292,170.2922,6.8213,0.4212,54.877487,9.770644,108.3,5.845,1.85,335.95,54.878101,9.770514,54.878082,9.770502
1389972372,3,0,0.0,0,0,4,0,713,700,-0.0292,170.2922,6.8213,0.4212,54.877468,9.770649,108.3,5.845,1.85,335.95,54.878101,9.770514,54.878082,9.770502
1389972372,3,0,0.0,0,0,0,0,713,750,-0.0292,170.2922,6.8213,0.4212,54.877449,9.770654,108.3,5.845,1.85,335.95,54.878101,9.770514,54.878082,9.770502
1389972372,3,0,0.0,0,0,4,0,713,700,-0.0292,170.2922,6.8213,0.4212,54.877430,9.770658,108.3,5.845,1.85,335.95,54.878101,9.770514,54.878082,9.770502
1389972372,3,0,0.0,0,0,0,0,713,750,-0.0292,170.2922,6.8213,0.4212,54.877415,9.770663,108.3,5.845,1.85,335.95,54.878101,9.770514,54.878082,9.770502
1389972373,3,0,0.0,0,0,4,0,713,700,-0.0292,170.2922,6.8213,0.4212,54.877396,9.770669,108.3,5.845,1.85,335.95,54.878101,9.770514,54.878082,9.770502
1389972373,3,0,0.0,0,0,0,0,713,750,-0.0292,170.2922,6.8213,0.4212,54.877377,9.770675,108.3,5.845,1.85,335.95,54.878101,9.770514,54.878082,9.770502
1389972373,3,0,0.0,0,0,4,0,713,700,-0.0292,170.2922,6.8213,0.4212,54.877357,9.770680,108.3,5.845,1.85,335.95,54.878101,9.770514,54.878082,9.770502
1389972373,3,0,0.0,0,-20,0,0,713,750,-0.0292,176.9589,6.8213,0.4212,54.877342,9.770682,108.3,5.845,1.85,335.95,54.878101,9.770514,54.878082,9.770502
1389972374,3,0,0.0,0,-13,-4,0,713,700,-0.0292,181.2922,6.8213,0.4212,54.877323,9.770682,108.3,5.845,1.85,335.95,54.878101,9.770514,54.878082,9.770502
1389972374,3,0,0.0,0,-9,-8,0,713,750,-0.0292,184.2922,6.8213,0.4212,54.877304,9.770680,108.3,5.845,1.85,335.95,54.878101,9.770514,54.878082,9.770502
1389972374,3,0,0.0,0,-6,-4,0,713,700,-0.0292,186.2922,6.8213,0.4212,54.877289,9.770678,108.3,5.845,1.85,335.95,54.878101,9.770514,54.878082,9.770502
1389972374,3,0,0.0,0,-4,0,0,713,750,-0.0292,187.6255,6.8213,0.4212,54.877270,9.770674,108.3,5.845,1.85,335.95,54.878101,9.770514,54.878082,9.770502
1389972375,3,0,0.0,0,-2,-4,0,713,700,-0.0292,188.2922,6.8213,0.4212,54.877251,9.770670,108.3,5.845,1.85,335.95,54.878101,9.770514,54.878082,9.770502
1389972375,3,0,0.0,0,-2,0,0,713,750,-0.0292,188.9589,6.8213,0.4212,54.877232,9.770665,108.3,5.845,1.85,335.95,54.878101,9.770514,54.878082,9.770502
1389972375,3,0,0.0,0,-1,-4,0,713,700,-0.0292,189.2922,6.8213,0.4212,54.877216,9.770660,108.3,5.845,1.85,335.95,54.878101,9.770514,54.878082,9.770502
1389972375,3,0,0.0,0,-1,0,0,713,750,-0.0292,189.6255,6.8213,0.4212,54.877197,9.770655,108.3,5.845,1.85,335.95,54.878101,9.770514,54.878082,9.770502
1389972376,3,0,0.0,0,0,4,0,713,700,-0.0292,189.6255,6.8213,0.4212,54.877178,9.770649,108.3,5.845,1.85,335.95,54.878101,9.770514,54.878082,9.770502
1389972376,3,0,0.0,0,0,0,0,713,750,-0.0292,189.6255,6.8213,0.4212,54.877159,9.770643,108.3,5.845,1.85,335.95,54.878101,9.770514,54.878082,9.770502
1389972376,3,0,0.0,0,0,4,0,713,700,-0.0292,189.6255,6.8213,0.4212,54.877144,9.770638,108.3,5.845,1.85,335.95,54.878101,9.770514,54.878082,9.770502
1389972376,3,0,0.0,0,0,0,0,713,750,-0.0292,189.6255,6.8213,0.4212,54.877125,9.770633,108.3,5.845,1.85,335.95,54.878101,9.770514,54.878082,9.770502
1389972377,3,0,0.0,0,0,4,0,713,700,-0.0292,189.6255,6.8213,0.4212,54.877106,9.770628,108.3,5.845,1.85,335.95,54.878101,9.770514,54.878082,9.770502
1389972377,3,0,0.0,0,0,0,0,713,750,-0.0292,189.6255,6.8213,0.4212,54.877087,9.770623,108.3,5.845,1.85,335.95,54.878101,9.770514,54.878082,9.770502
1389972377,3,0,0.0,0,0,4,0,713,700,-0.0292,189.6255,6.8213,0.4212,54.877071,9.770618,108.3,5.845,1.85,335.95,54.878101,9.770514,54.878082,9.770502
1389972377,3,0,0.0,0,0,0,0,713,750,-0.0292,189.6255,6.8213,0.4212,54.877052,9.770614,108.3,5.845,1.85,335.95,54.878101,9.770514,54.878082,9.770502
1389972378,3,0,0.0,0,0,4,0,713,700,-0.0292,189.6255,6.8213,0.4212,54.877033,9.770608,108.3,5.845,1.85,335.95,54.878101,9.770514,54.878082,9.770502
1389972378,3,0,0.0,0,0,0,0,713,750,-0.0292,189.6255,6.8213,0.4212,54.877018,9.770602,108.3,5.845,1.85,335.95,54.878101,9.770514,54.878082,9.770502
1389972378,3,0,0.0,0,0,4,0,713,700,-0.0292,189.6255,6.8213,0.4212,54.876999,9.770597,108.3,5.845,1.85,335.95,54.878101,9.770514,54.878082,9.770502
1389972378,3,0,0.0,0,0,0,0,713,750,-0.0292,189.6255,6.8213,0.4212,54.876980,9.770592,108.3,5.845,1.85,335.95,54.878101,9.770514,54.878082,9.770502
1389972379,3,0,0.0,0,0,4,0,713,700,-0.0292,189.6255,6.8213,0.4212,54.876961,9.770587,108.3,5.845,1.85,335.95,54.878101,9.770514,54.878082,9.770502
1389972379,3,0,0.0,0,0,0,0,713,750,-0.0292,189.6255,6.8213,0.4212,54.876945,9.770582,108.3,5.845,1.85,335.95,54.878101,9.770514,54.878082,9.770502
1389972379,3,0,0.0,0,0,4,0,713,700,-0.0292,189.6255,6.8213,0.4212,54.876926,9.770577,108.3,5.845,1.85,335.95,54.878101,9.770514,54.878082,9.770502
1389972379,3,0,0.0,0,0,0,0,713,750,-0.0292,189.6255,6.8213,0.4212,54.876907,9.770573,108.3,5.845,1.85,335.95,54.878101,9.770514,54.878082,9.770502
1389972380,3,0,0.0,0,0,4,0,713,700,-0.0292,189.6255,6.8213,0.4212,54.876888,9.770567,108.3,5.845,1.85,335.95,54.878101,9.770514,54.878082,9.770502
1389972380,3,0,0.0,0,0,0,0,713,750,-0.0292,189.6255,6.8213,0.4212,54.876873,9.770561,108.3,5.845,1.85,335.95,54.878101,9.770514,54.878082,9.770502
1389972380,3,0,0.0,0,0,4,0,713,700,-0.0292,189.6255,6.8213,0.4212,54.876854,9.770555,108.3,5.845,1.85,335.95,54.878101,9.770514,54.878082,9.770502
1389972380,3,0,0.0,0,0,0,0,713,750,-0.0292,189.6255,6.8213,0.4212,54.876835,9.770550,108.3,5.845,1.85,335.95,54.878101,9.770514,54.878082,9.770502
1389972381,3,0,0.0,0,0,4,0,713,700,-0.0292,189.6255,6.8213,0.4212,54.876816,9.770545,108.3,5.845,1.85,335.95,54.878101,9.770514,54.878082,9.770502
1389972381,3,0,0.0,0,0,0,0,713,750,-0.0292,189.6255,6.8213,0.4212,54.876801,9.770540,108.3,5.845,1.85,335.95,54.878101,9.770514,54.878082,9.770502
1389972381,3,0,0.0,0,0,4,0,713,700,-0.0292,189.6255,6.8213,0.4212,54.876781,9.770535,108.3,5.845,1.85,335.95,54.878101,9.770514,54.878082,9.770502
1389972381,3,0,0.0,0,0,0,0,713,750,-0.0292,189.6255,6.8213,0.4212,54.876762,9.770531,108.3,5.845,1.85,335.95,54.878101,9.770514,54.878082,9.770502
1389972382,3,0,0.0,0,0,4,0,713,700,-0.0292,189.6255,6.8213,0.4212,54.876747,9.770525,108.3,5.845,1.85,335.95,54.878101,9.770514,54.878082,9.770502
1389972382,3,0,0.0,0,0,0,0,713,750,-0.0292,189.6255,6.8213,0.4212,54.876728,9.770519,108.3,5.845,1.85,335.95,54.878101,9.770514,54.878082,9.770502
1389972382,3,0,0.0,0,0,4,0,713,700,-0.0292,189.6255,6.8213,0.4212,54.876709,9.770514,108.3,5.845,1.85,335.95,54.878101,9.770514,54.878082,9.770502
1389972382,3,0,0.0,0,0,0,0,713,750,-0.0292,189.6255,6.8213,0.4212,54.876690,9.770508,108.3,5.845,1.85,335.95,54.878101,9.770514,54.878082,9.770502
1389972383,3,0,0.0,0,0,4,0,713,700,-0.0292,189.6255,6.8213,0.4212,54.876675,9.770503,108.3,5.845,1.85,335.95,54.878101,9.770514,54.878082,9.770502
1389972383,3,0,0.0,0,0,0,0,713,750,-0.0292,189.6255,6.8213,0.4212,54.876656,9.770498,108.3,5.845,1.85,335.95,54.878101,9.770514,54.878082,9.770502
1389972383,3,0,0.0,0,0,4,0,713,700,-0.0292,189.6255,6.8213,0.4212,54.876637,9.770494,108.3,5.845,1.85,335.95,54.878101,9.770514,54.878082,9.770502
1389972384,3,0,0.0,0,0,0,0,713,750,-0.0292,189.6255,6.8213,0.4212,54.876617,9.770489,108.3,5.845,1.85,335.95,54.878101,9.770514,54.878082,9.770502
1389972384,3,0,0.0,0,0,4,0,713,700,-0.0292,189.6255,6.8213,0.4212,54.876602,9.770483,108.3,5.845,1.85,335.95,54.878101,9.770514,54.878082,9.770502
1389972384,3,0,0.0,0,0,0,0,713,750,-0.0292,189.6255,6.8213,0.4212,54.876583,9.770477,108.3,5.845,1.85,335.95,54.878101,9.770514,54.878082,9.770502
1389972384,3,0,0.0,0,0,4,0,713,700,-0.0292,189.6255,6.8213,0.4212,54.876564,9.770472,108.3,5.845,1.85,335.95,54.878101,9.770514,54.878082,9.770502
1389972385,3,0,0.0,0,0,0,0,713,750,-0.0292,189.6255,6.8213,0.4212,54.876545,9.770466,108.3,5.845,1.85,335.95,54.878101,9.770514,54.878082,9.770502
1389972385,3,0,0.0,0,0,4,0,713,700,-0.0292,189.6255,6.8213,0.4212,54.876530,9.770461,108.3,5.845,1.85,335.95,54.878101,9.770514,54.878082,9.770502
1389972385,3,0,0.0,0,0,0,0,713,750,-0.0292,189.6255,6.8213,0.4212,54.876511,9.770456,108.3,5.845,1.85,335.95,54.878101,9.770514,54.878082,9.770502
1389972385,3,0,0.0,0,0,4,0,713,700,-0.0292,189.6255,6.8213,0.4212,54.876492,9.770452,108.3,5.845,1.85,335.95,54.878101,9.770514,54.878082,9.770502
1389972386,3,0,0.0,0,0,0,0,713,750,-0.0292,189.6255,6.8213,0.4212,54.876476,9.770447,108.3,5.845,1.85,335.95,54.878101,9.770514,54.878082,9.770502
1389972386,3,0,0.0,0,0,4,0,713,700,-0.0292,189.6255,6.8213,0.4212,54.876457,9.770442,108.3,5.845,1.85,335.95,54.878101,9.770514,54.878082,9.770502
1389972386,3,0,0.0,0,0,0,0,713,750,-0.0292,189.6255,6.8213,0.4212,54.876438,9.770436,108.3,5.845,1.85,335.95,54.878101,9.770514,54.878082,9.770502
1389972386,3,0,0.0,0,0,4,0,713,700,-0.0292,189.6255,6.8213,0.4212,54.876419,9.770431,108.3,5.845,1.85,335.95,54.878101,9.770514,54.878082,9.770502
1389972387,3,0,0.0,0,0,0,0,713,750,-0.0292,189.6255,6.8213,0.4212,54.876404,9.770425,108.3,5.845,1.85,335.95,54.878101,9.770514,54.878082,9.770502
1389972387,3,0,0.0,0,0,4,0,713,700,-0.0292,189.6255,6.8213,0.4212,54.876385,9.770420,108.3,5.845,1.85,335.95,54.878101,9.770514,54.878082,9.770502
1389972387,3,0,0.0,0,0,0,0,713,750,-0.0292,189.6255,6.8213,0.4212,54.876366,9.770415,108.3,5.845,1.85,335.95,54.878101,9.770514,54.878082,9.770502
1389972387,3,0,0.0,0,0,4,0,713,700,-0.0292,189.6255,6.8213,0.4212,54.876347,9.770411,108.3,5.845,1.85,335.95,54.878101,9.770514,54.878082,9.770502
1389972388,3,0,0.0,0,0,0,0,713,750,-0.0292,189.6255,6.8213,0.4212,54.876331,9.770406,108.3,5.845,1.85,335.95,54.878101,9.770514,54.878082,9.770502
1389972388,3,0,0.0,0,0,4,0,713,700,-0.0292,189.6255,6.8213,0.4212,54.876312,9.770401,108.3,5.845,1.85,335.95,54.878101,9.770514,54.878082,9.770502
1389972388,3,0,0.0,0,0,0,0,713,750,-0.0292,189.6255,6.8213,0.4212,54.876293,9.770395,108.3,5.845,1.85,335.95,54.878101,9.770514,54.878082,9.770502
1389972388,3,0,0.0,0,0,4,0,713,700,-0.0292,189.6255,6.8213,0.4212,54.876274,9.770390,108.3,5.845,1.85,335.95,54.878101,9.770514,54.878082,9.770502
1389972389,3,0,0.0,0,0,0,0,713,750,-0.0292,189.6255,6.8213,0.4212,54.876259,9.770384,108.3,5.845,1.85,335.95,54.878101,9.770514,54.878082,9.770502
1389972389,3,0,0.0,0,0,4,0,713,700,-0.0292,189.6255,6.8213,0.4212,54.876240,9.770378,108.3,5.845,1.85,335.95,54.878101,9.770514,54.878082,9.770502
1389972389,3,0,0.0,0,0,0,0,713,750,-0.0292,189.6255,6.8213,0.4212,54.876221,9.770373,108.3,5.845,1.85,335.95,54.878101,9.770514,54.878082,9.770502
1389972389,3,0,0.0,0,0,4,0,713,700,-0.0292,189.6255,6.8213,0.4212,54.876202,9.770369,108.3,5.845,1.85,335.95,54.878101,9.770514,54.878082,9.770502
1389972390,3,0,0.0,0,0,0,0,713,750,-0.0292,189.6255,6.8213,0.4212,54.876186,9.770364,108.3,5.845,1.85,335.95,54.878101,9.770514,54.878082,9.770502
1389972390,3,0,0.0,0,0,4,0,713,700,-0.0292,189.6255,6.8213,0.4212,54.876167,9.770359,108.3,5.845,1.85,335.95,54.878101,9.770514,54.878082,9.770502
1389972390,3,0,0.0,0,0,0,0,713,750,-0.0292,189.6255,6.8213,0.4212,54.876148,9.770353,108.3,5.845,1.85,335.95,54.878101,9.770514,54.878082,9.770502
1389972390,3,0,0.0,0,0,4,0,713,700,-0.0292,189.6255,6.8213,0.4212,54.876133,9.770348,108.3,5.845,1.85,335.95,54.878101,9.770514,54.878082,9.770502
1389972391,3,0,0.0,0,0,0,0,713,750,-0.0292,189.6255,6.8213,0.4212,54.876114,9.770342,108.3,5.845,1.85,335.95,54.878101,9.770514,54.878082,9.770502
1389972391,3,0,0.0,0,0,4,0,713,700,-0.0292,189.6255,6.8213,0.4212,54.876095,9.770336,108.3,5.845,1.85,335.95,54.878101,9.770514,54.878082,9.770502
1389972391,3,0,0.0,0,0,0,0,713,750,-0.0292,189.6255,6.8213,0.4212,54.876076,9.770331,108.3,5.845,1.85,335.95,54.878101,9.770514,54.878082,9.770502
1389972391,3,0,0.0,0,0,4,0,713,700,-0.0292,189.6255,6.8213,0.4212,54.876060,9.770327,108.3,5.845,1.85,335.95,54.878101,9.770514,54.878082,9.770502
1389972392,3,0,0.0,0,0,0,0,713,750,-0.0292,189.6255,6.8213,0.4212,54.876041,9.770322,108.3,5.845,1.85,335.95,54.878101,9.770514,54.878082,9.770502
1389972392,3,0,0.0,0,0,4,0,713,700,-0.0292,189.6255,6.8213,0.4212,54.876022,9.770317,108.3,5.845,1.85,335.95,54.878101,9.770514,54.878082,9.770502
1389972392,3,0,0.0,0,0,0,0,713,750,-0.0292,189.6255,6.8213,0.4212,54.876003,9.770311,108.3,5.845,1.85,335.95,54.878101,9.770514,54.878082,9.770502
1389972392,3,0,0.0,0,0,4,0,713,700,-0.0292,189.6255,6.8213,0.4212,54.875988,9.770306,108.3,5.845,1.85,335.95,54.878101,9.770514,54.878082,9.770502
1389972393,3,0,0.0,0,0,0,0,713,750,-0.0292,189.6255,6.8213,0.4212,54.875969,9.770300,108.3,5.845,1.85,335.95,54.878101,9.770514,54.878082,9.770502
1389972393,3,0,0.0,0,0,4,0,713,700,-0.0292,189.6255,6.8213,0.4212,54.875950,9.770294,108.3,5.845,1.85,335.95,54.878101,9.770514,54.878082,9.770502
1389972393,3,0,0.0,0,0,0,0,713,750,-0.0292,189.6255,6.8213,0.4212,54.875931,9.770289,108.3,5.845,1.85,335.95,54.878101,9.770514,54.878082,9.770502
1389972393,3,0,0.0,0,0,4,0,713,700,-0.0292,189.6255,6.8213,0.4212,54.875916,9.770285,108.3,5.845,1.85,335.95,54.878101,9.770514,54.878082,9.770502
1389972394,3,0,0.0,0,0,0,0,713,750,-0.0292,189.6255,6.8213,0.4212,54.875896,9.770280,108.3,5.845,1.85,335.95,54.878101,9.770514,54.878082,9.770502
1389972394,3,0,0.0,0,0,4,0,713,700,-0.0292,189.6255,6.8213,0.4212,54.875877,9.770275,108.3,5.845,1.85,335.95,54.878101,9.770514,54.878082,9.770502
1389972394,3,0,0.0,0,0,0,0,713,750,-0.0292,189.6255,6.8213,0.4212,54.875862,9.770270,108.3,5.845,1.85,335.95,54.878101,9.770514,54.878082,9.770502
1389972394,3,0,0.0,0,0,4,0,713,700,-0.0292,189.6255,6.8213,0.4212,54.875843,9.770265,108.3,5.845,1.85,335.95,54.878101,9.770514,54.878082,9.770502
1389972395,3,0,0.0,0,0,0,0,713,750,-0.0292,189.6255,6.8213,0.4212,54.875824,9.770259,108.3,5.845,1.85,335.95,54.878101,9.770514,54.878082,9.770502
1389972395,3,0,0.0,0,0,4,0,713,700,-0.0292,189.6255,6.8213,0.4212,54.875805,9.770253,108.3,5.845,1.85,335.95,54.878101,9.770514,54.878082,9.770502
1389972395,3,0,0.0,0,0,0,0,713,750,-0.0292,189.6255,6.8213,0.4212,54.875790,9.770248,108.3,5.845,1.85,335.95,54.878101,9.770514,54.878082,9.770502
1389972395,3,0,0.0,0,0,4,0,713,700,-0.0292,189.6255,6.8213,0.4212,54.875771,9.770244,108.3,5.845,1.85,335.95,54.878101,9.770514,54.878082,9.770502
1389972396,3,0,0.0,0,0,0,0,713,750,-0.0292,189.6255,6.8213,0.4212,54.875751,9.770239,108.3,5.845,1.85,335.95,54.878101,9.770514,54.878082,9.770502
1389972396,3,0,0.0,0,0,4,0,713,700,-0.0292,189.6255,6.8213,0.4212,54.875732,9.770234,108.3,5.845,1.85,335.95,54.878101,9.770514,54.878082,9.770502
