MCU_timestamp,Navigation_System,Manual_Control,Guidance_Heading,Manual_Ctrl_Rudder,Rudder_Desired_Angle,Rudder_Feedback,Manual_Ctrl_Sail,Sail_Desired_Pos,Sail_Feedback,Rate,Heading,Pitch,Roll,Latitude,Longitude,COG,SOG,Wind_Speed,Wind_Angle,Point_Start_Lat,Point_Start_Lon,Point_End_Lat,Point_End_Lon
1386790640,0,0,0.0,0,0,8,0,0,0,-0.0292,189.2239,6.8213,0.4212,54.893414,9.797565,108.3,5.845,1.85,335.95,0.000000,0.000000,0.000000,0.000000
1386790640,0,0,0.0,0,0,8,0,0,0,-0.0292,189.2239,6.8213,0.4212,54.893414,9.797565,108.3,5.845,1.85,335.95,0.000000,0.000000,0.000000,0.000000
1386790640,0,0,0.0,0,0,8,0,0,0,-0.0292,189.2239,6.8213,0.4212,54.893414,9.797565,108.3,5.845,1.85,335.95,0.000000,0.000000,0.000000,0.000000
1386790640,0,0,0.0,0,0,8,0,0,0,-0.0292,189.2239,6.8213,0.4212,54.893414,9.797565,108.3,5.845,1.85,335.95,0.000000,0.000000,0.000000,0.000000
1386790641,0,0,0.0,0,0,8,0,0,0,-0.0292,189.2239,6.8213,0.4212,54.893414,9.797565,108.3,5.845,1.85,335.95,0.000000,0.000000,0.000000,0.000000
1386790641,0,0,0.0,0,0,8,0,0,0,-0.0292,189.2239,6.8213,0.4212,54.893414,9.797565,108.3,5.845,1.85,335.95,0.000000,0.000000,0.000000,0.000000
1386790641,0,0,0.0,0,0,8,0,0,0,-0.0292,189.2239,6.8213,0.4212,54.893414,9.797565,108.3,5.845,1.85,335.95,0.000000,0.000000,0.000000,0.000000
1386790641,0,0,0.0,0,0,8,0,0,0,-0.0292,189.2239,6.8213,0.4212,54.893414,9.797565,108.3,5.845,1.85,335.95,0.000000,0.000000,0.000000,0.000000
1386790642,0,0,0.0,0,0,8,0,0,0,-0.0292,189.2239,6.8213,0.4212,54.893414,9.797565,108.3,5.845,1.85,335.95,0.000000,0.000000,0.000000,0.000000
1386790642,0,0,0.0,0,0,8,0,0,0,-0.0292,189.2239,6.8213,0.4212,54.893414,9.797565,108.3,5.845,1.85,335.95,0.000000,0.000000,0.000000,0.000000
1386790642,0,0,0.0,0,0,8,0,0,0,-0.0292,189.2239,6.8213,0.4212,54.893414,9.797565,108.3,5.845,1.85,335.95,0.000000,0.000000,0.000000,0.000000
1386790642,0,0,0.0,0,0,8,0,0,0,-0.0292,189.2239,6.8213,0.4212,54.893414,9.797565,108.3,5.845,1.85,335.95,0.000000,0.000000,0.000000,0.000000
1386790643,0,0,0.0,0,0,8,0,0,0,-0.0292,189.2239,6.8213,0.4212,54.893414,9.797565,108.3,5.845,1.85,335.95,0.000000,0.000000,0.000000,0.000000
1386790643,0,0,0.0,0,0,8,0,0,0,-0.0292,189.2239,6.8213,0.4212,54.893414,9.797565,108.3,5.845,1.85,335.95,0.000000,0.000000,0.000000,0.000000
1386790643,0,0,0.0,0,0,8,0,0,0,-0.0292,189.2239,6.8213,0.4212,54.893414,9.797565,108.3,5.845,1.85,335.95,0.000000,0.000000,0.000000,0.000000
1386790643,0,0,0.0,0,0,8,0,0,0,-0.0292,189.2239,6.8213,0.4212,54.893414,9.797565,108.3,5.845,1.85,335.95,0.000000,0.000000,0.000000,0.000000
1386790644,4,0,0.0,0,0,8,0,0,0,-0.0292,189.2239,6.8213,0.4212,54.893414,9.797565,108.3,5.845,1.85,335.95,0.000000,0.000000,0.000000,0.000000
1386790644,1,0,485.9,0,35,12,0,409,250,-0.0292,179.8905,6.8213,0.4212,54.893394,9.797565,108.3,5.845,1.85,335.95,54.893414,9.797565,54.895069,9.793790
1386790644,1,0,485.9,0,35,16,0,409,275,-0.0292,170.5572,6.8213,0.4212,54.893379,9.797569,108.3,5.845,1.85,335.95,54.893414,9.797565,54.895069,9.793790
1386790644,1,0,485.9,0,35,20,0,409,300,-0.0292,161.2239,6.8213,0.4212,54.893360,9.797579,108.3,5.845,1.85,335.95,54.893414,9.797565,54.895069,9.793790
1386790645,1,0,485.9,0,35,24,0,0,275,-0.0292,151.8905,6.8213,0.4212,54.893345,9.797593,108.3,5.845,1.85,335.95,54.893414,9.797565,54.895069,9.793790
1386790645,1,0,485.9,0,26,28,0,0,250,-0.0292,144.9572,6.8213,0.4212,54.893333,9.797611,108.3,5.845,1.85,335.95,54.893414,9.797565,54.895069,9.793790
1386790645,1,0,485.9,0,19,24,0,409,275,-0.0292,139.8905,6.8213,0.4212,54.893318,9.797631,108.3,5.845,1.85,335.95,54.893414,9.797565,54.895069,9.793790
1386790645,1,0,485.9,0,14,20,0,409,300,-0.0292,136.1572,6.8213,0.4212,54.893307,9.797653,108.3,5.845,1.85,335.95,54.893414,9.797565,54.895069,9.793790
1386790646,1,0,485.9,0,10,16,0,409,325,-0.0292,133.4905,6.8213,0.4212,54.893295,9.797675,108.3,5.845,1.85,335.95,54.893414,9.797565,54.895069,9.793790
1386790646,1,0,485.9,0,8,12,0,409,350,-0.0292,131.3572,6.8213,0.4212,54.893284,9.797699,108.3,5.845,1.85,335.95,54.893414,9.797565,54.895069,9.793790
1386790646,1,0,485.9,0,5,8,0,409,375,-0.0292,130.0239,6.8213,0.4212,54.893272,9.797723,108.3,5.845,1.85,335.95,54.893414,9.797565,54.895069,9.793790
1386790646,1,0,485.9,0,4,4,0,409,400,-0.0292,128.9572,6.8213,0.4212,54.893265,9.797748,108.3,5.845,1.85,335.95,54.893414,9.797565,54.895069,9.793790
1386790647,1,0,485.9,0,3,0,0,409,425,-0.0292,128.1572,6.8213,0.4212,54.893253,9.797772,108.3,5.845,1.85,335.95,54.893414,9.797565,54.895069,9.793790
1386790647,1,0,485.9,0,2,4,0,409,400,-0.0292,127.6239,6.8213,0.4212,54.893242,9.797797,108.3,5.845,1.85,335.95,54.893414,9.797565,54.895069,9.793790
1386790647,1,0,485.9,0,2,0,0,409,425,-0.0292,127.0905,6.8213,0.4212,54.893230,9.797822,108.3,5.845,1.85,335.95,54.893414,9.797565,54.895069,9.793790
1386790647,1,0,485.9,0,1,4,0,409,400,-0.0292,126.8239,6.8213,0.4212,54.893219,9.797847,108.3,5.845,1.85,335.95,54.893414,9.797565,54.895069,9.793790
1386790648,1,0,485.9,0,1,0,0,409,425,-0.0292,126.5572,6.8213,0.4212,54.893211,9.797872,108.3,5.845,1.85,335.95,54.893414,9.797565,54.895069,9.793790
1386790648,1,0,485.9,0,1,4,0,409,400,-0.0292,126.2905,6.8213,0.4212,54.893200,9.797896,108.3,5.845,1.85,335.95,54.893414,9.797565,54.895069,9.793790
1386790648,1,0,485.9,0,0,0,0,409,425,-0.0292,126.2905,6.8213,0.4212,54.893188,9.797922,108.3,5.845,1.85,335.95,54.893414,9.797565,54.895069,9.793790
1386790648,1,0,485.9,0,0,4,0,409,400,-0.0292,126.2905,6.8213,0.4212,54.893177,9.797947,108.3,5.845,1.85,335.95,54.893414,9.797565,54.895069,9.793790
1386790649,1,0,485.9,0,0,0,0,409,425,-0.0292,126.2905,6.8213,0.4212,54.893166,9.797972,108.3,5.845,1.85,335.95,54.893414,9.797565,54.895069,9.793790
1386790649,1,0,485.9,0,0,4,0,0,400,-0.0292,126.2905,6.8213,0.4212,54.893154,9.797997,108.3,5.845,1.85,335.95,54.893414,9.797565,54.895069,9.793790
1386790649,1,0,485.9,0,0,0,0,0,375,-0.0292,126.2905,6.8213,0.4212,54.893143,9.798021,108.3,5.845,1.85,335.95,54.893414,9.797565,54.895069,9.793790
1386790649,1,0,485.9,0,0,4,0,0,350,-0.0292,126.2905,6.8213,0.4212,54.893131,9.798047,108.3,5.845,1.85,335.95,54.893414,9.797565,54.895069,9.793790
1386790650,1,0,485.9,0,0,0,0,0,325,-0.0292,126.2905,6.8213,0.4212,54.893120,9.798072,108.3,5.845,1.85,335.95,54.893414,9.797565,54.895069,9.793790
1386790650,1,0,485.9,0,0,4,0,0,300,-0.0292,126.2905,6.8213,0.4212,54.893108,9.798098,108.3,5.845,1.85,335.95,54.893414,9.797565,54.895069,9.793790
1386790650,1,0,485.9,0,0,0,0,0,275,-0.0292,126.2905,6.8213,0.4212,54.893097,9.798122,108.3,5.845,1.85,335.95,54.893414,9.797565,54.895069,9.793790
1386790650,1,0,485.9,0,0,4,0,0,250,-0.0292,126.2905,6.8213,0.4212,54.893089,9.798147,108.3,5.845,1.85,335.95,54.893414,9.797565,54.895069,9.793790
1386790651,1,0,485.9,0,0,0,0,0,225,-0.0292,126.2905,6.8213,0.4212,54.893078,9.798173,108.3,5.845,1.85,335.95,54.893414,9.797565,54.895069,9.793790
1386790651,1,0,485.9,0,0,4,0,0,200,-0.0292,126.2905,6.8213,0.4212,54.893066,9.798198,108.3,5.845,1.85,335.95,54.893414,9.797565,54.895069,9.793790
1386790651,1,0,485.9,0,0,0,0,0,175,-0.0292,126.2905,6.8213,0.4212,54.893055,9.798223,108.3,5.845,1.85,335.95,54.893414,9.797565,54.895069,9.793790
1386790651,1,0,485.9,0,0,4,0,0,150,-0.0292,126.2905,6.8213,0.4212,54.893044,9.798248,108.3,5.845,1.85,335.95,54.893414,9.797565,54.895069,9.793790
1386790652,1,0,485.9,0,0,0,0,0,125,-0.0292,126.2905,6.8213,0.4212,54.893032,9.798273,108.3,5.845,1.85,335.95,54.893414,9.797565,54.895069,9.793790
1386790652,1,0,485.9,0,0,4,0,0,100,-0.0292,126.2905,6.8213,0.4212,54.893021,9.798298,108.3,5.845,1.85,335.95,54.893414,9.797565,54.895069,9.793790
1386790652,1,0,485.9,0,0,0,0,0,75,-0.0292,126.2905,6.8213,0.4212,54.893009,9.798323,108.3,5.845,1.85,335.95,54.893414,9.797565,54.895069,9.793790
1386790652,1,0,485.9,0,0,4,0,0,50,-0.0292,126.2905,6.8213,0.4212,54.892998,9.798348,108.3,5.845,1.85,335.95,54.893414,9.797565,54.895069,9.793790
1386790653,1,0,485.9,0,0,0,0,0,25,-0.0292,126.2905,6.8213,0.4212,54.892990,9.798373,108.3,5.845,1.85,335.95,54.893414,9.797565,54.895069,9.793790
1386790653,1,0,485.9,0,0,4,0,0,0,-0.0292,126.2905,6.8213,0.4212,54.892979,9.798399,108.3,5.845,1.85,335.95,54.893414,9.797565,54.895069,9.793790
1386790653,1,0,485.9,0,0,0,0,0,25,-0.0292,126.2905,6.8213,0.4212,54.892967,9.798424,108.3,5.845,1.85,335.95,54.893414,9.797565,54.895069,9.793790
1386790653,1,0,545.9,0,-35,-4,0,0,0,-0.0292,135.6239,6.8213,0.4212,54.892956,9.798446,108.3,5.845,1.85,335.95,54.893414,9.797565,54.895069,9.793790
1386790654,1,0,545.9,0,-35,-8,0,0,25,-0.0292,144.9572,6.8213,0.4212,54.892941,9.798464,108.3,5.845,1.85,335.95,54.893414,9.797565,54.895069,9.793790
1386790654,1,0,545.9,0,-35,-12,0,0,0,-0.0292,154.2905,6.8213,0.4212,54.892925,9.798477,108.3,5.845,1.85,335.95,54.893414,9.797565,54.895069,9.793790
1386790654,1,0,545.9,0,-32,-16,0,0,25,-0.0292,162.8239,6.8213,0.4212,54.892910,9.798487,108.3,5.845,1.85,335.95,54.893414,9.797565,54.895069,9.793790
1386790654,1,0,545.9,0,-23,-20,0,0,0,-0.0292,168.9572,6.8213,0.4212,54.892891,9.798492,108.3,5.845,1.85,335.95,54.893414,9.797565,54.895069,9.793790
1386790655,1,0,545.9,0,-17,-16,0,0,25,-0.0292,173.4905,6.8213,0.4212,54.892872,9.798496,108.3,5.845,1.85,335.95,54.893414,9.797565,54.895069,9.793790
1386790655,1,0,545.9,0,-12,-12,0,0,0,-0.0292,176.6905,6.8213,0.4212,54.892853,9.798498,108.3,5.845,1.85,335.95,54.893414,9.797565,54.895069,9.793790
1386790655,1,0,545.9,0,-9,-8,0,0,25,-0.0292,179.0905,6.8213,0.4212,54.892838,9.798499,108.3,5.845,1.85,335.95,54.893414,9.797565,54.895069,9.793790
1386790656,1,0,280.9,0,-35,-12,0,409,50,-0.0292,188.4239,6.8213,0.4212,54.892818,9.798495,108.3,5.845,1.85,335.95,54.893414,9.797565,54.895069,9.793790
1386790656,1,0,280.9,0,-35,-16,0,409,75,-0.0292,197.7572,6.8213,0.4212,54.892799,9.798486,108.3,5.845,1.85,335.95,54.893414,9.797565,54.895069,9.793790
1386790656,1,0,280.9,0,-35,-20,0,409,100,-0.0292,207.0905,6.8213,0.4212,54.892784,9.798471,108.3,5.845,1.85,335.95,54.893414,9.797565,54.895069,9.793790
1386790656,1,0,280.9,0,-35,-24,0,500,125,-0.0292,216.4238,6.8213,0.4212,54.892769,9.798452,108.3,5.845,1.85,335.95,54.893414,9.797565,54.895069,9.793790
1386790657,1,0,280.9,0,-35,-28,0,489,150,-0.0292,225.7572,6.8213,0.4212,54.892757,9.798430,108.3,5.845,1.85,335.95,54.893414,9.797565,54.895069,9.793790
1386790657,1,0,280.9,0,-35,-32,0,411,175,-0.0292,235.0905,6.8213,0.4212,54.892746,9.798405,108.3,5.845,1.85,335.95,54.893414,9.797565,54.895069,9.793790
1386790657,1,0,280.9,0,-35,-36,0,328,200,-0.0292,244.4238,6.8213,0.4212,54.892738,9.798377,108.3,5.845,1.85,335.95,54.893414,9.797565,54.895069,9.793790
1386790657,1,0,280.9,0,-35,-32,0,243,225,-0.0292,253.7572,6.8213,0.4212,54.892731,9.798347,108.3,5.845,1.85,335.95,54.893414,9.797565,54.895069,9.793790
1386790658,1,0,280.9,0,-27,-28,0,158,200,-0.0292,260.9572,6.8213,0.4212,54.892731,9.798316,108.3,5.845,1.85,335.95,54.893414,9.797565,54.895069,9.793790
1386790658,1,0,280.9,0,-20,-24,0,97,175,-0.0292,266.2905,6.8213,0.4212,54.892731,9.798285,108.3,5.845,1.85,335.95,54.893414,9.797565,54.895069,9.793790
1386790658,1,0,280.9,0,-15,-20,0,57,150,-0.0292,270.2905,6.8213,0.4212,54.892735,9.798254,108.3,5.845,1.85,335.95,54.893414,9.797565,54.895069,9.793790
1386790658,1,0,280.9,0,-11,-16,0,32,125,-0.0292,273.2238,6.8213,0.4212,54.892735,9.798223,108.3,5.845,1.85,335.95,54.893414,9.797565,54.895069,9.793790
1386790659,1,0,280.9,0,-8,-12,0,17,100,-0.0292,275.3571,6.8213,0.4212,54.892735,9.798191,108.3,5.845,1.85,335.95,54.893414,9.797565,54.895069,9.793790
1386790659,1,0,280.9,0,-6,-8,0,9,75,-0.0292,276.9572,6.8213,0.4212,54.892735,9.798161,108.3,5.845,1.85,335.95,54.893414,9.797565,54.895069,9.793790
1386790659,1,0,280.9,0,-4,-4,0,4,50,-0.0292,278.0238,6.8213,0.4212,54.892735,9.798130,108.3,5.845,1.85,335.95,54.893414,9.797565,54.895069,9.793790
1386790659,1,0,280.9,0,-3,0,0,2,25,-0.0292,278.8238,6.8213,0.4212,54.892735,9.798099,108.3,5.845,1.85,335.95,54.893414,9.797565,54.895069,9.793790
1386790660,1,0,280.9,0,-2,-4,0,1,0,-0.0292,279.3571,6.8213,0.4212,54.892735,9.798068,108.3,5.845,1.85,335.95,54.893414,9.797565,54.895069,9.793790
1386790660,1,0,280.9,0,-2,0,0,0,25,-0.0292,279.8905,6.8213,0.4212,54.892735,9.798038,108.3,5.845,1.85,335.95,54.893414,9.797565,54.895069,9.793790
1386790660,1,0,280.9,0,-1,-4,0,0,0,-0.0292,280.1571,6.8213,0.4212,54.892735,9.798006,108.3,5.845,1.85,335.95,54.893414,9.797565,54.895069,9.793790
1386790660,1,0,280.9,0,-1,0,0,0,25,-0.0292,280.4238,6.8213,0.4212,54.892735,9.797976,108.3,5.845,1.85,335.95,54.893414,9.797565,54.895069,9.793790
1386790661,1,0,280.9,0,-1,-4,0,0,0,-0.0292,280.6905,6.8213,0.4212,54.892735,9.797945,108.3,5.845,1.85,335.95,54.893414,9.797565,54.895069,9.793790
1386790661,1,0,280.9,0,0,0,0,0,25,-0.0292,280.6905,6.8213,0.4212,54.892735,9.797915,108.3,5.845,1.85,335.95,54.893414,9.797565,54.895069,9.793790
1386790661,1,0,280.9,0,0,4,0,0,0,-0.0292,280.6905,6.8213,0.4212,54.892735,9.797884,108.3,5.845,1.85,335.95,54.893414,9.797565,54.895069,9.793790
1386790661,1,0,545.9,0,35,8,0,0,25,-0.0292,271.3571,6.8213,0.4212,54.892735,9.797853,108.3,5.845,1.85,335.95,54.893414,9.797565,54.895069,9.793790
1386790662,1,0,545.9,0,35,12,0,26,50,-0.0292,262.0238,6.8213,0.4212,54.892731,9.797822,108.3,5.845,1.85,335.95,54.893414,9.797565,54.895069,9.793790
1386790662,1,0,545.9,0,35,16,0,88,75,-0.0292,252.6904,6.8213,0.4212,54.892727,9.797791,108.3,5.845,1.85,335.95,54.893414,9.797565,54.895069,9.793790
1386790662,1,0,545.9,0,35,20,0,168,100,-0.0292,243.3571,6.8213,0.4212,54.892719,9.797764,108.3,5.845,1.85,335.95,54.893414,9.797565,54.895069,9.793790
1386790662,1,0,545.9,0,35,24,0,253,125,-0.0292,234.0238,6.8213,0.4212,54.892708,9.797739,108.3,5.845,1.85,335.95,54.893414,9.797565,54.895069,9.793790
1386790663,1,0,545.9,0,35,28,0,338,150,-0.0292,224.6905,6.8213,0.4212,54.892693,9.797717,108.3,5.845,1.85,335.95,54.893414,9.797565,54.895069,9.793790
1386790663,1,0,545.9,0,35,32,0,420,175,-0.0292,215.3571,6.8213,0.4212,54.892677,9.797699,108.3,5.845,1.85,335.95,54.893414,9.797565,54.895069,9.793790
1386790663,1,0,545.9,0,29,28,0,498,200,-0.0292,207.6238,6.8213,0.4212,54.892662,9.797685,108.3,5.845,1.85,335.95,54.893414,9.797565,54.895069,9.793790
1386790663,1,0,545.9,0,22,24,0,500,225,-0.0292,201.7571,6.8213,0.4212,54.892643,9.797673,108.3,5.845,1.85,335.95,54.893414,9.797565,54.895069,9.793790
1386790664,1,0,545.9,0,16,20,0,500,250,-0.0292,197.4905,6.8213,0.4212,54.892624,9.797664,108.3,5.845,1.85,335.95,54.893414,9.797565,54.895069,9.793790
1386790664,1,0,545.9,0,12,16,0,409,275,-0.0292,194.2905,6.8213,0.4212,54.892609,9.797656,108.3,5.845,1.85,335.95,54.893414,9.797565,54.895069,9.793790
1386790664,1,0,545.9,0,8,12,0,409,300,-0.0292,192.1571,6.8213,0.4212,54.892593,9.797649,108.3,5.845,1.85,335.95,54.893414,9.797565,54.895069,9.793790
1386790664,1,0,545.9,0,6,8,0,0,275,-0.0292,190.5571,6.8213,0.4212,54.892574,9.797644,108.3,5.845,1.85,335.95,54.893414,9.797565,54.895069,9.793790
1386790665,1,0,545.9,0,5,4,0,0,250,-0.0292,189.2238,6.8213,0.4212,54.892555,9.797639,108.3,5.845,1.85,335.95,54.893414,9.797565,54.895069,9.793790
1386790665,1,0,545.9,0,3,0,0,0,225,-0.0292,188.4238,6.8213,0.4212,54.892540,9.797635,108.3,5.845,1.85,335.95,54.893414,9.797565,54.895069,9.793790
1386790665,1,0,545.9,0,2,4,0,0,200,-0.0292,187.8905,6.8213,0.4212,54.892521,9.797631,108.3,5.845,1.85,335.95,54.893414,9.797565,54.895069,9.793790
1386790665,1,0,545.9,0,2,0,0,0,175,-0.0292,187.3571,6.8213,0.4212,54.892502,9.797627,108.3,5.845,1.85,335.95,54.893414,9.797565,54.895069,9.793790
1386790666,1,0,545.9,0,1,4,0,0,150,-0.0292,187.0905,6.8213,0.4212,54.892483,9.797624,108.3,5.845,1.85,335.95,54.893414,9.797565,54.895069,9.793790
1386790666,1,0,545.9,0,1,0,0,0,125,-0.0292,186.8238,6.8213,0.4212,54.892467,9.797620,108.3,5.845,1.85,335.95,54.893414,9.797565,54.895069,9.793790
1386790666,1,0,545.9,0,1,4,0,0,100,-0.0292,186.5571,6.8213,0.4212,54.892448,9.797616,108.3,5.845,1.85,335.95,54.893414,9.797565,54.895069,9.793790
1386790666,1,0,545.9,0,1,0,0,0,75,-0.0292,186.2905,6.8213,0.4212,54.892429,9.797612,108.3,5.845,1.85,335.95,54.893414,9.797565,54.895069,9.793790
1386790667,1,0,545.9,0,0,4,0,0,50,-0.0292,186.2905,6.8213,0.4212,54.892414,9.797608,108.3,5.845,1.85,335.95,54.893414,9.797565,54.895069,9.793790
1386790667,1,0,545.9,0,0,0,0,0,25,-0.0292,186.2905,6.8213,0.4212,54.892395,9.797605,108.3,5.845,1.85,335.95,54.893414,9.797565,54.895069,9.793790
1386790667,1,0,545.9,0,0,4,0,0,0,-0.0292,186.2905,6.8213,0.4212,54.892376,9.797601,108.3,5.845,1.85,335.95,54.893414,9.797565,54.895069,9.793790
1386790667,1,0,545.9,0,0,0,0,0,25,-0.0292,186.2905,6.8213,0.4212,54.892357,9.797598,108.3,5.845,1.85,335.95,54.893414,9.797565,54.895069,9.793790
1386790668,1,0,485.9,0,35,4,0,0,0,-0.0292,176.9571,6.8213,0.4212,54.892342,9.797600,108.3,5.845,1.85,335.95,54.893414,9.797565,54.895069,9.793790
1386790668,1,0,485.9,0,35,8,0,0,25,-0.0292,167.6238,6.8213,0.4212,54.892323,9.797606,108.3,5.845,1.85,335.95,54.893414,9.797565,54.895069,9.793790
1386790668,1,0,485.9,0,35,12,0,0,0,-0.0292,158.2905,6.8213,0.4212,54.892303,9.797618,108.3,5.845,1.85,335.95,54.893414,9.797565,54.895069,9.793790
1386790668,1,0,485.9,0,32,16,0,0,25,-0.0292,149.7571,6.8213,0.4212,54.892288,9.797633,108.3,5.845,1.85,335.95,54.893414,9.797565,54.895069,9.793790
1386790669,1,0,485.9,0,24,20,0,0,0,-0.0292,143.3571,6.8213,0.4212,54.892277,9.797652,108.3,5.845,1.85,335.95,54.893414,9.797565,54.895069,9.793790
1386790669,1,0,485.9,0,17,16,0,0,25,-0.0292,138.8238,6.8213,0.4212,54.892262,9.797672,108.3,5.845,1.85,335.95,54.893414,9.797565,54.895069,9.793790
1386790669,1,0,485.9,0,13,12,0,0,0,-0.0292,135.3571,6.8213,0.4212,54.892250,9.797694,108.3,5.845,1.85,335.95,54.893414,9.797565,54.895069,9.793790
1386790669,1,0,485.9,0,9,8,0,0,25,-0.0292,132.9572,6.8213,0.4212,54.892239,9.797717,108.3,5.845,1.85,335.95,54.893414,9.797565,54.895069,9.793790
1386790670,1,0,390.9,0,35,12,0,409,50,-0.0292,123.6238,6.8213,0.4212,54.892231,9.797743,108.3,5.845,1.85,335.95,54.893414,9.797565,54.895069,9.793790
1386790670,1,0,390.9,0,35,16,0,409,75,-0.0292,114.2905,6.8213,0.4212,54.892223,9.797771,108.3,5.845,1.85,335.95,54.893414,9.797565,54.895069,9.793790
1386790670,1,0,390.9,0,35,20,0,409,100,-0.0292,104.9571,6.8213,0.4212,54.892220,9.797802,108.3,5.845,1.85,335.95,54.893414,9.797565,54.895069,9.793790
1386790670,1,0,390.9,0,35,24,0,500,125,-0.0292,95.6238,6.8213,0.4212,54.892216,9.797833,108.3,5.845,1.85,335.95,54.893414,9.797565,54.895069,9.793790
1386790671,1,0,390.9,0,35,28,0,491,150,-0.0292,86.2905,6.8213,0.4212,54.892220,9.797865,108.3,5.845,1.85,335.95,54.893414,9.797565,54.895069,9.793790
1386790671,1,0,390.9,0,35,32,0,412,175,-0.0292,76.9571,6.8213,0.4212,54.892223,9.797894,108.3,5.845,1.85,335.95,54.893414,9.797565,54.895069,9.793790
1386790671,1,0,390.9,0,35,36,0,330,200,-0.0292,67.6238,6.8213,0.4212,54.892231,9.797924,108.3,5.845,1.85,335.95,54.893414,9.797565,54.895069,9.793790
1386790671,1,0,390.9,0,35,32,0,244,225,-0.0292,58.2905,6.8213,0.4212,54.892242,9.797951,108.3,5.845,1.85,335.95,54.893414,9.797565,54.895069,9.793790
1386790672,1,0,390.9,0,27,28,0,160,200,-0.0292,51.0905,6.8213,0.4212,54.892250,9.797975,108.3,5.845,1.85,335.95,54.893414,9.797565,54.895069,9.793790
1386790672,1,0,390.9,0,20,24,0,98,175,-0.0292,45.7571,6.8213,0.4212,54.892262,9.797997,108.3,5.845,1.85,335.95,54.893414,9.797565,54.895069,9.793790
1386790672,1,0,390.9,0,15,20,0,58,150,-0.0292,41.7571,6.8213,0.4212,54.892277,9.798018,108.3,5.845,1.85,335.95,54.893414,9.797565,54.895069,9.793790
1386790672,1,0,390.9,0,11,16,0,32,125,-0.0292,38.8238,6.8213,0.4212,54.892292,9.798038,108.3,5.845,1.85,335.95,54.893414,9.797565,54.895069,9.793790
1386790673,1,0,390.9,0,8,12,0,18,100,-0.0292,36.6905,6.8213,0.4212,54.892303,9.798056,108.3,5.845,1.85,335.95,54.893414,9.797565,54.895069,9.793790
1386790673,1,0,390.9,0,6,8,0,9,75,-0.0292,35.0905,6.8213,0.4212,54.892319,9.798074,108.3,5.845,1.85,335.95,54.893414,9.797565,54.895069,9.793790
1386790673,1,0,390.9,0,4,4,0,5,50,-0.0292,34.0238,6.8213,0.4212,54.892334,9.798092,108.3,5.845,1.85,335.95,54.893414,9.797565,54.895069,9.793790
1386790673,1,0,390.9,0,3,0,0,2,25,-0.0292,33.2238,6.8213,0.4212,54.892349,9.798109,108.3,5.845,1.85,335.95,54.893414,9.797565,54.895069,9.793790
1386790674,1,0,390.9,0,2,4,0,1,0,-0.0292,32.6905,6.8213,0.4212,54.892365,9.798126,108.3,5.845,1.85,335.95,54.893414,9.797565,54.895069,9.793790
1386790674,1,0,390.9,0,2,0,0,0,25,-0.0292,32.1571,6.8213,0.4212,54.892376,9.798142,108.3,5.845,1.85,335.95,54.893414,9.797565,54.895069,9.793790
1386790674,1,0,390.9,0,1,4,0,0,0,-0.0292,31.8905,6.8213,0.4212,54.892391,9.798159,108.3,5.845,1.85,335.95,54.893414,9.797565,54.895069,9.793790
1386790674,1,0,390.9,0,1,0,0,0,25,-0.0292,31.6238,6.8213,0.4212,54.892406,9.798176,108.3,5.845,1.85,335.95,54.893414,9.797565,54.895069,9.793790
1386790675,1,0,390.9,0,1,4,0,0,0,-0.0292,31.3571,6.8213,0.4212,54.892422,9.798192,108.3,5.845,1.85,335.95,54.893414,9.797565,54.895069,9.793790
1386790675,1,0,390.9,0,0,0,0,0,25,-0.0292,31.3571,6.8213,0.4212,54.892437,9.798208,108.3,5.845,1.85,335.95,54.893414,9.797565,54.895069,9.793790
1386790675,1,0,390.9,0,0,4,0,0,0,-0.0292,31.3571,6.8213,0.4212,54.892456,9.798224,108.3,5.845,1.85,335.95,54.893414,9.797565,54.895069,9.793790
1386790675,1,0,390.9,0,0,0,0,0,25,-0.0292,31.3571,6.8213,0.4212,54.892471,9.798241,108.3,5.845,1.85,335.95,54.893414,9.797565,54.895069,9.793790
1386790676,1,0,390.9,0,0,4,0,0,0,-0.0292,31.3571,6.8213,0.4212,54.892487,9.798257,108.3,5.845,1.85,335.95,54.893414,9.797565,54.895069,9.793790
1386790676,1,0,390.9,0,0,0,0,0,25,-0.0292,31.3571,6.8213,0.4212,54.892498,9.798273,108.3,5.845,1.85,335.95,54.893414,9.797565,54.895069,9.793790
1386790676,1,0,390.9,0,0,4,0,0,0,-0.0292,31.3571,6.8213,0.4212,54.892513,9.798289,108.3,5.845,1.85,335.95,54.893414,9.797565,54.895069,9.793790
1386790676,1,0,390.9,0,0,0,0,0,25,-0.0292,31.3571,6.8213,0.4212,54.892529,9.798306,108.3,5.845,1.85,335.95,54.893414,9.797565,54.895069,9.793790
1386790677,1,0,390.9,0,0,4,0,0,0,-0.0292,31.3571,6.8213,0.4212,54.892544,9.798323,108.3,5.845,1.85,335.95,54.893414,9.797565,54.895069,9.793790
1386790677,1,0,390.9,0,0,0,0,0,25,-0.0292,31.3571,6.8213,0.4212,54.892559,9.798339,108.3,5.845,1.85,335.95,54.893414,9.797565,54.895069,9.793790
1386790677,1,0,390.9,0,0,4,0,0,0,-0.0292,31.3571,6.8213,0.4212,54.892578,9.798355,108.3,5.845,1.85,335.95,54.893414,9.797565,54.895069,9.793790
1386790677,1,0,390.9,0,0,0,0,0,25,-0.0292,31.3571,6.8213,0.4212,54.892593,9.798371,108.3,5.845,1.85,335.95,54.893414,9.797565,54.895069,9.793790
1386790678,1,0,390.9,0,0,4,0,0,0,-0.0292,31.3571,6.8213,0.4212,54.892609,9.798388,108.3,5.845,1.85,335.95,54.893414,9.797565,54.895069,9.793790
1386790678,1,0,390.9,0,0,0,0,0,25,-0.0292,31.3571,6.8213,0.4212,54.892628,9.798404,108.3,5.845,1.85,335.95,54.893414,9.797565,54.895069,9.793790
1386790678,1,0,390.9,0,0,4,0,0,0,-0.0292,31.3571,6.8213,0.4212,54.892643,9.798420,108.3,5.845,1.85,335.95,54.893414,9.797565,54.895069,9.793790
1386790678,1,0,390.9,0,0,0,0,0,25,-0.0292,31.3571,6.8213,0.4212,54.892658,9.798436,108.3,5.845,1.85,335.95,54.893414,9.797565,54.895069,9.793790
1386790679,1,0,390.9,0,0,4,0,0,0,-0.0292,31.3571,6.8213,0.4212,54.892677,9.798452,108.3,5.845,1.85,335.95,54.893414,9.797565,54.895069,9.793790
1386790679,1,0,390.9,0,0,0,0,0,25,-0.0292,31.3571,6.8213,0.4212,54.892693,9.798469,108.3,5.845,1.85,335.95,54.893414,9.797565,54.895069,9.793790
1386790679,1,0,390.9,0,0,4,0,0,0,-0.0292,31.3571,6.8213,0.4212,54.892708,9.798485,108.3,5.845,1.85,335.95,54.893414,9.797565,54.895069,9.793790
1386790679,1,0,390.9,0,0,0,0,0,25,-0.0292,31.3571,6.8213,0.4212,54.892719,9.798501,108.3,5.845,1.85,335.95,54.893414,9.797565,54.895069,9.793790
1386790680,1,0,390.9,0,0,4,0,0,0,-0.0292,31.3571,6.8213,0.4212,54.892735,9.798517,108.3,5.845,1.85,335.95,54.893414,9.797565,54.895069,9.793790
1386790680,1,0,390.9,0,0,0,0,0,25,-0.0292,31.3571,6.8213,0.4212,54.892750,9.798533,108.3,5.845,1.85,335.95,54.893414,9.797565,54.895069,9.793790
1386790680,1,0,390.9,0,0,4,0,0,0,-0.0292,31.3571,6.8213,0.4212,54.892765,9.798550,108.3,5.845,1.85,335.95,54.893414,9.797565,54.895069,9.793790
1386790680,1,0,390.9,0,0,0,0,0,25,-0.0292,31.3571,6.8213,0.4212,54.892780,9.798566,108.3,5.845,1.85,335.95,54.893414,9.797565,54.895069,9.793790
1386790681,1,0,390.9,0,0,4,0,0,0,-0.0292,31.3571,6.8213,0.4212,54.892799,9.798582,108.3,5.845,1.85,335.95,54.893414,9.797565,54.895069,9.793790
1386790681,1,0,390.9,0,0,0,0,0,25,-0.0292,31.3571,6.8213,0.4212,54.892815,9.798598,108.3,5.845,1.85,335.95,54.893414,9.797565,54.895069,9.793790
1386790681,1,0,390.9,0,0,4,0,0,0,-0.0292,31.3571,6.8213,0.4212,54.892830,9.798615,108.3,5.845,1.85,335.95,54.893414,9.797565,54.895069,9.793790
1386790681,1,0,390.9,0,0,0,0,0,25,-0.0292,31.3571,6.8213,0.4212,54.892849,9.798631,108.3,5.845,1.85,335.95,54.893414,9.797565,54.895069,9.793790
1386790682,1,0,390.9,0,0,4,0,0,0,-0.0292,31.3571,6.8213,0.4212,54.892864,9.798647,108.3,5.845,1.85,335.95,54.893414,9.797565,54.895069,9.793790
1386790682,1,0,390.9,0,0,0,0,0,25,-0.0292,31.3571,6.8213,0.4212,54.892879,9.798663,108.3,5.845,1.85,335.95,54.893414,9.797565,54.895069,9.793790
1386790682,1,0,390.9,0,0,4,0,0,0,-0.0292,31.3571,6.8213,0.4212,54.892899,9.798679,108.3,5.845,1.85,335.95,54.893414,9.797565,54.895069,9.793790
1386790682,1,0,390.9,0,0,0,0,0,25,-0.0292,31.3571,6.8213,0.4212,54.892914,9.798696,108.3,5.845,1.85,335.95,54.893414,9.797565,54.895069,9.793790
1386790683,1,0,390.9,0,0,4,0,0,0,-0.0292,31.3571,6.8213,0.4212,54.892929,9.798712,108.3,5.845,1.85,335.95,54.893414,9.797565,54.895069,9.793790
1386790683,1,0,390.9,0,0,0,0,0,25,-0.0292,31.3571,6.8213,0.4212,54.892948,9.798728,108.3,5.845,1.85,335.95,54.893414,9.797565,54.895069,9.793790
1386790683,1,0,390.9,0,0,4,0,0,0,-0.0292,31.3571,6.8213,0.4212,54.892963,9.798744,108.3,5.845,1.85,335.95,54.893414,9.797565,54.895069,9.793790
1386790684,1,0,390.9,0,0,0,0,0,25,-0.0292,31.3571,6.8213,0.4212,54.892979,9.798760,108.3,5.845,1.85,335.95,54.893414,9.797565,54.895069,9.793790
1386790684,1,0,390.9,0,0,4,0,0,0,-0.0292,31.3571,6.8213,0.4212,54.892990,9.798778,108.3,5.845,1.85,335.95,54.893414,9.797565,54.895069,9.793790
1386790684,1,0,390.9,0,0,0,0,0,25,-0.0292,31.3571,6.8213,0.4212,54.893005,9.798794,108.3,5.845,1.85,335.95,54.893414,9.797565,54.895069,9.793790
1386790684,1,0,390.9,0,0,4,0,0,0,-0.0292,31.3571,6.8213,0.4212,54.893021,9.798810,108.3,5.845,1.85,335.95,54.893414,9.797565,54.895069,9.793790
1386790685,1,0,390.9,0,0,0,0,0,25,-0.0292,31.3571,6.8213,0.4212,54.893036,9.798826,108.3,5.845,1.85,335.95,54.893414,9.797565,54.895069,9.793790
1386790685,1,0,390.9,0,0,4,0,0,0,-0.0292,31.3571,6.8213,0.4212,54.893051,9.798842,108.3,5.845,1.85,335.95,54.893414,9.797565,54.895069,9.793790
1386790685,1,0,390.9,0,0,0,0,0,25,-0.0292,31.3571,6.8213,0.4212,54.893070,9.798859,108.3,5.845,1.85,335.95,54.893414,9.797565,54.895069,9.793790
1386790685,1,0,390.9,0,0,4,0,0,0,-0.0292,31.3571,6.8213,0.4212,54.893085,9.798875,108.3,5.845,1.85,335.95,54.893414,9.797565,54.895069,9.793790
1386790686,1,0,390.9,0,0,0,0,0,25,-0.0292,31.3571,6.8213,0.4212,54.893101,9.798891,108.3,5.845,1.85,335.95,54.893414,9.797565,54.895069,9.793790
1386790686,1,0,390.9,0,0,4,0,0,0,-0.0292,31.3571,6.8213,0.4212,54.893120,9.798907,108.3,5.845,1.85,335.95,54.893414,9.797565,54.895069,9.793790
1386790686,1,0,390.9,0,0,0,0,0,25,-0.0292,31.3571,6.8213,0.4212,54.893135,9.798923,108.3,5.845,1.85,335.95,54.893414,9.797565,54.895069,9.793790
1386790686,1,0,390.9,0,0,4,0,0,0,-0.0292,31.3571,6.8213,0.4212,54.893150,9.798940,108.3,5.845,1.85,335.95,54.893414,9.797565,54.895069,9.793790
1386790687,1,0,390.9,0,0,0,0,0,25,-0.0292,31.3571,6.8213,0.4212,54.893169,9.798956,108.3,5.845,1.85,335.95,54.893414,9.797565,54.895069,9.793790
1386790687,1,0,390.9,0,0,4,0,0,0,-0.0292,31.3571,6.8213,0.4212,54.893185,9.798972,108.3,5.845,1.85,335.95,54.893414,9.797565,54.895069,9.793790
1386790687,1,0,390.9,0,0,0,0,0,25,-0.0292,31.3571,6.8213,0.4212,54.893200,9.798988,108.3,5.845,1.85,335.95,54.893414,9.797565,54.895069,9.793790
1386790687,1,0,390.9,0,0,4,0,0,0,-0.0292,31.3571,6.8213,0.4212,54.893211,9.799005,108.3,5.845,1.85,335.95,54.893414,9.797565,54.895069,9.793790
1386790688,1,0,390.9,0,0,0,0,0,25,-0.0292,31.3571,6.8213,0.4212,54.893227,9.799021,108.3,5.845,1.85,335.95,54.893414,9.797565,54.895069,9.793790
1386790688,1,0,390.9,0,0,4,0,0,0,-0.0292,31.3571,6.8213,0.4212,54.893242,9.799037,108.3,5.845,1.85,335.95,54.893414,9.797565,54.895069,9.793790
1386790688,1,0,390.9,0,0,0,0,0,25,-0.0292,31.3571,6.8213,0.4212,54.893257,9.799053,108.3,5.845,1.85,335.95,54.893414,9.797565,54.895069,9.793790
1386790688,1,0,390.9,0,0,4,0,0,0,-0.0292,31.3571,6.8213,0.4212,54.893272,9.799069,108.3,5.845,1.85,335.95,54.893414,9.797565,54.895069,9.793790
1386790689,1,0,390.9,0,0,0,0,0,25,-0.0292,31.3571,6.8213,0.4212,54.893291,9.799086,108.3,5.845,1.85,335.95,54.893414,9.797565,54.895069,9.793790
1386790689,1,0,390.9,0,0,4,0,0,0,-0.0292,31.3571,6.8213,0.4212,54.893307,9.799102,108.3,5.845,1.85,335.95,54.893414,9.797565,54.895069,9.793790
1386790689,1,0,390.9,0,0,0,0,0,25,-0.0292,31.3571,6.8213,0.4212,54.893322,9.799118,108.3,5.845,1.85,335.95,54.893414,9.797565,54.895069,9.793790
1386790689,1,0,390.9,0,0,4,0,0,0,-0.0292,31.3571,6.8213,0.4212,54.893341,9.799134,108.3,5.845,1.85,335.95,54.893414,9.797565,54.895069,9.793790
1386790690,1,0,390.9,0,0,0,0,0,25,-0.0292,31.3571,6.8213,0.4212,54.893356,9.799150,108.3,5.845,1.85,335.95,54.893414,9.797565,54.895069,9.793790
1386790690,1,0,485.9,0,-35,-4,0,0,0,-0.0292,40.6905,6.8213,0.4212,54.893368,9.799170,108.3,5.845,1.85,335.95,54.893414,9.797565,54.895069,9.793790
1386790690,1,0,485.9,0,-35,-8,0,27,25,-0.0292,50.0238,6.8213,0.4212,54.893379,9.799194,108.3,5.845,1.85,335.95,54.893414,9.797565,54.895069,9.793790
1386790690,1,0,485.9,0,-35,-12,0,90,50,-0.0292,59.3571,6.8213,0.4212,54.893387,9.799221,108.3,5.845,1.85,335.95,54.893414,9.797565,54.895069,9.793790
1386790691,1,0,485.9,0,-35,-16,0,169,75,-0.0292,68.6905,6.8213,0.4212,54.893394,9.799251,108.3,5.845,1.85,335.95,54.893414,9.797565,54.895069,9.793790
1386790691,1,0,485.9,0,-35,-20,0,254,100,-0.0292,78.0238,6.8213,0.4212,54.893398,9.799281,108.3,5.845,1.85,335.95,54.893414,9.797565,54.895069,9.793790
1386790691,1,0,485.9,0,-35,-24,0,339,125,-0.0292,87.3571,6.8213,0.4212,54.893398,9.799312,108.3,5.845,1.85,335.95,54.893414,9.797565,54.895069,9.793790
1386790691,1,0,485.9,0,-35,-28,0,422,150,-0.0292,96.6905,6.8213,0.4212,54.893394,9.799343,108.3,5.845,1.85,335.95,54.893414,9.797565,54.895069,9.793790
1386790692,1,0,485.9,0,-29,-32,0,499,175,-0.0292,104.4238,6.8213,0.4212,54.893391,9.799374,108.3,5.845,1.85,335.95,54.893414,9.797565,54.895069,9.793790
1386790692,1,0,485.9,0,-22,-28,0,500,200,-0.0292,110.2905,6.8213,0.4212,54.893387,9.799402,108.3,5.845,1.85,335.95,54.893414,9.797565,54.895069,9.793790
1386790692,1,0,485.9,0,-16,-24,0,500,225,-0.0292,114.5571,6.8213,0.4212,54.893379,9.799431,108.3,5.845,1.85,335.95,54.893414,9.797565,54.895069,9.793790
1386790692,1,0,485.9,0,-11,-20,0,409,250,-0.0292,117.4905,6.8213,0.4212,54.893372,9.799459,108.3,5.845,1.85,335.95,54.893414,9.797565,54.895069,9.793790
1386790693,1,0,485.9,0,-8,-16,0,409,275,-0.0292,119.6238,6.8213,0.4212,54.893364,9.799485,108.3,5.845,1.85,335.95,54.893414,9.797565,54.895069,9.793790
1386790693,1,0,485.9,0,-6,-12,0,0,250,-0.0292,121.2238,6.8213,0.4212,54.893356,9.799512,108.3,5.845,1.85,335.95,54.893414,9.797565,54.895069,9.793790
1386790693,1,0,485.9,0,-5,-8,0,0,225,-0.0292,122.5571,6.8213,0.4212,54.893345,9.799539,108.3,5.845,1.85,335.95,54.893414,9.797565,54.895069,9.793790
1386790693,1,0,485.9,0,-3,-4,0,0,200,-0.0292,123.3571,6.8213,0.4212,54.893337,9.799564,108.3,5.845,1.85,335.95,54.893414,9.797565,54.895069,9.793790
1386790694,1,0,485.9,0,-3,0,0,0,175,-0.0292,124.1572,6.8213,0.4212,54.893326,9.799590,108.3,5.845,1.85,335.95,54.893414,9.797565,54.895069,9.793790
1386790694,1,0,485.9,0,-2,-4,0,0,150,-0.0292,124.6905,6.8213,0.4212,54.893314,9.799616,108.3,5.845,1.85,335.95,54.893414,9.797565,54.895069,9.793790
1386790694,1,0,485.9,0,-1,0,0,0,125,-0.0292,124.9572,6.8213,0.4212,54.893303,9.799642,108.3,5.845,1.85,335.95,54.893414,9.797565,54.895069,9.793790
1386790694,1,0,485.9,0,-1,-4,0,0,100,-0.0292,125.2238,6.8213,0.4212,54.893291,9.799667,108.3,5.845,1.85,335.95,54.893414,9.797565,54.895069,9.793790
1386790695,1,0,485.9,0,-1,0,0,0,75,-0.0292,125.4905,6.8213,0.4212,54.893284,9.799692,108.3,5.845,1.85,335.95,54.893414,9.797565,54.895069,9.793790
1386790695,1,0,485.9,0,0,4,0,0,50,-0.0292,125.4905,6.8213,0.4212,54.893272,9.799718,108.3,5.845,1.85,335.95,54.893414,9.797565,54.895069,9.793790
1386790695,1,0,485.9,0,0,0,0,0,25,-0.0292,125.4905,6.8213,0.4212,54.893265,9.799743,108.3,5.845,1.85,335.95,54.893414,9.797565,54.895069,9.793790
1386790695,1,0,485.9,0,0,4,0,0,0,-0.0292,125.4905,6.8213,0.4212,54.893253,9.799768,108.3,5.845,1.85,335.95,54.893414,9.797565,54.895069,9.793790
1386790696,1,0,485.9,0,0,0,0,0,25,-0.0292,125.4905,6.8213,0.4212,54.893242,9.799794,108.3,5.845,1.85,335.95,54.893414,9.797565,54.895069,9.793790
1386790696,1,0,545.9,0,-35,-4,0,0,0,-0.0292,134.8238,6.8213,0.4212,54.893230,9.799816,108.3,5.845,1.85,335.95,54.893414,9.797565,54.895069,9.793790
1386790696,1,0,545.9,0,-35,-8,0,0,25,-0.0292,144.1572,6.8213,0.4212,54.893215,9.799834,108.3,5.845,1.85,335.95,54.893414,9.797565,54.895069,9.793790
1386790696,1,0,545.9,0,-35,-12,0,0,0,-0.0292,153.4905,6.8213,0.4212,54.893200,9.799848,108.3,5.845,1.85,335.95,54.893414,9.797565,54.895069,9.793790
1386790697,1,0,545.9,0,-32,-16,0,0,25,-0.0292,162.0238,6.8213,0.4212,54.893181,9.799857,108.3,5.845,1.85,335.95,54.893414,9.797565,54.895069,9.793790
1386790697,1,0,545.9,0,-24,-20,0,0,0,-0.0292,168.4238,6.8213,0.4212,54.893162,9.799864,108.3,5.845,1.85,335.95,54.893414,9.797565,54.895069,9.793790
1386790697,1,0,545.9,0,-18,-16,0,0,25,-0.0292,173.2238,6.8213,0.4212,54.893143,9.799868,108.3,5.845,1.85,335.95,54.893414,9.797565,54.895069,9.793790
1386790697,1,0,545.9,0,-13,-12,0,0,0,-0.0292,176.6905,6.8213,0.4212,54.893124,9.799870,108.3,5.845,1.85,335.95,54.893414,9.797565,54.895069,9.793790
1386790698,1,0,545.9,0,-9,-8,0,0,25,-0.0292,179.0905,6.8213,0.4212,54.893108,9.799870,108.3,5.845,1.85,335.95,54.893414,9.797565,54.895069,9.793790
1386790698,1,0,280.9,0,-35,-12,0,409,50,-0.0292,188.4238,6.8213,0.4212,54.893089,9.799867,108.3,5.845,1.85,335.95,54.893414,9.797565,54.895069,9.793790
1386790698,1,0,280.9,0,-35,-16,0,409,75,-0.0292,197.7571,6.8213,0.4212,54.893074,9.799857,108.3,5.845,1.85,335.95,54.893414,9.797565,54.895069,9.793790
1386790698,1,0,280.9,0,-35,-20,0,409,100,-0.0292,207.0905,6.8213,0.4212,54.893059,9.799843,108.3,5.845,1.85,335.95,54.893414,9.797565,54.895069,9.793790
1386790699,1,0,280.9,0,-35,-24,0,500,125,-0.0292,216.4238,6.8213,0.4212,54.893044,9.799824,108.3,5.845,1.85,335.95,54.893414,9.797565,54.895069,9.793790
1386790699,1,0,280.9,0,-35,-28,0,489,150,-0.0292,225.7571,6.8213,0.4212,54.893032,9.799802,108.3,5.845,1.85,335.95,54.893414,9.797565,54.895069,9.793790
1386790699,1,0,280.9,0,-35,-32,0,411,175,-0.0292,235.0904,6.8213,0.4212,54.893021,9.799776,108.3,5.845,1.85,335.95,54.893414,9.797565,54.895069,9.793790
1386790699,1,0,280.9,0,-35,-36,0,328,200,-0.0292,244.4238,6.8213,0.4212,54.893013,9.799748,108.3,5.845,1.85,335.95,54.893414,9.797565,54.895069,9.793790
1386790700,1,0,280.9,0,-35,-32,0,243,225,-0.0292,253.7571,6.8213,0.4212,54.893009,9.799718,108.3,5.845,1.85,335.95,54.893414,9.797565,54.895069,9.793790
1386790700,1,0,280.9,0,-27,-28,0,158,200,-0.0292,260.9571,6.8213,0.4212,54.893005,9.799686,108.3,5.845,1.85,335.95,54.893414,9.797565,54.895069,9.793790
1386790700,1,0,280.9,0,-20,-24,0,97,175,-0.0292,266.2904,6.8213,0.4212,54.893002,9.799655,108.3,5.845,1.85,335.95,54.893414,9.797565,54.895069,9.793790
1386790700,1,0,280.9,0,-15,-20,0,57,150,-0.0292,270.2904,6.8213,0.4212,54.893005,9.799624,108.3,5.845,1.85,335.95,54.893414,9.797565,54.895069,9.793790
1386790701,1,0,280.9,0,-11,-16,0,32,125,-0.0292,273.2238,6.8213,0.4212,54.893005,9.799593,108.3,5.845,1.85,335.95,54.893414,9.797565,54.895069,9.793790
1386790701,1,0,280.9,0,-8,-12,0,17,100,-0.0292,275.3571,6.8213,0.4212,54.893005,9.799562,108.3,5.845,1.85,335.95,54.893414,9.797565,54.895069,9.793790
1386790701,1,0,280.9,0,-6,-8,0,9,75,-0.0292,276.9571,6.8213,0.4212,54.893005,9.799531,108.3,5.845,1.85,335.95,54.893414,9.797565,54.895069,9.793790
1386790701,1,0,280.9,0,-4,-4,0,4,50,-0.0292,278.0238,6.8213,0.4212,54.893005,9.799500,108.3,5.845,1.85,335.95,54.893414,9.797565,54.895069,9.793790
1386790702,1,0,280.9,0,-3,0,0,2,25,-0.0292,278.8238,6.8213,0.4212,54.893005,9.799469,108.3,5.845,1.85,335.95,54.893414,9.797565,54.895069,9.793790
1386790702,1,0,280.9,0,-2,-4,0,1,0,-0.0292,279.3571,6.8213,0.4212,54.893005,9.799438,108.3,5.845,1.85,335.95,54.893414,9.797565,54.895069,9.793790
1386790702,1,0,280.9,0,-2,0,0,0,25,-0.0292,279.8904,6.8213,0.4212,54.893005,9.799408,108.3,5.845,1.85,335.95,54.893414,9.797565,54.895069,9.793790
1386790702,1,0,280.9,0,-1,-4,0,0,0,-0.0292,280.1571,6.8213,0.4212,54.893005,9.799376,108.3,5.845,1.85,335.95,54.893414,9.797565,54.895069,9.793790
1386790703,1,0,280.9,0,-1,0,0,0,25,-0.0292,280.4237,6.8213,0.4212,54.893005,9.799346,108.3,5.845,1.85,335.95,54.893414,9.797565,54.895069,9.793790
1386790703,1,0,280.9,0,-1,-4,0,0,0,-0.0292,280.6904,6.8213,0.4212,54.893005,9.799315,108.3,5.845,1.85,335.95,54.893414,9.797565,54.895069,9.793790
1386790703,1,0,280.9,0,0,0,0,0,25,-0.0292,280.6904,6.8213,0.4212,54.893005,9.799285,108.3,5.845,1.85,335.95,54.893414,9.797565,54.895069,9.793790
1386790703,1,0,280.9,0,0,4,0,0,0,-0.0292,280.6904,6.8213,0.4212,54.893005,9.799254,108.3,5.845,1.85,335.95,54.893414,9.797565,54.895069,9.793790
1386790704,1,0,280.9,0,0,0,0,0,25,-0.0292,280.6904,6.8213,0.4212,54.893005,9.799224,108.3,5.845,1.85,335.95,54.893414,9.797565,54.895069,9.793790
1386790704,1,0,280.9,0,0,4,0,0,0,-0.0292,280.6904,6.8213,0.4212,54.893005,9.799193,108.3,5.845,1.85,335.95,54.893414,9.797565,54.895069,9.793790
1386790704,1,0,280.9,0,0,0,0,0,25,-0.0292,280.6904,6.8213,0.4212,54.893005,9.799162,108.3,5.845,1.85,335.95,54.893414,9.797565,54.895069,9.793790
1386790704,1,0,280.9,0,0,4,0,0,0,-0.0292,280.6904,6.8213,0.4212,54.893005,9.799131,108.3,5.845,1.85,335.95,54.893414,9.797565,54.895069,9.793790
1386790705,1,0,280.9,0,0,0,0,0,25,-0.0292,280.6904,6.8213,0.4212,54.893005,9.799101,108.3,5.845,1.85,335.95,54.893414,9.797565,54.895069,9.793790
1386790705,1,0,280.9,0,0,4,0,0,0,-0.0292,280.6904,6.8213,0.4212,54.893005,9.799070,108.3,5.845,1.85,335.95,54.893414,9.797565,54.895069,9.793790
1386790705,1,0,280.9,0,0,0,0,0,25,-0.0292,280.6904,6.8213,0.4212,54.893005,9.799040,108.3,5.845,1.85,335.95,54.893414,9.797565,54.895069,9.793790
1386790705,1,0,280.9,0,0,4,0,0,0,-0.0292,280.6904,6.8213,0.4212,54.893005,9.799009,108.3,5.845,1.85,335.95,54.893414,9.797565,54.895069,9.793790
1386790706,1,0,280.9,0,0,0,0,0,25,-0.0292,280.6904,6.8213,0.4212,54.893005,9.798979,108.3,5.845,1.85,335.95,54.893414,9.797565,54.895069,9.793790
1386790706,1,0,280.9,0,0,4,0,0,0,-0.0292,280.6904,6.8213,0.4212,54.893005,9.798947,108.3,5.845,1.85,335.95,54.893414,9.797565,54.895069,9.793790
1386790706,1,0,280.9,0,0,0,0,0,25,-0.0292,280.6904,6.8213,0.4212,54.893005,9.798917,108.3,5.845,1.85,335.95,54.893414,9.797565,54.895069,9.793790
1386790706,1,0,280.9,0,0,4,0,0,0,-0.0292,280.6904,6.8213,0.4212,54.893005,9.798886,108.3,5.845,1.85,335.95,54.893414,9.797565,54.895069,9.793790
1386790707,1,0,280.9,0,0,0,0,0,25,-0.0292,280.6904,6.8213,0.4212,54.893005,9.798856,108.3,5.845,1.85,335.95,54.893414,9.797565,54.895069,9.793790
1386790707,1,0,280.9,0,0,4,0,0,0,-0.0292,280.6904,6.8213,0.4212,54.893005,9.798825,108.3,5.845,1.85,335.95,54.893414,9.797565,54.895069,9.793790
1386790707,1,0,280.9,0,0,0,0,0,25,-0.0292,280.6904,6.8213,0.4212,54.893005,9.798795,108.3,5.845,1.85,335.95,54.893414,9.797565,54.895069,9.793790
1386790707,1,0,280.9,0,0,4,0,0,0,-0.0292,280.6904,6.8213,0.4212,54.893005,9.798764,108.3,5.845,1.85,335.95,54.893414,9.797565,54.895069,9.793790
1386790708,1,0,280.9,0,0,0,0,0,25,-0.0292,280.6904,6.8213,0.4212,54.893005,9.798733,108.3,5.845,1.85,335.95,54.893414,9.797565,54.895069,9.793790
1386790708,1,0,280.9,0,0,4,0,0,0,-0.0292,280.6904,6.8213,0.4212,54.893005,9.798702,108.3,5.845,1.85,335.95,54.893414,9.797565,54.895069,9.793790
1386790708,1,0,280.9,0,0,0,0,0,25,-0.0292,280.6904,6.8213,0.4212,54.893005,9.798672,108.3,5.845,1.85,335.95,54.893414,9.797565,54.895069,9.793790
1386790708,1,0,280.9,0,0,4,0,0,0,-0.0292,280.6904,6.8213,0.4212,54.893005,9.798641,108.3,5.845,1.85,335.95,54.893414,9.797565,54.895069,9.793790
1386790709,1,0,280.9,0,0,0,0,0,25,-0.0292,280.6904,6.8213,0.4212,54.893005,9.798611,108.3,5.845,1.85,335.95,54.893414,9.797565,54.895069,9.793790
1386790709,1,0,280.9,0,0,4,0,0,0,-0.0292,280.6904,6.8213,0.4212,54.893005,9.798580,108.3,5.845,1.85,335.95,54.893414,9.797565,54.895069,9.793790
1386790709,1,0,280.9,0,0,0,0,0,25,-0.0292,280.6904,6.8213,0.4212,54.893005,9.798550,108.3,5.845,1.85,335.95,54.893414,9.797565,54.895069,9.793790
1386790709,1,0,280.9,0,0,4,0,0,0,-0.0292,280.6904,6.8213,0.4212,54.893005,9.798518,108.3,5.845,1.85,335.95,54.893414,9.797565,54.895069,9.793790
1386790710,1,0,280.9,0,0,0,0,0,25,-0.0292,280.6904,6.8213,0.4212,54.893005,9.798488,108.3,5.845,1.85,335.95,54.893414,9.797565,54.895069,9.793790
1386790710,1,0,280.9,0,0,4,0,0,0,-0.0292,280.6904,6.8213,0.4212,54.893005,9.798457,108.3,5.845,1.85,335.95,54.893414,9.797565,54.895069,9.793790
1386790710,1,0,280.9,0,0,0,0,0,25,-0.0292,280.6904,6.8213,0.4212,54.893005,9.798427,108.3,5.845,1.85,335.95,54.893414,9.797565,54.895069,9.793790
1386790710,1,0,280.9,0,0,4,0,0,0,-0.0292,280.6904,6.8213,0.4212,54.893005,9.798396,108.3,5.845,1.85,335.95,54.893414,9.797565,54.895069,9.793790
1386790711,1,0,280.9,0,0,0,0,0,25,-0.0292,280.6904,6.8213,0.4212,54.893005,9.798366,108.3,5.845,1.85,335.95,54.893414,9.797565,54.895069,9.793790
1386790711,1,0,280.9,0,0,4,0,0,0,-0.0292,280.6904,6.8213,0.4212,54.893005,9.798335,108.3,5.845,1.85,335.95,54.893414,9.797565,54.895069,9.793790
1386790711,1,0,280.9,0,0,0,0,0,25,-0.0292,280.6904,6.8213,0.4212,54.893005,9.798304,108.3,5.845,1.85,335.95,54.893414,9.797565,54.895069,9.793790
1386790711,1,0,280.9,0,0,4,0,0,0,-0.0292,280.6904,6.8213,0.4212,54.893005,9.798273,108.3,5.845,1.85,335.95,54.893414,9.797565,54.895069,9.793790
1386790712,1,0,280.9,0,0,0,0,0,25,-0.0292,280.6904,6.8213,0.4212,54.893005,9.798243,108.3,5.845,1.85,335.95,54.893414,9.797565,54.895069,9.793790
1386790712,1,0,280.9,0,0,4,0,0,0,-0.0292,280.6904,6.8213,0.4212,54.893005,9.798212,108.3,5.845,1.85,335.95,54.893414,9.797565,54.895069,9.793790
1386790712,1,0,280.9,0,0,0,0,0,25,-0.0292,280.6904,6.8213,0.4212,54.893005,9.798182,108.3,5.845,1.85,335.95,54.893414,9.797565,54.895069,9.793790
1386790713,1,0,280.9,0,0,4,0,0,0,-0.0292,280.6904,6.8213,0.4212,54.893005,9.798151,108.3,5.845,1.85,335.95,54.893414,9.797565,54.895069,9.793790
1386790713,1,0,280.9,0,0,0,0,0,25,-0.0292,280.6904,6.8213,0.4212,54.893005,9.798120,108.3,5.845,1.85,335.95,54.893414,9.797565,54.895069,9.793790
1386790713,1,0,280.9,0,0,4,0,0,0,-0.0292,280.6904,6.8213,0.4212,54.893005,9.798089,108.3,5.845,1.85,335.95,54.893414,9.797565,54.895069,9.793790
1386790713,1,0,280.9,0,0,0,0,0,25,-0.0292,280.6904,6.8213,0.4212,54.893005,9.798059,108.3,5.845,1.85,335.95,54.893414,9.797565,54.895069,9.793790
1386790714,1,0,280.9,0,0,4,0,0,0,-0.0292,280.6904,6.8213,0.4212,54.893005,9.798028,108.3,5.845,1.85,335.95,54.893414,9.797565,54.895069,9.793790
1386790714,1,0,280.9,0,0,0,0,0,25,-0.0292,280.6904,6.8213,0.4212,54.893005,9.797997,108.3,5.845,1.85,335.95,54.893414,9.797565,54.895069,9.793790
1386790714,1,0,280.9,0,0,4,0,0,0,-0.0292,280.6904,6.8213,0.4212,54.893005,9.797967,108.3,5.845,1.85,335.95,54.893414,9.797565,54.895069,9.793790
1386790714,1,0,280.9,0,0,0,0,0,25,-0.0292,280.6904,6.8213,0.4212,54.893005,9.797936,108.3,5.845,1.85,335.95,54.893414,9.797565,54.895069,9.793790
1386790715,1,0,280.9,0,0,4,0,0,0,-0.0292,280.6904,6.8213,0.4212,54.893005,9.797906,108.3,5.845,1.85,335.95,54.893414,9.797565,54.895069,9.793790
1386790715,1,0,280.9,0,0,0,0,0,25,-0.0292,280.6904,6.8213,0.4212,54.893005,9.797874,108.3,5.845,1.85,335.95,54.893414,9.797565,54.895069,9.793790
1386790715,1,0,280.9,0,0,4,0,0,0,-0.0292,280.6904,6.8213,0.4212,54.893005,9.797844,108.3,5.845,1.85,335.95,54.893414,9.797565,54.895069,9.793790
1386790715,1,0,280.9,0,0,0,0,0,25,-0.0292,280.6904,6.8213,0.4212,54.893005,9.797813,108.3,5.845,1.85,335.95,54.893414,9.797565,54.895069,9.793790
1386790716,1,0,280.9,0,0,4,0,0,0,-0.0292,280.6904,6.8213,0.4212,54.893005,9.797783,108.3,5.845,1.85,335.95,54.893414,9.797565,54.895069,9.793790
1386790716,1,0,280.9,0,0,0,0,0,25,-0.0292,280.6904,6.8213,0.4212,54.893005,9.797752,108.3,5.845,1.85,335.95,54.893414,9.797565,54.895069,9.793790
1386790716,1,0,280.9,0,0,4,0,0,0,-0.0292,280.6904,6.8213,0.4212,54.893005,9.797722,108.3,5.845,1.85,335.95,54.893414,9.797565,54.895069,9.793790
1386790716,1,0,280.9,0,0,0,0,0,25,-0.0292,280.6904,6.8213,0.4212,54.893005,9.797691,108.3,5.845,1.85,335.95,54.893414,9.797565,54.895069,9.793790
1386790717,1,0,280.9,0,0,4,0,0,0,-0.0292,280.6904,6.8213,0.4212,54.893005,9.797660,108.3,5.845,1.85,335.95,54.893414,9.797565,54.895069,9.793790
1386790717,1,0,280.9,0,0,0,0,0,25,-0.0292,280.6904,6.8213,0.4212,54.893005,9.797629,108.3,5.845,1.85,335.95,54.893414,9.797565,54.895069,9.793790
1386790717,1,0,280.9,0,0,4,0,0,0,-0.0292,280.6904,6.8213,0.4212,54.893005,9.797599,108.3,5.845,1.85,335.95,54.893414,9.797565,54.895069,9.793790
1386790717,1,0,280.9,0,0,0,0,0,25,-0.0292,280.6904,6.8213,0.4212,54.893005,9.797568,108.3,5.845,1.85,335.95,54.893414,9.797565,54.895069,9.793790
1386790718,1,0,280.9,0,0,4,0,0,0,-0.0292,280.6904,6.8213,0.4212,54.893005,9.797538,108.3,5.845,1.85,335.95,54.893414,9.797565,54.895069,9.793790
1386790718,1,0,280.9,0,0,0,0,0,25,-0.0292,280.6904,6.8213,0.4212,54.893005,9.797507,108.3,5.845,1.85,335.95,54.893414,9.797565,54.895069,9.793790
1386790718,1,0,280.9,0,0,4,0,0,0,-0.0292,280.6904,6.8213,0.4212,54.893005,9.797477,108.3,5.845,1.85,335.95,54.893414,9.797565,54.895069,9.793790
1386790718,1,0,280.9,0,0,0,0,0,25,-0.0292,280.6904,6.8213,0.4212,54.893005,9.797445,108.3,5.845,1.85,335.95,54.893414,9.797565,54.895069,9.793790
1386790719,1,0,280.9,0,0,4,0,0,0,-0.0292,280.6904,6.8213,0.4212,54.893005,9.797415,108.3,5.845,1.85,335.95,54.893414,9.797565,54.895069,9.793790
1386790719,1,0,280.9,0,0,0,0,0,25,-0.0292,280.6904,6.8213,0.4212,54.893005,9.797384,108.3,5.845,1.85,335.95,54.893414,9.797565,54.895069,9.793790
1386790719,1,0,280.9,0,0,4,0,0,0,-0.0292,280.6904,6.8213,0.4212,54.893005,9.797354,108.3,5.845,1.85,335.95,54.893414,9.797565,54.895069,9.793790
1386790719,1,0,280.9,0,0,0,0,0,25,-0.0292,280.6904,6.8213,0.4212,54.893005,9.797323,108.3,5.845,1.85,335.95,54.893414,9.797565,54.895069,9.793790
1386790720,1,0,280.9,0,0,4,0,0,0,-0.0292,280.6904,6.8213,0.4212,54.893005,9.797293,108.3,5.845,1.85,335.95,54.893414,9.797565,54.895069,9.793790
1386790720,1,0,280.9,0,0,0,0,0,25,-0.0292,280.6904,6.8213,0.4212,54.893005,9.797262,108.3,5.845,1.85,335.95,54.893414,9.797565,54.895069,9.793790
1386790720,1,0,545.9,0,35,4,0,0,0,-0.0292,271.3571,6.8213,0.4212,54.893005,9.797231,108.3,5.845,1.85,335.95,54.893414,9.797565,54.895069,9.793790
1386790720,1,0,545.9,0,35,8,0,26,25,-0.0292,262.0237,6.8213,0.4212,54.893002,9.797199,108.3,5.845,1.85,335.95,54.893414,9.797565,54.895069,9.793790
1386790721,1,0,545.9,0,35,12,0,88,50,-0.0292,252.6904,6.8213,0.4212,54.892998,9.797170,108.3,5.845,1.85,335.95,54.893414,9.797565,54.895069,9.793790
1386790721,1,0,545.9,0,35,16,0,168,75,-0.0292,243.3571,6.8213,0.4212,54.892990,9.797142,108.3,5.845,1.85,335.95,54.893414,9.797565,54.895069,9.793790
1386790721,1,0,545.9,0,35,20,0,253,100,-0.0292,234.0237,6.8213,0.4212,54.892979,9.797116,108.3,5.845,1.85,335.95,54.893414,9.797565,54.895069,9.793790
1386790721,1,0,545.9,0,35,24,0,338,125,-0.0292,224.6904,6.8213,0.4212,54.892963,9.797094,108.3,5.845,1.85,335.95,54.893414,9.797565,54.895069,9.793790
1386790722,1,0,545.9,0,35,28,0,420,150,-0.0292,215.3571,6.8213,0.4212,54.892948,9.797076,108.3,5.845,1.85,335.95,54.893414,9.797565,54.895069,9.793790
1386790722,1,0,545.9,0,29,32,0,498,175,-0.0292,207.6237,6.8213,0.4212,54.892933,9.797062,108.3,5.845,1.85,335.95,54.893414,9.797565,54.895069,9.793790
1386790722,1,0,545.9,0,22,28,0,500,200,-0.0292,201.7571,6.8213,0.4212,54.892914,9.797050,108.3,5.845,1.85,335.95,54.893414,9.797565,54.895069,9.793790
1386790722,1,0,545.9,0,16,24,0,500,225,-0.0292,197.4904,6.8213,0.4212,54.892895,9.797041,108.3,5.845,1.85,335.95,54.893414,9.797565,54.895069,9.793790
1386790723,1,0,545.9,0,12,20,0,409,250,-0.0292,194.2904,6.8213,0.4212,54.892879,9.797033,108.3,5.845,1.85,335.95,54.893414,9.797565,54.895069,9.793790
1386790723,1,0,545.9,0,8,16,0,409,275,-0.0292,192.1571,6.8213,0.4212,54.892864,9.797027,108.3,5.845,1.85,335.95,54.893414,9.797565,54.895069,9.793790
1386790723,1,0,545.9,0,6,12,0,0,250,-0.0292,190.5571,6.8213,0.4212,54.892845,9.797021,108.3,5.845,1.85,335.95,54.893414,9.797565,54.895069,9.793790
1386790723,1,0,545.9,0,5,8,0,0,225,-0.0292,189.2237,6.8213,0.4212,54.892826,9.797016,108.3,5.845,1.85,335.95,54.893414,9.797565,54.895069,9.793790
1386790724,1,0,545.9,0,3,4,0,0,200,-0.0292,188.4237,6.8213,0.4212,54.892811,9.797011,108.3,5.845,1.85,335.95,54.893414,9.797565,54.895069,9.793790
1386790724,1,0,545.9,0,2,0,0,0,175,-0.0292,187.8904,6.8213,0.4212,54.892792,9.797007,108.3,5.845,1.85,335.95,54.893414,9.797565,54.895069,9.793790
1386790724,1,0,545.9,0,2,4,0,0,150,-0.0292,187.3571,6.8213,0.4212,54.892773,9.797002,108.3,5.845,1.85,335.95,54.893414,9.797565,54.895069,9.793790
1386790724,1,0,545.9,0,1,0,0,0,125,-0.0292,187.0904,6.8213,0.4212,54.892754,9.796998,108.3,5.845,1.85,335.95,54.893414,9.797565,54.895069,9.793790
1386790725,1,0,545.9,0,1,4,0,0,100,-0.0292,186.8237,6.8213,0.4212,54.892738,9.796994,108.3,5.845,1.85,335.95,54.893414,9.797565,54.895069,9.793790
1386790725,1,0,545.9,0,1,0,0,0,75,-0.0292,186.5571,6.8213,0.4212,54.892719,9.796991,108.3,5.845,1.85,335.95,54.893414,9.797565,54.895069,9.793790
1386790725,1,0,545.9,0,1,4,0,0,50,-0.0292,186.2904,6.8213,0.4212,54.892700,9.796988,108.3,5.845,1.85,335.95,54.893414,9.797565,54.895069,9.793790
1386790725,1,0,545.9,0,0,0,0,0,25,-0.0292,186.2904,6.8213,0.4212,54.892685,9.796986,108.3,5.845,1.85,335.95,54.893414,9.797565,54.895069,9.793790
1386790726,1,0,545.9,0,0,4,0,0,0,-0.0292,186.2904,6.8213,0.4212,54.892666,9.796982,108.3,5.845,1.85,335.95,54.893414,9.797565,54.895069,9.793790
1386790726,1,0,545.9,0,0,0,0,0,25,-0.0292,186.2904,6.8213,0.4212,54.892647,9.796978,108.3,5.845,1.85,335.95,54.893414,9.797565,54.895069,9.793790
1386790726,1,0,485.9,0,35,4,0,0,0,-0.0292,176.9571,6.8213,0.4212,54.892628,9.796980,108.3,5.845,1.85,335.95,54.893414,9.797565,54.895069,9.793790
1386790726,1,0,485.9,0,35,8,0,0,25,-0.0292,167.6237,6.8213,0.4212,54.892612,9.796987,108.3,5.845,1.85,335.95,54.893414,9.797565,54.895069,9.793790
1386790727,1,0,485.9,0,35,12,0,0,0,-0.0292,158.2904,6.8213,0.4212,54.892593,9.796998,108.3,5.845,1.85,335.95,54.893414,9.797565,54.895069,9.793790
1386790727,1,0,485.9,0,32,16,0,0,25,-0.0292,149.7571,6.8213,0.4212,54.892578,9.797014,108.3,5.845,1.85,335.95,54.893414,9.797565,54.895069,9.793790
1386790727,1,0,485.9,0,24,20,0,0,0,-0.0292,143.3571,6.8213,0.4212,54.892563,9.797032,108.3,5.845,1.85,335.95,54.893414,9.797565,54.895069,9.793790
1386790727,1,0,485.9,0,17,16,0,0,25,-0.0292,138.8237,6.8213,0.4212,54.892548,9.797053,108.3,5.845,1.85,335.95,54.893414,9.797565,54.895069,9.793790
1386790728,1,0,485.9,0,13,12,0,0,0,-0.0292,135.3571,6.8213,0.4212,54.892536,9.797075,108.3,5.845,1.85,335.95,54.893414,9.797565,54.895069,9.793790
1386790728,1,0,485.9,0,9,8,0,0,25,-0.0292,132.9571,6.8213,0.4212,54.892521,9.797098,108.3,5.845,1.85,335.95,54.893414,9.797565,54.895069,9.793790
1386790728,1,0,390.9,0,35,12,0,409,50,-0.0292,123.6238,6.8213,0.4212,54.892509,9.797124,108.3,5.845,1.85,335.95,54.893414,9.797565,54.895069,9.793790
1386790728,1,0,390.9,0,35,16,0,409,75,-0.0292,114.2904,6.8213,0.4212,54.892506,9.797153,108.3,5.845,1.85,335.95,54.893414,9.797565,54.895069,9.793790
1386790729,1,0,390.9,0,35,20,0,409,100,-0.0292,104.9571,6.8213,0.4212,54.892502,9.797183,108.3,5.845,1.85,335.95,54.893414,9.797565,54.895069,9.793790
1386790729,1,0,390.9,0,35,24,0,500,125,-0.0292,95.6237,6.8213,0.4212,54.892502,9.797214,108.3,5.845,1.85,335.95,54.893414,9.797565,54.895069,9.793790
1386790729,1,0,390.9,0,35,28,0,491,150,-0.0292,86.2904,6.8213,0.4212,54.892502,9.797245,108.3,5.845,1.85,335.95,54.893414,9.797565,54.895069,9.793790
1386790729,1,0,390.9,0,35,32,0,412,175,-0.0292,76.9571,6.8213,0.4212,54.892506,9.797276,108.3,5.845,1.85,335.95,54.893414,9.797565,54.895069,9.793790
1386790730,1,0,390.9,0,35,36,0,330,200,-0.0292,67.6237,6.8213,0.4212,54.892513,9.797304,108.3,5.845,1.85,335.95,54.893414,9.797565,54.895069,9.793790
1386790730,1,0,390.9,0,35,32,0,244,225,-0.0292,58.2904,6.8213,0.4212,54.892521,9.797330,108.3,5.845,1.85,335.95,54.893414,9.797565,54.895069,9.793790
1386790730,1,0,390.9,0,27,28,0,160,200,-0.0292,51.0904,6.8213,0.4212,54.892532,9.797355,108.3,5.845,1.85,335.95,54.893414,9.797565,54.895069,9.793790
1386790730,1,0,390.9,0,20,24,0,98,175,-0.0292,45.7571,6.8213,0.4212,54.892548,9.797377,108.3,5.845,1.85,335.95,54.893414,9.797565,54.895069,9.793790
1386790731,1,0,390.9,0,15,20,0,58,150,-0.0292,41.7571,6.8213,0.4212,54.892563,9.797398,108.3,5.845,1.85,335.95,54.893414,9.797565,54.895069,9.793790
1386790731,1,0,390.9,0,11,16,0,32,125,-0.0292,38.8237,6.8213,0.4212,54.892574,9.797417,108.3,5.845,1.85,335.95,54.893414,9.797565,54.895069,9.793790
1386790731,1,0,390.9,0,8,12,0,18,100,-0.0292,36.6904,6.8213,0.4212,54.892590,9.797436,108.3,5.845,1.85,335.95,54.893414,9.797565,54.895069,9.793790
1386790731,1,0,390.9,0,6,8,0,9,75,-0.0292,35.0904,6.8213,0.4212,54.892605,9.797453,108.3,5.845,1.85,335.95,54.893414,9.797565,54.895069,9.793790
1386790732,1,0,390.9,0,4,4,0,5,50,-0.0292,34.0237,6.8213,0.4212,54.892620,9.797470,108.3,5.845,1.85,335.95,54.893414,9.797565,54.895069,9.793790
1386790732,1,0,390.9,0,3,0,0,2,25,-0.0292,33.2237,6.8213,0.4212,54.892635,9.797487,108.3,5.845,1.85,335.95,54.893414,9.797565,54.895069,9.793790
1386790732,1,0,390.9,0,2,4,0,1,0,-0.0292,32.6904,6.8213,0.4212,54.892647,9.797503,108.3,5.845,1.85,335.95,54.893414,9.797565,54.895069,9.793790
1386790732,1,0,390.9,0,2,0,0,0,25,-0.0292,32.1571,6.8213,0.4212,54.892662,9.797521,108.3,5.845,1.85,335.95,54.893414,9.797565,54.895069,9.793790
1386790733,1,0,390.9,0,1,4,0,0,0,-0.0292,31.8904,6.8213,0.4212,54.892677,9.797537,108.3,5.845,1.85,335.95,54.893414,9.797565,54.895069,9.793790
1386790733,1,0,390.9,0,1,0,0,0,25,-0.0292,31.6237,6.8213,0.4212,54.892693,9.797553,108.3,5.845,1.85,335.95,54.893414,9.797565,54.895069,9.793790
1386790733,1,0,390.9,0,1,4,0,0,0,-0.0292,31.3571,6.8213,0.4212,54.892708,9.797569,108.3,5.845,1.85,335.95,54.893414,9.797565,54.895069,9.793790
1386790733,1,0,390.9,0,0,0,0,0,25,-0.0292,31.3571,6.8213,0.4212,54.892719,9.797585,108.3,5.845,1.85,335.95,54.893414,9.797565,54.895069,9.793790
1386790734,1,0,390.9,0,0,4,0,0,0,-0.0292,31.3571,6.8213,0.4212,54.892735,9.797602,108.3,5.845,1.85,335.95,54.893414,9.797565,54.895069,9.793790
1386790734,1,0,390.9,0,0,0,0,0,25,-0.0292,31.3571,6.8213,0.4212,54.892750,9.797618,108.3,5.845,1.85,335.95,54.893414,9.797565,54.895069,9.793790
1386790734,1,0,390.9,0,0,4,0,0,0,-0.0292,31.3571,6.8213,0.4212,54.892765,9.797634,108.3,5.845,1.85,335.95,54.893414,9.797565,54.895069,9.793790
1386790734,1,0,390.9,0,0,0,0,0,25,-0.0292,31.3571,6.8213,0.4212,54.892780,9.797650,108.3,5.845,1.85,335.95,54.893414,9.797565,54.895069,9.793790
1386790735,1,0,390.9,0,0,4,0,0,0,-0.0292,31.3571,6.8213,0.4212,54.892799,9.797667,108.3,5.845,1.85,335.95,54.893414,9.797565,54.895069,9.793790
1386790735,1,0,390.9,0,0,0,0,0,25,-0.0292,31.3571,6.8213,0.4212,54.892815,9.797683,108.3,5.845,1.85,335.95,54.893414,9.797565,54.895069,9.793790
1386790735,1,0,390.9,0,0,4,0,0,0,-0.0292,31.3571,6.8213,0.4212,54.892830,9.797699,108.3,5.845,1.85,335.95,54.893414,9.797565,54.895069,9.793790
1386790735,1,0,390.9,0,0,0,0,0,25,-0.0292,31.3571,6.8213,0.4212,54.892849,9.797715,108.3,5.845,1.85,335.95,54.893414,9.797565,54.895069,9.793790
1386790736,1,0,390.9,0,0,4,0,0,0,-0.0292,31.3571,6.8213,0.4212,54.892864,9.797731,108.3,5.845,1.85,335.95,54.893414,9.797565,54.895069,9.793790
1386790736,1,0,390.9,0,0,0,0,0,25,-0.0292,31.3571,6.8213,0.4212,54.892879,9.797749,108.3,5.845,1.85,335.95,54.893414,9.797565,54.895069,9.793790
1386790736,1,0,390.9,0,0,4,0,0,0,-0.0292,31.3571,6.8213,0.4212,54.892899,9.797765,108.3,5.845,1.85,335.95,54.893414,9.797565,54.895069,9.793790
1386790736,1,0,390.9,0,0,0,0,0,25,-0.0292,31.3571,6.8213,0.4212,54.892914,9.797781,108.3,5.845,1.85,335.95,54.893414,9.797565,54.895069,9.793790
1386790737,1,0,390.9,0,0,4,0,0,0,-0.0292,31.3571,6.8213,0.4212,54.892929,9.797797,108.3,5.845,1.85,335.95,54.893414,9.797565,54.895069,9.793790
1386790737,1,0,390.9,0,0,0,0,0,25,-0.0292,31.3571,6.8213,0.4212,54.892948,9.797813,108.3,5.845,1.85,335.95,54.893414,9.797565,54.895069,9.793790
1386790737,1,0,390.9,0,0,4,0,0,0,-0.0292,31.3571,6.8213,0.4212,54.892963,9.797830,108.3,5.845,1.85,335.95,54.893414,9.797565,54.895069,9.793790
1386790737,1,0,390.9,0,0,0,0,0,25,-0.0292,31.3571,6.8213,0.4212,54.892979,9.797846,108.3,5.845,1.85,335.95,54.893414,9.797565,54.895069,9.793790
1386790738,1,0,390.9,0,0,4,0,0,0,-0.0292,31.3571,6.8213,0.4212,54.892990,9.797862,108.3,5.845,1.85,335.95,54.893414,9.797565,54.895069,9.793790
1386790738,1,0,390.9,0,0,0,0,0,25,-0.0292,31.3571,6.8213,0.4212,54.893005,9.797878,108.3,5.845,1.85,335.95,54.893414,9.797565,54.895069,9.793790
1386790738,1,0,390.9,0,0,4,0,0,0,-0.0292,31.3571,6.8213,0.4212,54.893021,9.797894,108.3,5.845,1.85,335.95,54.893414,9.797565,54.895069,9.793790
1386790738,1,0,390.9,0,0,0,0,0,25,-0.0292,31.3571,6.8213,0.4212,54.893036,9.797911,108.3,5.845,1.85,335.95,54.893414,9.797565,54.895069,9.793790
1386790739,1,0,390.9,0,0,4,0,0,0,-0.0292,31.3571,6.8213,0.4212,54.893051,9.797927,108.3,5.845,1.85,335.95,54.893414,9.797565,54.895069,9.793790
1386790739,1,0,390.9,0,0,0,0,0,25,-0.0292,31.3571,6.8213,0.4212,54.893070,9.797943,108.3,5.845,1.85,335.95,54.893414,9.797565,54.895069,9.793790
1386790739,1,0,390.9,0,0,4,0,0,0,-0.0292,31.3571,6.8213,0.4212,54.893085,9.797959,108.3,5.845,1.85,335.95,54.893414,9.797565,54.895069,9.793790
1386790739,1,0,390.9,0,0,0,0,0,25,-0.0292,31.3571,6.8213,0.4212,54.893101,9.797976,108.3,5.845,1.85,335.95,54.893414,9.797565,54.895069,9.793790
1386790740,1,0,390.9,0,0,4,0,0,0,-0.0292,31.3571,6.8213,0.4212,54.893120,9.797992,108.3,5.845,1.85,335.95,54.893414,9.797565,54.895069,9.793790
1386790740,1,0,390.9,0,0,0,0,0,25,-0.0292,31.3571,6.8213,0.4212,54.893135,9.798008,108.3,5.845,1.85,335.95,54.893414,9.797565,54.895069,9.793790
1386790740,1,0,390.9,0,0,4,0,0,0,-0.0292,31.3571,6.8213,0.4212,54.893150,9.798024,108.3,5.845,1.85,335.95,54.893414,9.797565,54.895069,9.793790
1386790740,1,0,390.9,0,0,0,0,0,25,-0.0292,31.3571,6.8213,0.4212,54.893169,9.798040,108.3,5.845,1.85,335.95,54.893414,9.797565,54.895069,9.793790
1386790741,1,0,390.9,0,0,4,0,0,0,-0.0292,31.3571,6.8213,0.4212,54.893185,9.798057,108.3,5.845,1.85,335.95,54.893414,9.797565,54.895069,9.793790
1386790741,1,0,390.9,0,0,0,0,0,25,-0.0292,31.3571,6.8213,0.4212,54.893200,9.798073,108.3,5.845,1.85,335.95,54.893414,9.797565,54.895069,9.793790
1386790741,1,0,390.9,0,0,4,0,0,0,-0.0292,31.3571,6.8213,0.4212,54.893211,9.798089,108.3,5.845,1.85,335.95,54.893414,9.797565,54.895069,9.793790
1386790741,1,0,390.9,0,0,0,0,0,25,-0.0292,31.3571,6.8213,0.4212,54.893227,9.798105,108.3,5.845,1.85,335.95,54.893414,9.797565,54.895069,9.793790
1386790742,1,0,390.9,0,0,4,0,0,0,-0.0292,31.3571,6.8213,0.4212,54.893242,9.798121,108.3,5.845,1.85,335.95,54.893414,9.797565,54.895069,9.793790
