MCU_timestamp,Navigation_System,Manual_Control,Guidance_Heading,Manual_Ctrl_Rudder,Rudder_Desired_Angle,Rudder_Feedback,Manual_Ctrl_Sail,Sail_Desired_Pos,Sail_Feedback,Rate,Heading,Pitch,Roll,Latitude,Longitude,COG,SOG,Wind_Speed,Wind_Angle,Point_Start_Lat,Point_Start_Lon,Point_End_Lat,Point_End_Lon
1390059642,0,0,0.0,0,0,0,0,0,0,-0.0292,179.6255,6.8213,0.4212,54.876953,9.787646,108.3,5.845,1.85,335.95,0.000000,0.000000,0.000000,0.000000
1390059642,0,0,0.0,0,0,0,0,0,0,-0.0292,179.6255,6.8213,0.4212,54.876953,9.787646,108.3,5.845,1.85,335.95,0.000000,0.000000,0.000000,0.000000
1390059642,0,0,0.0,0,0,0,0,0,0,-0.0292,179.6255,6.8213,0.4212,54.876953,9.787646,108.3,5.845,1.85,335.95,0.000000,0.000000,0.000000,0.000000
1390059643,0,0,0.0,0,0,0,0,0,0,-0.0292,179.6255,6.8213,0.4212,54.876953,9.787646,108.3,5.845,1.85,335.95,0.000000,0.000000,0.000000,0.000000
1390059643,0,0,0.0,0,0,0,0,0,0,-0.0292,179.6255,6.8213,0.4212,54.876953,9.787646,108.3,5.845,1.85,335.95,0.000000,0.000000,0.000000,0.000000
1390059643,0,0,0.0,0,0,0,0,0,0,-0.0292,179.6255,6.8213,0.4212,54.876953,9.787646,108.3,5.845,1.85,335.95,0.000000,0.000000,0.000000,0.000000
1390059643,0,0,0.0,0,0,0,0,0,0,-0.0292,179.6255,6.8213,0.4212,54.876953,9.787646,108.3,5.845,1.85,335.95,0.000000,0.000000,0.000000,0.000000
1390059644,0,0,0.0,0,0,0,0,0,0,-0.0292,179.6255,6.8213,0.4212,54.876953,9.787646,108.3,5.845,1.85,335.95,0.000000,0.000000,0.000000,0.000000
1390059644,0,0,0.0,0,0,0,0,0,0,-0.0292,179.6255,6.8213,0.4212,54.876953,9.787646,108.3,5.845,1.85,335.95,0.000000,0.000000,0.000000,0.000000
1390059644,0,0,0.0,0,0,0,0,0,0,-0.0292,179.6255,6.8213,0.4212,54.876953,9.787646,108.3,5.845,1.85,335.95,0.000000,0.000000,0.000000,0.000000
1390059644,0,0,0.0,0,0,0,0,0,0,-0.0292,179.6255,6.8213,0.4212,54.876953,9.787646,108.3,5.845,1.85,335.95,0.000000,0.000000,0.000000,0.000000
1390059645,0,0,0.0,0,0,0,0,0,0,-0.0292,179.6255,6.8213,0.4212,54.876953,9.787646,108.3,5.845,1.85,335.95,0.000000,0.000000,0.000000,0.000000
1390059645,0,0,0.0,0,0,0,0,0,0,-0.0292,179.6255,6.8213,0.4212,54.876953,9.787646,108.3,5.845,1.85,335.95,0.000000,0.000000,0.000000,0.000000
1390059645,0,0,0.0,0,0,0,0,0,0,-0.0292,179.6255,6.8213,0.4212,54.876953,9.787646,108.3,5.845,1.85,335.95,0.000000,0.000000,0.000000,0.000000
1390059645,0,0,0.0,0,0,0,0,0,0,-0.0292,179.6255,6.8213,0.4212,54.876953,9.787646,108.3,5.845,1.85,335.95,0.000000,0.000000,0.000000,0.000000
1390059646,0,0,0.0,0,0,0,0,0,0,-0.0292,179.6255,6.8213,0.4212,54.876953,9.787646,108.3,5.845,1.85,335.95,0.000000,0.000000,0.000000,0.000000
1390059646,0,0,0.0,0,0,0,0,0,0,-0.0292,179.6255,6.8213,0.4212,54.876953,9.787646,108.3,5.845,1.85,335.95,0.000000,0.000000,0.000000,0.000000
1390059646,0,0,0.0,0,0,0,0,0,0,-0.0292,179.6255,6.8213,0.4212,54.876953,9.787646,108.3,5.845,1.85,335.95,0.000000,0.000000,0.000000,0.000000
1390059646,0,0,0.0,0,0,0,0,0,0,-0.0292,179.6255,6.8213,0.4212,54.876953,9.787646,108.3,5.845,1.85,335.95,0.000000,0.000000,0.000000,0.000000
1390059647,0,0,0.0,0,0,0,0,0,0,-0.0292,179.6255,6.8213,0.4212,54.876953,9.787646,108.3,5.845,1.85,335.95,0.000000,0.000000,0.000000,0.000000
1390059647,0,0,0.0,0,0,0,0,0,0,-0.0292,179.6255,6.8213,0.4212,54.876953,9.787646,108.3,5.845,1.85,335.95,0.000000,0.000000,0.000000,0.000000
1390059647,4,0,0.0,0,0,0,0,0,0,-0.0292,179.6255,6.8213,0.4212,54.876953,9.787646,108.3,5.845,1.85,335.95,0.000000,0.000000,0.000000,0.000000
1390059647,1,0,0.0,0,0,4,0,713,750,-0.0292,179.6255,6.8213,0.4212,54.876934,9.787646,108.3,5.845,1.85,335.95,54.895069,9.793790,54.895348,9.797490
1390059648,1,0,0.0,0,10,8,0,713,700,-0.0292,176.2922,6.8213,0.4212,54.876915,9.787648,108.3,5.845,1.85,335.95,54.895348,9.797490,54.894039,9.801540
1390059648,1,0,0.0,0,6,4,0,713,750,-0.0292,174.2922,6.8213,0.4212,54.876900,9.787652,108.3,5.845,1.85,335.95,54.894039,9.801540,54.893795,9.802299
1390059648,1,0,0.0,0,4,8,0,713,700,-0.0292,172.9589,6.8213,0.4212,54.876881,9.787656,108.3,5.845,1.85,335.95,54.893795,9.802299,54.893364,9.803688
1390059648,1,0,0.0,0,3,4,0,713,750,-0.0292,171.9589,6.8213,0.4212,54.876862,9.787661,108.3,5.845,1.85,335.95,54.893364,9.803688,54.892704,9.801139
1390059649,1,0,0.0,0,2,0,0,713,700,-0.0292,171.2922,6.8213,0.4212,54.876846,9.787664,108.3,5.845,1.85,335.95,54.892704,9.801139,54.891663,9.800174
1390059649,1,0,0.0,0,1,4,0,713,750,-0.0292,170.9589,6.8213,0.4212,54.876827,9.787669,108.3,5.845,1.85,335.95,54.891663,9.800174,54.892929,9.805077
1390059649,1,0,0.0,0,1,0,0,713,700,-0.0292,170.6255,6.8213,0.4212,54.876808,9.787674,108.3,5.845,1.85,335.95,54.892929,9.805077,54.892498,9.806466
1390059649,1,0,0.0,0,1,4,0,713,750,-0.0292,170.2922,6.8213,0.4212,54.876789,9.787679,108.3,5.845,1.85,335.95,54.892498,9.806466,54.891232,9.801563
1390059650,1,0,0.0,0,0,0,0,713,700,-0.0292,170.2922,6.8213,0.4212,54.876774,9.787683,108.3,5.845,1.85,335.95,54.891232,9.801563,54.890800,9.802953
1390059650,1,0,0.0,0,0,4,0,713,750,-0.0292,170.2922,6.8213,0.4212,54.876755,9.787689,108.3,5.845,1.85,335.95,54.890800,9.802953,54.891651,9.806246
1390059650,1,0,0.0,0,0,0,0,713,700,-0.0292,170.2922,6.8213,0.4212,54.876736,9.787695,108.3,5.845,1.85,335.95,54.891651,9.806246,54.890560,9.805087
1390059650,1,0,0.0,0,0,4,0,713,750,-0.0292,170.2922,6.8213,0.4212,54.876717,9.787701,108.3,5.845,1.85,335.95,54.890560,9.805087,54.890366,9.804342
1390059651,1,0,0.0,0,0,0,0,713,700,-0.0292,170.2922,6.8213,0.4212,54.876701,9.787706,108.3,5.845,1.85,335.95,54.890366,9.804342,54.890846,9.801930
1390059651,1,0,0.0,0,0,4,0,713,750,-0.0292,170.2922,6.8213,0.4212,54.876682,9.787711,108.3,5.845,1.85,335.95,54.890846,9.801930,54.889477,9.798280
1390059651,1,0,0.0,0,0,0,0,713,700,-0.0292,170.2922,6.8213,0.4212,54.876663,9.787716,108.3,5.845,1.85,335.95,54.889477,9.798280,54.891819,9.794550
1390059651,1,0,0.0,0,0,4,0,713,750,-0.0292,170.2922,6.8213,0.4212,54.876648,9.787721,108.3,5.845,1.85,335.95,54.891819,9.794550,54.895348,9.797490
1390059652,1,0,0.0,0,0,0,0,713,700,-0.0292,170.2922,6.8213,0.4212,54.876629,9.787725,108.3,5.845,1.85,335.95,54.895348,9.797490,54.895069,9.793790
1390059652,1,0,0.0,0,0,4,0,713,750,-0.0292,170.2922,6.8213,0.4212,54.876610,9.787731,108.3,5.845,1.85,335.95,54.895348,9.797490,54.895069,9.793790
1390059652,3,0,0.0,0,0,0,0,713,700,-0.0292,170.2922,6.8213,0.4212,54.876591,9.787737,108.3,5.845,1.85,335.95,54.895348,9.797490,54.876610,9.787731
1390059652,3,0,0.0,0,0,4,0,713,750,-0.0292,170.2922,6.8213,0.4212,54.876575,9.787743,108.3,5.845,1.85,335.95,54.895348,9.797490,54.876610,9.787731
1390059653,3,0,0.0,0,0,0,0,713,700,-0.0292,170.2922,6.8213,0.4212,54.876556,9.787748,108.3,5.845,1.85,335.95,54.895348,9.797490,54.876610,9.787731
1390059653,3,0,0.0,0,0,4,0,713,750,-0.0292,170.2922,6.8213,0.4212,54.876537,9.787753,108.3,5.845,1.85,335.95,54.895348,9.797490,54.876610,9.787731
1390059653,3,0,0.0,0,0,0,0,713,700,-0.0292,170.2922,6.8213,0.4212,54.876518,9.787758,108.3,5.845,1.85,335.95,54.895348,9.797490,54.876610,9.787731
1390059653,3,0,0.0,0,0,4,0,713,750,-0.0292,170.2922,6.8213,0.4212,54.876503,9.787763,108.3,5.845,1.85,335.95,54.895348,9.797490,54.876610,9.787731
1390059654,3,0,0.0,0,0,0,0,713,700,-0.0292,170.2922,6.8213,0.4212,54.876484,9.787767,108.3,5.845,1.85,335.95,54.895348,9.797490,54.876610,9.787731
1390059654,3,0,0.0,0,0,4,0,713,750,-0.0292,170.2922,6.8213,0.4212,54.876465,9.787773,108.3,5.845,1.85,335.95,54.895348,9.797490,54.876610,9.787731
1390059654,3,0,0.0,0,0,0,0,713,700,-0.0292,170.2922,6.8213,0.4212,54.876446,9.787779,108.3,5.845,1.85,335.95,54.895348,9.797490,54.876610,9.787731
1390059654,3,0,0.0,0,0,4,0,713,750,-0.0292,170.2922,6.8213,0.4212,54.876431,9.787785,108.3,5.845,1.85,335.95,54.895348,9.797490,54.876610,9.787731
1390059655,3,0,0.0,0,0,0,0,713,700,-0.0292,170.2922,6.8213,0.4212,54.876411,9.787790,108.3,5.845,1.85,335.95,54.895348,9.797490,54.876610,9.787731
1390059655,3,0,0.0,0,0,4,0,713,750,-0.0292,170.2922,6.8213,0.4212,54.876392,9.787795,108.3,5.845,1.85,335.95,54.895348,9.797490,54.876610,9.787731
1390059655,3,0,0.0,0,0,0,0,713,700,-0.0292,170.2922,6.8213,0.4212,54.876373,9.787800,108.3,5.845,1.85,335.95,54.895348,9.797490,54.876610,9.787731
1390059655,3,0,0.0,0,0,4,0,713,750,-0.0292,170.2922,6.8213,0.4212,54.876358,9.787805,108.3,5.845,1.85,335.95,54.895348,9.797490,54.876610,9.787731
1390059656,3,0,0.0,0,0,0,0,713,700,-0.0292,170.2922,6.8213,0.4212,54.876339,9.787809,108.3,5.845,1.85,335.95,54.895348,9.797490,54.876610,9.787731
1390059656,3,0,0.0,0,0,4,0,713,750,-0.0292,170.2922,6.8213,0.4212,54.876320,9.787815,108.3,5.845,1.85,335.95,54.895348,9.797490,54.876610,9.787731
1390059656,3,0,0.0,0,0,0,0,713,700,-0.0292,170.2922,6.8213,0.4212,54.876305,9.787821,108.3,5.845,1.85,335.95,54.895348,9.797490,54.876610,9.787731
1390059656,3,0,0.0,0,0,4,0,713,750,-0.0292,170.2922,6.8213,0.4212,54.876286,9.787827,108.3,5.845,1.85,335.95,54.895348,9.797490,54.876610,9.787731
1390059657,3,0,0.0,0,0,0,0,713,700,-0.0292,170.2922,6.8213,0.4212,54.876266,9.787832,108.3,5.845,1.85,335.95,54.895348,9.797490,54.876610,9.787731
1390059657,3,0,0.0,0,0,4,0,713,750,-0.0292,170.2922,6.8213,0.4212,54.876247,9.787837,108.3,5.845,1.85,335.95,54.895348,9.797490,54.876610,9.787731
1390059657,3,0,0.0,0,0,0,0,713,700,-0.0292,170.2922,6.8213,0.4212,54.876232,9.787842,108.3,5.845,1.85,335.95,54.895348,9.797490,54.876610,9.787731
1390059657,3,0,0.0,0,0,4,0,713,750,-0.0292,170.2922,6.8213,0.4212,54.876213,9.787847,108.3,5.845,1.85,335.95,54.895348,9.797490,54.876610,9.787731
1390059658,3,0,0.0,0,0,0,0,713,700,-0.0292,170.2922,6.8213,0.4212,54.876194,9.787851,108.3,5.845,1.85,335.95,54.895348,9.797490,54.876610,9.787731
1390059658,3,0,0.0,0,0,4,0,713,750,-0.0292,170.2922,6.8213,0.4212,54.876175,9.787856,108.3,5.845,1.85,335.95,54.895348,9.797490,54.876610,9.787731
1390059658,3,0,0.0,0,0,0,0,713,700,-0.0292,170.2922,6.8213,0.4212,54.876160,9.787862,108.3,5.845,1.85,335.95,54.895348,9.797490,54.876610,9.787731
1390059658,3,0,0.0,0,0,4,0,713,750,-0.0292,170.2922,6.8213,0.4212,54.876141,9.787868,108.3,5.845,1.85,335.95,54.895348,9.797490,54.876610,9.787731
1390059659,3,0,0.0,0,0,0,0,713,700,-0.0292,170.2922,6.8213,0.4212,54.876122,9.787873,108.3,5.845,1.85,335.95,54.895348,9.797490,54.876610,9.787731
1390059659,3,0,0.0,0,0,4,0,713,750,-0.0292,170.2922,6.8213,0.4212,54.876102,9.787878,108.3,5.845,1.85,335.95,54.895348,9.797490,54.876610,9.787731
1390059659,3,0,0.0,0,0,0,0,713,700,-0.0292,170.2922,6.8213,0.4212,54.876087,9.787883,108.3,5.845,1.85,335.95,54.895348,9.797490,54.876610,9.787731
1390059659,3,0,0.0,0,0,4,0,713,750,-0.0292,170.2922,6.8213,0.4212,54.876068,9.787888,108.3,5.845,1.85,335.95,54.895348,9.797490,54.876610,9.787731
1390059660,3,0,0.0,0,0,0,0,713,700,-0.0292,170.2922,6.8213,0.4212,54.876049,9.787892,108.3,5.845,1.85,335.95,54.895348,9.797490,54.876610,9.787731
1390059660,3,0,0.0,0,0,4,0,713,750,-0.0292,170.2922,6.8213,0.4212,54.876034,9.787897,108.3,5.845,1.85,335.95,54.895348,9.797490,54.876610,9.787731
1390059660,0,0,0.0,0,0,4,0,713,750,-0.0292,170.2922,6.8213,0.4212,54.876034,9.787897,108.3,5.845,1.85,335.95,54.895348,9.797490,54.876610,9.787731
1390059660,0,0,0.0,0,0,4,0,713,750,-0.0292,170.2922,6.8213,0.4212,54.876034,9.787897,108.3,5.845,1.85,335.95,54.895348,9.797490,54.876610,9.787731
1390059661,0,0,0.0,0,0,4,0,713,750,-0.0292,170.2922,6.8213,0.4212,54.876034,9.787897,108.3,5.845,1.85,335.95,54.895348,9.797490,54.876610,9.787731
1390059661,0,0,0.0,0,0,4,0,713,750,-0.0292,170.2922,6.8213,0.4212,54.876034,9.787897,108.3,5.845,1.85,335.95,54.895348,9.797490,54.876610,9.787731
1390059661,0,0,0.0,0,0,4,0,713,750,-0.0292,170.2922,6.8213,0.4212,54.876034,9.787897,108.3,5.845,1.85,335.95,54.895348,9.797490,54.876610,9.787731
1390059661,0,0,0.0,0,0,4,0,713,750,-0.0292,170.2922,6.8213,0.4212,54.876034,9.787897,108.3,5.845,1.85,335.95,54.895348,9.797490,54.876610,9.787731
1390059662,0,0,0.0,0,0,4,0,713,750,-0.0292,170.2922,6.8213,0.4212,54.876034,9.787897,108.3,5.845,1.85,335.95,54.895348,9.797490,54.876610,9.787731
1390059662,0,0,0.0,0,0,4,0,713,750,-0.0292,170.2922,6.8213,0.4212,54.876034,9.787897,108.3,5.845,1.85,335.95,54.895348,9.797490,54.876610,9.787731
1390059662,0,0,0.0,0,0,4,0,713,750,-0.0292,170.2922,6.8213,0.4212,54.876034,9.787897,108.3,5.845,1.85,335.95,54.895348,9.797490,54.876610,9.787731
1390059662,0,0,0.0,0,0,4,0,713,750,-0.0292,170.2922,6.8213,0.4212,54.876034,9.787897,108.3,5.845,1.85,335.95,54.895348,9.797490,54.876610,9.787731
1390059663,0,0,0.0,0,0,4,0,713,750,-0.0292,170.2922,6.8213,0.4212,54.876034,9.787897,108.3,5.845,1.85,335.95,54.895348,9.797490,54.876610,9.787731
1390059663,0,0,0.0,0,0,4,0,713,750,-0.0292,170.2922,6.8213,0.4212,54.876034,9.787897,108.3,5.845,1.85,335.95,54.895348,9.797490,54.876610,9.787731
1390059663,0,0,0.0,0,0,4,0,713,750,-0.0292,170.2922,6.8213,0.4212,54.876034,9.787897,108.3,5.845,1.85,335.95,54.895348,9.797490,54.876610,9.787731
