MCU_timestamp,Navigation_System,Manual_Control,Guidance_Heading,Manual_Ctrl_Rudder,Rudder_Desired_Angle,Rudder_Feedback,Manual_Ctrl_Sail,Sail_Desired_Pos,Sail_Feedback,Rate,Heading,Pitch,Roll,Latitude,Longitude,COG,SOG,Wind_Speed,Wind_Angle,Point_Start_Lat,Point_Start_Lon,Point_End_Lat,Point_End_Lon
1390094716,0,0,0.0,0,0,20,0,0,0,-0.0292,95.6255,6.8213,0.4212,54.896885,9.784269,108.3,5.845,1.85,335.95,0.000000,0.000000,0.000000,0.000000
1390094716,0,0,0.0,0,0,20,0,0,0,-0.0292,95.6255,6.8213,0.4212,54.896885,9.784269,108.3,5.845,1.85,335.95,0.000000,0.000000,0.000000,0.000000
1390094716,0,0,0.0,0,0,20,0,0,0,-0.0292,95.6255,6.8213,0.4212,54.896885,9.784269,108.3,5.845,1.85,335.95,0.000000,0.000000,0.000000,0.000000
1390094716,0,0,0.0,0,0,20,0,0,0,-0.0292,95.6255,6.8213,0.4212,54.896885,9.784269,108.3,5.845,1.85,335.95,0.000000,0.000000,0.000000,0.000000
1390094717,0,0,0.0,0,0,20,0,0,0,-0.0292,95.6255,6.8213,0.4212,54.896885,9.784269,108.3,5.845,1.85,335.95,0.000000,0.000000,0.000000,0.000000
1390094717,0,0,0.0,0,0,20,0,0,0,-0.0292,95.6255,6.8213,0.4212,54.896885,9.784269,108.3,5.845,1.85,335.95,0.000000,0.000000,0.000000,0.000000
1390094717,0,0,0.0,0,0,20,0,0,0,-0.0292,95.6255,6.8213,0.4212,54.896885,9.784269,108.3,5.845,1.85,335.95,0.000000,0.000000,0.000000,0.000000
1390094717,0,0,0.0,0,0,20,0,0,0,-0.0292,95.6255,6.8213,0.4212,54.896885,9.784269,108.3,5.845,1.85,335.95,0.000000,0.000000,0.000000,0.000000
1390094718,0,0,0.0,0,0,20,0,0,0,-0.0292,95.6255,6.8213,0.4212,54.896885,9.784269,108.3,5.845,1.85,335.95,0.000000,0.000000,0.000000,0.000000
1390094718,0,0,0.0,0,0,20,0,0,0,-0.0292,95.6255,6.8213,0.4212,54.896885,9.784269,108.3,5.845,1.85,335.95,0.000000,0.000000,0.000000,0.000000
1390094718,0,0,0.0,0,0,20,0,0,0,-0.0292,95.6255,6.8213,0.4212,54.896885,9.784269,108.3,5.845,1.85,335.95,0.000000,0.000000,0.000000,0.000000
1390094718,0,0,0.0,0,0,20,0,0,0,-0.0292,95.6255,6.8213,0.4212,54.896885,9.784269,108.3,5.845,1.85,335.95,0.000000,0.000000,0.000000,0.000000
1390094719,0,0,0.0,0,0,20,0,0,0,-0.0292,95.6255,6.8213,0.4212,54.896885,9.784269,108.3,5.845,1.85,335.95,0.000000,0.000000,0.000000,0.000000
1390094719,0,0,0.0,0,0,20,0,0,0,-0.0292,95.6255,6.8213,0.4212,54.896885,9.784269,108.3,5.845,1.85,335.95,0.000000,0.000000,0.000000,0.000000
1390094719,0,0,0.0,0,0,20,0,0,0,-0.0292,95.6255,6.8213,0.4212,54.896885,9.784269,108.3,5.845,1.85,335.95,0.000000,0.000000,0.000000,0.000000
1390094719,0,0,0.0,0,0,20,0,0,0,-0.0292,95.6255,6.8213,0.4212,54.896885,9.784269,108.3,5.845,1.85,335.95,0.000000,0.000000,0.000000,0.000000
1390094720,0,0,0.0,0,0,20,0,0,0,-0.0292,95.6255,6.8213,0.4212,54.896885,9.784269,108.3,5.845,1.85,335.95,0.000000,0.000000,0.000000,0.000000
1390094720,0,0,0.0,0,0,20,0,0,0,-0.0292,95.6255,6.8213,0.4212,54.896885,9.784269,108.3,5.845,1.85,335.95,0.000000,0.000000,0.000000,0.000000
1390094720,0,0,0.0,0,0,20,0,0,0,-0.0292,95.6255,6.8213,0.4212,54.896885,9.784269,108.3,5.845,1.85,335.95,0.000000,0.000000,0.000000,0.000000
1390094720,0,0,0.0,0,0,20,0,0,0,-0.0292,95.6255,6.8213,0.4212,54.896885,9.784269,108.3,5.845,1.85,335.95,0.000000,0.000000,0.000000,0.000000
1390094721,0,0,0.0,0,0,20,0,0,0,-0.0292,95.6255,6.8213,0.4212,54.896885,9.784269,108.3,5.845,1.85,335.95,0.000000,0.000000,0.000000,0.000000
1390094721,0,0,0.0,0,0,20,0,0,0,-0.0292,95.6255,6.8213,0.4212,54.896885,9.784269,108.3,5.845,1.85,335.95,0.000000,0.000000,0.000000,0.000000
1390094721,0,0,0.0,0,0,20,0,0,0,-0.0292,95.6255,6.8213,0.4212,54.896885,9.784269,108.3,5.845,1.85,335.95,0.000000,0.000000,0.000000,0.000000
1390094721,0,0,0.0,0,0,20,0,0,0,-0.0292,95.6255,6.8213,0.4212,54.896885,9.784269,108.3,5.845,1.85,335.95,0.000000,0.000000,0.000000,0.000000
1390094722,0,0,0.0,0,0,20,0,0,0,-0.0292,95.6255,6.8213,0.4212,54.896885,9.784269,108.3,5.845,1.85,335.95,0.000000,0.000000,0.000000,0.000000
1390094722,0,0,0.0,0,0,20,0,0,0,-0.0292,95.6255,6.8213,0.4212,54.896885,9.784269,108.3,5.845,1.85,335.95,0.000000,0.000000,0.000000,0.000000
1390094722,0,0,0.0,0,0,20,0,0,0,-0.0292,95.6255,6.8213,0.4212,54.896885,9.784269,108.3,5.845,1.85,335.95,0.000000,0.000000,0.000000,0.000000
1390094722,0,0,0.0,0,0,20,0,0,0,-0.0292,95.6255,6.8213,0.4212,54.896885,9.784269,108.3,5.845,1.85,335.95,0.000000,0.000000,0.000000,0.000000
1390094723,0,0,0.0,0,0,20,0,0,0,-0.0292,95.6255,6.8213,0.4212,54.896885,9.784269,108.3,5.845,1.85,335.95,0.000000,0.000000,0.000000,0.000000
1390094723,0,0,0.0,0,0,20,0,0,0,-0.0292,95.6255,6.8213,0.4212,54.896885,9.784269,108.3,5.845,1.85,335.95,0.000000,0.000000,0.000000,0.000000
1390094723,0,0,0.0,0,0,20,0,0,0,-0.0292,95.6255,6.8213,0.4212,54.896885,9.784269,108.3,5.845,1.85,335.95,0.000000,0.000000,0.000000,0.000000
1390094723,0,0,0.0,0,0,20,0,0,0,-0.0292,95.6255,6.8213,0.4212,54.896885,9.784269,108.3,5.845,1.85,335.95,0.000000,0.000000,0.000000,0.000000
1390094724,0,0,0.0,0,0,20,0,0,0,-0.0292,95.6255,6.8213,0.4212,54.896885,9.784269,108.3,5.845,1.85,335.95,0.000000,0.000000,0.000000,0.000000
1390094724,0,0,0.0,0,0,20,0,0,0,-0.0292,95.6255,6.8213,0.4212,54.896885,9.784269,108.3,5.845,1.85,335.95,0.000000,0.000000,0.000000,0.000000
1390094724,0,0,0.0,0,0,20,0,0,0,-0.0292,95.6255,6.8213,0.4212,54.896885,9.784269,108.3,5.845,1.85,335.95,0.000000,0.000000,0.000000,0.000000
1390094724,0,0,0.0,0,0,20,0,0,0,-0.0292,95.6255,6.8213,0.4212,54.896885,9.784269,108.3,5.845,1.85,335.95,0.000000,0.000000,0.000000,0.000000
1390094725,0,0,0.0,0,0,20,0,0,0,-0.0292,95.6255,6.8213,0.4212,54.896885,9.784269,108.3,5.845,1.85,335.95,0.000000,0.000000,0.000000,0.000000
1390094725,0,0,0.0,0,0,20,0,0,0,-0.0292,95.6255,6.8213,0.4212,54.896885,9.784269,108.3,5.845,1.85,335.95,0.000000,0.000000,0.000000,0.000000
1390094725,0,0,0.0,0,0,20,0,0,0,-0.0292,95.6255,6.8213,0.4212,54.896885,9.784269,108.3,5.845,1.85,335.95,0.000000,0.000000,0.000000,0.000000
1390094725,0,0,0.0,0,0,20,0,0,0,-0.0292,95.6255,6.8213,0.4212,54.896885,9.784269,108.3,5.845,1.85,335.95,0.000000,0.000000,0.000000,0.000000
1390094726,0,0,0.0,0,0,20,0,0,0,-0.0292,95.6255,6.8213,0.4212,54.896885,9.784269,108.3,5.845,1.85,335.95,0.000000,0.000000,0.000000,0.000000
1390094726,0,0,0.0,0,0,20,0,0,0,-0.0292,95.6255,6.8213,0.4212,54.896885,9.784269,108.3,5.845,1.85,335.95,0.000000,0.000000,0.000000,0.000000
1390094726,0,0,0.0,0,0,20,0,0,0,-0.0292,95.6255,6.8213,0.4212,54.896885,9.784269,108.3,5.845,1.85,335.95,0.000000,0.000000,0.000000,0.000000
1390094726,0,0,0.0,0,0,20,0,0,0,-0.0292,95.6255,6.8213,0.4212,54.896885,9.784269,108.3,5.845,1.85,335.95,0.000000,0.000000,0.000000,0.000000
1390094727,0,0,0.0,0,0,20,0,0,0,-0.0292,95.6255,6.8213,0.4212,54.896885,9.784269,108.3,5.845,1.85,335.95,0.000000,0.000000,0.000000,0.000000
1390094727,0,0,0.0,0,0,20,0,0,0,-0.0292,95.6255,6.8213,0.4212,54.896885,9.784269,108.3,5.845,1.85,335.95,0.000000,0.000000,0.000000,0.000000
1390094727,0,0,0.0,0,0,20,0,0,0,-0.0292,95.6255,6.8213,0.4212,54.896885,9.784269,108.3,5.845,1.85,335.95,0.000000,0.000000,0.000000,0.000000
1390094727,0,0,0.0,0,0,20,0,0,0,-0.0292,95.6255,6.8213,0.4212,54.896885,9.784269,108.3,5.845,1.85,335.95,0.000000,0.000000,0.000000,0.000000
1390094728,0,0,0.0,0,0,20,0,0,0,-0.0292,95.6255,6.8213,0.4212,54.896885,9.784269,108.3,5.845,1.85,335.95,0.000000,0.000000,0.000000,0.000000
1390094728,0,0,0.0,0,0,20,0,0,0,-0.0292,95.6255,6.8213,0.4212,54.896885,9.784269,108.3,5.845,1.85,335.95,0.000000,0.000000,0.000000,0.000000
1390094728,0,0,0.0,0,0,20,0,0,0,-0.0292,95.6255,6.8213,0.4212,54.896885,9.784269,108.3,5.845,1.85,335.95,0.000000,0.000000,0.000000,0.000000
1390094728,0,0,0.0,0,0,20,0,0,0,-0.0292,95.6255,6.8213,0.4212,54.896885,9.784269,108.3,5.845,1.85,335.95,0.000000,0.000000,0.000000,0.000000
1390094729,0,0,0.0,0,0,20,0,0,0,-0.0292,95.6255,6.8213,0.4212,54.896885,9.784269,108.3,5.845,1.85,335.95,0.000000,0.000000,0.000000,0.000000
1390094729,0,0,0.0,0,0,20,0,0,0,-0.0292,95.6255,6.8213,0.4212,54.896885,9.784269,108.3,5.845,1.85,335.95,0.000000,0.000000,0.000000,0.000000
1390094729,0,0,0.0,0,0,20,0,0,0,-0.0292,95.6255,6.8213,0.4212,54.896885,9.784269,108.3,5.845,1.85,335.95,0.000000,0.000000,0.000000,0.000000
1390094729,0,0,0.0,0,0,20,0,0,0,-0.0292,95.6255,6.8213,0.4212,54.896885,9.784269,108.3,5.845,1.85,335.95,0.000000,0.000000,0.000000,0.000000
1390094730,0,0,0.0,0,0,20,0,0,0,-0.0292,95.6255,6.8213,0.4212,54.896885,9.784269,108.3,5.845,1.85,335.95,0.000000,0.000000,0.000000,0.000000
1390094730,0,0,0.0,0,0,20,0,0,0,-0.0292,95.6255,6.8213,0.4212,54.896885,9.784269,108.3,5.845,1.85,335.95,0.000000,0.000000,0.000000,0.000000
1390094730,0,0,0.0,0,0,20,0,0,0,-0.0292,95.6255,6.8213,0.4212,54.896885,9.784269,108.3,5.845,1.85,335.95,0.000000,0.000000,0.000000,0.000000
1390094730,0,0,0.0,0,0,20,0,0,0,-0.0292,95.6255,6.8213,0.4212,54.896885,9.784269,108.3,5.845,1.85,335.95,0.000000,0.000000,0.000000,0.000000
1390094731,0,0,0.0,0,0,20,0,0,0,-0.0292,95.6255,6.8213,0.4212,54.896885,9.784269,108.3,5.845,1.85,335.95,0.000000,0.000000,0.000000,0.000000
1390094731,0,0,0.0,0,0,20,0,0,0,-0.0292,95.6255,6.8213,0.4212,54.896885,9.784269,108.3,5.845,1.85,335.95,0.000000,0.000000,0.000000,0.000000
1390094731,0,0,0.0,0,0,20,0,0,0,-0.0292,95.6255,6.8213,0.4212,54.896885,9.784269,108.3,5.845,1.85,335.95,0.000000,0.000000,0.000000,0.000000
1390094731,0,0,0.0,0,0,20,0,0,0,-0.0292,95.6255,6.8213,0.4212,54.896885,9.784269,108.3,5.845,1.85,335.95,0.000000,0.000000,0.000000,0.000000
1390094732,0,0,0.0,0,0,20,0,0,0,-0.0292,95.6255,6.8213,0.4212,54.896885,9.784269,108.3,5.845,1.85,335.95,0.000000,0.000000,0.000000,0.000000
1390094732,0,0,0.0,0,0,20,0,0,0,-0.0292,95.6255,6.8213,0.4212,54.896885,9.784269,108.3,5.845,1.85,335.95,0.000000,0.000000,0.000000,0.000000
1390094732,0,0,0.0,0,0,20,0,0,0,-0.0292,95.6255,6.8213,0.4212,54.896885,9.784269,108.3,5.845,1.85,335.95,0.000000,0.000000,0.000000,0.000000
1390094732,0,0,0.0,0,0,20,0,0,0,-0.0292,95.6255,6.8213,0.4212,54.896885,9.784269,108.3,5.845,1.85,335.95,0.000000,0.000000,0.000000,0.000000
1390094733,0,0,0.0,0,0,20,0,0,0,-0.0292,95.6255,6.8213,0.4212,54.896885,9.784269,108.3,5.845,1.85,335.95,0.000000,0.000000,0.000000,0.000000
1390094733,0,0,0.0,0,0,20,0,0,0,-0.0292,95.6255,6.8213,0.4212,54.896885,9.784269,108.3,5.845,1.85,335.95,0.000000,0.000000,0.000000,0.000000
1390094733,0,0,0.0,0,0,20,0,0,0,-0.0292,95.6255,6.8213,0.4212,54.896885,9.784269,108.3,5.845,1.85,335.95,0.000000,0.000000,0.000000,0.000000
1390094733,0,0,0.0,0,0,20,0,0,0,-0.0292,95.6255,6.8213,0.4212,54.896885,9.784269,108.3,5.845,1.85,335.95,0.000000,0.000000,0.000000,0.000000
1390094734,0,0,0.0,0,0,20,0,0,0,-0.0292,95.6255,6.8213,0.4212,54.896885,9.784269,108.3,5.845,1.85,335.95,0.000000,0.000000,0.000000,0.000000
1390094734,0,0,0.0,0,0,20,0,0,0,-0.0292,95.6255,6.8213,0.4212,54.896885,9.784269,108.3,5.845,1.85,335.95,0.000000,0.000000,0.000000,0.000000
1390094734,0,0,0.0,0,0,20,0,0,0,-0.0292,95.6255,6.8213,0.4212,54.896885,9.784269,108.3,5.845,1.85,335.95,0.000000,0.000000,0.000000,0.000000
1390094734,0,0,0.0,0,0,20,0,0,0,-0.0292,95.6255,6.8213,0.4212,54.896885,9.784269,108.3,5.845,1.85,335.95,0.000000,0.000000,0.000000,0.000000
1390094735,0,0,0.0,0,0,20,0,0,0,-0.0292,95.6255,6.8213,0.4212,54.896885,9.784269,108.3,5.845,1.85,335.95,0.000000,0.000000,0.000000,0.000000
1390094735,0,0,0.0,0,0,20,0,0,0,-0.0292,95.6255,6.8213,0.4212,54.896885,9.784269,108.3,5.845,1.85,335.95,0.000000,0.000000,0.000000,0.000000
1390094735,0,0,0.0,0,0,20,0,0,0,-0.0292,95.6255,6.8213,0.4212,54.896885,9.784269,108.3,5.845,1.85,335.95,0.000000,0.000000,0.000000,0.000000
1390094735,0,0,0.0,0,0,20,0,0,0,-0.0292,95.6255,6.8213,0.4212,54.896885,9.784269,108.3,5.845,1.85,335.95,0.000000,0.000000,0.000000,0.000000
1390094736,0,0,0.0,0,0,20,0,0,0,-0.0292,95.6255,6.8213,0.4212,54.896885,9.784269,108.3,5.845,1.85,335.95,0.000000,0.000000,0.000000,0.000000
1390094736,0,0,0.0,0,0,20,0,0,0,-0.0292,95.6255,6.8213,0.4212,54.896885,9.784269,108.3,5.845,1.85,335.95,0.000000,0.000000,0.000000,0.000000
1390094736,0,0,0.0,0,0,20,0,0,0,-0.0292,95.6255,6.8213,0.4212,54.896885,9.784269,108.3,5.845,1.85,335.95,0.000000,0.000000,0.000000,0.000000
1390094736,0,0,0.0,0,0,20,0,0,0,-0.0292,95.6255,6.8213,0.4212,54.896885,9.784269,108.3,5.845,1.85,335.95,0.000000,0.000000,0.000000,0.000000
1390094737,0,0,0.0,0,0,20,0,0,0,-0.0292,95.6255,6.8213,0.4212,54.896885,9.784269,108.3,5.845,1.85,335.95,0.000000,0.000000,0.000000,0.000000
1390094737,0,0,0.0,0,0,20,0,0,0,-0.0292,95.6255,6.8213,0.4212,54.896885,9.784269,108.3,5.845,1.85,335.95,0.000000,0.000000,0.000000,0.000000
1390094737,0,0,0.0,0,0,20,0,0,0,-0.0292,95.6255,6.8213,0.4212,54.896885,9.784269,108.3,5.845,1.85,335.95,0.000000,0.000000,0.000000,0.000000
1390094737,0,0,0.0,0,0,20,0,0,0,-0.0292,95.6255,6.8213,0.4212,54.896885,9.784269,108.3,5.845,1.85,335.95,0.000000,0.000000,0.000000,0.000000
1390094738,0,0,0.0,0,0,20,0,0,0,-0.0292,95.6255,6.8213,0.4212,54.896885,9.784269,108.3,5.845,1.85,335.95,0.000000,0.000000,0.000000,0.000000
1390094738,0,0,0.0,0,0,20,0,0,0,-0.0292,95.6255,6.8213,0.4212,54.896885,9.784269,108.3,5.845,1.85,335.95,0.000000,0.000000,0.000000,0.000000
1390094738,0,0,0.0,0,0,20,0,0,0,-0.0292,95.6255,6.8213,0.4212,54.896885,9.784269,108.3,5.845,1.85,335.95,0.000000,0.000000,0.000000,0.000000
1390094738,0,0,0.0,0,0,20,0,0,0,-0.0292,95.6255,6.8213,0.4212,54.896885,9.784269,108.3,5.845,1.85,335.95,0.000000,0.000000,0.000000,0.000000
1390094739,0,0,0.0,0,0,20,0,0,0,-0.0292,95.6255,6.8213,0.4212,54.896885,9.784269,108.3,5.845,1.85,335.95,0.000000,0.000000,0.000000,0.000000
1390094739,0,0,0.0,0,0,20,0,0,0,-0.0292,95.6255,6.8213,0.4212,54.896885,9.784269,108.3,5.845,1.85,335.95,0.000000,0.000000,0.000000,0.000000
1390094739,0,0,0.0,0,0,20,0,0,0,-0.0292,95.6255,6.8213,0.4212,54.896885,9.784269,108.3,5.845,1.85,335.95,0.000000,0.000000,0.000000,0.000000
1390094739,0,0,0.0,0,0,20,0,0,0,-0.0292,95.6255,6.8213,0.4212,54.896885,9.784269,108.3,5.845,1.85,335.95,0.000000,0.000000,0.000000,0.000000
1390094740,0,0,0.0,0,0,20,0,0,0,-0.0292,95.6255,6.8213,0.4212,54.896885,9.784269,108.3,5.845,1.85,335.95,0.000000,0.000000,0.000000,0.000000
1390094740,0,0,0.0,0,0,20,0,0,0,-0.0292,95.6255,6.8213,0.4212,54.896885,9.784269,108.3,5.845,1.85,335.95,0.000000,0.000000,0.000000,0.000000
1390094740,0,0,0.0,0,0,20,0,0,0,-0.0292,95.6255,6.8213,0.4212,54.896885,9.784269,108.3,5.845,1.85,335.95,0.000000,0.000000,0.000000,0.000000
1390094740,0,0,0.0,0,0,20,0,0,0,-0.0292,95.6255,6.8213,0.4212,54.896885,9.784269,108.3,5.845,1.85,335.95,0.000000,0.000000,0.000000,0.000000
1390094741,0,0,0.0,0,0,20,0,0,0,-0.0292,95.6255,6.8213,0.4212,54.896885,9.784269,108.3,5.845,1.85,335.95,0.000000,0.000000,0.000000,0.000000
1390094741,0,0,0.0,0,0,20,0,0,0,-0.0292,95.6255,6.8213,0.4212,54.896885,9.784269,108.3,5.845,1.85,335.95,0.000000,0.000000,0.000000,0.000000
1390094741,0,0,0.0,0,0,20,0,0,0,-0.0292,95.6255,6.8213,0.4212,54.896885,9.784269,108.3,5.845,1.85,335.95,0.000000,0.000000,0.000000,0.000000
1390094741,0,0,0.0,0,0,20,0,0,0,-0.0292,95.6255,6.8213,0.4212,54.896885,9.784269,108.3,5.845,1.85,335.95,0.000000,0.000000,0.000000,0.000000
1390094742,0,0,0.0,0,0,20,0,0,0,-0.0292,95.6255,6.8213,0.4212,54.896885,9.784269,108.3,5.845,1.85,335.95,0.000000,0.000000,0.000000,0.000000
1390094742,0,0,0.0,0,0,20,0,0,0,-0.0292,95.6255,6.8213,0.4212,54.896885,9.784269,108.3,5.845,1.85,335.95,0.000000,0.000000,0.000000,0.000000
1390094742,0,0,0.0,0,0,20,0,0,0,-0.0292,95.6255,6.8213,0.4212,54.896885,9.784269,108.3,5.845,1.85,335.95,0.000000,0.000000,0.000000,0.000000
1390094742,0,0,0.0,0,0,20,0,0,0,-0.0292,95.6255,6.8213,0.4212,54.896885,9.784269,108.3,5.845,1.85,335.95,0.000000,0.000000,0.000000,0.000000
1390094743,0,0,0.0,0,0,20,0,0,0,-0.0292,95.6255,6.8213,0.4212,54.896885,9.784269,108.3,5.845,1.85,335.95,0.000000,0.000000,0.000000,0.000000
1390094743,0,0,0.0,0,0,20,0,0,0,-0.0292,95.6255,6.8213,0.4212,54.896885,9.784269,108.3,5.845,1.85,335.95,0.000000,0.000000,0.000000,0.000000
1390094743,0,0,0.0,0,0,20,0,0,0,-0.0292,95.6255,6.8213,0.4212,54.896885,9.784269,108.3,5.845,1.85,335.95,0.000000,0.000000,0.000000,0.000000
1390094743,0,0,0.0,0,0,20,0,0,0,-0.0292,95.6255,6.8213,0.4212,54.896885,9.784269,108.3,5.845,1.85,335.95,0.000000,0.000000,0.000000,0.000000
1390094744,0,0,0.0,0,0,20,0,0,0,-0.0292,95.6255,6.8213,0.4212,54.896885,9.784269,108.3,5.845,1.85,335.95,0.000000,0.000000,0.000000,0.000000
1390094744,0,0,0.0,0,0,20,0,0,0,-0.0292,95.6255,6.8213,0.4212,54.896885,9.784269,108.3,5.845,1.85,335.95,0.000000,0.000000,0.000000,0.000000
1390094744,0,0,0.0,0,0,20,0,0,0,-0.0292,95.6255,6.8213,0.4212,54.896885,9.784269,108.3,5.845,1.85,335.95,0.000000,0.000000,0.000000,0.000000
1390094744,0,0,0.0,0,0,20,0,0,0,-0.0292,95.6255,6.8213,0.4212,54.896885,9.784269,108.3,5.845,1.85,335.95,0.000000,0.000000,0.000000,0.000000
1390094745,0,0,0.0,0,0,20,0,0,0,-0.0292,95.6255,6.8213,0.4212,54.896885,9.784269,108.3,5.845,1.85,335.95,0.000000,0.000000,0.000000,0.000000
1390094745,0,0,0.0,0,0,20,0,0,0,-0.0292,95.6255,6.8213,0.4212,54.896885,9.784269,108.3,5.845,1.85,335.95,0.000000,0.000000,0.000000,0.000000
1390094745,0,0,0.0,0,0,20,0,0,0,-0.0292,95.6255,6.8213,0.4212,54.896885,9.784269,108.3,5.845,1.85,335.95,0.000000,0.000000,0.000000,0.000000
1390094745,0,0,0.0,0,0,20,0,0,0,-0.0292,95.6255,6.8213,0.4212,54.896885,9.784269,108.3,5.845,1.85,335.95,0.000000,0.000000,0.000000,0.000000
1390094746,0,0,0.0,0,0,20,0,0,0,-0.0292,95.6255,6.8213,0.4212,54.896885,9.784269,108.3,5.845,1.85,335.95,0.000000,0.000000,0.000000,0.000000
1390094746,0,0,0.0,0,0,20,0,0,0,-0.0292,95.6255,6.8213,0.4212,54.896885,9.784269,108.3,5.845,1.85,335.95,0.000000,0.000000,0.000000,0.000000
1390094746,0,0,0.0,0,0,20,0,0,0,-0.0292,95.6255,6.8213,0.4212,54.896885,9.784269,108.3,5.845,1.85,335.95,0.000000,0.000000,0.000000,0.000000
1390094746,0,0,0.0,0,0,20,0,0,0,-0.0292,95.6255,6.8213,0.4212,54.896885,9.784269,108.3,5.845,1.85,335.95,0.000000,0.000000,0.000000,0.000000
1390094747,0,0,0.0,0,0,20,0,0,0,-0.0292,95.6255,6.8213,0.4212,54.896885,9.784269,108.3,5.845,1.85,335.95,0.000000,0.000000,0.000000,0.000000
1390094747,0,0,0.0,0,0,20,0,0,0,-0.0292,95.6255,6.8213,0.4212,54.896885,9.784269,108.3,5.845,1.85,335.95,0.000000,0.000000,0.000000,0.000000
1390094747,0,0,0.0,0,0,20,0,0,0,-0.0292,95.6255,6.8213,0.4212,54.896885,9.784269,108.3,5.845,1.85,335.95,0.000000,0.000000,0.000000,0.000000
1390094747,0,0,0.0,0,0,20,0,0,0,-0.0292,95.6255,6.8213,0.4212,54.896885,9.784269,108.3,5.845,1.85,335.95,0.000000,0.000000,0.000000,0.000000
1390094748,0,0,0.0,0,0,20,0,0,0,-0.0292,95.6255,6.8213,0.4212,54.896885,9.784269,108.3,5.845,1.85,335.95,0.000000,0.000000,0.000000,0.000000
1390094748,0,0,0.0,0,0,20,0,0,0,-0.0292,95.6255,6.8213,0.4212,54.896885,9.784269,108.3,5.845,1.85,335.95,0.000000,0.000000,0.000000,0.000000
1390094748,0,0,0.0,0,0,20,0,0,0,-0.0292,95.6255,6.8213,0.4212,54.896885,9.784269,108.3,5.845,1.85,335.95,0.000000,0.000000,0.000000,0.000000
1390094748,0,0,0.0,0,0,20,0,0,0,-0.0292,95.6255,6.8213,0.4212,54.896885,9.784269,108.3,5.845,1.85,335.95,0.000000,0.000000,0.000000,0.000000
1390094749,0,0,0.0,0,0,20,0,0,0,-0.0292,95.6255,6.8213,0.4212,54.896885,9.784269,108.3,5.845,1.85,335.95,0.000000,0.000000,0.000000,0.000000
1390094749,0,0,0.0,0,0,20,0,0,0,-0.0292,95.6255,6.8213,0.4212,54.896885,9.784269,108.3,5.845,1.85,335.95,0.000000,0.000000,0.000000,0.000000
1390094749,0,0,0.0,0,0,20,0,0,0,-0.0292,95.6255,6.8213,0.4212,54.896885,9.784269,108.3,5.845,1.85,335.95,0.000000,0.000000,0.000000,0.000000
1390094749,0,0,0.0,0,0,20,0,0,0,-0.0292,95.6255,6.8213,0.4212,54.896885,9.784269,108.3,5.845,1.85,335.95,0.000000,0.000000,0.000000,0.000000
1390094750,0,0,0.0,0,0,20,0,0,0,-0.0292,95.6255,6.8213,0.4212,54.896885,9.784269,108.3,5.845,1.85,335.95,0.000000,0.000000,0.000000,0.000000
1390094750,0,0,0.0,0,0,20,0,0,0,-0.0292,95.6255,6.8213,0.4212,54.896885,9.784269,108.3,5.845,1.85,335.95,0.000000,0.000000,0.000000,0.000000
1390094750,0,0,0.0,0,0,20,0,0,0,-0.0292,95.6255,6.8213,0.4212,54.896885,9.784269,108.3,5.845,1.85,335.95,0.000000,0.000000,0.000000,0.000000
1390094750,0,0,0.0,0,0,20,0,0,0,-0.0292,95.6255,6.8213,0.4212,54.896885,9.784269,108.3,5.845,1.85,335.95,0.000000,0.000000,0.000000,0.000000
1390094751,0,0,0.0,0,0,20,0,0,0,-0.0292,95.6255,6.8213,0.4212,54.896885,9.784269,108.3,5.845,1.85,335.95,0.000000,0.000000,0.000000,0.000000
1390094751,0,0,0.0,0,0,20,0,0,0,-0.0292,95.6255,6.8213,0.4212,54.896885,9.784269,108.3,5.845,1.85,335.95,0.000000,0.000000,0.000000,0.000000
1390094751,0,0,0.0,0,0,20,0,0,0,-0.0292,95.6255,6.8213,0.4212,54.896885,9.784269,108.3,5.845,1.85,335.95,0.000000,0.000000,0.000000,0.000000
1390094751,0,0,0.0,0,0,20,0,0,0,-0.0292,95.6255,6.8213,0.4212,54.896885,9.784269,108.3,5.845,1.85,335.95,0.000000,0.000000,0.000000,0.000000
1390094752,0,0,0.0,0,0,20,0,0,0,-0.0292,95.6255,6.8213,0.4212,54.896885,9.784269,108.3,5.845,1.85,335.95,0.000000,0.000000,0.000000,0.000000
1390094752,0,0,0.0,0,0,20,0,0,0,-0.0292,95.6255,6.8213,0.4212,54.896885,9.784269,108.3,5.845,1.85,335.95,0.000000,0.000000,0.000000,0.000000
1390094752,0,0,0.0,0,0,20,0,0,0,-0.0292,95.6255,6.8213,0.4212,54.896885,9.784269,108.3,5.845,1.85,335.95,0.000000,0.000000,0.000000,0.000000
1390094752,0,0,0.0,0,0,20,0,0,0,-0.0292,95.6255,6.8213,0.4212,54.896885,9.784269,108.3,5.845,1.85,335.95,0.000000,0.000000,0.000000,0.000000
1390094753,0,0,0.0,0,0,20,0,0,0,-0.0292,95.6255,6.8213,0.4212,54.896885,9.784269,108.3,5.845,1.85,335.95,0.000000,0.000000,0.000000,0.000000
1390094753,0,0,0.0,0,0,20,0,0,0,-0.0292,95.6255,6.8213,0.4212,54.896885,9.784269,108.3,5.845,1.85,335.95,0.000000,0.000000,0.000000,0.000000
1390094753,0,0,0.0,0,0,20,0,0,0,-0.0292,95.6255,6.8213,0.4212,54.896885,9.784269,108.3,5.845,1.85,335.95,0.000000,0.000000,0.000000,0.000000
1390094753,0,0,0.0,0,0,20,0,0,0,-0.0292,95.6255,6.8213,0.4212,54.896885,9.784269,108.3,5.845,1.85,335.95,0.000000,0.000000,0.000000,0.000000
1390094754,0,0,0.0,0,0,20,0,0,0,-0.0292,95.6255,6.8213,0.4212,54.896885,9.784269,108.3,5.845,1.85,335.95,0.000000,0.000000,0.000000,0.000000
1390094754,0,0,0.0,0,0,20,0,0,0,-0.0292,95.6255,6.8213,0.4212,54.896885,9.784269,108.3,5.845,1.85,335.95,0.000000,0.000000,0.000000,0.000000
1390094754,4,0,0.0,0,0,20,0,0,0,-0.0292,95.6255,6.8213,0.4212,54.896885,9.784269,108.3,5.845,1.85,335.95,0.000000,0.000000,0.000000,0.000000
1390094754,1,0,0.0,0,35,24,0,855,50,-0.0292,83.9588,6.8213,0.4212,54.896885,9.784269,108.3,5.845,1.85,335.95,54.895069,9.793790,54.895348,9.797490
1390094755,1,0,0.0,0,35,28,0,683,100,-0.0292,72.2922,6.8213,0.4212,54.896889,9.784284,108.3,5.845,1.85,335.95,54.895348,9.797490,54.894039,9.801540
1390094755,1,0,0.0,0,35,32,0,500,150,-0.0292,60.6255,6.8213,0.4212,54.896896,9.784305,108.3,5.845,1.85,335.95,54.894039,9.801540,54.893795,9.802299
1390094755,1,0,0.0,0,35,36,0,315,200,-0.0292,48.9588,6.8213,0.4212,54.896908,9.784328,108.3,5.845,1.85,335.95,54.893795,9.802299,54.893364,9.803688
1390094755,1,0,0.0,0,35,32,0,142,150,-0.0292,37.2922,6.8213,0.4212,54.896923,9.784346,108.3,5.845,1.85,335.95,54.893364,9.803688,54.892704,9.801139
1390094756,1,0,0.0,0,35,36,0,21,100,-0.0292,25.6255,6.8213,0.4212,54.896938,9.784359,108.3,5.845,1.85,335.95,54.892704,9.801139,54.891663,9.800174
1390094756,1,0,0.0,0,26,32,0,0,50,-0.0292,16.9588,6.8213,0.4212,54.896950,9.784366,108.3,5.845,1.85,335.95,54.891663,9.800174,54.892929,9.805077
1390094756,1,0,0.0,0,17,28,0,0,0,-0.0292,11.2922,6.8213,0.4212,54.896957,9.784369,108.3,5.845,1.85,335.95,54.892929,9.805077,54.892498,9.806466
1390094756,1,0,0.0,0,11,24,0,0,0,-0.0292,7.6255,6.8213,0.4212,54.896957,9.784369,108.3,5.845,1.85,335.95,54.892498,9.806466,54.891232,9.801563
1390094757,1,0,0.0,0,8,20,0,0,0,-0.0292,4.9588,6.8213,0.4212,54.896957,9.784369,108.3,5.845,1.85,335.95,54.891232,9.801563,54.890800,9.802953
1390094757,1,0,0.0,0,5,16,0,0,0,-0.0292,3.2922,6.8213,0.4212,54.896957,9.784369,108.3,5.845,1.85,335.95,54.890800,9.802953,54.891651,9.806246
1390094757,1,0,0.0,0,3,12,0,0,0,-0.0292,2.2922,6.8213,0.4212,54.896957,9.784369,108.3,5.845,1.85,335.95,54.891651,9.806246,54.890560,9.805087
1390094758,1,0,0.0,0,2,8,0,0,0,-0.0292,1.6255,6.8213,0.4212,54.896957,9.784369,108.3,5.845,1.85,335.95,54.890560,9.805087,54.890366,9.804342
1390094758,1,0,0.0,0,2,4,0,0,0,-0.0292,0.9588,6.8213,0.4212,54.896957,9.784369,108.3,5.845,1.85,335.95,54.890366,9.804342,54.890846,9.801930
1390094758,1,0,0.0,0,1,0,0,0,0,-0.0292,0.6255,6.8213,0.4212,54.896957,9.784369,108.3,5.845,1.85,335.95,54.890846,9.801930,54.889477,9.798280
1390094758,1,0,0.0,0,1,4,0,0,0,-0.0292,0.2922,6.8213,0.4212,54.896957,9.784369,108.3,5.845,1.85,335.95,54.889477,9.798280,54.891819,9.794550
1390094759,1,0,0.0,0,0,0,0,0,0,-0.0292,0.2922,6.8213,0.4212,54.896957,9.784369,108.3,5.845,1.85,335.95,54.891819,9.794550,54.895348,9.797490
1390094759,1,0,0.0,0,0,4,0,0,0,-0.0292,0.2922,6.8213,0.4212,54.896957,9.784369,108.3,5.845,1.85,335.95,54.895348,9.797490,54.895069,9.793790
1390094759,1,0,0.0,0,0,0,0,0,0,-0.0292,0.2922,6.8213,0.4212,54.896957,9.784369,108.3,5.845,1.85,335.95,54.895348,9.797490,54.895069,9.793790
1390094759,3,0,0.0,0,0,4,0,10,50,-0.0292,0.2922,6.8213,0.4212,54.896957,9.784369,108.3,5.845,1.85,335.95,54.895348,9.797490,54.896957,9.784369
1390094760,3,0,0.0,0,0,0,0,0,0,-0.0292,0.2922,6.8213,0.4212,54.896969,9.784369,108.3,5.845,1.85,335.95,54.895348,9.797490,54.896957,9.784369
1390094760,3,0,0.0,0,0,4,0,0,0,-0.0292,0.2922,6.8213,0.4212,54.896969,9.784369,108.3,5.845,1.85,335.95,54.895348,9.797490,54.896957,9.784369
1390094760,3,0,0.0,0,0,0,0,0,0,-0.0292,0.2922,6.8213,0.4212,54.896969,9.784369,108.3,5.845,1.85,335.95,54.895348,9.797490,54.896957,9.784369
1390094760,3,0,0.0,0,0,4,0,0,0,-0.0292,0.2922,6.8213,0.4212,54.896969,9.784369,108.3,5.845,1.85,335.95,54.895348,9.797490,54.896957,9.784369
1390094761,3,0,0.0,0,0,0,0,0,0,-0.0292,0.2922,6.8213,0.4212,54.896969,9.784369,108.3,5.845,1.85,335.95,54.895348,9.797490,54.896957,9.784369
1390094761,3,0,0.0,0,0,4,0,0,0,-0.0292,0.2922,6.8213,0.4212,54.896969,9.784369,108.3,5.845,1.85,335.95,54.895348,9.797490,54.896957,9.784369
1390094761,3,0,0.0,0,0,0,0,0,0,-0.0292,0.2922,6.8213,0.4212,54.896969,9.784369,108.3,5.845,1.85,335.95,54.895348,9.797490,54.896957,9.784369
1390094761,3,0,0.0,0,0,4,0,0,0,-0.0292,0.2922,6.8213,0.4212,54.896969,9.784369,108.3,5.845,1.85,335.95,54.895348,9.797490,54.896957,9.784369
1390094762,3,0,0.0,0,0,0,0,0,0,-0.0292,0.2922,6.8213,0.4212,54.896969,9.784369,108.3,5.845,1.85,335.95,54.895348,9.797490,54.896957,9.784369
1390094762,3,0,0.0,0,0,4,0,0,0,-0.0292,0.2922,6.8213,0.4212,54.896969,9.784369,108.3,5.845,1.85,335.95,54.895348,9.797490,54.896957,9.784369
1390094762,3,0,0.0,0,0,0,0,0,0,-0.0292,0.2922,6.8213,0.4212,54.896969,9.784369,108.3,5.845,1.85,335.95,54.895348,9.797490,54.896957,9.784369
1390094762,3,0,0.0,0,0,4,0,0,0,-0.0292,0.2922,6.8213,0.4212,54.896969,9.784369,108.3,5.845,1.85,335.95,54.895348,9.797490,54.896957,9.784369
1390094763,3,0,0.0,0,0,0,0,0,0,-0.0292,0.2922,6.8213,0.4212,54.896969,9.784369,108.3,5.845,1.85,335.95,54.895348,9.797490,54.896957,9.784369
1390094763,3,0,0.0,0,0,4,0,0,0,-0.0292,0.2922,6.8213,0.4212,54.896969,9.784369,108.3,5.845,1.85,335.95,54.895348,9.797490,54.896957,9.784369
1390094763,3,0,0.0,0,0,0,0,0,0,-0.0292,0.2922,6.8213,0.4212,54.896969,9.784369,108.3,5.845,1.85,335.95,54.895348,9.797490,54.896957,9.784369
1390094763,3,0,0.0,0,0,4,0,0,0,-0.0292,0.2922,6.8213,0.4212,54.896969,9.784369,108.3,5.845,1.85,335.95,54.895348,9.797490,54.896957,9.784369
1390094764,3,0,0.0,0,0,0,0,0,0,-0.0292,0.2922,6.8213,0.4212,54.896969,9.784369,108.3,5.845,1.85,335.95,54.895348,9.797490,54.896957,9.784369
1390094764,3,0,0.0,0,0,4,0,0,0,-0.0292,0.2922,6.8213,0.4212,54.896969,9.784369,108.3,5.845,1.85,335.95,54.895348,9.797490,54.896957,9.784369
1390094764,3,0,0.0,0,0,0,0,0,0,-0.0292,0.2922,6.8213,0.4212,54.896969,9.784369,108.3,5.845,1.85,335.95,54.895348,9.797490,54.896957,9.784369
1390094764,3,0,0.0,0,0,4,0,20,50,-0.0292,0.2922,6.8213,0.4212,54.896969,9.784369,108.3,5.845,1.85,335.95,54.895348,9.797490,54.896957,9.784369
1390094765,3,0,0.0,0,0,0,0,0,0,-0.0292,0.2922,6.8213,0.4212,54.896976,9.784369,108.3,5.845,1.85,335.95,54.895348,9.797490,54.896957,9.784369
1390094765,3,0,0.0,0,0,4,0,0,0,-0.0292,0.2922,6.8213,0.4212,54.896976,9.784369,108.3,5.845,1.85,335.95,54.895348,9.797490,54.896957,9.784369
1390094765,3,0,0.0,0,0,0,0,0,0,-0.0292,0.2922,6.8213,0.4212,54.896976,9.784369,108.3,5.845,1.85,335.95,54.895348,9.797490,54.896957,9.784369
1390094765,3,0,0.0,0,0,4,0,0,0,-0.0292,0.2922,6.8213,0.4212,54.896976,9.784369,108.3,5.845,1.85,335.95,54.895348,9.797490,54.896957,9.784369
1390094766,3,0,0.0,0,0,0,0,0,0,-0.0292,0.2922,6.8213,0.4212,54.896976,9.784369,108.3,5.845,1.85,335.95,54.895348,9.797490,54.896957,9.784369
1390094766,3,0,0.0,0,0,4,0,0,0,-0.0292,0.2922,6.8213,0.4212,54.896976,9.784369,108.3,5.845,1.85,335.95,54.895348,9.797490,54.896957,9.784369
1390094766,3,0,0.0,0,0,0,0,0,0,-0.0292,0.2922,6.8213,0.4212,54.896976,9.784369,108.3,5.845,1.85,335.95,54.895348,9.797490,54.896957,9.784369
1390094766,3,0,0.0,0,0,4,0,0,0,-0.0292,0.2922,6.8213,0.4212,54.896976,9.784369,108.3,5.845,1.85,335.95,54.895348,9.797490,54.896957,9.784369
1390094767,3,0,0.0,0,0,0,0,0,0,-0.0292,0.2922,6.8213,0.4212,54.896976,9.784369,108.3,5.845,1.85,335.95,54.895348,9.797490,54.896957,9.784369
1390094767,3,0,0.0,0,0,4,0,0,0,-0.0292,0.2922,6.8213,0.4212,54.896976,9.784369,108.3,5.845,1.85,335.95,54.895348,9.797490,54.896957,9.784369
1390094767,3,0,0.0,0,0,0,0,0,0,-0.0292,0.2922,6.8213,0.4212,54.896976,9.784369,108.3,5.845,1.85,335.95,54.895348,9.797490,54.896957,9.784369
1390094767,3,0,0.0,0,0,4,0,0,0,-0.0292,0.2922,6.8213,0.4212,54.896976,9.784369,108.3,5.845,1.85,335.95,54.895348,9.797490,54.896957,9.784369
1390094768,3,0,0.0,0,0,0,0,0,0,-0.0292,0.2922,6.8213,0.4212,54.896976,9.784369,108.3,5.845,1.85,335.95,54.895348,9.797490,54.896957,9.784369
1390094768,3,0,0.0,0,0,4,0,0,0,-0.0292,0.2922,6.8213,0.4212,54.896976,9.784369,108.3,5.845,1.85,335.95,54.895348,9.797490,54.896957,9.784369
1390094768,3,0,0.0,0,0,0,0,0,0,-0.0292,0.2922,6.8213,0.4212,54.896976,9.784369,108.3,5.845,1.85,335.95,54.895348,9.797490,54.896957,9.784369
1390094768,3,0,0.0,0,0,4,0,0,0,-0.0292,0.2922,6.8213,0.4212,54.896976,9.784369,108.3,5.845,1.85,335.95,54.895348,9.797490,54.896957,9.784369
1390094769,3,0,0.0,0,0,0,0,0,0,-0.0292,0.2922,6.8213,0.4212,54.896976,9.784369,108.3,5.845,1.85,335.95,54.895348,9.797490,54.896957,9.784369
1390094769,3,0,0.0,0,0,4,0,0,0,-0.0292,0.2922,6.8213,0.4212,54.896976,9.784369,108.3,5.845,1.85,335.95,54.895348,9.797490,54.896957,9.784369
1390094769,3,0,0.0,0,0,0,0,0,0,-0.0292,0.2922,6.8213,0.4212,54.896976,9.784369,108.3,5.845,1.85,335.95,54.895348,9.797490,54.896957,9.784369
1390094769,3,0,0.0,0,0,4,0,30,50,-0.0292,0.2922,6.8213,0.4212,54.896976,9.784369,108.3,5.845,1.85,335.95,54.895348,9.797490,54.896957,9.784369
1390094770,3,0,0.0,0,0,0,0,0,0,-0.0292,0.2922,6.8213,0.4212,54.896984,9.784369,108.3,5.845,1.85,335.95,54.895348,9.797490,54.896957,9.784369
1390094770,3,0,0.0,0,0,4,0,0,0,-0.0292,0.2922,6.8213,0.4212,54.896984,9.784369,108.3,5.845,1.85,335.95,54.895348,9.797490,54.896957,9.784369
1390094770,3,0,0.0,0,0,0,0,0,0,-0.0292,0.2922,6.8213,0.4212,54.896984,9.784369,108.3,5.845,1.85,335.95,54.895348,9.797490,54.896957,9.784369
1390094770,3,0,0.0,0,0,4,0,0,0,-0.0292,0.2922,6.8213,0.4212,54.896984,9.784369,108.3,5.845,1.85,335.95,54.895348,9.797490,54.896957,9.784369
1390094771,3,0,0.0,0,0,0,0,0,0,-0.0292,0.2922,6.8213,0.4212,54.896984,9.784369,108.3,5.845,1.85,335.95,54.895348,9.797490,54.896957,9.784369
1390094771,3,0,0.0,0,0,4,0,0,0,-0.0292,0.2922,6.8213,0.4212,54.896984,9.784369,108.3,5.845,1.85,335.95,54.895348,9.797490,54.896957,9.784369
1390094771,3,0,0.0,0,0,0,0,0,0,-0.0292,0.2922,6.8213,0.4212,54.896984,9.784369,108.3,5.845,1.85,335.95,54.895348,9.797490,54.896957,9.784369
1390094771,3,0,0.0,0,0,4,0,0,0,-0.0292,0.2922,6.8213,0.4212,54.896984,9.784369,108.3,5.845,1.85,335.95,54.895348,9.797490,54.896957,9.784369
1390094772,3,0,0.0,0,0,0,0,0,0,-0.0292,0.2922,6.8213,0.4212,54.896984,9.784369,108.3,5.845,1.85,335.95,54.895348,9.797490,54.896957,9.784369
1390094772,3,0,0.0,0,0,4,0,0,0,-0.0292,0.2922,6.8213,0.4212,54.896984,9.784369,108.3,5.845,1.85,335.95,54.895348,9.797490,54.896957,9.784369
1390094772,3,0,0.0,0,0,0,0,0,0,-0.0292,0.2922,6.8213,0.4212,54.896984,9.784369,108.3,5.845,1.85,335.95,54.895348,9.797490,54.896957,9.784369
1390094772,3,0,0.0,0,0,4,0,0,0,-0.0292,0.2922,6.8213,0.4212,54.896984,9.784369,108.3,5.845,1.85,335.95,54.895348,9.797490,54.896957,9.784369
1390094773,3,0,0.0,0,0,0,0,0,0,-0.0292,0.2922,6.8213,0.4212,54.896984,9.784369,108.3,5.845,1.85,335.95,54.895348,9.797490,54.896957,9.784369
1390094773,3,0,0.0,0,0,4,0,0,0,-0.0292,0.2922,6.8213,0.4212,54.896984,9.784369,108.3,5.845,1.85,335.95,54.895348,9.797490,54.896957,9.784369
1390094773,3,0,0.0,0,0,0,0,0,0,-0.0292,0.2922,6.8213,0.4212,54.896984,9.784369,108.3,5.845,1.85,335.95,54.895348,9.797490,54.896957,9.784369
1390094773,3,0,0.0,0,0,4,0,0,0,-0.0292,0.2922,6.8213,0.4212,54.896984,9.784369,108.3,5.845,1.85,335.95,54.895348,9.797490,54.896957,9.784369
1390094774,3,0,0.0,0,0,0,0,0,0,-0.0292,0.2922,6.8213,0.4212,54.896984,9.784369,108.3,5.845,1.85,335.95,54.895348,9.797490,54.896957,9.784369
1390094774,3,0,0.0,0,0,4,0,0,0,-0.0292,0.2922,6.8213,0.4212,54.896984,9.784369,108.3,5.845,1.85,335.95,54.895348,9.797490,54.896957,9.784369
1390094774,3,0,0.0,0,0,0,0,0,0,-0.0292,0.2922,6.8213,0.4212,54.896984,9.784369,108.3,5.845,1.85,335.95,54.895348,9.797490,54.896957,9.784369
1390094774,3,0,0.0,0,0,4,0,40,50,-0.0292,0.2922,6.8213,0.4212,54.896984,9.784369,108.3,5.845,1.85,335.95,54.895348,9.797490,54.896957,9.784369
1390094775,3,0,0.0,0,0,0,0,0,0,-0.0292,0.2922,6.8213,0.4212,54.896996,9.784369,108.3,5.845,1.85,335.95,54.895348,9.797490,54.896957,9.784369
1390094775,3,0,0.0,0,0,4,0,0,0,-0.0292,0.2922,6.8213,0.4212,54.896996,9.784369,108.3,5.845,1.85,335.95,54.895348,9.797490,54.896957,9.784369
1390094775,3,0,0.0,0,0,0,0,0,0,-0.0292,0.2922,6.8213,0.4212,54.896996,9.784369,108.3,5.845,1.85,335.95,54.895348,9.797490,54.896957,9.784369
1390094775,3,0,0.0,0,0,4,0,0,0,-0.0292,0.2922,6.8213,0.4212,54.896996,9.784369,108.3,5.845,1.85,335.95,54.895348,9.797490,54.896957,9.784369
1390094776,3,0,0.0,0,0,0,0,0,0,-0.0292,0.2922,6.8213,0.4212,54.896996,9.784369,108.3,5.845,1.85,335.95,54.895348,9.797490,54.896957,9.784369
1390094776,3,0,0.0,0,0,4,0,0,0,-0.0292,0.2922,6.8213,0.4212,54.896996,9.784369,108.3,5.845,1.85,335.95,54.895348,9.797490,54.896957,9.784369
1390094776,3,0,0.0,0,0,0,0,0,0,-0.0292,0.2922,6.8213,0.4212,54.896996,9.784369,108.3,5.845,1.85,335.95,54.895348,9.797490,54.896957,9.784369
1390094776,3,0,0.0,0,0,4,0,0,0,-0.0292,0.2922,6.8213,0.4212,54.896996,9.784369,108.3,5.845,1.85,335.95,54.895348,9.797490,54.896957,9.784369
1390094777,3,0,0.0,0,0,0,0,0,0,-0.0292,0.2922,6.8213,0.4212,54.896996,9.784369,108.3,5.845,1.85,335.95,54.895348,9.797490,54.896957,9.784369
1390094777,3,0,0.0,0,0,4,0,0,0,-0.0292,0.2922,6.8213,0.4212,54.896996,9.784369,108.3,5.845,1.85,335.95,54.895348,9.797490,54.896957,9.784369
1390094777,3,0,0.0,0,0,0,0,0,0,-0.0292,0.2922,6.8213,0.4212,54.896996,9.784369,108.3,5.845,1.85,335.95,54.895348,9.797490,54.896957,9.784369
1390094777,3,0,0.0,0,0,4,0,0,0,-0.0292,0.2922,6.8213,0.4212,54.896996,9.784369,108.3,5.845,1.85,335.95,54.895348,9.797490,54.896957,9.784369
1390094778,3,0,0.0,0,0,0,0,0,0,-0.0292,0.2922,6.8213,0.4212,54.896996,9.784369,108.3,5.845,1.85,335.95,54.895348,9.797490,54.896957,9.784369
1390094778,3,0,0.0,0,0,4,0,0,0,-0.0292,0.2922,6.8213,0.4212,54.896996,9.784369,108.3,5.845,1.85,335.95,54.895348,9.797490,54.896957,9.784369
1390094778,3,0,0.0,0,0,0,0,0,0,-0.0292,0.2922,6.8213,0.4212,54.896996,9.784369,108.3,5.845,1.85,335.95,54.895348,9.797490,54.896957,9.784369
1390094778,3,0,0.0,0,0,4,0,0,0,-0.0292,0.2922,6.8213,0.4212,54.896996,9.784369,108.3,5.845,1.85,335.95,54.895348,9.797490,54.896957,9.784369
1390094779,3,0,0.0,0,0,0,0,0,0,-0.0292,0.2922,6.8213,0.4212,54.896996,9.784369,108.3,5.845,1.85,335.95,54.895348,9.797490,54.896957,9.784369
1390094779,3,0,0.0,0,0,4,0,0,0,-0.0292,0.2922,6.8213,0.4212,54.896996,9.784369,108.3,5.845,1.85,335.95,54.895348,9.797490,54.896957,9.784369
1390094779,3,0,0.0,0,0,0,0,0,0,-0.0292,0.2922,6.8213,0.4212,54.896996,9.784369,108.3,5.845,1.85,335.95,54.895348,9.797490,54.896957,9.784369
1390094779,3,0,0.0,0,0,4,0,50,50,-0.0292,0.2922,6.8213,0.4212,54.896996,9.784369,108.3,5.845,1.85,335.95,54.895348,9.797490,54.896957,9.784369
1390094780,3,0,0.0,0,0,0,0,0,0,-0.0292,0.2922,6.8213,0.4212,54.897003,9.784369,108.3,5.845,1.85,335.95,54.895348,9.797490,54.896957,9.784369
1390094780,3,0,0.0,0,0,4,0,0,0,-0.0292,0.2922,6.8213,0.4212,54.897003,9.784369,108.3,5.845,1.85,335.95,54.895348,9.797490,54.896957,9.784369
1390094780,3,0,0.0,0,0,0,0,0,0,-0.0292,0.2922,6.8213,0.4212,54.897003,9.784369,108.3,5.845,1.85,335.95,54.895348,9.797490,54.896957,9.784369
1390094780,3,0,0.0,0,0,4,0,0,0,-0.0292,0.2922,6.8213,0.4212,54.897003,9.784369,108.3,5.845,1.85,335.95,54.895348,9.797490,54.896957,9.784369
1390094781,3,0,0.0,0,0,0,0,0,0,-0.0292,0.2922,6.8213,0.4212,54.897003,9.784369,108.3,5.845,1.85,335.95,54.895348,9.797490,54.896957,9.784369
1390094781,3,0,0.0,0,0,4,0,0,0,-0.0292,0.2922,6.8213,0.4212,54.897003,9.784369,108.3,5.845,1.85,335.95,54.895348,9.797490,54.896957,9.784369
1390094781,3,0,0.0,0,0,0,0,0,0,-0.0292,0.2922,6.8213,0.4212,54.897003,9.784369,108.3,5.845,1.85,335.95,54.895348,9.797490,54.896957,9.784369
1390094781,3,0,0.0,0,0,4,0,0,0,-0.0292,0.2922,6.8213,0.4212,54.897003,9.784369,108.3,5.845,1.85,335.95,54.895348,9.797490,54.896957,9.784369
1390094782,3,0,0.0,0,0,0,0,0,0,-0.0292,0.2922,6.8213,0.4212,54.897003,9.784369,108.3,5.845,1.85,335.95,54.895348,9.797490,54.896957,9.784369
1390094782,3,0,0.0,0,0,4,0,0,0,-0.0292,0.2922,6.8213,0.4212,54.897003,9.784369,108.3,5.845,1.85,335.95,54.895348,9.797490,54.896957,9.784369
1390094782,3,0,0.0,0,0,0,0,0,0,-0.0292,0.2922,6.8213,0.4212,54.897003,9.784369,108.3,5.845,1.85,335.95,54.895348,9.797490,54.896957,9.784369
1390094782,3,0,0.0,0,0,4,0,0,0,-0.0292,0.2922,6.8213,0.4212,54.897003,9.784369,108.3,5.845,1.85,335.95,54.895348,9.797490,54.896957,9.784369
1390094783,3,0,0.0,0,0,0,0,0,0,-0.0292,0.2922,6.8213,0.4212,54.897003,9.784369,108.3,5.845,1.85,335.95,54.895348,9.797490,54.896957,9.784369
1390094783,3,0,0.0,0,0,4,0,0,0,-0.0292,0.2922,6.8213,0.4212,54.897003,9.784369,108.3,5.845,1.85,335.95,54.895348,9.797490,54.896957,9.784369
1390094783,3,0,0.0,0,0,0,0,0,0,-0.0292,0.2922,6.8213,0.4212,54.897003,9.784369,108.3,5.845,1.85,335.95,54.895348,9.797490,54.896957,9.784369
1390094783,3,0,0.0,0,0,4,0,0,0,-0.0292,0.2922,6.8213,0.4212,54.897003,9.784369,108.3,5.845,1.85,335.95,54.895348,9.797490,54.896957,9.784369
1390094784,3,0,0.0,0,0,0,0,0,0,-0.0292,0.2922,6.8213,0.4212,54.897003,9.784369,108.3,5.845,1.85,335.95,54.895348,9.797490,54.896957,9.784369
1390094784,3,0,0.0,0,0,4,0,0,0,-0.0292,0.2922,6.8213,0.4212,54.897003,9.784369,108.3,5.845,1.85,335.95,54.895348,9.797490,54.896957,9.784369
1390094784,3,0,0.0,0,0,0,0,0,0,-0.0292,0.2922,6.8213,0.4212,54.897003,9.784369,108.3,5.845,1.85,335.95,54.895348,9.797490,54.896957,9.784369
1390094784,3,0,0.0,0,0,4,0,60,50,-0.0292,0.2922,6.8213,0.4212,54.897003,9.784369,108.3,5.845,1.85,335.95,54.895348,9.797490,54.896957,9.784369
1390094785,3,0,0.0,0,0,0,0,0,0,-0.0292,0.2922,6.8213,0.4212,54.897011,9.784369,108.3,5.845,1.85,335.95,54.895348,9.797490,54.896957,9.784369
1390094785,3,0,0.0,0,0,4,0,0,0,-0.0292,0.2922,6.8213,0.4212,54.897015,9.784369,108.3,5.845,1.85,335.95,54.895348,9.797490,54.896957,9.784369
1390094785,3,0,0.0,0,0,0,0,0,0,-0.0292,0.2922,6.8213,0.4212,54.897015,9.784369,108.3,5.845,1.85,335.95,54.895348,9.797490,54.896957,9.784369
1390094785,3,0,0.0,0,0,4,0,0,0,-0.0292,0.2922,6.8213,0.4212,54.897015,9.784369,108.3,5.845,1.85,335.95,54.895348,9.797490,54.896957,9.784369
1390094786,3,0,0.0,0,0,0,0,0,0,-0.0292,0.2922,6.8213,0.4212,54.897015,9.784369,108.3,5.845,1.85,335.95,54.895348,9.797490,54.896957,9.784369
1390094786,3,0,0.0,0,0,4,0,0,0,-0.0292,0.2922,6.8213,0.4212,54.897015,9.784369,108.3,5.845,1.85,335.95,54.895348,9.797490,54.896957,9.784369
1390094786,3,0,0.0,0,0,0,0,0,0,-0.0292,0.2922,6.8213,0.4212,54.897015,9.784369,108.3,5.845,1.85,335.95,54.895348,9.797490,54.896957,9.784369
1390094786,3,0,0.0,0,0,4,0,0,0,-0.0292,0.2922,6.8213,0.4212,54.897015,9.784369,108.3,5.845,1.85,335.95,54.895348,9.797490,54.896957,9.784369
1390094787,3,0,0.0,0,0,0,0,0,0,-0.0292,0.2922,6.8213,0.4212,54.897015,9.784369,108.3,5.845,1.85,335.95,54.895348,9.797490,54.896957,9.784369
1390094787,3,0,0.0,0,0,4,0,0,0,-0.0292,0.2922,6.8213,0.4212,54.897015,9.784369,108.3,5.845,1.85,335.95,54.895348,9.797490,54.896957,9.784369
1390094787,3,0,0.0,0,0,0,0,0,0,-0.0292,0.2922,6.8213,0.4212,54.897015,9.784369,108.3,5.845,1.85,335.95,54.895348,9.797490,54.896957,9.784369
1390094787,3,0,0.0,0,0,4,0,0,0,-0.0292,0.2922,6.8213,0.4212,54.897015,9.784369,108.3,5.845,1.85,335.95,54.895348,9.797490,54.896957,9.784369
1390094788,3,0,0.0,0,0,0,0,0,0,-0.0292,0.2922,6.8213,0.4212,54.897015,9.784369,108.3,5.845,1.85,335.95,54.895348,9.797490,54.896957,9.784369
1390094788,3,0,0.0,0,0,4,0,0,0,-0.0292,0.2922,6.8213,0.4212,54.897015,9.784369,108.3,5.845,1.85,335.95,54.895348,9.797490,54.896957,9.784369
1390094788,3,0,0.0,0,0,0,0,0,0,-0.0292,0.2922,6.8213,0.4212,54.897015,9.784369,108.3,5.845,1.85,335.95,54.895348,9.797490,54.896957,9.784369
1390094789,3,0,0.0,0,0,4,0,0,0,-0.0292,0.2922,6.8213,0.4212,54.897015,9.784369,108.3,5.845,1.85,335.95,54.895348,9.797490,54.896957,9.784369
1390094789,3,0,0.0,0,0,0,0,0,0,-0.0292,0.2922,6.8213,0.4212,54.897015,9.784369,108.3,5.845,1.85,335.95,54.895348,9.797490,54.896957,9.784369
1390094789,3,0,0.0,0,0,4,0,0,0,-0.0292,0.2922,6.8213,0.4212,54.897015,9.784369,108.3,5.845,1.85,335.95,54.895348,9.797490,54.896957,9.784369
1390094789,3,0,0.0,0,0,0,0,0,0,-0.0292,0.2922,6.8213,0.4212,54.897015,9.784369,108.3,5.845,1.85,335.95,54.895348,9.797490,54.896957,9.784369
1390094790,3,0,0.0,0,0,4,0,70,50,-0.0292,0.2922,6.8213,0.4212,54.897015,9.784369,108.3,5.845,1.85,335.95,54.895348,9.797490,54.896957,9.784369
1390094790,3,0,0.0,0,0,0,0,0,0,-0.0292,0.2922,6.8213,0.4212,54.897022,9.784369,108.3,5.845,1.85,335.95,54.895348,9.797490,54.896957,9.784369
1390094790,3,0,0.0,0,0,4,0,0,0,-0.0292,0.2922,6.8213,0.4212,54.897022,9.784369,108.3,5.845,1.85,335.95,54.895348,9.797490,54.896957,9.784369
1390094790,3,0,0.0,0,0,0,0,0,0,-0.0292,0.2922,6.8213,0.4212,54.897022,9.784369,108.3,5.845,1.85,335.95,54.895348,9.797490,54.896957,9.784369
1390094791,3,0,0.0,0,0,4,0,0,0,-0.0292,0.2922,6.8213,0.4212,54.897022,9.784369,108.3,5.845,1.85,335.95,54.895348,9.797490,54.896957,9.784369
1390094791,3,0,0.0,0,0,0,0,0,0,-0.0292,0.2922,6.8213,0.4212,54.897022,9.784369,108.3,5.845,1.85,335.95,54.895348,9.797490,54.896957,9.784369
1390094791,3,0,0.0,0,0,4,0,0,0,-0.0292,0.2922,6.8213,0.4212,54.897022,9.784369,108.3,5.845,1.85,335.95,54.895348,9.797490,54.896957,9.784369
1390094791,3,0,0.0,0,0,0,0,0,0,-0.0292,0.2922,6.8213,0.4212,54.897022,9.784369,108.3,5.845,1.85,335.95,54.895348,9.797490,54.896957,9.784369
1390094792,3,0,0.0,0,0,4,0,0,0,-0.0292,0.2922,6.8213,0.4212,54.897022,9.784369,108.3,5.845,1.85,335.95,54.895348,9.797490,54.896957,9.784369
1390094792,3,0,0.0,0,0,0,0,0,0,-0.0292,0.2922,6.8213,0.4212,54.897022,9.784369,108.3,5.845,1.85,335.95,54.895348,9.797490,54.896957,9.784369
1390094792,3,0,0.0,0,0,4,0,0,0,-0.0292,0.2922,6.8213,0.4212,54.897022,9.784369,108.3,5.845,1.85,335.95,54.895348,9.797490,54.896957,9.784369
1390094792,3,0,0.0,0,0,0,0,0,0,-0.0292,0.2922,6.8213,0.4212,54.897022,9.784369,108.3,5.845,1.85,335.95,54.895348,9.797490,54.896957,9.784369
1390094793,3,0,0.0,0,0,4,0,0,0,-0.0292,0.2922,6.8213,0.4212,54.897022,9.784369,108.3,5.845,1.85,335.95,54.895348,9.797490,54.896957,9.784369
1390094793,3,0,0.0,0,0,0,0,0,0,-0.0292,0.2922,6.8213,0.4212,54.897022,9.784369,108.3,5.845,1.85,335.95,54.895348,9.797490,54.896957,9.784369
1390094793,3,0,0.0,0,0,4,0,0,0,-0.0292,0.2922,6.8213,0.4212,54.897022,9.784369,108.3,5.845,1.85,335.95,54.895348,9.797490,54.896957,9.784369
1390094793,3,0,0.0,0,0,0,0,0,0,-0.0292,0.2922,6.8213,0.4212,54.897022,9.784369,108.3,5.845,1.85,335.95,54.895348,9.797490,54.896957,9.784369
1390094794,3,0,0.0,0,0,4,0,0,0,-0.0292,0.2922,6.8213,0.4212,54.897022,9.784369,108.3,5.845,1.85,335.95,54.895348,9.797490,54.896957,9.784369
1390094794,3,0,0.0,0,0,0,0,0,0,-0.0292,0.2922,6.8213,0.4212,54.897022,9.784369,108.3,5.845,1.85,335.95,54.895348,9.797490,54.896957,9.784369
1390094794,3,0,0.0,0,0,4,0,0,0,-0.0292,0.2922,6.8213,0.4212,54.897022,9.784369,108.3,5.845,1.85,335.95,54.895348,9.797490,54.896957,9.784369
1390094794,3,0,0.0,0,0,0,0,0,0,-0.0292,0.2922,6.8213,0.4212,54.897022,9.784369,108.3,5.845,1.85,335.95,54.895348,9.797490,54.896957,9.784369
1390094795,3,0,0.0,0,0,4,0,80,50,-0.0292,0.2922,6.8213,0.4212,54.897022,9.784369,108.3,5.845,1.85,335.95,54.895348,9.797490,54.896957,9.784369
1390094795,3,0,0.0,0,0,0,0,0,0,-0.0292,0.2922,6.8213,0.4212,54.897030,9.784369,108.3,5.845,1.85,335.95,54.895348,9.797490,54.896957,9.784369
1390094795,3,0,0.0,0,0,4,0,0,0,-0.0292,0.2922,6.8213,0.4212,54.897030,9.784369,108.3,5.845,1.85,335.95,54.895348,9.797490,54.896957,9.784369
1390094795,3,0,0.0,0,0,0,0,0,0,-0.0292,0.2922,6.8213,0.4212,54.897030,9.784369,108.3,5.845,1.85,335.95,54.895348,9.797490,54.896957,9.784369
1390094796,3,0,0.0,0,0,4,0,0,0,-0.0292,0.2922,6.8213,0.4212,54.897030,9.784369,108.3,5.845,1.85,335.95,54.895348,9.797490,54.896957,9.784369
1390094796,3,0,0.0,0,0,0,0,0,0,-0.0292,0.2922,6.8213,0.4212,54.897030,9.784369,108.3,5.845,1.85,335.95,54.895348,9.797490,54.896957,9.784369
1390094796,3,0,0.0,0,0,4,0,0,0,-0.0292,0.2922,6.8213,0.4212,54.897030,9.784369,108.3,5.845,1.85,335.95,54.895348,9.797490,54.896957,9.784369
1390094796,3,0,0.0,0,0,0,0,0,0,-0.0292,0.2922,6.8213,0.4212,54.897030,9.784369,108.3,5.845,1.85,335.95,54.895348,9.797490,54.896957,9.784369
1390094797,3,0,0.0,0,0,4,0,0,0,-0.0292,0.2922,6.8213,0.4212,54.897030,9.784369,108.3,5.845,1.85,335.95,54.895348,9.797490,54.896957,9.784369
1390094797,3,0,0.0,0,0,0,0,0,0,-0.0292,0.2922,6.8213,0.4212,54.897030,9.784369,108.3,5.845,1.85,335.95,54.895348,9.797490,54.896957,9.784369
1390094797,3,0,0.0,0,0,4,0,0,0,-0.0292,0.2922,6.8213,0.4212,54.897030,9.784369,108.3,5.845,1.85,335.95,54.895348,9.797490,54.896957,9.784369
1390094797,3,0,0.0,0,0,0,0,0,0,-0.0292,0.2922,6.8213,0.4212,54.897030,9.784369,108.3,5.845,1.85,335.95,54.895348,9.797490,54.896957,9.784369
1390094798,3,0,0.0,0,0,4,0,0,0,-0.0292,0.2922,6.8213,0.4212,54.897030,9.784369,108.3,5.845,1.85,335.95,54.895348,9.797490,54.896957,9.784369
1390094798,3,0,0.0,0,0,0,0,0,0,-0.0292,0.2922,6.8213,0.4212,54.897030,9.784369,108.3,5.845,1.85,335.95,54.895348,9.797490,54.896957,9.784369
1390094798,3,0,0.0,0,0,4,0,0,0,-0.0292,0.2922,6.8213,0.4212,54.897030,9.784369,108.3,5.845,1.85,335.95,54.895348,9.797490,54.896957,9.784369
1390094798,3,0,0.0,0,0,0,0,0,0,-0.0292,0.2922,6.8213,0.4212,54.897030,9.784369,108.3,5.845,1.85,335.95,54.895348,9.797490,54.896957,9.784369
1390094799,3,0,0.0,0,0,4,0,0,0,-0.0292,0.2922,6.8213,0.4212,54.897030,9.784369,108.3,5.845,1.85,335.95,54.895348,9.797490,54.896957,9.784369
1390094799,3,0,0.0,0,0,0,0,0,0,-0.0292,0.2922,6.8213,0.4212,54.897030,9.784369,108.3,5.845,1.85,335.95,54.895348,9.797490,54.896957,9.784369
1390094799,3,0,0.0,0,0,4,0,0,0,-0.0292,0.2922,6.8213,0.4212,54.897030,9.784369,108.3,5.845,1.85,335.95,54.895348,9.797490,54.896957,9.784369
1390094799,3,0,0.0,0,0,0,0,0,0,-0.0292,0.2922,6.8213,0.4212,54.897030,9.784369,108.3,5.845,1.85,335.95,54.895348,9.797490,54.896957,9.784369
1390094800,3,0,0.0,0,0,4,0,90,50,-0.0292,0.2922,6.8213,0.4212,54.897030,9.784369,108.3,5.845,1.85,335.95,54.895348,9.797490,54.896957,9.784369
1390094800,3,0,0.0,0,0,0,0,0,0,-0.0292,0.2922,6.8213,0.4212,54.897041,9.784369,108.3,5.845,1.85,335.95,54.895348,9.797490,54.896957,9.784369
1390094800,3,0,0.0,0,0,4,0,0,0,-0.0292,0.2922,6.8213,0.4212,54.897041,9.784369,108.3,5.845,1.85,335.95,54.895348,9.797490,54.896957,9.784369
1390094800,3,0,0.0,0,0,0,0,0,0,-0.0292,0.2922,6.8213,0.4212,54.897041,9.784369,108.3,5.845,1.85,335.95,54.895348,9.797490,54.896957,9.784369
1390094801,3,0,0.0,0,0,4,0,0,0,-0.0292,0.2922,6.8213,0.4212,54.897041,9.784369,108.3,5.845,1.85,335.95,54.895348,9.797490,54.896957,9.784369
1390094801,3,0,0.0,0,0,0,0,0,0,-0.0292,0.2922,6.8213,0.4212,54.897041,9.784369,108.3,5.845,1.85,335.95,54.895348,9.797490,54.896957,9.784369
1390094801,3,0,0.0,0,0,4,0,0,0,-0.0292,0.2922,6.8213,0.4212,54.897041,9.784369,108.3,5.845,1.85,335.95,54.895348,9.797490,54.896957,9.784369
1390094801,3,0,0.0,0,0,0,0,0,0,-0.0292,0.2922,6.8213,0.4212,54.897041,9.784369,108.3,5.845,1.85,335.95,54.895348,9.797490,54.896957,9.784369
1390094802,3,0,0.0,0,0,4,0,0,0,-0.0292,0.2922,6.8213,0.4212,54.897041,9.784369,108.3,5.845,1.85,335.95,54.895348,9.797490,54.896957,9.784369
1390094802,3,0,0.0,0,0,0,0,0,0,-0.0292,0.2922,6.8213,0.4212,54.897041,9.784369,108.3,5.845,1.85,335.95,54.895348,9.797490,54.896957,9.784369
1390094802,3,0,0.0,0,0,4,0,0,0,-0.0292,0.2922,6.8213,0.4212,54.897041,9.784369,108.3,5.845,1.85,335.95,54.895348,9.797490,54.896957,9.784369
1390094802,3,0,0.0,0,0,0,0,0,0,-0.0292,0.2922,6.8213,0.4212,54.897041,9.784369,108.3,5.845,1.85,335.95,54.895348,9.797490,54.896957,9.784369
1390094803,3,0,0.0,0,0,4,0,0,0,-0.0292,0.2922,6.8213,0.4212,54.897041,9.784369,108.3,5.845,1.85,335.95,54.895348,9.797490,54.896957,9.784369
1390094803,3,0,0.0,0,0,0,0,0,0,-0.0292,0.2922,6.8213,0.4212,54.897041,9.784369,108.3,5.845,1.85,335.95,54.895348,9.797490,54.896957,9.784369
1390094803,3,0,0.0,0,0,4,0,0,0,-0.0292,0.2922,6.8213,0.4212,54.897041,9.784369,108.3,5.845,1.85,335.95,54.895348,9.797490,54.896957,9.784369
1390094803,3,0,0.0,0,0,0,0,0,0,-0.0292,0.2922,6.8213,0.4212,54.897041,9.784369,108.3,5.845,1.85,335.95,54.895348,9.797490,54.896957,9.784369
1390094804,3,0,0.0,0,0,4,0,0,0,-0.0292,0.2922,6.8213,0.4212,54.897041,9.784369,108.3,5.845,1.85,335.95,54.895348,9.797490,54.896957,9.784369
1390094804,3,0,0.0,0,0,0,0,0,0,-0.0292,0.2922,6.8213,0.4212,54.897041,9.784369,108.3,5.845,1.85,335.95,54.895348,9.797490,54.896957,9.784369
1390094804,3,0,0.0,0,0,4,0,0,0,-0.0292,0.2922,6.8213,0.4212,54.897041,9.784369,108.3,5.845,1.85,335.95,54.895348,9.797490,54.896957,9.784369
1390094804,3,0,0.0,0,0,0,0,0,0,-0.0292,0.2922,6.8213,0.4212,54.897041,9.784369,108.3,5.845,1.85,335.95,54.895348,9.797490,54.896957,9.784369
1390094805,3,0,0.0,0,0,4,0,100,50,-0.0292,0.2922,6.8213,0.4212,54.897041,9.784369,108.3,5.845,1.85,335.95,54.895348,9.797490,54.896957,9.784369
1390094805,3,0,0.0,0,0,0,0,0,0,-0.0292,0.2922,6.8213,0.4212,54.897049,9.784369,108.3,5.845,1.85,335.95,54.895348,9.797490,54.896957,9.784369
1390094805,3,0,0.0,0,0,4,0,0,0,-0.0292,0.2922,6.8213,0.4212,54.897049,9.784369,108.3,5.845,1.85,335.95,54.895348,9.797490,54.896957,9.784369
1390094805,3,0,0.0,0,0,0,0,0,0,-0.0292,0.2922,6.8213,0.4212,54.897049,9.784369,108.3,5.845,1.85,335.95,54.895348,9.797490,54.896957,9.784369
1390094806,3,0,0.0,0,0,4,0,0,0,-0.0292,0.2922,6.8213,0.4212,54.897049,9.784369,108.3,5.845,1.85,335.95,54.895348,9.797490,54.896957,9.784369
1390094806,3,0,0.0,0,0,0,0,0,0,-0.0292,0.2922,6.8213,0.4212,54.897049,9.784369,108.3,5.845,1.85,335.95,54.895348,9.797490,54.896957,9.784369
1390094806,3,0,0.0,0,0,4,0,0,0,-0.0292,0.2922,6.8213,0.4212,54.897049,9.784369,108.3,5.845,1.85,335.95,54.895348,9.797490,54.896957,9.784369
1390094806,3,0,0.0,0,0,0,0,0,0,-0.0292,0.2922,6.8213,0.4212,54.897049,9.784369,108.3,5.845,1.85,335.95,54.895348,9.797490,54.896957,9.784369
1390094807,3,0,0.0,0,0,4,0,0,0,-0.0292,0.2922,6.8213,0.4212,54.897049,9.784369,108.3,5.845,1.85,335.95,54.895348,9.797490,54.896957,9.784369
1390094807,3,0,0.0,0,0,0,0,0,0,-0.0292,0.2922,6.8213,0.4212,54.897049,9.784369,108.3,5.845,1.85,335.95,54.895348,9.797490,54.896957,9.784369
1390094807,3,0,0.0,0,0,4,0,0,0,-0.0292,0.2922,6.8213,0.4212,54.897049,9.784369,108.3,5.845,1.85,335.95,54.895348,9.797490,54.896957,9.784369
1390094807,3,0,0.0,0,0,0,0,0,0,-0.0292,0.2922,6.8213,0.4212,54.897049,9.784369,108.3,5.845,1.85,335.95,54.895348,9.797490,54.896957,9.784369
1390094808,3,0,0.0,0,0,4,0,0,0,-0.0292,0.2922,6.8213,0.4212,54.897049,9.784369,108.3,5.845,1.85,335.95,54.895348,9.797490,54.896957,9.784369
1390094808,3,0,0.0,0,0,0,0,0,0,-0.0292,0.2922,6.8213,0.4212,54.897049,9.784369,108.3,5.845,1.85,335.95,54.895348,9.797490,54.896957,9.784369
1390094808,3,0,0.0,0,0,4,0,0,0,-0.0292,0.2922,6.8213,0.4212,54.897049,9.784369,108.3,5.845,1.85,335.95,54.895348,9.797490,54.896957,9.784369
1390094808,3,0,0.0,0,0,0,0,0,0,-0.0292,0.2922,6.8213,0.4212,54.897049,9.784369,108.3,5.845,1.85,335.95,54.895348,9.797490,54.896957,9.784369
1390094809,3,0,0.0,0,0,4,0,0,0,-0.0292,0.2922,6.8213,0.4212,54.897049,9.784369,108.3,5.845,1.85,335.95,54.895348,9.797490,54.896957,9.784369
1390094809,0,0,0.0,0,0,4,0,0,0,-0.0292,0.2922,6.8213,0.4212,54.897049,9.784369,108.3,5.845,1.85,335.95,54.895348,9.797490,54.896957,9.784369
1390094809,0,0,0.0,0,0,4,0,0,0,-0.0292,0.2922,6.8213,0.4212,54.897049,9.784369,108.3,5.845,1.85,335.95,54.895348,9.797490,54.896957,9.784369
1390094809,0,0,0.0,0,0,4,0,0,0,-0.0292,0.2922,6.8213,0.4212,54.897049,9.784369,108.3,5.845,1.85,335.95,54.895348,9.797490,54.896957,9.784369
1390094810,0,0,0.0,0,0,4,0,0,0,-0.0292,0.2922,6.8213,0.4212,54.897049,9.784369,108.3,5.845,1.85,335.95,54.895348,9.797490,54.896957,9.784369
1390094810,0,0,0.0,0,0,4,0,0,0,-0.0292,0.2922,6.8213,0.4212,54.897049,9.784369,108.3,5.845,1.85,335.95,54.895348,9.797490,54.896957,9.784369
1390094810,0,0,0.0,0,0,4,0,0,0,-0.0292,0.2922,6.8213,0.4212,54.897049,9.784369,108.3,5.845,1.85,335.95,54.895348,9.797490,54.896957,9.784369
1390094810,0,0,0.0,0,0,4,0,0,0,-0.0292,0.2922,6.8213,0.4212,54.897049,9.784369,108.3,5.845,1.85,335.95,54.895348,9.797490,54.896957,9.784369
1390094811,0,0,0.0,0,0,4,0,0,0,-0.0292,0.2922,6.8213,0.4212,54.897049,9.784369,108.3,5.845,1.85,335.95,54.895348,9.797490,54.896957,9.784369
1390094811,0,0,0.0,0,0,4,0,0,0,-0.0292,0.2922,6.8213,0.4212,54.897049,9.784369,108.3,5.845,1.85,335.95,54.895348,9.797490,54.896957,9.784369
1390094811,0,0,0.0,0,0,4,0,0,0,-0.0292,0.2922,6.8213,0.4212,54.897049,9.784369,108.3,5.845,1.85,335.95,54.895348,9.797490,54.896957,9.784369
1390094811,0,0,0.0,0,0,4,0,0,0,-0.0292,0.2922,6.8213,0.4212,54.897049,9.784369,108.3,5.845,1.85,335.95,54.895348,9.797490,54.896957,9.784369
1390094812,0,0,0.0,0,0,4,0,0,0,-0.0292,0.2922,6.8213,0.4212,54.897049,9.784369,108.3,5.845,1.85,335.95,54.895348,9.797490,54.896957,9.784369
1390094812,0,0,0.0,0,0,4,0,0,0,-0.0292,0.2922,6.8213,0.4212,54.897049,9.784369,108.3,5.845,1.85,335.95,54.895348,9.797490,54.896957,9.784369
1390094812,0,0,0.0,0,0,4,0,0,0,-0.0292,0.2922,6.8213,0.4212,54.897049,9.784369,108.3,5.845,1.85,335.95,54.895348,9.797490,54.896957,9.784369
1390094812,0,0,0.0,0,0,4,0,0,0,-0.0292,0.2922,6.8213,0.4212,54.897049,9.784369,108.3,5.845,1.85,335.95,54.895348,9.797490,54.896957,9.784369
1390094813,0,0,0.0,0,0,4,0,0,0,-0.0292,0.2922,6.8213,0.4212,54.897049,9.784369,108.3,5.845,1.85,335.95,54.895348,9.797490,54.896957,9.784369
1390094813,0,0,0.0,0,0,4,0,0,0,-0.0292,0.2922,6.8213,0.4212,54.897049,9.784369,108.3,5.845,1.85,335.95,54.895348,9.797490,54.896957,9.784369
1390094813,0,0,0.0,0,0,4,0,0,0,-0.0292,0.2922,6.8213,0.4212,54.897049,9.784369,108.3,5.845,1.85,335.95,54.895348,9.797490,54.896957,9.784369
1390094813,0,0,0.0,0,0,4,0,0,0,-0.0292,0.2922,6.8213,0.4212,54.897049,9.784369,108.3,5.845,1.85,335.95,54.895348,9.797490,54.896957,9.784369
1390094814,0,0,0.0,0,0,4,0,0,0,-0.0292,0.2922,6.8213,0.4212,54.897049,9.784369,108.3,5.845,1.85,335.95,54.895348,9.797490,54.896957,9.784369
