MCU_timestamp,Navigation_System,Manual_Control,Guidance_Heading,Manual_Ctrl_Rudder,Rudder_Desired_Angle,Rudder_Feedback,Manual_Ctrl_Sail,Sail_Desired_Pos,Sail_Feedback,Rate,Heading,Pitch,Roll,Latitude,Longitude,COG,SOG,Wind_Speed,Wind_Angle,Point_Start_Lat,Point_Start_Lon,Point_End_Lat,Point_End_Lon
1389971594,0,0,0.0,0,0,4,0,0,0,-0.0292,189.6255,6.8213,0.4212,54.882263,9.774117,108.3,5.845,1.85,335.95,0.000000,0.000000,0.000000,0.000000
1389971594,0,0,0.0,0,0,4,0,0,0,-0.0292,189.6255,6.8213,0.4212,54.882263,9.774117,108.3,5.845,1.85,335.95,0.000000,0.000000,0.000000,0.000000
1389971594,0,0,0.0,0,0,4,0,0,0,-0.0292,189.6255,6.8213,0.4212,54.882263,9.774117,108.3,5.845,1.85,335.95,0.000000,0.000000,0.000000,0.000000
1389971595,0,0,0.0,0,0,4,0,0,0,-0.0292,189.6255,6.8213,0.4212,54.882263,9.774117,108.3,5.845,1.85,335.95,0.000000,0.000000,0.000000,0.000000
1389971595,0,0,0.0,0,0,4,0,0,0,-0.0292,189.6255,6.8213,0.4212,54.882263,9.774117,108.3,5.845,1.85,335.95,0.000000,0.000000,0.000000,0.000000
1389971595,0,0,0.0,0,0,4,0,0,0,-0.0292,189.6255,6.8213,0.4212,54.882263,9.774117,108.3,5.845,1.85,335.95,0.000000,0.000000,0.000000,0.000000
1389971595,0,0,0.0,0,0,4,0,0,0,-0.0292,189.6255,6.8213,0.4212,54.882263,9.774117,108.3,5.845,1.85,335.95,0.000000,0.000000,0.000000,0.000000
1389971596,0,0,0.0,0,0,4,0,0,0,-0.0292,189.6255,6.8213,0.4212,54.882263,9.774117,108.3,5.845,1.85,335.95,0.000000,0.000000,0.000000,0.000000
1389971596,0,0,0.0,0,0,4,0,0,0,-0.0292,189.6255,6.8213,0.4212,54.882263,9.774117,108.3,5.845,1.85,335.95,0.000000,0.000000,0.000000,0.000000
1389971596,0,0,0.0,0,0,4,0,0,0,-0.0292,189.6255,6.8213,0.4212,54.882263,9.774117,108.3,5.845,1.85,335.95,0.000000,0.000000,0.000000,0.000000
1389971596,0,0,0.0,0,0,4,0,0,0,-0.0292,189.6255,6.8213,0.4212,54.882263,9.774117,108.3,5.845,1.85,335.95,0.000000,0.000000,0.000000,0.000000
1389971597,0,0,0.0,0,0,4,0,0,0,-0.0292,189.6255,6.8213,0.4212,54.881760,9.770772,108.3,5.845,1.85,335.95,0.000000,0.000000,0.000000,0.000000
1389971597,0,0,0.0,0,0,4,0,0,0,-0.0292,189.6255,6.8213,0.4212,54.881760,9.770772,108.3,5.845,1.85,335.95,0.000000,0.000000,0.000000,0.000000
1389971597,0,0,0.0,0,0,4,0,0,0,-0.0292,189.6255,6.8213,0.4212,54.881760,9.770772,108.3,5.845,1.85,335.95,0.000000,0.000000,0.000000,0.000000
1389971597,0,0,0.0,0,0,4,0,0,0,-0.0292,189.6255,6.8213,0.4212,54.881760,9.770772,108.3,5.845,1.85,335.95,0.000000,0.000000,0.000000,0.000000
1389971598,0,0,0.0,0,0,4,0,0,0,-0.0292,189.6255,6.8213,0.4212,54.881760,9.770772,108.3,5.845,1.85,335.95,0.000000,0.000000,0.000000,0.000000
1389971598,0,0,0.0,0,0,4,0,0,0,-0.0292,189.6255,6.8213,0.4212,54.881760,9.770772,108.3,5.845,1.85,335.95,0.000000,0.000000,0.000000,0.000000
1389971598,0,0,0.0,0,0,4,0,0,0,-0.0292,189.6255,6.8213,0.4212,54.881760,9.770772,108.3,5.845,1.85,335.95,0.000000,0.000000,0.000000,0.000000
1389971598,0,0,0.0,0,0,4,0,0,0,-0.0292,189.6255,6.8213,0.4212,54.881760,9.770772,108.3,5.845,1.85,335.95,0.000000,0.000000,0.000000,0.000000
1389971599,0,0,0.0,0,0,4,0,0,0,-0.0292,189.6255,6.8213,0.4212,54.881760,9.770772,108.3,5.845,1.85,335.95,0.000000,0.000000,0.000000,0.000000
1389971599,0,0,0.0,0,0,4,0,0,0,-0.0292,189.6255,6.8213,0.4212,54.881760,9.770772,108.3,5.845,1.85,335.95,0.000000,0.000000,0.000000,0.000000
1389971599,0,0,0.0,0,0,4,0,0,0,-0.0292,189.6255,6.8213,0.4212,54.881760,9.770772,108.3,5.845,1.85,335.95,0.000000,0.000000,0.000000,0.000000
1389971600,0,0,0.0,0,0,4,0,0,0,-0.0292,189.6255,6.8213,0.4212,54.881760,9.770772,108.3,5.845,1.85,335.95,0.000000,0.000000,0.000000,0.000000
1389971600,0,0,0.0,0,0,4,0,0,0,-0.0292,189.6255,6.8213,0.4212,54.881760,9.770772,108.3,5.845,1.85,335.95,0.000000,0.000000,0.000000,0.000000
1389971600,0,0,0.0,0,0,4,0,0,0,-0.0292,189.6255,6.8213,0.4212,54.881760,9.770772,108.3,5.845,1.85,335.95,0.000000,0.000000,0.000000,0.000000
1389971600,0,0,0.0,0,0,4,0,0,0,-0.0292,189.6255,6.8213,0.4212,54.881760,9.770772,108.3,5.845,1.85,335.95,0.000000,0.000000,0.000000,0.000000
1389971601,0,0,0.0,0,0,4,0,0,0,-0.0292,189.6255,6.8213,0.4212,54.881760,9.770772,108.3,5.845,1.85,335.95,0.000000,0.000000,0.000000,0.000000
1389971601,0,0,0.0,0,0,4,0,0,0,-0.0292,189.6255,6.8213,0.4212,54.881760,9.770772,108.3,5.845,1.85,335.95,0.000000,0.000000,0.000000,0.000000
1389971601,0,0,0.0,0,0,4,0,0,0,-0.0292,189.6255,6.8213,0.4212,54.881760,9.770772,108.3,5.845,1.85,335.95,0.000000,0.000000,0.000000,0.000000
1389971601,4,0,0.0,0,0,4,0,0,0,-0.0292,189.6255,6.8213,0.4212,54.881760,9.770772,108.3,5.845,1.85,335.95,0.000000,0.000000,0.000000,0.000000
1389971602,1,0,0.0,0,-35,0,0,713,750,-0.0292,201.2922,6.8213,0.4212,54.881744,9.770761,108.3,5.845,1.85,335.95,54.895069,9.793790,54.895348,9.797490
1389971602,1,0,0.0,0,31,4,0,870,800,-0.0292,190.9588,6.8213,0.4212,54.881725,9.770755,108.3,5.845,1.85,335.95,54.895348,9.797490,54.894039,9.801540
1389971602,1,0,0.0,0,21,8,0,713,750,-0.0292,183.9588,6.8213,0.4212,54.881706,9.770753,108.3,5.845,1.85,335.95,54.894039,9.801540,54.893795,9.802299
1389971602,1,0,0.0,0,14,12,0,713,700,-0.0292,179.2922,6.8213,0.4212,54.881687,9.770754,108.3,5.845,1.85,335.95,54.893795,9.802299,54.893364,9.803688
1389971603,1,0,0.0,0,9,8,0,713,750,-0.0292,176.2922,6.8213,0.4212,54.881672,9.770756,108.3,5.845,1.85,335.95,54.893364,9.803688,54.892704,9.801139
1389971603,1,0,0.0,0,6,4,0,713,700,-0.0292,174.2922,6.8213,0.4212,54.881653,9.770759,108.3,5.845,1.85,335.95,54.892704,9.801139,54.891663,9.800174
1389971603,1,0,0.0,0,4,8,0,713,750,-0.0292,172.9588,6.8213,0.4212,54.881634,9.770762,108.3,5.845,1.85,335.95,54.891663,9.800174,54.892929,9.805077
1389971603,1,0,0.0,0,3,4,0,713,700,-0.0292,171.9588,6.8213,0.4212,54.881618,9.770767,108.3,5.845,1.85,335.95,54.892929,9.805077,54.892498,9.806466
1389971604,1,0,0.0,0,2,0,0,713,750,-0.0292,171.2922,6.8213,0.4212,54.881599,9.770772,108.3,5.845,1.85,335.95,54.892498,9.806466,54.891232,9.801563
1389971604,1,0,0.0,0,1,4,0,713,700,-0.0292,170.9588,6.8213,0.4212,54.881580,9.770777,108.3,5.845,1.85,335.95,54.891232,9.801563,54.890800,9.802953
1389971604,1,0,0.0,0,1,0,0,713,750,-0.0292,170.6255,6.8213,0.4212,54.881561,9.770782,108.3,5.845,1.85,335.95,54.890800,9.802953,54.891651,9.806246
1389971604,1,0,0.0,0,1,4,0,713,700,-0.0292,170.2922,6.8213,0.4212,54.881546,9.770786,108.3,5.845,1.85,335.95,54.891651,9.806246,54.890560,9.805087
1389971605,1,0,0.0,0,0,0,0,713,750,-0.0292,170.2922,6.8213,0.4212,54.881527,9.770791,108.3,5.845,1.85,335.95,54.890560,9.805087,54.890366,9.804342
1389971605,1,0,0.0,0,0,4,0,713,700,-0.0292,170.2922,6.8213,0.4212,54.881508,9.770797,108.3,5.845,1.85,335.95,54.890366,9.804342,54.890846,9.801930
1389971605,1,0,0.0,0,0,0,0,713,750,-0.0292,170.2922,6.8213,0.4212,54.881489,9.770802,108.3,5.845,1.85,335.95,54.890846,9.801930,54.889477,9.798280
1389971605,1,0,0.0,0,0,4,0,713,700,-0.0292,170.2922,6.8213,0.4212,54.881474,9.770808,108.3,5.845,1.85,335.95,54.889477,9.798280,54.891819,9.794550
1389971606,1,0,0.0,0,0,0,0,713,750,-0.0292,170.2922,6.8213,0.4212,54.881454,9.770814,108.3,5.845,1.85,335.95,54.891819,9.794550,54.895348,9.797490
1389971606,1,0,0.0,0,0,4,0,713,700,-0.0292,170.2922,6.8213,0.4212,54.881435,9.770819,108.3,5.845,1.85,335.95,54.895348,9.797490,54.895069,9.793790
1389971606,1,0,0.0,0,0,0,0,713,750,-0.0292,170.2922,6.8213,0.4212,54.881420,9.770823,108.3,5.845,1.85,335.95,54.895348,9.797490,54.895069,9.793790
1389971606,3,0,0.0,0,0,4,0,713,700,-0.0292,170.2922,6.8213,0.4212,54.881401,9.770828,108.3,5.845,1.85,335.95,54.895348,9.797490,54.881420,9.770823
1389971607,3,0,0.0,0,0,0,0,713,750,-0.0292,170.2922,6.8213,0.4212,54.881382,9.770833,108.3,5.845,1.85,335.95,54.895348,9.797490,54.881420,9.770823
1389971607,3,0,0.0,0,0,4,0,713,700,-0.0292,170.2922,6.8213,0.4212,54.881363,9.770839,108.3,5.845,1.85,335.95,54.895348,9.797490,54.881420,9.770823
1389971607,3,0,0.0,0,0,0,0,713,750,-0.0292,170.2922,6.8213,0.4212,54.881348,9.770844,108.3,5.845,1.85,335.95,54.895348,9.797490,54.881420,9.770823
1389971607,3,0,0.0,0,0,4,0,713,700,-0.0292,170.2922,6.8213,0.4212,54.881329,9.770850,108.3,5.845,1.85,335.95,54.895348,9.797490,54.881420,9.770823
1389971608,3,0,0.0,0,0,0,0,713,750,-0.0292,170.2922,6.8213,0.4212,54.881310,9.770856,108.3,5.845,1.85,335.95,54.895348,9.797490,54.881420,9.770823
1389971608,3,0,0.0,0,0,4,0,713,700,-0.0292,170.2922,6.8213,0.4212,54.881290,9.770861,108.3,5.845,1.85,335.95,54.895348,9.797490,54.881420,9.770823
1389971608,3,0,0.0,0,0,0,0,713,750,-0.0292,170.2922,6.8213,0.4212,54.881275,9.770865,108.3,5.845,1.85,335.95,54.895348,9.797490,54.881420,9.770823
1389971608,3,0,0.0,0,0,4,0,713,700,-0.0292,170.2922,6.8213,0.4212,54.881256,9.770870,108.3,5.845,1.85,335.95,54.895348,9.797490,54.881420,9.770823
1389971609,3,0,0.0,0,0,0,0,713,750,-0.0292,170.2922,6.8213,0.4212,54.881237,9.770875,108.3,5.845,1.85,335.95,54.895348,9.797490,54.881420,9.770823
1389971609,3,0,0.0,0,0,4,0,713,700,-0.0292,170.2922,6.8213,0.4212,54.881218,9.770880,108.3,5.845,1.85,335.95,54.895348,9.797490,54.881420,9.770823
1389971609,3,0,0.0,0,0,0,0,713,750,-0.0292,170.2922,6.8213,0.4212,54.881203,9.770885,108.3,5.845,1.85,335.95,54.895348,9.797490,54.881420,9.770823
1389971609,3,0,0.0,0,0,4,0,713,700,-0.0292,170.2922,6.8213,0.4212,54.881184,9.770891,108.3,5.845,1.85,335.95,54.895348,9.797490,54.881420,9.770823
1389971610,3,0,0.0,0,0,0,0,713,750,-0.0292,170.2922,6.8213,0.4212,54.881165,9.770897,108.3,5.845,1.85,335.95,54.895348,9.797490,54.881420,9.770823
1389971610,3,0,0.0,0,0,4,0,713,700,-0.0292,170.2922,6.8213,0.4212,54.881149,9.770903,108.3,5.845,1.85,335.95,54.895348,9.797490,54.881420,9.770823
1389971610,3,0,0.0,0,0,0,0,713,750,-0.0292,170.2922,6.8213,0.4212,54.881130,9.770907,108.3,5.845,1.85,335.95,54.895348,9.797490,54.881420,9.770823
1389971610,3,0,0.0,0,0,4,0,713,700,-0.0292,170.2922,6.8213,0.4212,54.881111,9.770912,108.3,5.845,1.85,335.95,54.895348,9.797490,54.881420,9.770823
1389971611,3,0,0.0,0,0,0,0,713,750,-0.0292,170.2922,6.8213,0.4212,54.881092,9.770917,108.3,5.845,1.85,335.95,54.895348,9.797490,54.881420,9.770823
1389971611,3,0,0.0,0,0,4,0,713,700,-0.0292,170.2922,6.8213,0.4212,54.881077,9.770922,108.3,5.845,1.85,335.95,54.895348,9.797490,54.881420,9.770823
1389971611,3,0,0.0,0,0,0,0,713,750,-0.0292,170.2922,6.8213,0.4212,54.881058,9.770927,108.3,5.845,1.85,335.95,54.895348,9.797490,54.881420,9.770823
1389971611,3,0,0.0,0,0,4,0,713,700,-0.0292,170.2922,6.8213,0.4212,54.881039,9.770933,108.3,5.845,1.85,335.95,54.895348,9.797490,54.881420,9.770823
1389971612,3,0,0.0,0,0,0,0,713,750,-0.0292,170.2922,6.8213,0.4212,54.881020,9.770939,108.3,5.845,1.85,335.95,54.895348,9.797490,54.881420,9.770823
1389971612,3,0,0.0,0,-20,-4,0,713,700,-0.0292,176.9589,6.8213,0.4212,54.881004,9.770941,108.3,5.845,1.85,335.95,54.895348,9.797490,54.881420,9.770823
1389971612,3,0,0.0,0,-13,-8,0,713,750,-0.0292,181.2922,6.8213,0.4212,54.880985,9.770940,108.3,5.845,1.85,335.95,54.895348,9.797490,54.881420,9.770823
1389971612,3,0,0.0,0,-9,-12,0,713,700,-0.0292,184.2922,6.8213,0.4212,54.880966,9.770938,108.3,5.845,1.85,335.95,54.895348,9.797490,54.881420,9.770823
1389971613,3,0,0.0,0,-6,-8,0,713,750,-0.0292,186.2922,6.8213,0.4212,54.880947,9.770935,108.3,5.845,1.85,335.95,54.895348,9.797490,54.881420,9.770823
1389971613,3,0,0.0,0,-4,-4,0,713,700,-0.0292,187.6255,6.8213,0.4212,54.880932,9.770931,108.3,5.845,1.85,335.95,54.895348,9.797490,54.881420,9.770823
1389971613,3,0,0.0,0,-2,0,0,713,750,-0.0292,188.2922,6.8213,0.4212,54.880913,9.770927,108.3,5.845,1.85,335.95,54.895348,9.797490,54.881420,9.770823
1389971613,3,0,0.0,0,-2,-4,0,713,700,-0.0292,188.9589,6.8213,0.4212,54.880894,9.770923,108.3,5.845,1.85,335.95,54.895348,9.797490,54.881420,9.770823
1389971614,3,0,0.0,0,-1,0,0,713,750,-0.0292,189.2922,6.8213,0.4212,54.880875,9.770918,108.3,5.845,1.85,335.95,54.895348,9.797490,54.881420,9.770823
1389971614,3,0,0.0,0,-1,-4,0,713,700,-0.0292,189.6255,6.8213,0.4212,54.880859,9.770912,108.3,5.845,1.85,335.95,54.895348,9.797490,54.881420,9.770823
1389971614,3,0,0.0,0,0,0,0,713,750,-0.0292,189.6255,6.8213,0.4212,54.880840,9.770906,108.3,5.845,1.85,335.95,54.895348,9.797490,54.881420,9.770823
1389971614,3,0,0.0,0,0,4,0,713,700,-0.0292,189.6255,6.8213,0.4212,54.880821,9.770901,108.3,5.845,1.85,335.95,54.895348,9.797490,54.881420,9.770823
1389971615,3,0,0.0,0,0,0,0,713,750,-0.0292,189.6255,6.8213,0.4212,54.880806,9.770895,108.3,5.845,1.85,335.95,54.895348,9.797490,54.881420,9.770823
1389971615,3,0,0.0,0,0,4,0,713,700,-0.0292,189.6255,6.8213,0.4212,54.880787,9.770890,108.3,5.845,1.85,335.95,54.895348,9.797490,54.881420,9.770823
1389971615,3,0,0.0,0,0,0,0,713,750,-0.0292,189.6255,6.8213,0.4212,54.880768,9.770885,108.3,5.845,1.85,335.95,54.895348,9.797490,54.881420,9.770823
1389971615,3,0,0.0,0,0,4,0,713,700,-0.0292,189.6255,6.8213,0.4212,54.880749,9.770881,108.3,5.845,1.85,335.95,54.895348,9.797490,54.881420,9.770823
1389971616,3,0,0.0,0,0,0,0,713,750,-0.0292,189.6255,6.8213,0.4212,54.880733,9.770876,108.3,5.845,1.85,335.95,54.895348,9.797490,54.881420,9.770823
1389971616,3,0,0.0,0,0,4,0,713,700,-0.0292,189.6255,6.8213,0.4212,54.880714,9.770871,108.3,5.845,1.85,335.95,54.895348,9.797490,54.881420,9.770823
1389971616,3,0,0.0,0,0,0,0,713,750,-0.0292,189.6255,6.8213,0.4212,54.880695,9.770865,108.3,5.845,1.85,335.95,54.895348,9.797490,54.881420,9.770823
1389971616,3,0,0.0,0,0,4,0,713,700,-0.0292,189.6255,6.8213,0.4212,54.880676,9.770860,108.3,5.845,1.85,335.95,54.895348,9.797490,54.881420,9.770823
1389971617,3,0,0.0,0,0,0,0,713,750,-0.0292,189.6255,6.8213,0.4212,54.880661,9.770854,108.3,5.845,1.85,335.95,54.895348,9.797490,54.881420,9.770823
1389971617,3,0,0.0,0,0,4,0,713,700,-0.0292,189.6255,6.8213,0.4212,54.880642,9.770849,108.3,5.845,1.85,335.95,54.895348,9.797490,54.881420,9.770823
1389971617,3,0,0.0,0,0,0,0,713,750,-0.0292,189.6255,6.8213,0.4212,54.880623,9.770844,108.3,5.845,1.85,335.95,54.895348,9.797490,54.881420,9.770823
1389971617,3,0,0.0,0,0,4,0,713,700,-0.0292,189.6255,6.8213,0.4212,54.880604,9.770840,108.3,5.845,1.85,335.95,54.895348,9.797490,54.881420,9.770823
1389971618,3,0,0.0,0,0,0,0,713,750,-0.0292,189.6255,6.8213,0.4212,54.880589,9.770835,108.3,5.845,1.85,335.95,54.895348,9.797490,54.881420,9.770823
1389971618,3,0,0.0,0,0,4,0,713,700,-0.0292,189.6255,6.8213,0.4212,54.880569,9.770830,108.3,5.845,1.85,335.95,54.895348,9.797490,54.881420,9.770823
1389971618,3,0,0.0,0,0,0,0,713,750,-0.0292,189.6255,6.8213,0.4212,54.880550,9.770824,108.3,5.845,1.85,335.95,54.895348,9.797490,54.881420,9.770823
1389971618,3,0,0.0,0,0,4,0,713,700,-0.0292,189.6255,6.8213,0.4212,54.880535,9.770819,108.3,5.845,1.85,335.95,54.895348,9.797490,54.881420,9.770823
1389971619,3,0,0.0,0,0,0,0,713,750,-0.0292,189.6255,6.8213,0.4212,54.880516,9.770813,108.3,5.845,1.85,335.95,54.895348,9.797490,54.881420,9.770823
1389971619,3,0,0.0,0,0,4,0,713,700,-0.0292,189.6255,6.8213,0.4212,54.880497,9.770807,108.3,5.845,1.85,335.95,54.895348,9.797490,54.881420,9.770823
1389971619,3,0,0.0,0,0,0,0,713,750,-0.0292,189.6255,6.8213,0.4212,54.880478,9.770802,108.3,5.845,1.85,335.95,54.895348,9.797490,54.881420,9.770823
1389971620,3,0,0.0,0,0,4,0,713,700,-0.0292,189.6255,6.8213,0.4212,54.880463,9.770798,108.3,5.845,1.85,335.95,54.895348,9.797490,54.881420,9.770823
1389971620,3,0,0.0,0,0,0,0,713,750,-0.0292,189.6255,6.8213,0.4212,54.880444,9.770793,108.3,5.845,1.85,335.95,54.895348,9.797490,54.881420,9.770823
1389971620,3,0,0.0,0,0,4,0,713,700,-0.0292,189.6255,6.8213,0.4212,54.880424,9.770788,108.3,5.845,1.85,335.95,54.895348,9.797490,54.881420,9.770823
1389971620,3,0,0.0,0,0,0,0,713,750,-0.0292,189.6255,6.8213,0.4212,54.880405,9.770782,108.3,5.845,1.85,335.95,54.895348,9.797490,54.881420,9.770823
1389971621,3,0,0.0,0,0,4,0,713,700,-0.0292,189.6255,6.8213,0.4212,54.880390,9.770777,108.3,5.845,1.85,335.95,54.895348,9.797490,54.881420,9.770823
1389971621,3,0,0.0,0,0,0,0,713,750,-0.0292,189.6255,6.8213,0.4212,54.880371,9.770771,108.3,5.845,1.85,335.95,54.895348,9.797490,54.881420,9.770823
1389971621,3,0,0.0,0,0,4,0,713,700,-0.0292,189.6255,6.8213,0.4212,54.880352,9.770765,108.3,5.845,1.85,335.95,54.895348,9.797490,54.881420,9.770823
1389971621,3,0,0.0,0,0,0,0,713,750,-0.0292,189.6255,6.8213,0.4212,54.880333,9.770761,108.3,5.845,1.85,335.95,54.895348,9.797490,54.881420,9.770823
1389971622,3,0,0.0,0,0,4,0,713,700,-0.0292,189.6255,6.8213,0.4212,54.880318,9.770756,108.3,5.845,1.85,335.95,54.895348,9.797490,54.881420,9.770823
1389971622,3,0,0.0,0,0,0,0,713,750,-0.0292,189.6255,6.8213,0.4212,54.880299,9.770751,108.3,5.845,1.85,335.95,54.895348,9.797490,54.881420,9.770823
1389971622,3,0,0.0,0,0,4,0,713,700,-0.0292,189.6255,6.8213,0.4212,54.880280,9.770746,108.3,5.845,1.85,335.95,54.895348,9.797490,54.881420,9.770823
1389971622,3,0,0.0,0,0,0,0,713,750,-0.0292,189.6255,6.8213,0.4212,54.880264,9.770741,108.3,5.845,1.85,335.95,54.895348,9.797490,54.881420,9.770823
1389971623,3,0,0.0,0,0,4,0,713,700,-0.0292,189.6255,6.8213,0.4212,54.880245,9.770735,108.3,5.845,1.85,335.95,54.895348,9.797490,54.881420,9.770823
1389971623,3,0,0.0,0,0,0,0,713,750,-0.0292,189.6255,6.8213,0.4212,54.880226,9.770729,108.3,5.845,1.85,335.95,54.895348,9.797490,54.881420,9.770823
1389971623,3,0,0.0,0,0,4,0,713,700,-0.0292,189.6255,6.8213,0.4212,54.880207,9.770723,108.3,5.845,1.85,335.95,54.895348,9.797490,54.881420,9.770823
1389971623,3,0,0.0,0,0,0,0,713,750,-0.0292,189.6255,6.8213,0.4212,54.880192,9.770719,108.3,5.845,1.85,335.95,54.895348,9.797490,54.881420,9.770823
1389971624,3,0,0.0,0,0,4,0,713,700,-0.0292,189.6255,6.8213,0.4212,54.880173,9.770714,108.3,5.845,1.85,335.95,54.895348,9.797490,54.881420,9.770823
1389971624,3,0,0.0,0,0,0,0,713,750,-0.0292,189.6255,6.8213,0.4212,54.880154,9.770709,108.3,5.845,1.85,335.95,54.895348,9.797490,54.881420,9.770823
1389971624,3,0,0.0,0,0,4,0,713,700,-0.0292,189.6255,6.8213,0.4212,54.880135,9.770704,108.3,5.845,1.85,335.95,54.895348,9.797490,54.881420,9.770823
1389971624,3,0,0.0,0,0,0,0,713,750,-0.0292,189.6255,6.8213,0.4212,54.880119,9.770700,108.3,5.845,1.85,335.95,54.895348,9.797490,54.881420,9.770823
1389971625,3,0,0.0,0,0,4,0,713,700,-0.0292,189.6255,6.8213,0.4212,54.880100,9.770694,108.3,5.845,1.85,335.95,54.895348,9.797490,54.881420,9.770823
1389971625,3,0,0.0,0,0,0,0,713,750,-0.0292,189.6255,6.8213,0.4212,54.880081,9.770688,108.3,5.845,1.85,335.95,54.895348,9.797490,54.881420,9.770823
1389971625,3,0,0.0,0,0,4,0,713,700,-0.0292,189.6255,6.8213,0.4212,54.880062,9.770682,108.3,5.845,1.85,335.95,54.895348,9.797490,54.881420,9.770823
1389971625,3,0,0.0,0,0,0,0,713,750,-0.0292,189.6255,6.8213,0.4212,54.880047,9.770678,108.3,5.845,1.85,335.95,54.895348,9.797490,54.881420,9.770823
1389971626,3,0,0.0,0,0,4,0,713,700,-0.0292,189.6255,6.8213,0.4212,54.880028,9.770673,108.3,5.845,1.85,335.95,54.895348,9.797490,54.881420,9.770823
1389971626,3,0,0.0,0,0,0,0,713,750,-0.0292,189.6255,6.8213,0.4212,54.880009,9.770668,108.3,5.845,1.85,335.95,54.895348,9.797490,54.881420,9.770823
1389971626,3,0,0.0,0,0,4,0,713,700,-0.0292,189.6255,6.8213,0.4212,54.879993,9.770663,108.3,5.845,1.85,335.95,54.895348,9.797490,54.881420,9.770823
1389971626,3,0,0.0,0,0,0,0,713,750,-0.0292,189.6255,6.8213,0.4212,54.879974,9.770658,108.3,5.845,1.85,335.95,54.895348,9.797490,54.881420,9.770823
1389971627,3,0,0.0,0,0,4,0,713,700,-0.0292,189.6255,6.8213,0.4212,54.879955,9.770653,108.3,5.845,1.85,335.95,54.895348,9.797490,54.881420,9.770823
1389971627,3,0,0.0,0,0,0,0,713,750,-0.0292,189.6255,6.8213,0.4212,54.879936,9.770647,108.3,5.845,1.85,335.95,54.895348,9.797490,54.881420,9.770823
1389971627,3,0,0.0,0,0,4,0,713,700,-0.0292,189.6255,6.8213,0.4212,54.879921,9.770641,108.3,5.845,1.85,335.95,54.895348,9.797490,54.881420,9.770823
1389971627,3,0,0.0,0,0,0,0,713,750,-0.0292,189.6255,6.8213,0.4212,54.879902,9.770636,108.3,5.845,1.85,335.95,54.895348,9.797490,54.881420,9.770823
1389971628,3,0,0.0,0,0,4,0,713,700,-0.0292,189.6255,6.8213,0.4212,54.879883,9.770631,108.3,5.845,1.85,335.95,54.895348,9.797490,54.881420,9.770823
1389971628,3,0,0.0,0,0,0,0,713,750,-0.0292,189.6255,6.8213,0.4212,54.879864,9.770626,108.3,5.845,1.85,335.95,54.895348,9.797490,54.881420,9.770823
1389971628,3,0,0.0,0,0,4,0,713,700,-0.0292,189.6255,6.8213,0.4212,54.879848,9.770621,108.3,5.845,1.85,335.95,54.895348,9.797490,54.881420,9.770823
1389971628,3,0,0.0,0,0,0,0,713,750,-0.0292,189.6255,6.8213,0.4212,54.879829,9.770617,108.3,5.845,1.85,335.95,54.895348,9.797490,54.881420,9.770823
1389971629,3,0,0.0,0,0,4,0,713,700,-0.0292,189.6255,6.8213,0.4212,54.879810,9.770611,108.3,5.845,1.85,335.95,54.895348,9.797490,54.881420,9.770823
