MCU_timestamp,Navigation_System,Manual_Control,Guidance_Heading,Manual_Ctrl_Rudder,Rudder_Desired_Angle,Rudder_Feedback,Manual_Ctrl_Sail,Sail_Desired_Pos,Sail_Feedback,Rate,Heading,Pitch,Roll,Latitude,Longitude,COG,SOG,Wind_Speed,Wind_Angle,Point_Start_Lat,Point_Start_Lon,Point_End_Lat,Point_End_Lon
1386782226,0,0,0.0,0,0,4,0,0,0,-0.0292,125.4913,6.8213,0.4212,54.892281,9.795023,108.3,5.845,1.85,335.95,0.000000,0.000000,0.000000,0.000000
1386782227,0,0,0.0,0,0,4,0,0,0,-0.0292,125.4913,6.8213,0.4212,54.892281,9.795023,108.3,5.845,1.85,335.95,0.000000,0.000000,0.000000,0.000000
1386782227,0,0,0.0,0,0,4,0,0,0,-0.0292,125.4913,6.8213,0.4212,54.892281,9.795023,108.3,5.845,1.85,335.95,0.000000,0.000000,0.000000,0.000000
1386782227,0,0,0.0,0,0,4,0,0,0,-0.0292,125.4913,6.8213,0.4212,54.892281,9.795023,108.3,5.845,1.85,335.95,0.000000,0.000000,0.000000,0.000000
1386782227,0,0,0.0,0,0,4,0,0,0,-0.0292,125.4913,6.8213,0.4212,54.892281,9.795023,108.3,5.845,1.85,335.95,0.000000,0.000000,0.000000,0.000000
1386782228,0,0,0.0,0,0,4,0,0,0,-0.0292,125.4913,6.8213,0.4212,54.892281,9.795023,108.3,5.845,1.85,335.95,0.000000,0.000000,0.000000,0.000000
1386782228,0,0,0.0,0,0,4,0,0,0,-0.0292,125.4913,6.8213,0.4212,54.892281,9.795023,108.3,5.845,1.85,335.95,0.000000,0.000000,0.000000,0.000000
1386782228,0,0,0.0,0,0,4,0,0,0,-0.0292,125.4913,6.8213,0.4212,54.892281,9.795023,108.3,5.845,1.85,335.95,0.000000,0.000000,0.000000,0.000000
1386782228,0,0,0.0,0,0,4,0,0,0,-0.0292,125.4913,6.8213,0.4212,54.892281,9.795023,108.3,5.845,1.85,335.95,0.000000,0.000000,0.000000,0.000000
1386782229,4,0,0.0,0,0,4,0,0,0,-0.0292,125.4913,6.8213,0.4212,54.892281,9.795023,108.3,5.845,1.85,335.95,0.000000,0.000000,0.000000,0.000000
1386782229,1,0,390.9,0,35,8,0,409,425,-0.0292,116.1580,6.8213,0.4212,54.892273,9.795052,108.3,5.845,1.85,335.95,54.892281,9.795023,54.895069,9.793790
1386782229,1,0,390.9,0,35,12,0,409,400,-0.0292,106.8246,6.8213,0.4212,54.892265,9.795081,108.3,5.845,1.85,335.95,54.892281,9.795023,54.895069,9.793790
1386782229,1,0,390.9,0,35,16,0,3,375,-0.0292,97.4913,6.8213,0.4212,54.892262,9.795112,108.3,5.845,1.85,335.95,54.892281,9.795023,54.895069,9.793790
1386782230,1,0,390.9,0,35,20,0,31,350,-0.0292,88.1579,6.8213,0.4212,54.892265,9.795143,108.3,5.845,1.85,335.95,54.892281,9.795023,54.895069,9.793790
1386782230,1,0,390.9,0,35,24,0,80,325,-0.0292,78.8246,6.8213,0.4212,54.892265,9.795174,108.3,5.845,1.85,335.95,54.892281,9.795023,54.895069,9.793790
1386782230,1,0,390.9,0,35,28,0,140,300,-0.0292,69.4913,6.8213,0.4212,54.892269,9.795202,108.3,5.845,1.85,335.95,54.892281,9.795023,54.895069,9.793790
1386782230,1,0,390.9,0,35,32,0,205,275,-0.0292,60.1579,6.8213,0.4212,54.892277,9.795230,108.3,5.845,1.85,335.95,54.892281,9.795023,54.895069,9.793790
1386782231,1,0,390.9,0,29,28,0,271,250,-0.0292,52.4246,6.8213,0.4212,54.892288,9.795255,108.3,5.845,1.85,335.95,54.892281,9.795023,54.895069,9.793790
1386782231,1,0,390.9,0,21,24,0,327,275,-0.0292,46.8246,6.8213,0.4212,54.892303,9.795278,108.3,5.845,1.85,335.95,54.892281,9.795023,54.895069,9.793790
1386782231,1,0,390.9,0,16,20,0,366,300,-0.0292,42.5579,6.8213,0.4212,54.892319,9.795299,108.3,5.845,1.85,335.95,54.892281,9.795023,54.895069,9.793790
1386782231,1,0,390.9,0,12,16,0,395,325,-0.0292,39.3579,6.8213,0.4212,54.892330,9.795318,108.3,5.845,1.85,335.95,54.892281,9.795023,54.895069,9.793790
1386782232,1,0,390.9,0,8,12,0,417,350,-0.0292,37.2246,6.8213,0.4212,54.892345,9.795337,108.3,5.845,1.85,335.95,54.892281,9.795023,54.895069,9.793790
1386782232,1,0,390.9,0,6,8,0,431,375,-0.0292,35.6246,6.8213,0.4212,54.892361,9.795355,108.3,5.845,1.85,335.95,54.892281,9.795023,54.895069,9.793790
1386782232,1,0,390.9,0,5,4,0,442,400,-0.0292,34.2913,6.8213,0.4212,54.892376,9.795372,108.3,5.845,1.85,335.95,54.892281,9.795023,54.895069,9.793790
1386782232,1,0,390.9,0,3,0,0,451,425,-0.0292,33.4913,6.8213,0.4212,54.892391,9.795390,108.3,5.845,1.85,335.95,54.892281,9.795023,54.895069,9.793790
1386782233,1,0,390.9,0,3,4,0,456,450,-0.0292,32.6913,6.8213,0.4212,54.892406,9.795407,108.3,5.845,1.85,335.95,54.892281,9.795023,54.895069,9.793790
1386782233,1,0,390.9,0,2,0,0,461,475,-0.0292,32.1579,6.8213,0.4212,54.892422,9.795424,108.3,5.845,1.85,335.95,54.892281,9.795023,54.895069,9.793790
1386782233,1,0,390.9,0,1,4,0,465,450,-0.0292,31.8913,6.8213,0.4212,54.892437,9.795441,108.3,5.845,1.85,335.95,54.892281,9.795023,54.895069,9.793790
1386782233,1,0,390.9,0,1,0,0,466,475,-0.0292,31.6246,6.8213,0.4212,54.892456,9.795457,108.3,5.845,1.85,335.95,54.892281,9.795023,54.895069,9.793790
1386782234,1,0,390.9,0,1,4,0,468,450,-0.0292,31.3579,6.8213,0.4212,54.892471,9.795473,108.3,5.845,1.85,335.95,54.892281,9.795023,54.895069,9.793790
1386782234,1,0,390.9,0,0,0,0,470,475,-0.0292,31.3579,6.8213,0.4212,54.892487,9.795489,108.3,5.845,1.85,335.95,54.892281,9.795023,54.895069,9.793790
1386782234,1,0,390.9,0,0,4,0,470,450,-0.0292,31.3579,6.8213,0.4212,54.892498,9.795506,108.3,5.845,1.85,335.95,54.892281,9.795023,54.895069,9.793790
1386782234,1,0,390.9,0,0,0,0,470,475,-0.0292,31.3579,6.8213,0.4212,54.892513,9.795522,108.3,5.845,1.85,335.95,54.892281,9.795023,54.895069,9.793790
1386782235,1,0,390.9,0,0,4,0,470,450,-0.0292,31.3579,6.8213,0.4212,54.892529,9.795538,108.3,5.845,1.85,335.95,54.892281,9.795023,54.895069,9.793790
1386782235,1,0,390.9,0,0,0,0,470,475,-0.0292,31.3579,6.8213,0.4212,54.892544,9.795554,108.3,5.845,1.85,335.95,54.892281,9.795023,54.895069,9.793790
1386782235,1,0,390.9,0,0,4,0,470,450,-0.0292,31.3579,6.8213,0.4212,54.892559,9.795570,108.3,5.845,1.85,335.95,54.892281,9.795023,54.895069,9.793790
1386782235,1,0,390.9,0,0,0,0,470,475,-0.0292,31.3579,6.8213,0.4212,54.892578,9.795587,108.3,5.845,1.85,335.95,54.892281,9.795023,54.895069,9.793790
1386782236,1,0,390.9,0,0,4,0,470,450,-0.0292,31.3579,6.8213,0.4212,54.892593,9.795603,108.3,5.845,1.85,335.95,54.892281,9.795023,54.895069,9.793790
1386782236,1,0,390.9,0,0,0,0,470,475,-0.0292,31.3579,6.8213,0.4212,54.892609,9.795619,108.3,5.845,1.85,335.95,54.892281,9.795023,54.895069,9.793790
1386782236,1,0,390.9,0,0,4,0,470,450,-0.0292,31.3579,6.8213,0.4212,54.892628,9.795635,108.3,5.845,1.85,335.95,54.892281,9.795023,54.895069,9.793790
1386782236,1,0,390.9,0,0,0,0,470,475,-0.0292,31.3579,6.8213,0.4212,54.892643,9.795651,108.3,5.845,1.85,335.95,54.892281,9.795023,54.895069,9.793790
1386782237,1,0,390.9,0,0,4,0,470,450,-0.0292,31.3579,6.8213,0.4212,54.892658,9.795668,108.3,5.845,1.85,335.95,54.892281,9.795023,54.895069,9.793790
1386782237,1,0,485.9,0,-35,0,0,470,475,-0.0292,40.6913,6.8213,0.4212,54.892673,9.795689,108.3,5.845,1.85,335.95,54.892281,9.795023,54.895069,9.793790
1386782237,1,0,485.9,0,-35,-4,0,408,450,-0.0292,50.0246,6.8213,0.4212,54.892685,9.795712,108.3,5.845,1.85,335.95,54.892281,9.795023,54.895069,9.793790
1386782237,1,0,485.9,0,-35,-8,0,343,425,-0.0292,59.3579,6.8213,0.4212,54.892693,9.795740,108.3,5.845,1.85,335.95,54.892281,9.795023,54.895069,9.793790
1386782238,1,0,485.9,0,-35,-12,0,277,400,-0.0292,68.6913,6.8213,0.4212,54.892700,9.795770,108.3,5.845,1.85,335.95,54.892281,9.795023,54.895069,9.793790
1386782238,1,0,485.9,0,-35,-16,0,210,375,-0.0292,78.0246,6.8213,0.4212,54.892704,9.795800,108.3,5.845,1.85,335.95,54.892281,9.795023,54.895069,9.793790
1386782238,1,0,485.9,0,-35,-20,0,145,350,-0.0292,87.3579,6.8213,0.4212,54.892708,9.795832,108.3,5.845,1.85,335.95,54.892281,9.795023,54.895069,9.793790
1386782238,1,0,485.9,0,-35,-24,0,84,325,-0.0292,96.6913,6.8213,0.4212,54.892704,9.795863,108.3,5.845,1.85,335.95,54.892281,9.795023,54.895069,9.793790
1386782239,1,0,485.9,0,-29,-28,0,34,300,-0.0292,104.4246,6.8213,0.4212,54.892700,9.795894,108.3,5.845,1.85,335.95,54.892281,9.795023,54.895069,9.793790
1386782239,1,0,485.9,0,-22,-24,0,7,275,-0.0292,110.2913,6.8213,0.4212,54.892696,9.795922,108.3,5.845,1.85,335.95,54.892281,9.795023,54.895069,9.793790
1386782239,1,0,485.9,0,-16,-20,0,0,250,-0.0292,114.5580,6.8213,0.4212,54.892689,9.795951,108.3,5.845,1.85,335.95,54.892281,9.795023,54.895069,9.793790
1386782239,1,0,485.9,0,-11,-16,0,409,275,-0.0292,117.4913,6.8213,0.4212,54.892677,9.795979,108.3,5.845,1.85,335.95,54.892281,9.795023,54.895069,9.793790
1386782240,1,0,485.9,0,-8,-12,0,409,300,-0.0292,119.6246,6.8213,0.4212,54.892670,9.796005,108.3,5.845,1.85,335.95,54.892281,9.795023,54.895069,9.793790
1386782240,1,0,485.9,0,-6,-8,0,0,275,-0.0292,121.2246,6.8213,0.4212,54.892658,9.796032,108.3,5.845,1.85,335.95,54.892281,9.795023,54.895069,9.793790
1386782240,1,0,485.9,0,-5,-4,0,0,250,-0.0292,122.5580,6.8213,0.4212,54.892651,9.796058,108.3,5.845,1.85,335.95,54.892281,9.795023,54.895069,9.793790
1386782241,1,0,485.9,0,-3,0,0,0,225,-0.0292,123.3580,6.8213,0.4212,54.892643,9.796084,108.3,5.845,1.85,335.95,54.892281,9.795023,54.895069,9.793790
1386782241,1,0,485.9,0,-3,-4,0,0,200,-0.0292,124.1580,6.8213,0.4212,54.892632,9.796110,108.3,5.845,1.85,335.95,54.892281,9.795023,54.895069,9.793790
1386782241,1,0,485.9,0,-2,0,0,0,175,-0.0292,124.6913,6.8213,0.4212,54.892624,9.796136,108.3,5.845,1.85,335.95,54.892281,9.795023,54.895069,9.793790
1386782241,1,0,485.9,0,-1,-4,0,0,150,-0.0292,124.9580,6.8213,0.4212,54.892612,9.796162,108.3,5.845,1.85,335.95,54.892281,9.795023,54.895069,9.793790
1386782242,1,0,485.9,0,-1,0,0,0,125,-0.0292,125.2246,6.8213,0.4212,54.892601,9.796187,108.3,5.845,1.85,335.95,54.892281,9.795023,54.895069,9.793790
1386782242,1,0,485.9,0,-1,-4,0,0,100,-0.0292,125.4913,6.8213,0.4212,54.892590,9.796213,108.3,5.845,1.85,335.95,54.892281,9.795023,54.895069,9.793790
1386782242,1,0,485.9,0,0,0,0,0,75,-0.0292,125.4913,6.8213,0.4212,54.892578,9.796239,108.3,5.845,1.85,335.95,54.892281,9.795023,54.895069,9.793790
1386782242,1,0,485.9,0,0,4,0,0,50,-0.0292,125.4913,6.8213,0.4212,54.892570,9.796264,108.3,5.845,1.85,335.95,54.892281,9.795023,54.895069,9.793790
1386782243,1,0,485.9,0,0,0,0,0,25,-0.0292,125.4913,6.8213,0.4212,54.892559,9.796289,108.3,5.845,1.85,335.95,54.892281,9.795023,54.895069,9.793790
1386782243,1,0,485.9,0,0,4,0,0,0,-0.0292,125.4913,6.8213,0.4212,54.892551,9.796314,108.3,5.845,1.85,335.95,54.892281,9.795023,54.895069,9.793790
1386782243,1,0,485.9,0,0,0,0,0,25,-0.0292,125.4913,6.8213,0.4212,54.892540,9.796340,108.3,5.845,1.85,335.95,54.892281,9.795023,54.895069,9.793790
1386782243,1,0,545.9,0,-35,-4,0,0,0,-0.0292,134.8246,6.8213,0.4212,54.892525,9.796362,108.3,5.845,1.85,335.95,54.892281,9.795023,54.895069,9.793790
1386782244,1,0,545.9,0,-35,-8,0,0,25,-0.0292,144.1580,6.8213,0.4212,54.892509,9.796380,108.3,5.845,1.85,335.95,54.892281,9.795023,54.895069,9.793790
1386782244,1,0,545.9,0,-35,-12,0,0,0,-0.0292,153.4913,6.8213,0.4212,54.892494,9.796394,108.3,5.845,1.85,335.95,54.892281,9.795023,54.895069,9.793790
1386782244,1,0,545.9,0,-32,-16,0,0,25,-0.0292,162.0246,6.8213,0.4212,54.892475,9.796404,108.3,5.845,1.85,335.95,54.892281,9.795023,54.895069,9.793790
1386782244,1,0,545.9,0,-24,-20,0,0,0,-0.0292,168.4246,6.8213,0.4212,54.892456,9.796410,108.3,5.845,1.85,335.95,54.892281,9.795023,54.895069,9.793790
1386782245,1,0,545.9,0,-18,-16,0,0,25,-0.0292,173.2246,6.8213,0.4212,54.892441,9.796412,108.3,5.845,1.85,335.95,54.892281,9.795023,54.895069,9.793790
1386782245,1,0,545.9,0,-13,-12,0,0,0,-0.0292,176.6913,6.8213,0.4212,54.892422,9.796414,108.3,5.845,1.85,335.95,54.892281,9.795023,54.895069,9.793790
1386782245,1,0,545.9,0,-9,-8,0,0,25,-0.0292,179.0913,6.8213,0.4212,54.892403,9.796414,108.3,5.845,1.85,335.95,54.892281,9.795023,54.895069,9.793790
1386782245,1,0,280.9,0,-35,-12,0,409,50,-0.0292,188.4246,6.8213,0.4212,54.892384,9.796410,108.3,5.845,1.85,335.95,54.892281,9.795023,54.895069,9.793790
1386782246,1,0,280.9,0,-35,-16,0,409,75,-0.0292,197.7579,6.8213,0.4212,54.892368,9.796400,108.3,5.845,1.85,335.95,54.892281,9.795023,54.895069,9.793790
1386782246,1,0,280.9,0,-35,-20,0,409,100,-0.0292,207.0913,6.8213,0.4212,54.892349,9.796387,108.3,5.845,1.85,335.95,54.892281,9.795023,54.895069,9.793790
1386782246,1,0,280.9,0,-35,-24,0,6,75,-0.0292,216.4246,6.8213,0.4212,54.892334,9.796369,108.3,5.845,1.85,335.95,54.892281,9.795023,54.895069,9.793790
1386782246,1,0,280.9,0,-35,-28,0,40,50,-0.0292,225.7579,6.8213,0.4212,54.892323,9.796346,108.3,5.845,1.85,335.95,54.892281,9.795023,54.895069,9.793790
1386782247,1,0,280.9,0,-35,-32,0,92,75,-0.0292,235.0912,6.8213,0.4212,54.892311,9.796320,108.3,5.845,1.85,335.95,54.892281,9.795023,54.895069,9.793790
1386782247,1,0,280.9,0,-35,-36,0,153,100,-0.0292,244.4246,6.8213,0.4212,54.892303,9.796291,108.3,5.845,1.85,335.95,54.892281,9.795023,54.895069,9.793790
1386782247,1,0,280.9,0,-35,-32,0,219,125,-0.0292,253.7579,6.8213,0.4212,54.892300,9.796261,108.3,5.845,1.85,335.95,54.892281,9.795023,54.895069,9.793790
1386782247,1,0,280.9,0,-27,-28,0,286,150,-0.0292,260.9579,6.8213,0.4212,54.892296,9.796230,108.3,5.845,1.85,335.95,54.892281,9.795023,54.895069,9.793790
1386782248,1,0,280.9,0,-20,-24,0,337,175,-0.0292,266.2913,6.8213,0.4212,54.892292,9.796200,108.3,5.845,1.85,335.95,54.892281,9.795023,54.895069,9.793790
1386782248,1,0,280.9,0,-15,-20,0,374,200,-0.0292,270.2913,6.8213,0.4212,54.892292,9.796168,108.3,5.845,1.85,335.95,54.892281,9.795023,54.895069,9.793790
1386782248,1,0,280.9,0,-11,-16,0,402,225,-0.0292,273.2246,6.8213,0.4212,54.892292,9.796137,108.3,5.845,1.85,335.95,54.892281,9.795023,54.895069,9.793790
1386782248,1,0,280.9,0,-8,-12,0,422,250,-0.0292,275.3579,6.8213,0.4212,54.892292,9.796106,108.3,5.845,1.85,335.95,54.892281,9.795023,54.895069,9.793790
1386782249,1,0,280.9,0,-6,-8,0,436,275,-0.0292,276.9579,6.8213,0.4212,54.892292,9.796075,108.3,5.845,1.85,335.95,54.892281,9.795023,54.895069,9.793790
1386782249,1,0,280.9,0,-4,-4,0,446,300,-0.0292,278.0246,6.8213,0.4212,54.892292,9.796043,108.3,5.845,1.85,335.95,54.892281,9.795023,54.895069,9.793790
1386782249,1,0,280.9,0,-3,0,0,453,325,-0.0292,278.8246,6.8213,0.4212,54.892292,9.796013,108.3,5.845,1.85,335.95,54.892281,9.795023,54.895069,9.793790
1386782249,1,0,280.9,0,-2,-4,0,459,350,-0.0292,279.3579,6.8213,0.4212,54.892292,9.795982,108.3,5.845,1.85,335.95,54.892281,9.795023,54.895069,9.793790
1386782250,1,0,280.9,0,-2,0,0,462,375,-0.0292,279.8912,6.8213,0.4212,54.892292,9.795951,108.3,5.845,1.85,335.95,54.892281,9.795023,54.895069,9.793790
1386782250,1,0,280.9,0,-1,-4,0,466,400,-0.0292,280.1579,6.8213,0.4212,54.892292,9.795920,108.3,5.845,1.85,335.95,54.892281,9.795023,54.895069,9.793790
1386782250,1,0,280.9,0,-1,0,0,467,425,-0.0292,280.4246,6.8213,0.4212,54.892292,9.795890,108.3,5.845,1.85,335.95,54.892281,9.795023,54.895069,9.793790
1386782250,1,0,280.9,0,-1,-4,0,469,450,-0.0292,280.6912,6.8213,0.4212,54.892292,9.795858,108.3,5.845,1.85,335.95,54.892281,9.795023,54.895069,9.793790
1386782251,1,0,280.9,0,0,0,0,471,475,-0.0292,280.6912,6.8213,0.4212,54.892292,9.795828,108.3,5.845,1.85,335.95,54.892281,9.795023,54.895069,9.793790
1386782251,1,0,280.9,0,0,4,0,471,450,-0.0292,280.6912,6.8213,0.4212,54.892292,9.795797,108.3,5.845,1.85,335.95,54.892281,9.795023,54.895069,9.793790
1386782251,1,0,280.9,0,0,0,0,471,475,-0.0292,280.6912,6.8213,0.4212,54.892292,9.795767,108.3,5.845,1.85,335.95,54.892281,9.795023,54.895069,9.793790
1386782251,1,0,280.9,0,0,4,0,471,450,-0.0292,280.6912,6.8213,0.4212,54.892292,9.795735,108.3,5.845,1.85,335.95,54.892281,9.795023,54.895069,9.793790
1386782252,1,0,280.9,0,0,0,0,471,475,-0.0292,280.6912,6.8213,0.4212,54.892292,9.795705,108.3,5.845,1.85,335.95,54.892281,9.795023,54.895069,9.793790
1386782252,1,0,280.9,0,0,4,0,471,450,-0.0292,280.6912,6.8213,0.4212,54.892292,9.795674,108.3,5.845,1.85,335.95,54.892281,9.795023,54.895069,9.793790
1386782252,1,0,280.9,0,0,0,0,471,475,-0.0292,280.6912,6.8213,0.4212,54.892292,9.795644,108.3,5.845,1.85,335.95,54.892281,9.795023,54.895069,9.793790
1386782252,1,0,280.9,0,0,4,0,471,450,-0.0292,280.6912,6.8213,0.4212,54.892292,9.795613,108.3,5.845,1.85,335.95,54.892281,9.795023,54.895069,9.793790
1386782253,1,0,280.9,0,0,0,0,471,475,-0.0292,280.6912,6.8213,0.4212,54.892292,9.795583,108.3,5.845,1.85,335.95,54.892281,9.795023,54.895069,9.793790
1386782253,1,0,280.9,0,0,4,0,471,450,-0.0292,280.6912,6.8213,0.4212,54.892292,9.795552,108.3,5.845,1.85,335.95,54.892281,9.795023,54.895069,9.793790
1386782253,1,0,280.9,0,0,0,0,471,475,-0.0292,280.6912,6.8213,0.4212,54.892292,9.795521,108.3,5.845,1.85,335.95,54.892281,9.795023,54.895069,9.793790
1386782253,1,0,280.9,0,0,4,0,471,450,-0.0292,280.6912,6.8213,0.4212,54.892292,9.795490,108.3,5.845,1.85,335.95,54.892281,9.795023,54.895069,9.793790
1386782254,1,0,280.9,0,0,0,0,471,475,-0.0292,280.6912,6.8213,0.4212,54.892292,9.795460,108.3,5.845,1.85,335.95,54.892281,9.795023,54.895069,9.793790
1386782254,1,0,280.9,0,0,4,0,471,450,-0.0292,280.6912,6.8213,0.4212,54.892292,9.795429,108.3,5.845,1.85,335.95,54.892281,9.795023,54.895069,9.793790
1386782254,1,0,280.9,0,0,0,0,471,475,-0.0292,280.6912,6.8213,0.4212,54.892292,9.795399,108.3,5.845,1.85,335.95,54.892281,9.795023,54.895069,9.793790
1386782254,1,0,280.9,0,0,4,0,471,450,-0.0292,280.6912,6.8213,0.4212,54.892292,9.795368,108.3,5.845,1.85,335.95,54.892281,9.795023,54.895069,9.793790
1386782255,1,0,280.9,0,0,0,0,471,475,-0.0292,280.6912,6.8213,0.4212,54.892292,9.795338,108.3,5.845,1.85,335.95,54.892281,9.795023,54.895069,9.793790
1386782255,1,0,280.9,0,0,4,0,471,450,-0.0292,280.6912,6.8213,0.4212,54.892292,9.795306,108.3,5.845,1.85,335.95,54.892281,9.795023,54.895069,9.793790
1386782255,1,0,280.9,0,0,0,0,471,475,-0.0292,280.6912,6.8213,0.4212,54.892292,9.795276,108.3,5.845,1.85,335.95,54.892281,9.795023,54.895069,9.793790
1386782255,1,0,280.9,0,0,4,0,471,450,-0.0292,280.6912,6.8213,0.4212,54.892292,9.795245,108.3,5.845,1.85,335.95,54.892281,9.795023,54.895069,9.793790
1386782256,1,0,280.9,0,0,0,0,471,475,-0.0292,280.6912,6.8213,0.4212,54.892292,9.795215,108.3,5.845,1.85,335.95,54.892281,9.795023,54.895069,9.793790
1386782256,1,0,280.9,0,0,4,0,471,450,-0.0292,280.6912,6.8213,0.4212,54.892292,9.795184,108.3,5.845,1.85,335.95,54.892281,9.795023,54.895069,9.793790
1386782256,1,0,280.9,0,0,0,0,471,475,-0.0292,280.6912,6.8213,0.4212,54.892292,9.795154,108.3,5.845,1.85,335.95,54.892281,9.795023,54.895069,9.793790
1386782256,1,0,280.9,0,0,4,0,471,450,-0.0292,280.6912,6.8213,0.4212,54.892292,9.795123,108.3,5.845,1.85,335.95,54.892281,9.795023,54.895069,9.793790
1386782257,1,0,280.9,0,0,0,0,471,475,-0.0292,280.6912,6.8213,0.4212,54.892292,9.795092,108.3,5.845,1.85,335.95,54.892281,9.795023,54.895069,9.793790
1386782257,1,0,280.9,0,0,4,0,471,450,-0.0292,280.6912,6.8213,0.4212,54.892292,9.795061,108.3,5.845,1.85,335.95,54.892281,9.795023,54.895069,9.793790
1386782257,1,0,280.9,0,0,0,0,471,475,-0.0292,280.6912,6.8213,0.4212,54.892292,9.795031,108.3,5.845,1.85,335.95,54.892281,9.795023,54.895069,9.793790
1386782257,1,0,280.9,0,0,4,0,471,450,-0.0292,280.6912,6.8213,0.4212,54.892292,9.795000,108.3,5.845,1.85,335.95,54.892281,9.795023,54.895069,9.793790
1386782258,1,0,280.9,0,0,0,0,471,475,-0.0292,280.6912,6.8213,0.4212,54.892292,9.794970,108.3,5.845,1.85,335.95,54.892281,9.795023,54.895069,9.793790
1386782258,1,0,280.9,0,0,4,0,471,450,-0.0292,280.6912,6.8213,0.4212,54.892292,9.794939,108.3,5.845,1.85,335.95,54.892281,9.795023,54.895069,9.793790
1386782258,1,0,280.9,0,0,0,0,471,475,-0.0292,280.6912,6.8213,0.4212,54.892292,9.794909,108.3,5.845,1.85,335.95,54.892281,9.795023,54.895069,9.793790
1386782258,1,0,280.9,0,0,4,0,471,450,-0.0292,280.6912,6.8213,0.4212,54.892292,9.794877,108.3,5.845,1.85,335.95,54.892281,9.795023,54.895069,9.793790
1386782259,1,0,280.9,0,0,0,0,471,475,-0.0292,280.6912,6.8213,0.4212,54.892292,9.794847,108.3,5.845,1.85,335.95,54.892281,9.795023,54.895069,9.793790
1386782259,1,0,280.9,0,0,4,0,471,450,-0.0292,280.6912,6.8213,0.4212,54.892292,9.794816,108.3,5.845,1.85,335.95,54.892281,9.795023,54.895069,9.793790
1386782259,1,0,280.9,0,0,0,0,471,475,-0.0292,280.6912,6.8213,0.4212,54.892292,9.794785,108.3,5.845,1.85,335.95,54.892281,9.795023,54.895069,9.793790
1386782259,1,0,280.9,0,0,4,0,471,450,-0.0292,280.6912,6.8213,0.4212,54.892292,9.794755,108.3,5.845,1.85,335.95,54.892281,9.795023,54.895069,9.793790
1386782260,1,0,280.9,0,0,0,0,471,475,-0.0292,280.6912,6.8213,0.4212,54.892292,9.794724,108.3,5.845,1.85,335.95,54.892281,9.795023,54.895069,9.793790
1386782260,1,0,280.9,0,0,4,0,471,450,-0.0292,280.6912,6.8213,0.4212,54.892292,9.794694,108.3,5.845,1.85,335.95,54.892281,9.795023,54.895069,9.793790
1386782260,1,0,280.9,0,0,0,0,471,475,-0.0292,280.6912,6.8213,0.4212,54.892292,9.794662,108.3,5.845,1.85,335.95,54.892281,9.795023,54.895069,9.793790
1386782260,1,0,280.9,0,0,4,0,471,450,-0.0292,280.6912,6.8213,0.4212,54.892292,9.794632,108.3,5.845,1.85,335.95,54.892281,9.795023,54.895069,9.793790
1386782261,1,0,280.9,0,0,0,0,471,475,-0.0292,280.6912,6.8213,0.4212,54.892292,9.794601,108.3,5.845,1.85,335.95,54.892281,9.795023,54.895069,9.793790
1386782261,1,0,280.9,0,0,4,0,471,450,-0.0292,280.6912,6.8213,0.4212,54.892292,9.794571,108.3,5.845,1.85,335.95,54.892281,9.795023,54.895069,9.793790
1386782261,1,0,280.9,0,0,0,0,471,475,-0.0292,280.6912,6.8213,0.4212,54.892292,9.794540,108.3,5.845,1.85,335.95,54.892281,9.795023,54.895069,9.793790
1386782261,1,0,280.9,0,0,4,0,471,450,-0.0292,280.6912,6.8213,0.4212,54.892292,9.794510,108.3,5.845,1.85,335.95,54.892281,9.795023,54.895069,9.793790
1386782262,1,0,280.9,0,0,0,0,471,475,-0.0292,280.6912,6.8213,0.4212,54.892292,9.794479,108.3,5.845,1.85,335.95,54.892281,9.795023,54.895069,9.793790
1386782262,1,0,280.9,0,0,4,0,471,450,-0.0292,280.6912,6.8213,0.4212,54.892292,9.794448,108.3,5.845,1.85,335.95,54.892281,9.795023,54.895069,9.793790
1386782262,1,0,280.9,0,0,0,0,471,475,-0.0292,280.6912,6.8213,0.4212,54.892292,9.794417,108.3,5.845,1.85,335.95,54.892281,9.795023,54.895069,9.793790
1386782262,1,0,280.9,0,0,4,0,471,450,-0.0292,280.6912,6.8213,0.4212,54.892292,9.794387,108.3,5.845,1.85,335.95,54.892281,9.795023,54.895069,9.793790
1386782263,1,0,280.9,0,0,0,0,471,475,-0.0292,280.6912,6.8213,0.4212,54.892292,9.794356,108.3,5.845,1.85,335.95,54.892281,9.795023,54.895069,9.793790
1386782263,1,0,280.9,0,0,4,0,471,450,-0.0292,280.6912,6.8213,0.4212,54.892292,9.794326,108.3,5.845,1.85,335.95,54.892281,9.795023,54.895069,9.793790
1386782263,1,0,280.9,0,0,0,0,471,475,-0.0292,280.6912,6.8213,0.4212,54.892292,9.794295,108.3,5.845,1.85,335.95,54.892281,9.795023,54.895069,9.793790
1386782263,1,0,280.9,0,0,4,0,471,450,-0.0292,280.6912,6.8213,0.4212,54.892292,9.794265,108.3,5.845,1.85,335.95,54.892281,9.795023,54.895069,9.793790
1386782264,1,0,280.9,0,0,0,0,471,475,-0.0292,280.6912,6.8213,0.4212,54.892292,9.794233,108.3,5.845,1.85,335.95,54.892281,9.795023,54.895069,9.793790
1386782264,1,0,280.9,0,0,4,0,471,450,-0.0292,280.6912,6.8213,0.4212,54.892292,9.794203,108.3,5.845,1.85,335.95,54.892281,9.795023,54.895069,9.793790
1386782264,1,0,280.9,0,0,0,0,471,475,-0.0292,280.6912,6.8213,0.4212,54.892292,9.794172,108.3,5.845,1.85,335.95,54.892281,9.795023,54.895069,9.793790
1386782264,1,0,545.9,0,35,4,0,471,450,-0.0292,271.3579,6.8213,0.4212,54.892292,9.794142,108.3,5.845,1.85,335.95,54.892281,9.795023,54.895069,9.793790
1386782265,1,0,545.9,0,35,8,0,409,425,-0.0292,262.0245,6.8213,0.4212,54.892288,9.794110,108.3,5.845,1.85,335.95,54.892281,9.795023,54.895069,9.793790
1386782265,1,0,545.9,0,35,12,0,345,400,-0.0292,252.6912,6.8213,0.4212,54.892284,9.794081,108.3,5.845,1.85,335.95,54.892281,9.795023,54.895069,9.793790
1386782265,1,0,545.9,0,35,16,0,278,375,-0.0292,243.3579,6.8213,0.4212,54.892277,9.794053,108.3,5.845,1.85,335.95,54.892281,9.795023,54.895069,9.793790
1386782265,1,0,545.9,0,35,20,0,211,350,-0.0292,234.0246,6.8213,0.4212,54.892265,9.794027,108.3,5.845,1.85,335.95,54.892281,9.795023,54.895069,9.793790
1386782266,1,0,545.9,0,35,24,0,146,325,-0.0292,224.6912,6.8213,0.4212,54.892250,9.794005,108.3,5.845,1.85,335.95,54.892281,9.795023,54.895069,9.793790
1386782266,1,0,545.9,0,35,28,0,85,300,-0.0292,215.3579,6.8213,0.4212,54.892235,9.793987,108.3,5.845,1.85,335.95,54.892281,9.795023,54.895069,9.793790
1386782266,1,0,545.9,0,29,32,0,35,275,-0.0292,207.6246,6.8213,0.4212,54.892220,9.793973,108.3,5.845,1.85,335.95,54.892281,9.795023,54.895069,9.793790
1386782266,1,0,545.9,0,22,28,0,8,250,-0.0292,201.7579,6.8213,0.4212,54.892200,9.793962,108.3,5.845,1.85,335.95,54.892281,9.795023,54.895069,9.793790
1386782267,1,0,545.9,0,16,24,0,0,225,-0.0292,197.4912,6.8213,0.4212,54.892181,9.793952,108.3,5.845,1.85,335.95,54.892281,9.795023,54.895069,9.793790
1386782267,1,0,545.9,0,12,20,0,409,250,-0.0292,194.2912,6.8213,0.4212,54.892166,9.793944,108.3,5.845,1.85,335.95,54.892281,9.795023,54.895069,9.793790
1386782267,1,0,545.9,0,8,16,0,409,275,-0.0292,192.1579,6.8213,0.4212,54.892151,9.793938,108.3,5.845,1.85,335.95,54.892281,9.795023,54.895069,9.793790
1386782267,1,0,545.9,0,6,12,0,0,250,-0.0292,190.5579,6.8213,0.4212,54.892132,9.793932,108.3,5.845,1.85,335.95,54.892281,9.795023,54.895069,9.793790
1386782268,1,0,545.9,0,5,8,0,0,225,-0.0292,189.2246,6.8213,0.4212,54.892113,9.793927,108.3,5.845,1.85,335.95,54.892281,9.795023,54.895069,9.793790
1386782268,1,0,545.9,0,3,4,0,0,200,-0.0292,188.4246,6.8213,0.4212,54.892097,9.793922,108.3,5.845,1.85,335.95,54.892281,9.795023,54.895069,9.793790
1386782268,1,0,545.9,0,2,0,0,0,175,-0.0292,187.8912,6.8213,0.4212,54.892078,9.793918,108.3,5.845,1.85,335.95,54.892281,9.795023,54.895069,9.793790
1386782269,1,0,545.9,0,2,4,0,0,150,-0.0292,187.3579,6.8213,0.4212,54.892059,9.793913,108.3,5.845,1.85,335.95,54.892281,9.795023,54.895069,9.793790
1386782269,1,0,545.9,0,1,0,0,0,125,-0.0292,187.0912,6.8213,0.4212,54.892040,9.793909,108.3,5.845,1.85,335.95,54.892281,9.795023,54.895069,9.793790
1386782269,1,0,545.9,0,1,4,0,0,100,-0.0292,186.8246,6.8213,0.4212,54.892025,9.793905,108.3,5.845,1.85,335.95,54.892281,9.795023,54.895069,9.793790
1386782269,1,0,545.9,0,1,0,0,0,75,-0.0292,186.5579,6.8213,0.4212,54.892006,9.793901,108.3,5.845,1.85,335.95,54.892281,9.795023,54.895069,9.793790
1386782270,1,0,545.9,0,1,4,0,0,50,-0.0292,186.2912,6.8213,0.4212,54.891987,9.793899,108.3,5.845,1.85,335.95,54.892281,9.795023,54.895069,9.793790
1386782270,1,0,545.9,0,0,0,0,0,25,-0.0292,186.2912,6.8213,0.4212,54.891972,9.793895,108.3,5.845,1.85,335.95,54.892281,9.795023,54.895069,9.793790
1386782270,1,0,545.9,0,0,4,0,0,0,-0.0292,186.2912,6.8213,0.4212,54.891953,9.793891,108.3,5.845,1.85,335.95,54.892281,9.795023,54.895069,9.793790
1386782270,1,0,545.9,0,0,0,0,0,25,-0.0292,186.2912,6.8213,0.4212,54.891933,9.793887,108.3,5.845,1.85,335.95,54.892281,9.795023,54.895069,9.793790
1386782271,1,0,485.9,0,35,4,0,0,0,-0.0292,176.9579,6.8213,0.4212,54.891914,9.793889,108.3,5.845,1.85,335.95,54.892281,9.795023,54.895069,9.793790
1386782271,1,0,485.9,0,35,8,0,0,25,-0.0292,167.6246,6.8213,0.4212,54.891899,9.793896,108.3,5.845,1.85,335.95,54.892281,9.795023,54.895069,9.793790
1386782271,1,0,485.9,0,35,12,0,0,0,-0.0292,158.2912,6.8213,0.4212,54.891880,9.793907,108.3,5.845,1.85,335.95,54.892281,9.795023,54.895069,9.793790
1386782271,1,0,485.9,0,32,16,0,0,25,-0.0292,149.7579,6.8213,0.4212,54.891865,9.793923,108.3,5.845,1.85,335.95,54.892281,9.795023,54.895069,9.793790
1386782272,1,0,485.9,0,24,20,0,0,0,-0.0292,143.3579,6.8213,0.4212,54.891850,9.793941,108.3,5.845,1.85,335.95,54.892281,9.795023,54.895069,9.793790
1386782272,1,0,485.9,0,17,16,0,0,25,-0.0292,138.8246,6.8213,0.4212,54.891834,9.793962,108.3,5.845,1.85,335.95,54.892281,9.795023,54.895069,9.793790
1386782272,1,0,485.9,0,13,12,0,0,0,-0.0292,135.3579,6.8213,0.4212,54.891823,9.793984,108.3,5.845,1.85,335.95,54.892281,9.795023,54.895069,9.793790
1386782272,1,0,485.9,0,9,8,0,0,25,-0.0292,132.9579,6.8213,0.4212,54.891808,9.794007,108.3,5.845,1.85,335.95,54.892281,9.795023,54.895069,9.793790
1386782273,1,0,390.9,0,35,12,0,409,50,-0.0292,123.6246,6.8213,0.4212,54.891796,9.794033,108.3,5.845,1.85,335.95,54.892281,9.795023,54.895069,9.793790
1386782273,1,0,390.9,0,35,16,0,409,75,-0.0292,114.2912,6.8213,0.4212,54.891792,9.794062,108.3,5.845,1.85,335.95,54.892281,9.795023,54.895069,9.793790
1386782273,1,0,390.9,0,35,20,0,409,100,-0.0292,104.9579,6.8213,0.4212,54.891788,9.794091,108.3,5.845,1.85,335.95,54.892281,9.795023,54.895069,9.793790
1386782273,1,0,390.9,0,35,24,0,6,75,-0.0292,95.6246,6.8213,0.4212,54.891788,9.794122,108.3,5.845,1.85,335.95,54.892281,9.795023,54.895069,9.793790
1386782274,1,0,390.9,0,35,28,0,39,50,-0.0292,86.2912,6.8213,0.4212,54.891788,9.794153,108.3,5.845,1.85,335.95,54.892281,9.795023,54.895069,9.793790
1386782274,1,0,390.9,0,35,32,0,91,75,-0.0292,76.9579,6.8213,0.4212,54.891792,9.794184,108.3,5.845,1.85,335.95,54.892281,9.795023,54.895069,9.793790
1386782274,1,0,390.9,0,35,36,0,152,100,-0.0292,67.6246,6.8213,0.4212,54.891800,9.794212,108.3,5.845,1.85,335.95,54.892281,9.795023,54.895069,9.793790
1386782274,1,0,390.9,0,35,32,0,218,125,-0.0292,58.2912,6.8213,0.4212,54.891808,9.794239,108.3,5.845,1.85,335.95,54.892281,9.795023,54.895069,9.793790
1386782275,1,0,390.9,0,27,28,0,285,150,-0.0292,51.0912,6.8213,0.4212,54.891819,9.794263,108.3,5.845,1.85,335.95,54.892281,9.795023,54.895069,9.793790
1386782275,1,0,390.9,0,20,24,0,336,175,-0.0292,45.7579,6.8213,0.4212,54.891834,9.794285,108.3,5.845,1.85,335.95,54.892281,9.795023,54.895069,9.793790
1386782275,1,0,390.9,0,15,20,0,373,200,-0.0292,41.7579,6.8213,0.4212,54.891850,9.794306,108.3,5.845,1.85,335.95,54.892281,9.795023,54.895069,9.793790
1386782275,1,0,390.9,0,11,16,0,401,225,-0.0292,38.8246,6.8213,0.4212,54.891861,9.794325,108.3,5.845,1.85,335.95,54.892281,9.795023,54.895069,9.793790
1386782276,1,0,390.9,0,8,12,0,421,250,-0.0292,36.6912,6.8213,0.4212,54.891876,9.794344,108.3,5.845,1.85,335.95,54.892281,9.795023,54.895069,9.793790
1386782276,1,0,390.9,0,6,8,0,435,275,-0.0292,35.0912,6.8213,0.4212,54.891891,9.794362,108.3,5.845,1.85,335.95,54.892281,9.795023,54.895069,9.793790
1386782276,1,0,390.9,0,4,4,0,445,300,-0.0292,34.0246,6.8213,0.4212,54.891907,9.794379,108.3,5.845,1.85,335.95,54.892281,9.795023,54.895069,9.793790
1386782276,1,0,390.9,0,3,0,0,452,325,-0.0292,33.2246,6.8213,0.4212,54.891922,9.794396,108.3,5.845,1.85,335.95,54.892281,9.795023,54.895069,9.793790
1386782277,1,0,390.9,0,2,4,0,458,350,-0.0292,32.6912,6.8213,0.4212,54.891933,9.794413,108.3,5.845,1.85,335.95,54.892281,9.795023,54.895069,9.793790
1386782277,1,0,390.9,0,2,0,0,461,375,-0.0292,32.1579,6.8213,0.4212,54.891949,9.794429,108.3,5.845,1.85,335.95,54.892281,9.795023,54.895069,9.793790
1386782277,1,0,390.9,0,1,4,0,465,400,-0.0292,31.8912,6.8213,0.4212,54.891964,9.794446,108.3,5.845,1.85,335.95,54.892281,9.795023,54.895069,9.793790
1386782277,1,0,390.9,0,1,0,0,466,425,-0.0292,31.6246,6.8213,0.4212,54.891979,9.794462,108.3,5.845,1.85,335.95,54.892281,9.795023,54.895069,9.793790
1386782278,1,0,390.9,0,1,4,0,468,450,-0.0292,31.3579,6.8213,0.4212,54.891994,9.794478,108.3,5.845,1.85,335.95,54.892281,9.795023,54.895069,9.793790
1386782278,1,0,390.9,0,0,0,0,470,475,-0.0292,31.3579,6.8213,0.4212,54.892014,9.794495,108.3,5.845,1.85,335.95,54.892281,9.795023,54.895069,9.793790
1386782278,1,0,390.9,0,0,4,0,470,450,-0.0292,31.3579,6.8213,0.4212,54.892029,9.794511,108.3,5.845,1.85,335.95,54.892281,9.795023,54.895069,9.793790
1386782278,1,0,390.9,0,0,0,0,470,475,-0.0292,31.3579,6.8213,0.4212,54.892044,9.794527,108.3,5.845,1.85,335.95,54.892281,9.795023,54.895069,9.793790
1386782279,1,0,390.9,0,0,4,0,470,450,-0.0292,31.3579,6.8213,0.4212,54.892056,9.794543,108.3,5.845,1.85,335.95,54.892281,9.795023,54.895069,9.793790
1386782279,1,0,390.9,0,0,0,0,470,475,-0.0292,31.3579,6.8213,0.4212,54.892071,9.794559,108.3,5.845,1.85,335.95,54.892281,9.795023,54.895069,9.793790
1386782279,1,0,390.9,0,0,4,0,470,450,-0.0292,31.3579,6.8213,0.4212,54.892086,9.794577,108.3,5.845,1.85,335.95,54.892281,9.795023,54.895069,9.793790
1386782279,1,0,390.9,0,0,0,0,470,475,-0.0292,31.3579,6.8213,0.4212,54.892101,9.794593,108.3,5.845,1.85,335.95,54.892281,9.795023,54.895069,9.793790
1386782280,1,0,390.9,0,0,4,0,470,450,-0.0292,31.3579,6.8213,0.4212,54.892117,9.794609,108.3,5.845,1.85,335.95,54.892281,9.795023,54.895069,9.793790
1386782280,1,0,390.9,0,0,0,0,470,475,-0.0292,31.3579,6.8213,0.4212,54.892136,9.794625,108.3,5.845,1.85,335.95,54.892281,9.795023,54.895069,9.793790
1386782280,1,0,390.9,0,0,4,0,470,450,-0.0292,31.3579,6.8213,0.4212,54.892151,9.794641,108.3,5.845,1.85,335.95,54.892281,9.795023,54.895069,9.793790
1386782280,1,0,390.9,0,0,0,0,470,475,-0.0292,31.3579,6.8213,0.4212,54.892166,9.794658,108.3,5.845,1.85,335.95,54.892281,9.795023,54.895069,9.793790
1386782281,1,0,390.9,0,0,4,0,470,450,-0.0292,31.3579,6.8213,0.4212,54.892185,9.794674,108.3,5.845,1.85,335.95,54.892281,9.795023,54.895069,9.793790
1386782281,1,0,390.9,0,0,0,0,470,475,-0.0292,31.3579,6.8213,0.4212,54.892200,9.794690,108.3,5.845,1.85,335.95,54.892281,9.795023,54.895069,9.793790
1386782281,1,0,390.9,0,0,4,0,470,450,-0.0292,31.3579,6.8213,0.4212,54.892216,9.794706,108.3,5.845,1.85,335.95,54.892281,9.795023,54.895069,9.793790
1386782281,1,0,390.9,0,0,0,0,470,475,-0.0292,31.3579,6.8213,0.4212,54.892235,9.794723,108.3,5.845,1.85,335.95,54.892281,9.795023,54.895069,9.793790
1386782282,1,0,390.9,0,0,4,0,470,450,-0.0292,31.3579,6.8213,0.4212,54.892250,9.794739,108.3,5.845,1.85,335.95,54.892281,9.795023,54.895069,9.793790
1386782282,1,0,390.9,0,0,0,0,470,475,-0.0292,31.3579,6.8213,0.4212,54.892265,9.794755,108.3,5.845,1.85,335.95,54.892281,9.795023,54.895069,9.793790
1386782282,1,0,390.9,0,0,4,0,470,450,-0.0292,31.3579,6.8213,0.4212,54.892277,9.794771,108.3,5.845,1.85,335.95,54.892281,9.795023,54.895069,9.793790
1386782282,1,0,390.9,0,0,0,0,470,475,-0.0292,31.3579,6.8213,0.4212,54.892292,9.794787,108.3,5.845,1.85,335.95,54.892281,9.795023,54.895069,9.793790
1386782283,1,0,390.9,0,0,4,0,470,450,-0.0292,31.3579,6.8213,0.4212,54.892307,9.794804,108.3,5.845,1.85,335.95,54.892281,9.795023,54.895069,9.793790
1386782283,1,0,390.9,0,0,0,0,470,475,-0.0292,31.3579,6.8213,0.4212,54.892323,9.794820,108.3,5.845,1.85,335.95,54.892281,9.795023,54.895069,9.793790
1386782283,1,0,390.9,0,0,4,0,470,450,-0.0292,31.3579,6.8213,0.4212,54.892338,9.794836,108.3,5.845,1.85,335.95,54.892281,9.795023,54.895069,9.793790
1386782283,1,0,390.9,0,0,0,0,470,475,-0.0292,31.3579,6.8213,0.4212,54.892357,9.794852,108.3,5.845,1.85,335.95,54.892281,9.795023,54.895069,9.793790
1386782284,1,0,390.9,0,0,4,0,470,450,-0.0292,31.3579,6.8213,0.4212,54.892372,9.794868,108.3,5.845,1.85,335.95,54.892281,9.795023,54.895069,9.793790
1386782284,1,0,390.9,0,0,0,0,470,475,-0.0292,31.3579,6.8213,0.4212,54.892387,9.794885,108.3,5.845,1.85,335.95,54.892281,9.795023,54.895069,9.793790
1386782284,1,0,390.9,0,0,4,0,470,450,-0.0292,31.3579,6.8213,0.4212,54.892406,9.794901,108.3,5.845,1.85,335.95,54.892281,9.795023,54.895069,9.793790
1386782284,1,0,390.9,0,0,0,0,470,475,-0.0292,31.3579,6.8213,0.4212,54.892422,9.794917,108.3,5.845,1.85,335.95,54.892281,9.795023,54.895069,9.793790
1386782285,1,0,390.9,0,0,4,0,470,450,-0.0292,31.3579,6.8213,0.4212,54.892437,9.794933,108.3,5.845,1.85,335.95,54.892281,9.795023,54.895069,9.793790
1386782285,1,0,390.9,0,0,0,0,470,475,-0.0292,31.3579,6.8213,0.4212,54.892456,9.794950,108.3,5.845,1.85,335.95,54.892281,9.795023,54.895069,9.793790
1386782285,1,0,390.9,0,0,4,0,470,450,-0.0292,31.3579,6.8213,0.4212,54.892471,9.794966,108.3,5.845,1.85,335.95,54.892281,9.795023,54.895069,9.793790
1386782285,1,0,390.9,0,0,0,0,470,475,-0.0292,31.3579,6.8213,0.4212,54.892487,9.794982,108.3,5.845,1.85,335.95,54.892281,9.795023,54.895069,9.793790
1386782286,1,0,390.9,0,0,4,0,470,450,-0.0292,31.3579,6.8213,0.4212,54.892498,9.794998,108.3,5.845,1.85,335.95,54.892281,9.795023,54.895069,9.793790
1386782286,1,0,390.9,0,0,0,0,470,475,-0.0292,31.3579,6.8213,0.4212,54.892513,9.795014,108.3,5.845,1.85,335.95,54.892281,9.795023,54.895069,9.793790
1386782286,1,0,390.9,0,0,4,0,470,450,-0.0292,31.3579,6.8213,0.4212,54.892529,9.795031,108.3,5.845,1.85,335.95,54.892281,9.795023,54.895069,9.793790
1386782286,1,0,390.9,0,0,0,0,470,475,-0.0292,31.3579,6.8213,0.4212,54.892544,9.795048,108.3,5.845,1.85,335.95,54.892281,9.795023,54.895069,9.793790
1386782287,1,0,390.9,0,0,4,0,470,450,-0.0292,31.3579,6.8213,0.4212,54.892559,9.795064,108.3,5.845,1.85,335.95,54.892281,9.795023,54.895069,9.793790
1386782287,1,0,390.9,0,0,0,0,470,475,-0.0292,31.3579,6.8213,0.4212,54.892578,9.795080,108.3,5.845,1.85,335.95,54.892281,9.795023,54.895069,9.793790
1386782287,1,0,390.9,0,0,4,0,470,450,-0.0292,31.3579,6.8213,0.4212,54.892593,9.795096,108.3,5.845,1.85,335.95,54.892281,9.795023,54.895069,9.793790
1386782287,1,0,390.9,0,0,0,0,470,475,-0.0292,31.3579,6.8213,0.4212,54.892609,9.795113,108.3,5.845,1.85,335.95,54.892281,9.795023,54.895069,9.793790
1386782288,1,0,390.9,0,0,4,0,470,450,-0.0292,31.3579,6.8213,0.4212,54.892628,9.795129,108.3,5.845,1.85,335.95,54.892281,9.795023,54.895069,9.793790
1386782288,1,0,390.9,0,0,0,0,470,475,-0.0292,31.3579,6.8213,0.4212,54.892643,9.795145,108.3,5.845,1.85,335.95,54.892281,9.795023,54.895069,9.793790
1386782288,1,0,390.9,0,0,4,0,470,450,-0.0292,31.3579,6.8213,0.4212,54.892658,9.795161,108.3,5.845,1.85,335.95,54.892281,9.795023,54.895069,9.793790
1386782288,1,0,390.9,0,0,0,0,470,475,-0.0292,31.3579,6.8213,0.4212,54.892677,9.795177,108.3,5.845,1.85,335.95,54.892281,9.795023,54.895069,9.793790
1386782289,1,0,390.9,0,0,4,0,470,450,-0.0292,31.3579,6.8213,0.4212,54.892693,9.795194,108.3,5.845,1.85,335.95,54.892281,9.795023,54.895069,9.793790
1386782289,1,0,390.9,0,0,0,0,470,475,-0.0292,31.3579,6.8213,0.4212,54.892708,9.795210,108.3,5.845,1.85,335.95,54.892281,9.795023,54.895069,9.793790
1386782289,1,0,390.9,0,0,4,0,470,450,-0.0292,31.3579,6.8213,0.4212,54.892719,9.795226,108.3,5.845,1.85,335.95,54.892281,9.795023,54.895069,9.793790
1386782289,1,0,390.9,0,0,0,0,470,475,-0.0292,31.3579,6.8213,0.4212,54.892735,9.795242,108.3,5.845,1.85,335.95,54.892281,9.795023,54.895069,9.793790
1386782290,1,0,390.9,0,0,4,0,470,450,-0.0292,31.3579,6.8213,0.4212,54.892750,9.795259,108.3,5.845,1.85,335.95,54.892281,9.795023,54.895069,9.793790
1386782290,1,0,390.9,0,0,0,0,470,475,-0.0292,31.3579,6.8213,0.4212,54.892765,9.795275,108.3,5.845,1.85,335.95,54.892281,9.795023,54.895069,9.793790
1386782290,1,0,390.9,0,0,4,0,470,450,-0.0292,31.3579,6.8213,0.4212,54.892780,9.795291,108.3,5.845,1.85,335.95,54.892281,9.795023,54.895069,9.793790
1386782290,1,0,390.9,0,0,0,0,470,475,-0.0292,31.3579,6.8213,0.4212,54.892799,9.795307,108.3,5.845,1.85,335.95,54.892281,9.795023,54.895069,9.793790
1386782291,1,0,390.9,0,0,4,0,470,450,-0.0292,31.3579,6.8213,0.4212,54.892815,9.795323,108.3,5.845,1.85,335.95,54.892281,9.795023,54.895069,9.793790
1386782291,1,0,390.9,0,0,0,0,470,475,-0.0292,31.3579,6.8213,0.4212,54.892830,9.795340,108.3,5.845,1.85,335.95,54.892281,9.795023,54.895069,9.793790
1386782291,1,0,390.9,0,0,4,0,470,450,-0.0292,31.3579,6.8213,0.4212,54.892849,9.795356,108.3,5.845,1.85,335.95,54.892281,9.795023,54.895069,9.793790
1386782291,1,0,390.9,0,0,0,0,470,475,-0.0292,31.3579,6.8213,0.4212,54.892864,9.795372,108.3,5.845,1.85,335.95,54.892281,9.795023,54.895069,9.793790
1386782292,1,0,390.9,0,0,4,0,470,450,-0.0292,31.3579,6.8213,0.4212,54.892879,9.795388,108.3,5.845,1.85,335.95,54.892281,9.795023,54.895069,9.793790
1386782292,1,0,390.9,0,0,0,0,470,475,-0.0292,31.3579,6.8213,0.4212,54.892899,9.795404,108.3,5.845,1.85,335.95,54.892281,9.795023,54.895069,9.793790
1386782292,1,0,390.9,0,0,4,0,470,450,-0.0292,31.3579,6.8213,0.4212,54.892914,9.795421,108.3,5.845,1.85,335.95,54.892281,9.795023,54.895069,9.793790
1386782292,1,0,390.9,0,0,0,0,470,475,-0.0292,31.3579,6.8213,0.4212,54.892929,9.795437,108.3,5.845,1.85,335.95,54.892281,9.795023,54.895069,9.793790
1386782293,1,0,390.9,0,0,4,0,470,450,-0.0292,31.3579,6.8213,0.4212,54.892948,9.795453,108.3,5.845,1.85,335.95,54.892281,9.795023,54.895069,9.793790
1386782293,1,0,390.9,0,0,0,0,470,475,-0.0292,31.3579,6.8213,0.4212,54.892963,9.795469,108.3,5.845,1.85,335.95,54.892281,9.795023,54.895069,9.793790
1386782293,1,0,390.9,0,0,4,0,470,450,-0.0292,31.3579,6.8213,0.4212,54.892979,9.795485,108.3,5.845,1.85,335.95,54.892281,9.795023,54.895069,9.793790
1386782293,1,0,390.9,0,0,0,0,470,475,-0.0292,31.3579,6.8213,0.4212,54.892990,9.795502,108.3,5.845,1.85,335.95,54.892281,9.795023,54.895069,9.793790
1386782294,1,0,390.9,0,0,4,0,470,450,-0.0292,31.3579,6.8213,0.4212,54.893005,9.795519,108.3,5.845,1.85,335.95,54.892281,9.795023,54.895069,9.793790
1386782294,1,0,485.9,0,-35,0,0,470,475,-0.0292,40.6912,6.8213,0.4212,54.893017,9.795539,108.3,5.845,1.85,335.95,54.892281,9.795023,54.895069,9.793790
1386782294,1,0,485.9,0,-35,-4,0,408,450,-0.0292,50.0246,6.8213,0.4212,54.893028,9.795563,108.3,5.845,1.85,335.95,54.892281,9.795023,54.895069,9.793790
1386782294,1,0,485.9,0,-35,-8,0,343,425,-0.0292,59.3579,6.8213,0.4212,54.893036,9.795589,108.3,5.845,1.85,335.95,54.892281,9.795023,54.895069,9.793790
1386782295,1,0,485.9,0,-35,-12,0,277,400,-0.0292,68.6912,6.8213,0.4212,54.893044,9.795618,108.3,5.845,1.85,335.95,54.892281,9.795023,54.895069,9.793790
1386782295,1,0,485.9,0,-35,-16,0,210,375,-0.0292,78.0246,6.8213,0.4212,54.893047,9.795649,108.3,5.845,1.85,335.95,54.892281,9.795023,54.895069,9.793790
1386782295,1,0,485.9,0,-35,-20,0,145,350,-0.0292,87.3579,6.8213,0.4212,54.893051,9.795680,108.3,5.845,1.85,335.95,54.892281,9.795023,54.895069,9.793790
1386782295,1,0,485.9,0,-35,-24,0,84,325,-0.0292,96.6912,6.8213,0.4212,54.893051,9.795711,108.3,5.845,1.85,335.95,54.892281,9.795023,54.895069,9.793790
1386782296,1,0,485.9,0,-29,-28,0,34,300,-0.0292,104.4246,6.8213,0.4212,54.893047,9.795741,108.3,5.845,1.85,335.95,54.892281,9.795023,54.895069,9.793790
1386782296,1,0,485.9,0,-22,-24,0,7,275,-0.0292,110.2912,6.8213,0.4212,54.893044,9.795771,108.3,5.845,1.85,335.95,54.892281,9.795023,54.895069,9.793790
1386782296,1,0,485.9,0,-16,-20,0,0,250,-0.0292,114.5579,6.8213,0.4212,54.893036,9.795798,108.3,5.845,1.85,335.95,54.892281,9.795023,54.895069,9.793790
1386782297,1,0,485.9,0,-11,-16,0,409,275,-0.0292,117.4912,6.8213,0.4212,54.893028,9.795826,108.3,5.845,1.85,335.95,54.892281,9.795023,54.895069,9.793790
1386782297,1,0,485.9,0,-8,-12,0,409,300,-0.0292,119.6246,6.8213,0.4212,54.893017,9.795853,108.3,5.845,1.85,335.95,54.892281,9.795023,54.895069,9.793790
1386782297,1,0,485.9,0,-6,-8,0,0,275,-0.0292,121.2246,6.8213,0.4212,54.893009,9.795879,108.3,5.845,1.85,335.95,54.892281,9.795023,54.895069,9.793790
1386782297,1,0,485.9,0,-5,-4,0,0,250,-0.0292,122.5579,6.8213,0.4212,54.892998,9.795906,108.3,5.845,1.85,335.95,54.892281,9.795023,54.895069,9.793790
1386782298,1,0,485.9,0,-3,0,0,0,225,-0.0292,123.3579,6.8213,0.4212,54.892990,9.795932,108.3,5.845,1.85,335.95,54.892281,9.795023,54.895069,9.793790
1386782298,1,0,485.9,0,-3,-4,0,0,200,-0.0292,124.1579,6.8213,0.4212,54.892979,9.795959,108.3,5.845,1.85,335.95,54.892281,9.795023,54.895069,9.793790
1386782298,1,0,485.9,0,-2,0,0,0,175,-0.0292,124.6912,6.8213,0.4212,54.892967,9.795984,108.3,5.845,1.85,335.95,54.892281,9.795023,54.895069,9.793790
1386782298,1,0,485.9,0,-1,-4,0,0,150,-0.0292,124.9579,6.8213,0.4212,54.892956,9.796010,108.3,5.845,1.85,335.95,54.892281,9.795023,54.895069,9.793790
1386782299,1,0,485.9,0,-1,0,0,0,125,-0.0292,125.2246,6.8213,0.4212,54.892944,9.796036,108.3,5.845,1.85,335.95,54.892281,9.795023,54.895069,9.793790
1386782299,1,0,485.9,0,-1,-4,0,0,100,-0.0292,125.4913,6.8213,0.4212,54.892933,9.796062,108.3,5.845,1.85,335.95,54.892281,9.795023,54.895069,9.793790
1386782299,1,0,485.9,0,0,0,0,0,75,-0.0292,125.4913,6.8213,0.4212,54.892921,9.796086,108.3,5.845,1.85,335.95,54.892281,9.795023,54.895069,9.793790
1386782299,1,0,485.9,0,0,4,0,0,50,-0.0292,125.4913,6.8213,0.4212,54.892910,9.796112,108.3,5.845,1.85,335.95,54.892281,9.795023,54.895069,9.793790
1386782300,1,0,485.9,0,0,0,0,0,25,-0.0292,125.4913,6.8213,0.4212,54.892899,9.796137,108.3,5.845,1.85,335.95,54.892281,9.795023,54.895069,9.793790
1386782300,1,0,485.9,0,0,4,0,0,0,-0.0292,125.4913,6.8213,0.4212,54.892891,9.796163,108.3,5.845,1.85,335.95,54.892281,9.795023,54.895069,9.793790
1386782300,1,0,485.9,0,0,0,0,0,25,-0.0292,125.4913,6.8213,0.4212,54.892879,9.796188,108.3,5.845,1.85,335.95,54.892281,9.795023,54.895069,9.793790
1386782300,1,0,545.9,0,-35,-4,0,0,0,-0.0292,134.8246,6.8213,0.4212,54.892868,9.796211,108.3,5.845,1.85,335.95,54.892281,9.795023,54.895069,9.793790
1386782301,1,0,545.9,0,-35,-8,0,0,25,-0.0292,144.1579,6.8213,0.4212,54.892853,9.796229,108.3,5.845,1.85,335.95,54.892281,9.795023,54.895069,9.793790
1386782301,1,0,545.9,0,-35,-12,0,0,0,-0.0292,153.4912,6.8213,0.4212,54.892838,9.796244,108.3,5.845,1.85,335.95,54.892281,9.795023,54.895069,9.793790
1386782301,1,0,545.9,0,-32,-16,0,0,25,-0.0292,162.0246,6.8213,0.4212,54.892818,9.796253,108.3,5.845,1.85,335.95,54.892281,9.795023,54.895069,9.793790
1386782301,1,0,545.9,0,-24,-20,0,0,0,-0.0292,168.4246,6.8213,0.4212,54.892799,9.796260,108.3,5.845,1.85,335.95,54.892281,9.795023,54.895069,9.793790
1386782302,1,0,545.9,0,-18,-16,0,0,25,-0.0292,173.2246,6.8213,0.4212,54.892784,9.796264,108.3,5.845,1.85,335.95,54.892281,9.795023,54.895069,9.793790
1386782302,1,0,545.9,0,-13,-12,0,0,0,-0.0292,176.6912,6.8213,0.4212,54.892765,9.796266,108.3,5.845,1.85,335.95,54.892281,9.795023,54.895069,9.793790
1386782302,1,0,545.9,0,-9,-8,0,0,25,-0.0292,179.0912,6.8213,0.4212,54.892746,9.796267,108.3,5.845,1.85,335.95,54.892281,9.795023,54.895069,9.793790
1386782302,1,0,280.9,0,-35,-12,0,409,50,-0.0292,188.4246,6.8213,0.4212,54.892727,9.796263,108.3,5.845,1.85,335.95,54.892281,9.795023,54.895069,9.793790
1386782303,1,0,280.9,0,-35,-16,0,409,75,-0.0292,197.7579,6.8213,0.4212,54.892712,9.796253,108.3,5.845,1.85,335.95,54.892281,9.795023,54.895069,9.793790
1386782303,1,0,280.9,0,-35,-20,0,409,100,-0.0292,207.0912,6.8213,0.4212,54.892693,9.796239,108.3,5.845,1.85,335.95,54.892281,9.795023,54.895069,9.793790
1386782303,1,0,280.9,0,-35,-24,0,6,75,-0.0292,216.4245,6.8213,0.4212,54.892677,9.796220,108.3,5.845,1.85,335.95,54.892281,9.795023,54.895069,9.793790
1386782303,1,0,280.9,0,-35,-28,0,40,50,-0.0292,225.7579,6.8213,0.4212,54.892666,9.796198,108.3,5.845,1.85,335.95,54.892281,9.795023,54.895069,9.793790
1386782304,1,0,280.9,0,-35,-32,0,92,75,-0.0292,235.0912,6.8213,0.4212,54.892654,9.796172,108.3,5.845,1.85,335.95,54.892281,9.795023,54.895069,9.793790
1386782304,1,0,280.9,0,-35,-36,0,153,100,-0.0292,244.4245,6.8213,0.4212,54.892647,9.796144,108.3,5.845,1.85,335.95,54.892281,9.795023,54.895069,9.793790
1386782304,1,0,280.9,0,-35,-32,0,219,125,-0.0292,253.7579,6.8213,0.4212,54.892643,9.796115,108.3,5.845,1.85,335.95,54.892281,9.795023,54.895069,9.793790
1386782304,1,0,280.9,0,-27,-28,0,286,150,-0.0292,260.9579,6.8213,0.4212,54.892639,9.796083,108.3,5.845,1.85,335.95,54.892281,9.795023,54.895069,9.793790
1386782305,1,0,280.9,0,-20,-24,0,337,175,-0.0292,266.2912,6.8213,0.4212,54.892635,9.796052,108.3,5.845,1.85,335.95,54.892281,9.795023,54.895069,9.793790
1386782305,1,0,280.9,0,-15,-20,0,374,200,-0.0292,270.2912,6.8213,0.4212,54.892632,9.796021,108.3,5.845,1.85,335.95,54.892281,9.795023,54.895069,9.793790
1386782305,1,0,280.9,0,-11,-16,0,402,225,-0.0292,273.2245,6.8213,0.4212,54.892635,9.795990,108.3,5.845,1.85,335.95,54.892281,9.795023,54.895069,9.793790
1386782305,1,0,280.9,0,-8,-12,0,422,250,-0.0292,275.3578,6.8213,0.4212,54.892635,9.795959,108.3,5.845,1.85,335.95,54.892281,9.795023,54.895069,9.793790
1386782306,1,0,280.9,0,-6,-8,0,436,275,-0.0292,276.9579,6.8213,0.4212,54.892635,9.795928,108.3,5.845,1.85,335.95,54.892281,9.795023,54.895069,9.793790
1386782306,1,0,280.9,0,-4,-4,0,446,300,-0.0292,278.0245,6.8213,0.4212,54.892635,9.795897,108.3,5.845,1.85,335.95,54.892281,9.795023,54.895069,9.793790
1386782306,1,0,280.9,0,-3,0,0,453,325,-0.0292,278.8245,6.8213,0.4212,54.892635,9.795866,108.3,5.845,1.85,335.95,54.892281,9.795023,54.895069,9.793790
1386782306,1,0,280.9,0,-2,-4,0,459,350,-0.0292,279.3578,6.8213,0.4212,54.892635,9.795835,108.3,5.845,1.85,335.95,54.892281,9.795023,54.895069,9.793790
1386782307,1,0,280.9,0,-2,0,0,462,375,-0.0292,279.8912,6.8213,0.4212,54.892635,9.795805,108.3,5.845,1.85,335.95,54.892281,9.795023,54.895069,9.793790
1386782307,1,0,280.9,0,-1,-4,0,466,400,-0.0292,280.1578,6.8213,0.4212,54.892635,9.795774,108.3,5.845,1.85,335.95,54.892281,9.795023,54.895069,9.793790
1386782307,1,0,280.9,0,-1,0,0,467,425,-0.0292,280.4245,6.8213,0.4212,54.892635,9.795743,108.3,5.845,1.85,335.95,54.892281,9.795023,54.895069,9.793790
1386782307,1,0,280.9,0,-1,-4,0,469,450,-0.0292,280.6912,6.8213,0.4212,54.892635,9.795712,108.3,5.845,1.85,335.95,54.892281,9.795023,54.895069,9.793790
1386782308,1,0,280.9,0,0,0,0,471,475,-0.0292,280.6912,6.8213,0.4212,54.892635,9.795682,108.3,5.845,1.85,335.95,54.892281,9.795023,54.895069,9.793790
1386782308,1,0,280.9,0,0,4,0,471,450,-0.0292,280.6912,6.8213,0.4212,54.892635,9.795651,108.3,5.845,1.85,335.95,54.892281,9.795023,54.895069,9.793790
1386782308,1,0,280.9,0,0,0,0,471,475,-0.0292,280.6912,6.8213,0.4212,54.892635,9.795621,108.3,5.845,1.85,335.95,54.892281,9.795023,54.895069,9.793790
1386782308,1,0,280.9,0,0,4,0,471,450,-0.0292,280.6912,6.8213,0.4212,54.892635,9.795590,108.3,5.845,1.85,335.95,54.892281,9.795023,54.895069,9.793790
1386782309,1,0,280.9,0,0,0,0,471,475,-0.0292,280.6912,6.8213,0.4212,54.892635,9.795559,108.3,5.845,1.85,335.95,54.892281,9.795023,54.895069,9.793790
1386782309,1,0,280.9,0,0,4,0,471,450,-0.0292,280.6912,6.8213,0.4212,54.892635,9.795528,108.3,5.845,1.85,335.95,54.892281,9.795023,54.895069,9.793790
1386782309,1,0,280.9,0,0,0,0,471,475,-0.0292,280.6912,6.8213,0.4212,54.892635,9.795498,108.3,5.845,1.85,335.95,54.892281,9.795023,54.895069,9.793790
1386782309,1,0,280.9,0,0,4,0,471,450,-0.0292,280.6912,6.8213,0.4212,54.892635,9.795467,108.3,5.845,1.85,335.95,54.892281,9.795023,54.895069,9.793790
1386782310,1,0,280.9,0,0,0,0,471,475,-0.0292,280.6912,6.8213,0.4212,54.892635,9.795436,108.3,5.845,1.85,335.95,54.892281,9.795023,54.895069,9.793790
1386782310,1,0,280.9,0,0,4,0,471,450,-0.0292,280.6912,6.8213,0.4212,54.892635,9.795405,108.3,5.845,1.85,335.95,54.892281,9.795023,54.895069,9.793790
1386782310,1,0,280.9,0,0,0,0,471,475,-0.0292,280.6912,6.8213,0.4212,54.892635,9.795375,108.3,5.845,1.85,335.95,54.892281,9.795023,54.895069,9.793790
1386782310,1,0,280.9,0,0,4,0,471,450,-0.0292,280.6912,6.8213,0.4212,54.892635,9.795343,108.3,5.845,1.85,335.95,54.892281,9.795023,54.895069,9.793790
1386782311,1,0,280.9,0,0,0,0,471,475,-0.0292,280.6912,6.8213,0.4212,54.892635,9.795313,108.3,5.845,1.85,335.95,54.892281,9.795023,54.895069,9.793790
1386782311,1,0,280.9,0,0,4,0,471,450,-0.0292,280.6912,6.8213,0.4212,54.892635,9.795282,108.3,5.845,1.85,335.95,54.892281,9.795023,54.895069,9.793790
1386782311,1,0,280.9,0,0,0,0,471,475,-0.0292,280.6912,6.8213,0.4212,54.892635,9.795252,108.3,5.845,1.85,335.95,54.892281,9.795023,54.895069,9.793790
1386782311,1,0,280.9,0,0,4,0,471,450,-0.0292,280.6912,6.8213,0.4212,54.892635,9.795220,108.3,5.845,1.85,335.95,54.892281,9.795023,54.895069,9.793790
1386782312,1,0,280.9,0,0,0,0,471,475,-0.0292,280.6912,6.8213,0.4212,54.892635,9.795190,108.3,5.845,1.85,335.95,54.892281,9.795023,54.895069,9.793790
1386782312,1,0,280.9,0,0,4,0,471,450,-0.0292,280.6912,6.8213,0.4212,54.892635,9.795159,108.3,5.845,1.85,335.95,54.892281,9.795023,54.895069,9.793790
1386782312,1,0,280.9,0,0,0,0,471,475,-0.0292,280.6912,6.8213,0.4212,54.892635,9.795129,108.3,5.845,1.85,335.95,54.892281,9.795023,54.895069,9.793790
1386782312,1,0,280.9,0,0,4,0,471,450,-0.0292,280.6912,6.8213,0.4212,54.892635,9.795098,108.3,5.845,1.85,335.95,54.892281,9.795023,54.895069,9.793790
1386782313,1,0,280.9,0,0,0,0,471,475,-0.0292,280.6912,6.8213,0.4212,54.892635,9.795068,108.3,5.845,1.85,335.95,54.892281,9.795023,54.895069,9.793790
1386782313,1,0,280.9,0,0,4,0,471,450,-0.0292,280.6912,6.8213,0.4212,54.892635,9.795037,108.3,5.845,1.85,335.95,54.892281,9.795023,54.895069,9.793790
1386782313,1,0,280.9,0,0,0,0,471,475,-0.0292,280.6912,6.8213,0.4212,54.892635,9.795006,108.3,5.845,1.85,335.95,54.892281,9.795023,54.895069,9.793790
1386782313,1,0,280.9,0,0,4,0,471,450,-0.0292,280.6912,6.8213,0.4212,54.892635,9.794975,108.3,5.845,1.85,335.95,54.892281,9.795023,54.895069,9.793790
1386782314,1,0,280.9,0,0,0,0,471,475,-0.0292,280.6912,6.8213,0.4212,54.892635,9.794945,108.3,5.845,1.85,335.95,54.892281,9.795023,54.895069,9.793790
1386782314,1,0,280.9,0,0,4,0,471,450,-0.0292,280.6912,6.8213,0.4212,54.892635,9.794914,108.3,5.845,1.85,335.95,54.892281,9.795023,54.895069,9.793790
1386782314,1,0,280.9,0,0,0,0,471,475,-0.0292,280.6912,6.8213,0.4212,54.892635,9.794884,108.3,5.845,1.85,335.95,54.892281,9.795023,54.895069,9.793790
1386782314,1,0,280.9,0,0,4,0,471,450,-0.0292,280.6912,6.8213,0.4212,54.892635,9.794853,108.3,5.845,1.85,335.95,54.892281,9.795023,54.895069,9.793790
1386782315,1,0,280.9,0,0,0,0,471,475,-0.0292,280.6912,6.8213,0.4212,54.892635,9.794823,108.3,5.845,1.85,335.95,54.892281,9.795023,54.895069,9.793790
1386782315,1,0,280.9,0,0,4,0,471,450,-0.0292,280.6912,6.8213,0.4212,54.892635,9.794791,108.3,5.845,1.85,335.95,54.892281,9.795023,54.895069,9.793790
1386782315,1,0,280.9,0,0,0,0,471,475,-0.0292,280.6912,6.8213,0.4212,54.892635,9.794761,108.3,5.845,1.85,335.95,54.892281,9.795023,54.895069,9.793790
1386782315,1,0,280.9,0,0,4,0,471,450,-0.0292,280.6912,6.8213,0.4212,54.892635,9.794730,108.3,5.845,1.85,335.95,54.892281,9.795023,54.895069,9.793790
1386782316,1,0,280.9,0,0,0,0,471,475,-0.0292,280.6912,6.8213,0.4212,54.892635,9.794700,108.3,5.845,1.85,335.95,54.892281,9.795023,54.895069,9.793790
1386782316,1,0,280.9,0,0,4,0,471,450,-0.0292,280.6912,6.8213,0.4212,54.892635,9.794669,108.3,5.845,1.85,335.95,54.892281,9.795023,54.895069,9.793790
1386782316,1,0,280.9,0,0,0,0,471,475,-0.0292,280.6912,6.8213,0.4212,54.892635,9.794639,108.3,5.845,1.85,335.95,54.892281,9.795023,54.895069,9.793790
1386782316,1,0,280.9,0,0,4,0,471,450,-0.0292,280.6912,6.8213,0.4212,54.892635,9.794608,108.3,5.845,1.85,335.95,54.892281,9.795023,54.895069,9.793790
1386782317,1,0,280.9,0,0,0,0,471,475,-0.0292,280.6912,6.8213,0.4212,54.892635,9.794577,108.3,5.845,1.85,335.95,54.892281,9.795023,54.895069,9.793790
1386782317,1,0,280.9,0,0,4,0,471,450,-0.0292,280.6912,6.8213,0.4212,54.892635,9.794546,108.3,5.845,1.85,335.95,54.892281,9.795023,54.895069,9.793790
1386782317,1,0,280.9,0,0,0,0,471,475,-0.0292,280.6912,6.8213,0.4212,54.892635,9.794516,108.3,5.845,1.85,335.95,54.892281,9.795023,54.895069,9.793790
1386782317,1,0,280.9,0,0,4,0,471,450,-0.0292,280.6912,6.8213,0.4212,54.892635,9.794485,108.3,5.845,1.85,335.95,54.892281,9.795023,54.895069,9.793790
1386782318,1,0,280.9,0,0,0,0,471,475,-0.0292,280.6912,6.8213,0.4212,54.892635,9.794455,108.3,5.845,1.85,335.95,54.892281,9.795023,54.895069,9.793790
1386782318,1,0,280.9,0,0,4,0,471,450,-0.0292,280.6912,6.8213,0.4212,54.892635,9.794424,108.3,5.845,1.85,335.95,54.892281,9.795023,54.895069,9.793790
1386782318,1,0,280.9,0,0,0,0,471,475,-0.0292,280.6912,6.8213,0.4212,54.892635,9.794394,108.3,5.845,1.85,335.95,54.892281,9.795023,54.895069,9.793790
1386782318,1,0,280.9,0,0,4,0,471,450,-0.0292,280.6912,6.8213,0.4212,54.892635,9.794362,108.3,5.845,1.85,335.95,54.892281,9.795023,54.895069,9.793790
1386782319,1,0,280.9,0,0,0,0,471,475,-0.0292,280.6912,6.8213,0.4212,54.892635,9.794332,108.3,5.845,1.85,335.95,54.892281,9.795023,54.895069,9.793790
1386782319,1,0,280.9,0,0,4,0,471,450,-0.0292,280.6912,6.8213,0.4212,54.892635,9.794301,108.3,5.845,1.85,335.95,54.892281,9.795023,54.895069,9.793790
1386782319,1,0,280.9,0,0,0,0,471,475,-0.0292,280.6912,6.8213,0.4212,54.892635,9.794271,108.3,5.845,1.85,335.95,54.892281,9.795023,54.895069,9.793790
1386782319,1,0,280.9,0,0,4,0,471,450,-0.0292,280.6912,6.8213,0.4212,54.892635,9.794240,108.3,5.845,1.85,335.95,54.892281,9.795023,54.895069,9.793790
1386782320,1,0,280.9,0,0,0,0,471,475,-0.0292,280.6912,6.8213,0.4212,54.892635,9.794209,108.3,5.845,1.85,335.95,54.892281,9.795023,54.895069,9.793790
1386782320,1,0,280.9,0,0,4,0,471,450,-0.0292,280.6912,6.8213,0.4212,54.892635,9.794179,108.3,5.845,1.85,335.95,54.892281,9.795023,54.895069,9.793790
1386782320,1,0,280.9,0,0,0,0,471,475,-0.0292,280.6912,6.8213,0.4212,54.892635,9.794147,108.3,5.845,1.85,335.95,54.892281,9.795023,54.895069,9.793790
1386782320,1,0,280.9,0,0,4,0,471,450,-0.0292,280.6912,6.8213,0.4212,54.892635,9.794117,108.3,5.845,1.85,335.95,54.892281,9.795023,54.895069,9.793790
1386782321,1,0,280.9,0,0,0,0,471,475,-0.0292,280.6912,6.8213,0.4212,54.892635,9.794086,108.3,5.845,1.85,335.95,54.892281,9.795023,54.895069,9.793790
1386782321,1,0,280.9,0,0,4,0,471,450,-0.0292,280.6912,6.8213,0.4212,54.892635,9.794056,108.3,5.845,1.85,335.95,54.892281,9.795023,54.895069,9.793790
1386782321,1,0,280.9,0,0,0,0,471,475,-0.0292,280.6912,6.8213,0.4212,54.892635,9.794025,108.3,5.845,1.85,335.95,54.892281,9.795023,54.895069,9.793790
1386782321,1,0,280.9,0,0,4,0,471,450,-0.0292,280.6912,6.8213,0.4212,54.892635,9.793995,108.3,5.845,1.85,335.95,54.892281,9.795023,54.895069,9.793790
1386782322,1,0,545.9,0,35,8,0,471,475,-0.0292,271.3578,6.8213,0.4212,54.892635,9.793964,108.3,5.845,1.85,335.95,54.892281,9.795023,54.895069,9.793790
1386782322,1,0,545.9,0,35,12,0,409,450,-0.0292,262.0245,6.8213,0.4212,54.892632,9.793933,108.3,5.845,1.85,335.95,54.892281,9.795023,54.895069,9.793790
1386782322,1,0,545.9,0,35,16,0,345,425,-0.0292,252.6911,6.8213,0.4212,54.892628,9.793903,108.3,5.845,1.85,335.95,54.892281,9.795023,54.895069,9.793790
1386782323,1,0,545.9,0,35,20,0,278,400,-0.0292,243.3578,6.8213,0.4212,54.892620,9.793876,108.3,5.845,1.85,335.95,54.892281,9.795023,54.895069,9.793790
1386782323,1,0,545.9,0,35,24,0,211,375,-0.0292,234.0245,6.8213,0.4212,54.892609,9.793850,108.3,5.845,1.85,335.95,54.892281,9.795023,54.895069,9.793790
1386782323,1,0,545.9,0,35,28,0,146,350,-0.0292,224.6912,6.8213,0.4212,54.892597,9.793828,108.3,5.845,1.85,335.95,54.892281,9.795023,54.895069,9.793790
1386782323,1,0,545.9,0,35,32,0,85,325,-0.0292,215.3578,6.8213,0.4212,54.892582,9.793810,108.3,5.845,1.85,335.95,54.892281,9.795023,54.895069,9.793790
1386782324,1,0,545.9,0,29,28,0,35,300,-0.0292,207.6245,6.8213,0.4212,54.892567,9.793796,108.3,5.845,1.85,335.95,54.892281,9.795023,54.895069,9.793790
1386782324,1,0,545.9,0,22,24,0,8,275,-0.0292,201.7578,6.8213,0.4212,54.892548,9.793784,108.3,5.845,1.85,335.95,54.892281,9.795023,54.895069,9.793790
1386782324,1,0,545.9,0,16,20,0,0,250,-0.0292,197.4912,6.8213,0.4212,54.892529,9.793776,108.3,5.845,1.85,335.95,54.892281,9.795023,54.895069,9.793790
1386782324,1,0,545.9,0,12,16,0,409,275,-0.0292,194.2912,6.8213,0.4212,54.892513,9.793768,108.3,5.845,1.85,335.95,54.892281,9.795023,54.895069,9.793790
1386782325,1,0,545.9,0,8,12,0,409,300,-0.0292,192.1578,6.8213,0.4212,54.892494,9.793761,108.3,5.845,1.85,335.95,54.892281,9.795023,54.895069,9.793790
1386782325,1,0,545.9,0,6,8,0,0,275,-0.0292,190.5578,6.8213,0.4212,54.892475,9.793756,108.3,5.845,1.85,335.95,54.892281,9.795023,54.895069,9.793790
1386782325,1,0,545.9,0,5,4,0,0,250,-0.0292,189.2245,6.8213,0.4212,54.892456,9.793750,108.3,5.845,1.85,335.95,54.892281,9.795023,54.895069,9.793790
1386782325,1,0,545.9,0,3,0,0,0,225,-0.0292,188.4245,6.8213,0.4212,54.892441,9.793745,108.3,5.845,1.85,335.95,54.892281,9.795023,54.895069,9.793790
1386782326,1,0,545.9,0,2,4,0,0,200,-0.0292,187.8912,6.8213,0.4212,54.892422,9.793741,108.3,5.845,1.85,335.95,54.892281,9.795023,54.895069,9.793790
1386782326,1,0,545.9,0,2,0,0,0,175,-0.0292,187.3578,6.8213,0.4212,54.892403,9.793737,108.3,5.845,1.85,335.95,54.892281,9.795023,54.895069,9.793790
1386782326,1,0,545.9,0,1,4,0,0,150,-0.0292,187.0912,6.8213,0.4212,54.892384,9.793734,108.3,5.845,1.85,335.95,54.892281,9.795023,54.895069,9.793790
1386782326,1,0,545.9,0,1,0,0,0,125,-0.0292,186.8245,6.8213,0.4212,54.892368,9.793730,108.3,5.845,1.85,335.95,54.892281,9.795023,54.895069,9.793790
1386782327,1,0,545.9,0,1,4,0,0,100,-0.0292,186.5578,6.8213,0.4212,54.892349,9.793726,108.3,5.845,1.85,335.95,54.892281,9.795023,54.895069,9.793790
1386782327,1,0,545.9,0,1,0,0,0,75,-0.0292,186.2912,6.8213,0.4212,54.892330,9.793722,108.3,5.845,1.85,335.95,54.892281,9.795023,54.895069,9.793790
1386782327,1,0,545.9,0,0,4,0,0,50,-0.0292,186.2912,6.8213,0.4212,54.892311,9.793718,108.3,5.845,1.85,335.95,54.892281,9.795023,54.895069,9.793790
1386782327,1,0,545.9,0,0,0,0,0,25,-0.0292,186.2912,6.8213,0.4212,54.892296,9.793715,108.3,5.845,1.85,335.95,54.892281,9.795023,54.895069,9.793790
