MCU_timestamp,Navigation_System,Manual_Control,Guidance_Heading,Manual_Ctrl_Rudder,Rudder_Desired_Angle,Rudder_Feedback,Manual_Ctrl_Sail,Sail_Desired_Pos,Sail_Feedback,Rate,Heading,Pitch,Roll,Latitude,Longitude,COG,SOG,Wind_Speed,Wind_Angle,Point_Start_Lat,Point_Start_Lon,Point_End_Lat,Point_End_Lon
1390060178,4,0,0.0,0,0,4,0,0,0,-0.0292,-209.7078,6.8213,0.4212,54.876316,9.792560,108.3,5.845,1.85,335.95,0.000000,0.000000,0.000000,0.000000
1390060179,1,0,0.0,0,-30,0,0,0,0,-0.0292,-199.7078,6.8213,0.4212,54.876373,9.792523,108.3,5.845,1.85,335.95,54.895069,9.793790,54.895348,9.797490
1390060179,1,0,0.0,0,-10,-4,0,0,0,-0.0292,-196.3744,6.8213,0.4212,54.876434,9.792494,108.3,5.845,1.85,335.95,54.895348,9.797490,54.894039,9.801540
1390060179,1,0,0.0,0,-6,-8,0,0,0,-0.0292,-194.3744,6.8213,0.4212,54.876492,9.792469,108.3,5.845,1.85,335.95,54.894039,9.801540,54.893795,9.802299
1390060179,1,0,0.0,0,-4,-4,0,0,0,-0.0292,-193.0411,6.8213,0.4212,54.876549,9.792446,108.3,5.845,1.85,335.95,54.893795,9.802299,54.893364,9.803688
1390060180,1,0,0.0,0,-3,0,0,713,50,-0.0292,-192.0411,6.8213,0.4212,54.876610,9.792425,108.3,5.845,1.85,335.95,54.893364,9.803688,54.892704,9.801139
1390060180,1,0,0.0,0,-2,-4,0,713,100,-0.0292,-191.3744,6.8213,0.4212,54.876667,9.792405,108.3,5.845,1.85,335.95,54.892704,9.801139,54.891663,9.800174
1390060180,1,0,0.0,0,-1,0,0,713,150,-0.0292,-191.0411,6.8213,0.4212,54.876724,9.792386,108.3,5.845,1.85,335.95,54.891663,9.800174,54.892929,9.805077
1390060180,1,0,0.0,0,-1,-4,0,713,200,-0.0292,-190.7078,6.8213,0.4212,54.876778,9.792367,108.3,5.845,1.85,335.95,54.892929,9.805077,54.892498,9.806466
1390060181,1,0,0.0,0,-1,0,0,713,250,-0.0292,-190.3745,6.8213,0.4212,54.876835,9.792350,108.3,5.845,1.85,335.95,54.892498,9.806466,54.891232,9.801563
1390060181,1,0,0.0,0,0,4,0,713,300,-0.0292,-190.3745,6.8213,0.4212,54.876892,9.792332,108.3,5.845,1.85,335.95,54.891232,9.801563,54.890800,9.802953
1390060181,1,0,0.0,0,0,0,0,713,350,-0.0292,-190.3745,6.8213,0.4212,54.876949,9.792314,108.3,5.845,1.85,335.95,54.890800,9.802953,54.891651,9.806246
1390060181,1,0,0.0,0,0,4,0,713,400,-0.0292,-190.3745,6.8213,0.4212,54.877007,9.792295,108.3,5.845,1.85,335.95,54.891651,9.806246,54.890560,9.805087
1390060182,1,0,0.0,0,0,0,0,713,450,-0.0292,-190.3745,6.8213,0.4212,54.877064,9.792277,108.3,5.845,1.85,335.95,54.890560,9.805087,54.890366,9.804342
1390060182,1,0,0.0,0,0,4,0,713,500,-0.0292,-190.3745,6.8213,0.4212,54.877121,9.792259,108.3,5.845,1.85,335.95,54.890366,9.804342,54.890846,9.801930
1390060182,1,0,0.0,0,0,0,0,713,550,-0.0292,-190.3745,6.8213,0.4212,54.877178,9.792241,108.3,5.845,1.85,335.95,54.890846,9.801930,54.889477,9.798280
1390060182,1,0,0.0,0,0,4,0,713,600,-0.0292,-190.3745,6.8213,0.4212,54.877235,9.792224,108.3,5.845,1.85,335.95,54.889477,9.798280,54.891819,9.794550
1390060183,1,0,0.0,0,0,0,0,713,650,-0.0292,-190.3745,6.8213,0.4212,54.877293,9.792206,108.3,5.845,1.85,335.95,54.891819,9.794550,54.895348,9.797490
1390060183,1,0,0.0,0,0,4,0,713,700,-0.0292,-190.3745,6.8213,0.4212,54.877350,9.792188,108.3,5.845,1.85,335.95,54.895348,9.797490,54.895069,9.793790
1390060183,1,0,0.0,0,0,0,0,713,750,-0.0292,-190.3745,6.8213,0.4212,54.877407,9.792170,108.3,5.845,1.85,335.95,54.895348,9.797490,54.895069,9.793790
1390060183,3,0,0.0,0,0,4,0,713,700,-0.0292,-190.3745,6.8213,0.4212,54.877464,9.792151,108.3,5.845,1.85,335.95,54.895348,9.797490,54.877407,9.792170
1390060184,3,0,0.0,0,0,0,0,713,750,-0.0292,-190.3745,6.8213,0.4212,54.877522,9.792133,108.3,5.845,1.85,335.95,54.895348,9.797490,54.877407,9.792170
1390060184,3,0,0.0,0,10,4,0,713,700,-0.0292,-193.7078,6.8213,0.4212,54.877579,9.792109,108.3,5.845,1.85,335.95,54.895348,9.797490,54.877407,9.792170
1390060184,3,0,0.0,0,6,8,0,713,750,-0.0292,-195.7078,6.8213,0.4212,54.877640,9.792082,108.3,5.845,1.85,335.95,54.895348,9.797490,54.877407,9.792170
1390060184,3,0,0.0,0,4,4,0,0,700,-0.0292,-197.0411,6.8213,0.4212,54.877697,9.792051,108.3,5.845,1.85,335.95,54.895348,9.797490,54.877407,9.792170
1390060185,3,0,0.0,0,3,0,0,0,650,-0.0292,-198.0411,6.8213,0.4212,54.877754,9.792019,108.3,5.845,1.85,335.95,54.895348,9.797490,54.877407,9.792170
1390060185,3,0,0.0,0,2,4,0,0,600,-0.0292,-198.7078,6.8213,0.4212,54.877815,9.791986,108.3,5.845,1.85,335.95,54.895348,9.797490,54.877407,9.792170
1390060185,3,0,0.0,0,1,0,0,0,550,-0.0292,-199.0411,6.8213,0.4212,54.877872,9.791951,108.3,5.845,1.85,335.95,54.895348,9.797490,54.877407,9.792170
1390060185,3,0,0.0,0,1,4,0,0,500,-0.0292,-199.3744,6.8213,0.4212,54.877934,9.791916,108.3,5.845,1.85,335.95,54.895348,9.797490,54.877407,9.792170
1390060186,3,0,0.0,0,1,0,0,0,450,-0.0292,-199.7078,6.8213,0.4212,54.877991,9.791880,108.3,5.845,1.85,335.95,54.895348,9.797490,54.877407,9.792170
1390060186,3,0,0.0,0,0,4,0,0,400,-0.0292,-199.7078,6.8213,0.4212,54.878048,9.791843,108.3,5.845,1.85,335.95,54.895348,9.797490,54.877407,9.792170
1390060186,3,0,0.0,0,0,0,0,0,350,-0.0292,-199.7078,6.8213,0.4212,54.878109,9.791808,108.3,5.845,1.85,335.95,54.895348,9.797490,54.877407,9.792170
1390060186,3,0,0.0,0,0,4,0,0,300,-0.0292,-199.7078,6.8213,0.4212,54.878166,9.791773,108.3,5.845,1.85,335.95,54.895348,9.797490,54.877407,9.792170
1390060187,3,0,0.0,0,0,0,0,0,250,-0.0292,-199.7078,6.8213,0.4212,54.878223,9.791738,108.3,5.845,1.85,335.95,54.895348,9.797490,54.877407,9.792170
1390060187,3,0,0.0,0,0,4,0,0,200,-0.0292,-199.7078,6.8213,0.4212,54.878281,9.791701,108.3,5.845,1.85,335.95,54.895348,9.797490,54.877407,9.792170
1390060187,3,0,0.0,0,0,0,0,0,150,-0.0292,-199.7078,6.8213,0.4212,54.878338,9.791665,108.3,5.845,1.85,335.95,54.895348,9.797490,54.877407,9.792170
1390060187,3,0,0.0,0,0,4,0,0,100,-0.0292,-199.7078,6.8213,0.4212,54.878395,9.791629,108.3,5.845,1.85,335.95,54.895348,9.797490,54.877407,9.792170
1390060188,3,0,0.0,0,0,0,0,0,50,-0.0292,-199.7078,6.8213,0.4212,54.878452,9.791594,108.3,5.845,1.85,335.95,54.895348,9.797490,54.877407,9.792170
1390060188,3,0,0.0,0,0,4,0,0,0,-0.0292,-199.7078,6.8213,0.4212,54.878510,9.791558,108.3,5.845,1.85,335.95,54.895348,9.797490,54.877407,9.792170
1390060188,3,0,0.0,0,0,0,0,0,0,-0.0292,-199.7078,6.8213,0.4212,54.878567,9.791523,108.3,5.845,1.85,335.95,54.895348,9.797490,54.877407,9.792170
1390060188,3,0,0.0,0,0,4,0,0,0,-0.0292,-199.7078,6.8213,0.4212,54.878624,9.791487,108.3,5.845,1.85,335.95,54.895348,9.797490,54.877407,9.792170
1390060189,3,0,0.0,0,0,0,0,0,0,-0.0292,-199.7078,6.8213,0.4212,54.878681,9.791451,108.3,5.845,1.85,335.95,54.895348,9.797490,54.877407,9.792170
1390060189,3,0,0.0,0,10,4,0,0,0,-0.0292,-203.0411,6.8213,0.4212,54.878738,9.791408,108.3,5.845,1.85,335.95,54.895348,9.797490,54.877407,9.792170
1390060189,3,0,0.0,0,7,8,0,0,0,-0.0292,-205.3744,6.8213,0.4212,54.878796,9.791360,108.3,5.845,1.85,335.95,54.895348,9.797490,54.877407,9.792170
1390060189,3,0,0.0,0,5,4,0,0,0,-0.0292,-207.0411,6.8213,0.4212,54.878853,9.791309,108.3,5.845,1.85,335.95,54.895348,9.797490,54.877407,9.792170
1390060190,3,0,0.0,0,3,0,0,0,0,-0.0292,-208.0411,6.8213,0.4212,54.878910,9.791256,108.3,5.845,1.85,335.95,54.895348,9.797490,54.877407,9.792170
1390060190,3,0,0.0,0,2,4,0,0,0,-0.0292,-208.7078,6.8213,0.4212,54.878971,9.791203,108.3,5.845,1.85,335.95,54.895348,9.797490,54.877407,9.792170
1390060190,3,0,0.0,0,1,0,0,0,0,-0.0292,-209.0411,6.8213,0.4212,54.879028,9.791148,108.3,5.845,1.85,335.95,54.895348,9.797490,54.877407,9.792170
1390060190,3,0,0.0,0,1,4,0,0,0,-0.0292,-209.3744,6.8213,0.4212,54.879086,9.791093,108.3,5.845,1.85,335.95,54.895348,9.797490,54.877407,9.792170
1390060191,3,0,0.0,0,1,0,0,0,0,-0.0292,-209.7077,6.8213,0.4212,54.879143,9.791037,108.3,5.845,1.85,335.95,54.895348,9.797490,54.877407,9.792170
1390060191,3,0,0.0,0,0,4,0,0,0,-0.0292,-209.7077,6.8213,0.4212,54.879200,9.790980,108.3,5.845,1.85,335.95,54.895348,9.797490,54.877407,9.792170
1390060191,3,0,0.0,0,0,0,0,0,0,-0.0292,-209.7077,6.8213,0.4212,54.879257,9.790924,108.3,5.845,1.85,335.95,54.895348,9.797490,54.877407,9.792170
1390060191,3,0,0.0,0,0,4,0,0,0,-0.0292,-209.7077,6.8213,0.4212,54.879311,9.790868,108.3,5.845,1.85,335.95,54.895348,9.797490,54.877407,9.792170
1390060192,3,0,0.0,0,0,0,0,0,0,-0.0292,-209.7077,6.8213,0.4212,54.879368,9.790812,108.3,5.845,1.85,335.95,54.895348,9.797490,54.877407,9.792170
1390060192,3,0,0.0,0,0,4,0,0,0,-0.0292,-209.7077,6.8213,0.4212,54.879425,9.790755,108.3,5.845,1.85,335.95,54.895348,9.797490,54.877407,9.792170
1390060192,3,0,0.0,0,0,0,0,0,0,-0.0292,-209.7077,6.8213,0.4212,54.879482,9.790699,108.3,5.845,1.85,335.95,54.895348,9.797490,54.877407,9.792170
1390060192,3,0,0.0,0,0,4,0,0,0,-0.0292,-209.7077,6.8213,0.4212,54.879539,9.790643,108.3,5.845,1.85,335.95,54.895348,9.797490,54.877407,9.792170
1390060193,3,0,0.0,0,0,0,0,0,0,-0.0292,-209.7077,6.8213,0.4212,54.879597,9.790586,108.3,5.845,1.85,335.95,54.895348,9.797490,54.877407,9.792170
1390060193,3,0,0.0,0,0,4,0,0,0,-0.0292,-209.7077,6.8213,0.4212,54.879654,9.790530,108.3,5.845,1.85,335.95,54.895348,9.797490,54.877407,9.792170
1390060193,3,0,0.0,0,0,0,0,0,0,-0.0292,-209.7077,6.8213,0.4212,54.879711,9.790474,108.3,5.845,1.85,335.95,54.895348,9.797490,54.877407,9.792170
1390060193,3,0,0.0,0,0,4,0,0,0,-0.0292,-209.7077,6.8213,0.4212,54.879768,9.790418,108.3,5.845,1.85,335.95,54.895348,9.797490,54.877407,9.792170
1390060194,3,0,0.0,0,0,0,0,0,0,-0.0292,-209.7077,6.8213,0.4212,54.879826,9.790361,108.3,5.845,1.85,335.95,54.895348,9.797490,54.877407,9.792170
1390060194,3,0,0.0,0,10,4,0,0,0,-0.0292,-213.0411,6.8213,0.4212,54.879879,9.790298,108.3,5.845,1.85,335.95,54.895348,9.797490,54.877407,9.792170
1390060194,3,0,0.0,0,7,8,0,0,0,-0.0292,-215.3744,6.8213,0.4212,54.879932,9.790230,108.3,5.845,1.85,335.95,54.895348,9.797490,54.877407,9.792170
1390060194,3,0,0.0,0,5,4,0,713,50,-0.0292,-217.0411,6.8213,0.4212,54.879986,9.790158,108.3,5.845,1.85,335.95,54.895348,9.797490,54.877407,9.792170
1390060195,3,0,0.0,0,3,0,0,713,100,-0.0292,-218.0411,6.8213,0.4212,54.880043,9.790084,108.3,5.845,1.85,335.95,54.895348,9.797490,54.877407,9.792170
1390060195,3,0,0.0,0,2,4,0,713,150,-0.0292,-218.7077,6.8213,0.4212,54.880096,9.790009,108.3,5.845,1.85,335.95,54.895348,9.797490,54.877407,9.792170
1390060195,3,0,0.0,0,1,0,0,713,200,-0.0292,-219.0411,6.8213,0.4212,54.880150,9.789933,108.3,5.845,1.85,335.95,54.895348,9.797490,54.877407,9.792170
1390060195,3,0,0.0,0,1,4,0,713,250,-0.0292,-219.3744,6.8213,0.4212,54.880203,9.789856,108.3,5.845,1.85,335.95,54.895348,9.797490,54.877407,9.792170
1390060196,3,0,0.0,0,1,0,0,713,300,-0.0292,-219.7077,6.8213,0.4212,54.880257,9.789779,108.3,5.845,1.85,335.95,54.895348,9.797490,54.877407,9.792170
1390060196,3,0,0.0,0,0,4,0,713,350,-0.0292,-219.7077,6.8213,0.4212,54.880310,9.789701,108.3,5.845,1.85,335.95,54.895348,9.797490,54.877407,9.792170
1390060196,3,0,0.0,0,0,0,0,713,400,-0.0292,-219.7077,6.8213,0.4212,54.880367,9.789624,108.3,5.845,1.85,335.95,54.895348,9.797490,54.877407,9.792170
1390060196,3,0,0.0,0,0,4,0,713,450,-0.0292,-219.7077,6.8213,0.4212,54.880421,9.789547,108.3,5.845,1.85,335.95,54.895348,9.797490,54.877407,9.792170
1390060197,3,0,0.0,0,0,0,0,713,500,-0.0292,-219.7077,6.8213,0.4212,54.880474,9.789469,108.3,5.845,1.85,335.95,54.895348,9.797490,54.877407,9.792170
1390060197,3,0,0.0,0,0,4,0,713,550,-0.0292,-219.7077,6.8213,0.4212,54.880527,9.789392,108.3,5.845,1.85,335.95,54.895348,9.797490,54.877407,9.792170
1390060197,3,0,0.0,0,0,0,0,713,600,-0.0292,-219.7077,6.8213,0.4212,54.880581,9.789314,108.3,5.845,1.85,335.95,54.895348,9.797490,54.877407,9.792170
1390060197,3,0,0.0,0,0,4,0,713,650,-0.0292,-219.7077,6.8213,0.4212,54.880638,9.789237,108.3,5.845,1.85,335.95,54.895348,9.797490,54.877407,9.792170
1390060198,3,0,0.0,0,0,0,0,713,700,-0.0292,-219.7077,6.8213,0.4212,54.880692,9.789160,108.3,5.845,1.85,335.95,54.895348,9.797490,54.877407,9.792170
1390060198,3,0,0.0,0,0,4,0,713,750,-0.0292,-219.7077,6.8213,0.4212,54.880745,9.789082,108.3,5.845,1.85,335.95,54.895348,9.797490,54.877407,9.792170
1390060198,3,0,0.0,0,0,0,0,713,700,-0.0292,-219.7077,6.8213,0.4212,54.880798,9.789004,108.3,5.845,1.85,335.95,54.895348,9.797490,54.877407,9.792170
1390060198,3,0,0.0,0,0,4,0,713,750,-0.0292,-219.7077,6.8213,0.4212,54.880852,9.788927,108.3,5.845,1.85,335.95,54.895348,9.797490,54.877407,9.792170
1390060199,3,0,0.0,0,0,0,0,713,700,-0.0292,-219.7077,6.8213,0.4212,54.880909,9.788850,108.3,5.845,1.85,335.95,54.895348,9.797490,54.877407,9.792170
1390060199,3,0,0.0,0,10,4,0,713,750,-0.0292,-223.0411,6.8213,0.4212,54.880959,9.788766,108.3,5.845,1.85,335.95,54.895348,9.797490,54.877407,9.792170
1390060199,3,0,0.0,0,7,8,0,713,700,-0.0292,-225.3744,6.8213,0.4212,54.881008,9.788677,108.3,5.845,1.85,335.95,54.895348,9.797490,54.877407,9.792170
1390060199,3,0,0.0,0,5,4,0,713,750,-0.0292,-227.0411,6.8213,0.4212,54.881058,9.788585,108.3,5.845,1.85,335.95,54.895348,9.797490,54.877407,9.792170
1390060200,3,0,0.0,0,3,0,0,713,700,-0.0292,-228.0411,6.8213,0.4212,54.881107,9.788490,108.3,5.845,1.85,335.95,54.895348,9.797490,54.877407,9.792170
1390060200,3,0,0.0,0,2,4,0,713,750,-0.0292,-228.7077,6.8213,0.4212,54.881157,9.788394,108.3,5.845,1.85,335.95,54.895348,9.797490,54.877407,9.792170
1390060200,3,0,0.0,0,1,0,0,713,700,-0.0292,-229.0411,6.8213,0.4212,54.881207,9.788297,108.3,5.845,1.85,335.95,54.895348,9.797490,54.877407,9.792170
1390060200,3,0,0.0,0,1,4,0,713,750,-0.0292,-229.3744,6.8213,0.4212,54.881256,9.788199,108.3,5.845,1.85,335.95,54.895348,9.797490,54.877407,9.792170
1390060201,3,0,0.0,0,1,0,0,713,700,-0.0292,-229.7077,6.8213,0.4212,54.881302,9.788101,108.3,5.845,1.85,335.95,54.895348,9.797490,54.877407,9.792170
1390060201,3,0,0.0,0,0,4,0,713,750,-0.0292,-229.7077,6.8213,0.4212,54.881348,9.788003,108.3,5.845,1.85,335.95,54.895348,9.797490,54.877407,9.792170
1390060201,3,0,0.0,0,0,0,0,713,700,-0.0292,-229.7077,6.8213,0.4212,54.881393,9.787904,108.3,5.845,1.85,335.95,54.895348,9.797490,54.877407,9.792170
1390060202,3,0,0.0,0,0,4,0,713,750,-0.0292,-229.7077,6.8213,0.4212,54.881443,9.787806,108.3,5.845,1.85,335.95,54.895348,9.797490,54.877407,9.792170
1390060202,3,0,0.0,0,0,0,0,713,700,-0.0292,-229.7077,6.8213,0.4212,54.881493,9.787707,108.3,5.845,1.85,335.95,54.895348,9.797490,54.877407,9.792170
1390060202,3,0,0.0,0,0,4,0,713,750,-0.0292,-229.7077,6.8213,0.4212,54.881542,9.787609,108.3,5.845,1.85,335.95,54.895348,9.797490,54.877407,9.792170
1390060202,3,0,0.0,0,0,0,0,713,700,-0.0292,-229.7077,6.8213,0.4212,54.881588,9.787511,108.3,5.845,1.85,335.95,54.895348,9.797490,54.877407,9.792170
1390060203,3,0,0.0,0,0,4,0,713,750,-0.0292,-229.7077,6.8213,0.4212,54.881638,9.787413,108.3,5.845,1.85,335.95,54.895348,9.797490,54.877407,9.792170
1390060203,3,0,0.0,0,0,0,0,713,700,-0.0292,-229.7077,6.8213,0.4212,54.881687,9.787314,108.3,5.845,1.85,335.95,54.895348,9.797490,54.877407,9.792170
1390060203,0,0,0.0,0,0,0,0,713,700,-0.0292,-229.7077,6.8213,0.4212,54.881687,9.787314,108.3,5.845,1.85,335.95,54.895348,9.797490,54.877407,9.792170
1390060203,0,0,0.0,0,0,0,0,713,700,-0.0292,-229.7077,6.8213,0.4212,54.881687,9.787314,108.3,5.845,1.85,335.95,54.895348,9.797490,54.877407,9.792170
1390060204,0,0,0.0,0,0,0,0,713,700,-0.0292,-229.7077,6.8213,0.4212,54.881687,9.787314,108.3,5.845,1.85,335.95,54.895348,9.797490,54.877407,9.792170
1390060204,0,0,0.0,0,0,0,0,713,700,-0.0292,-229.7077,6.8213,0.4212,54.881687,9.787314,108.3,5.845,1.85,335.95,54.895348,9.797490,54.877407,9.792170
1390060204,0,0,0.0,0,0,0,0,713,700,-0.0292,-229.7077,6.8213,0.4212,54.881687,9.787314,108.3,5.845,1.85,335.95,54.895348,9.797490,54.877407,9.792170
1390060204,0,0,0.0,0,0,0,0,713,700,-0.0292,-229.7077,6.8213,0.4212,54.881687,9.787314,108.3,5.845,1.85,335.95,54.895348,9.797490,54.877407,9.792170
1390060205,0,0,0.0,0,0,0,0,713,700,-0.0292,-229.7077,6.8213,0.4212,54.881687,9.787314,108.3,5.845,1.85,335.95,54.895348,9.797490,54.877407,9.792170
1390060205,0,0,0.0,0,0,0,0,713,700,-0.0292,-229.7077,6.8213,0.4212,54.881687,9.787314,108.3,5.845,1.85,335.95,54.895348,9.797490,54.877407,9.792170
1390060205,0,0,0.0,0,0,0,0,713,700,-0.0292,-229.7077,6.8213,0.4212,54.881687,9.787314,108.3,5.845,1.85,335.95,54.895348,9.797490,54.877407,9.792170
1390060205,0,0,0.0,0,0,0,0,713,700,-0.0292,-229.7077,6.8213,0.4212,54.881687,9.787314,108.3,5.845,1.85,335.95,54.895348,9.797490,54.877407,9.792170
1390060206,0,0,0.0,0,0,0,0,713,700,-0.0292,-229.7077,6.8213,0.4212,54.881687,9.787314,108.3,5.845,1.85,335.95,54.895348,9.797490,54.877407,9.792170
1390060206,0,0,0.0,0,0,0,0,713,700,-0.0292,-229.7077,6.8213,0.4212,54.881687,9.787314,108.3,5.845,1.85,335.95,54.895348,9.797490,54.877407,9.792170
1390060206,0,0,0.0,0,0,0,0,713,700,-0.0292,-229.7077,6.8213,0.4212,54.881687,9.787314,108.3,5.845,1.85,335.95,54.895348,9.797490,54.877407,9.792170
1390060206,0,0,0.0,0,0,0,0,713,700,-0.0292,-229.7077,6.8213,0.4212,54.881687,9.787314,108.3,5.845,1.85,335.95,54.895348,9.797490,54.877407,9.792170
