MCU_timestamp,Navigation_System,Manual_Control,Guidance_Heading,Manual_Ctrl_Rudder,Rudder_Desired_Angle,Rudder_Feedback,Manual_Ctrl_Sail,Sail_Desired_Pos,Sail_Feedback,Rate,Heading,Pitch,Roll,Latitude,Longitude,COG,SOG,Wind_Speed,Wind_Angle,Point_Start_Lat,Point_Start_Lon,Point_End_Lat,Point_End_Lon
1386928495,0,0,0.0,0,0,4,0,0,0,-0.0292,-2848.6335,6.8213,0.4212,54.890602,9.803724,108.3,5.845,1.85,335.95,0.000000,0.000000,0.000000,0.000000
1386928496,0,0,0.0,0,0,4,0,0,0,-0.0292,-2848.6335,6.8213,0.4212,54.890602,9.803724,108.3,5.845,1.85,335.95,0.000000,0.000000,0.000000,0.000000
1386928496,0,0,0.0,0,0,4,0,0,0,-0.0292,-2848.6335,6.8213,0.4212,54.890602,9.803724,108.3,5.845,1.85,335.95,0.000000,0.000000,0.000000,0.000000
1386928496,0,0,0.0,0,0,4,0,0,0,-0.0292,-2848.6335,6.8213,0.4212,54.890602,9.803724,108.3,5.845,1.85,335.95,0.000000,0.000000,0.000000,0.000000
1386928496,0,0,0.0,0,0,4,0,0,0,-0.0292,-2848.6335,6.8213,0.4212,54.890602,9.803724,108.3,5.845,1.85,335.95,0.000000,0.000000,0.000000,0.000000
1386928497,0,0,0.0,0,0,4,0,0,0,-0.0292,-2848.6335,6.8213,0.4212,54.890602,9.803724,108.3,5.845,1.85,335.95,0.000000,0.000000,0.000000,0.000000
1386928497,0,0,0.0,0,0,4,0,0,0,-0.0292,-2848.6335,6.8213,0.4212,54.890602,9.803724,108.3,5.845,1.85,335.95,0.000000,0.000000,0.000000,0.000000
1386928497,0,0,0.0,0,0,4,0,0,0,-0.0292,-2848.6335,6.8213,0.4212,54.890602,9.803724,108.3,5.845,1.85,335.95,0.000000,0.000000,0.000000,0.000000
1386928497,0,0,0.0,0,0,4,0,0,0,-0.0292,-2848.6335,6.8213,0.4212,54.890602,9.803724,108.3,5.845,1.85,335.95,0.000000,0.000000,0.000000,0.000000
1386928498,0,0,0.0,0,0,4,0,0,0,-0.0292,-2848.6335,6.8213,0.4212,54.890602,9.803724,108.3,5.845,1.85,335.95,0.000000,0.000000,0.000000,0.000000
1386928498,0,0,0.0,0,0,4,0,0,0,-0.0292,-2848.6335,6.8213,0.4212,54.890602,9.803724,108.3,5.845,1.85,335.95,0.000000,0.000000,0.000000,0.000000
1386928498,0,0,0.0,0,0,4,0,0,0,-0.0292,-2848.6335,6.8213,0.4212,54.890602,9.803724,108.3,5.845,1.85,335.95,0.000000,0.000000,0.000000,0.000000
1386928498,0,0,0.0,0,0,4,0,0,0,-0.0292,-2848.6335,6.8213,0.4212,54.890602,9.803724,108.3,5.845,1.85,335.95,0.000000,0.000000,0.000000,0.000000
1386928499,0,0,0.0,0,0,4,0,0,0,-0.0292,-2848.6335,6.8213,0.4212,54.890602,9.803724,108.3,5.845,1.85,335.95,0.000000,0.000000,0.000000,0.000000
1386928499,4,0,0.0,0,0,4,0,0,0,-0.0292,-2848.6335,6.8213,0.4212,54.890602,9.803724,108.3,5.845,1.85,335.95,0.000000,0.000000,0.000000,0.000000
1386928499,1,0,485.9,0,-35,0,0,0,0,-0.0292,-2839.3003,6.8213,0.4212,54.890614,9.803745,108.3,5.845,1.85,335.95,54.890602,9.803724,54.895069,9.793790
1386928499,1,0,485.9,0,-35,-4,0,47,50,-0.0292,-2829.9670,6.8213,0.4212,54.890625,9.803769,108.3,5.845,1.85,335.95,54.890602,9.803724,54.895069,9.793790
1386928500,1,0,485.9,0,-35,-8,0,156,100,-0.0292,-2820.6338,6.8213,0.4212,54.890633,9.803796,108.3,5.845,1.85,335.95,54.890602,9.803724,54.895069,9.793790
1386928500,1,0,485.9,0,-35,-12,0,295,150,-0.0292,-2811.3005,6.8213,0.4212,54.890640,9.803824,108.3,5.845,1.85,335.95,54.890602,9.803724,54.895069,9.793790
1386928500,1,0,485.9,0,-35,-16,0,443,200,-0.0292,-2801.9673,6.8213,0.4212,54.890644,9.803855,108.3,5.845,1.85,335.95,54.890602,9.803724,54.895069,9.793790
1386928500,1,0,485.9,0,-35,-20,0,591,250,-0.0292,-2792.6340,6.8213,0.4212,54.890644,9.803886,108.3,5.845,1.85,335.95,54.890602,9.803724,54.895069,9.793790
1386928501,1,0,485.9,0,-35,-24,0,734,300,-0.0292,-2783.3008,6.8213,0.4212,54.890640,9.803918,108.3,5.845,1.85,335.95,54.890602,9.803724,54.895069,9.793790
1386928501,1,0,485.9,0,-29,-28,0,869,350,-0.0292,-2775.5674,6.8213,0.4212,54.890636,9.803947,108.3,5.845,1.85,335.95,54.890602,9.803724,54.895069,9.793790
1386928501,1,0,485.9,0,-22,-24,0,870,400,-0.0292,-2769.7007,6.8213,0.4212,54.890633,9.803977,108.3,5.845,1.85,335.95,54.890602,9.803724,54.895069,9.793790
1386928501,1,0,485.9,0,-16,-20,0,870,450,-0.0292,-2765.4341,6.8213,0.4212,54.890625,9.804006,108.3,5.845,1.85,335.95,54.890602,9.803724,54.895069,9.793790
1386928502,1,0,485.9,0,-11,-16,0,713,500,-0.0292,-2762.5007,6.8213,0.4212,54.890617,9.804033,108.3,5.845,1.85,335.95,54.890602,9.803724,54.895069,9.793790
1386928502,1,0,485.9,0,-8,-12,0,713,550,-0.0292,-2760.3674,6.8213,0.4212,54.890606,9.804061,108.3,5.845,1.85,335.95,54.890602,9.803724,54.895069,9.793790
1386928502,1,0,485.9,0,-6,-8,0,713,600,-0.0292,-2758.7673,6.8213,0.4212,54.890598,9.804088,108.3,5.845,1.85,335.95,54.890602,9.803724,54.895069,9.793790
1386928502,1,0,485.9,0,-5,-4,0,713,650,-0.0292,-2757.4341,6.8213,0.4212,54.890587,9.804113,108.3,5.845,1.85,335.95,54.890602,9.803724,54.895069,9.793790
1386928503,1,0,485.9,0,-3,0,0,0,600,-0.0292,-2756.6340,6.8213,0.4212,54.890579,9.804140,108.3,5.845,1.85,335.95,54.890602,9.803724,54.895069,9.793790
1386928503,1,0,485.9,0,-3,-4,0,0,550,-0.0292,-2755.8340,6.8213,0.4212,54.890568,9.804166,108.3,5.845,1.85,335.95,54.890602,9.803724,54.895069,9.793790
1386928503,1,0,485.9,0,-2,0,0,0,500,-0.0292,-2755.3005,6.8213,0.4212,54.890560,9.804191,108.3,5.845,1.85,335.95,54.890602,9.803724,54.895069,9.793790
1386928503,1,0,485.9,0,-1,-4,0,0,450,-0.0292,-2755.0339,6.8213,0.4212,54.890549,9.804216,108.3,5.845,1.85,335.95,54.890602,9.803724,54.895069,9.793790
1386928504,1,0,485.9,0,-1,0,0,0,400,-0.0292,-2754.7673,6.8213,0.4212,54.890537,9.804241,108.3,5.845,1.85,335.95,54.890602,9.803724,54.895069,9.793790
1386928504,1,0,485.9,0,-1,-4,0,0,350,-0.0292,-2754.5007,6.8213,0.4212,54.890530,9.804267,108.3,5.845,1.85,335.95,54.890602,9.803724,54.895069,9.793790
1386928504,1,0,485.9,0,0,0,0,0,300,-0.0292,-2754.5007,6.8213,0.4212,54.890518,9.804293,108.3,5.845,1.85,335.95,54.890602,9.803724,54.895069,9.793790
1386928504,1,0,485.9,0,0,4,0,0,250,-0.0292,-2754.5007,6.8213,0.4212,54.890511,9.804317,108.3,5.845,1.85,335.95,54.890602,9.803724,54.895069,9.793790
1386928505,1,0,485.9,0,0,0,0,0,200,-0.0292,-2754.5007,6.8213,0.4212,54.890499,9.804343,108.3,5.845,1.85,335.95,54.890602,9.803724,54.895069,9.793790
1386928505,1,0,485.9,0,0,4,0,0,150,-0.0292,-2754.5007,6.8213,0.4212,54.890488,9.804368,108.3,5.845,1.85,335.95,54.890602,9.803724,54.895069,9.793790
1386928505,1,0,485.9,0,0,0,0,0,100,-0.0292,-2754.5007,6.8213,0.4212,54.890480,9.804394,108.3,5.845,1.85,335.95,54.890602,9.803724,54.895069,9.793790
1386928505,1,0,485.9,0,0,4,0,0,50,-0.0292,-2754.5007,6.8213,0.4212,54.890469,9.804420,108.3,5.845,1.85,335.95,54.890602,9.803724,54.895069,9.793790
1386928506,1,0,485.9,0,0,0,0,0,0,-0.0292,-2754.5007,6.8213,0.4212,54.890461,9.804445,108.3,5.845,1.85,335.95,54.890602,9.803724,54.895069,9.793790
1386928506,1,0,485.9,0,0,4,0,0,0,-0.0292,-2754.5007,6.8213,0.4212,54.890450,9.804471,108.3,5.845,1.85,335.95,54.890602,9.803724,54.895069,9.793790
1386928506,1,0,545.9,0,-35,0,0,0,0,-0.0292,-2745.1675,6.8213,0.4212,54.890434,9.804493,108.3,5.845,1.85,335.95,54.890602,9.803724,54.895069,9.793790
1386928506,0,0,545.9,0,-35,0,0,0,0,-0.0292,-2745.1675,6.8213,0.4212,54.890434,9.804493,108.3,5.845,1.85,335.95,54.890602,9.803724,54.895069,9.793790
1386928507,0,0,545.9,0,-35,0,0,0,0,-0.0292,-2745.1675,6.8213,0.4212,54.890434,9.804493,108.3,5.845,1.85,335.95,54.890602,9.803724,54.895069,9.793790
1386928507,0,0,545.9,0,-35,0,0,0,0,-0.0292,-2745.1675,6.8213,0.4212,54.890434,9.804493,108.3,5.845,1.85,335.95,54.890602,9.803724,54.895069,9.793790
1386928507,0,0,545.9,0,-35,0,0,0,0,-0.0292,-2745.1675,6.8213,0.4212,54.890434,9.804493,108.3,5.845,1.85,335.95,54.890602,9.803724,54.895069,9.793790
1386928507,0,0,545.9,0,-35,0,0,0,0,-0.0292,-2745.1675,6.8213,0.4212,54.890434,9.804493,108.3,5.845,1.85,335.95,54.890602,9.803724,54.895069,9.793790
1386928508,0,0,545.9,0,-35,0,0,0,0,-0.0292,-2745.1675,6.8213,0.4212,54.890434,9.804493,108.3,5.845,1.85,335.95,54.890602,9.803724,54.895069,9.793790
1386928508,0,0,545.9,0,-35,0,0,0,0,-0.0292,-2745.1675,6.8213,0.4212,54.890434,9.804493,108.3,5.845,1.85,335.95,54.890602,9.803724,54.895069,9.793790
1386928508,0,0,545.9,0,-35,0,0,0,0,-0.0292,-2745.1675,6.8213,0.4212,54.890434,9.804493,108.3,5.845,1.85,335.95,54.890602,9.803724,54.895069,9.793790
1386928508,0,0,545.9,0,-35,0,0,0,0,-0.0292,-2745.1675,6.8213,0.4212,54.890434,9.804493,108.3,5.845,1.85,335.95,54.890602,9.803724,54.895069,9.793790
1386928509,0,0,545.9,0,-35,0,0,0,0,-0.0292,-2745.1675,6.8213,0.4212,54.890434,9.804493,108.3,5.845,1.85,335.95,54.890602,9.803724,54.895069,9.793790
1386928509,0,0,545.9,0,-35,0,0,0,0,-0.0292,-2745.1675,6.8213,0.4212,54.890434,9.804493,108.3,5.845,1.85,335.95,54.890602,9.803724,54.895069,9.793790
1386928509,0,0,545.9,0,-35,0,0,0,0,-0.0292,-2745.1675,6.8213,0.4212,54.890434,9.804493,108.3,5.845,1.85,335.95,54.890602,9.803724,54.895069,9.793790
1386928509,0,0,545.9,0,-35,0,0,0,0,-0.0292,-2745.1675,6.8213,0.4212,54.890434,9.804493,108.3,5.845,1.85,335.95,54.890602,9.803724,54.895069,9.793790
1386928510,0,0,545.9,0,-35,0,0,0,0,-0.0292,-2745.1675,6.8213,0.4212,54.890434,9.804493,108.3,5.845,1.85,335.95,54.890602,9.803724,54.895069,9.793790
1386928510,0,0,545.9,0,-35,0,0,0,0,-0.0292,-2745.1675,6.8213,0.4212,54.890434,9.804493,108.3,5.845,1.85,335.95,54.890602,9.803724,54.895069,9.793790
1386928510,0,0,545.9,0,-35,0,0,0,0,-0.0292,-2745.1675,6.8213,0.4212,54.890434,9.804493,108.3,5.845,1.85,335.95,54.890602,9.803724,54.895069,9.793790
1386928510,0,0,545.9,0,-35,0,0,0,0,-0.0292,-2745.1675,6.8213,0.4212,54.890434,9.804493,108.3,5.845,1.85,335.95,54.890602,9.803724,54.895069,9.793790
1386928511,0,0,545.9,0,-35,0,0,0,0,-0.0292,-2745.1675,6.8213,0.4212,54.890434,9.804493,108.3,5.845,1.85,335.95,54.890602,9.803724,54.895069,9.793790
1386928511,0,0,545.9,0,-35,0,0,0,0,-0.0292,-2745.1675,6.8213,0.4212,54.890434,9.804493,108.3,5.845,1.85,335.95,54.890602,9.803724,54.895069,9.793790
1386928511,0,0,545.9,0,-35,0,0,0,0,-0.0292,-2745.1675,6.8213,0.4212,54.890434,9.804493,108.3,5.845,1.85,335.95,54.890602,9.803724,54.895069,9.793790
1386928511,0,0,545.9,0,-35,0,0,0,0,-0.0292,-2745.1675,6.8213,0.4212,54.890434,9.804493,108.3,5.845,1.85,335.95,54.890602,9.803724,54.895069,9.793790
1386928512,0,0,545.9,0,-35,0,0,0,0,-0.0292,-2745.1675,6.8213,0.4212,54.890434,9.804493,108.3,5.845,1.85,335.95,54.890602,9.803724,54.895069,9.793790
1386928512,0,0,545.9,0,-35,0,0,0,0,-0.0292,-2745.1675,6.8213,0.4212,54.890434,9.804493,108.3,5.845,1.85,335.95,54.890602,9.803724,54.895069,9.793790
1386928512,0,0,545.9,0,-35,0,0,0,0,-0.0292,-2745.1675,6.8213,0.4212,54.890434,9.804493,108.3,5.845,1.85,335.95,54.890602,9.803724,54.895069,9.793790
1386928512,0,0,545.9,0,-35,0,0,0,0,-0.0292,-2745.1675,6.8213,0.4212,54.890434,9.804493,108.3,5.845,1.85,335.95,54.890602,9.803724,54.895069,9.793790
1386928513,0,0,545.9,0,-35,0,0,0,0,-0.0292,-2745.1675,6.8213,0.4212,54.890434,9.804493,108.3,5.845,1.85,335.95,54.890602,9.803724,54.895069,9.793790
1386928513,0,0,545.9,0,-35,0,0,0,0,-0.0292,-2745.1675,6.8213,0.4212,54.890434,9.804493,108.3,5.845,1.85,335.95,54.890602,9.803724,54.895069,9.793790
1386928513,0,0,545.9,0,-35,0,0,0,0,-0.0292,-2745.1675,6.8213,0.4212,54.890434,9.804493,108.3,5.845,1.85,335.95,54.890602,9.803724,54.895069,9.793790
1386928513,0,0,545.9,0,-35,0,0,0,0,-0.0292,-2745.1675,6.8213,0.4212,54.890434,9.804493,108.3,5.845,1.85,335.95,54.890602,9.803724,54.895069,9.793790
1386928514,0,0,545.9,0,-35,0,0,0,0,-0.0292,-2745.1675,6.8213,0.4212,54.890434,9.804493,108.3,5.845,1.85,335.95,54.890602,9.803724,54.895069,9.793790
1386928514,0,0,545.9,0,-35,0,0,0,0,-0.0292,-2745.1675,6.8213,0.4212,54.890434,9.804493,108.3,5.845,1.85,335.95,54.890602,9.803724,54.895069,9.793790
1386928514,0,0,545.9,0,-35,0,0,0,0,-0.0292,-2745.1675,6.8213,0.4212,54.890434,9.804493,108.3,5.845,1.85,335.95,54.890602,9.803724,54.895069,9.793790
1386928514,0,0,545.9,0,-35,0,0,0,0,-0.0292,-2745.1675,6.8213,0.4212,54.890434,9.804493,108.3,5.845,1.85,335.95,54.890602,9.803724,54.895069,9.793790
1386928515,0,0,545.9,0,-35,0,0,0,0,-0.0292,-2745.1675,6.8213,0.4212,54.890434,9.804493,108.3,5.845,1.85,335.95,54.890602,9.803724,54.895069,9.793790
1386928515,0,0,545.9,0,-35,0,0,0,0,-0.0292,-2745.1675,6.8213,0.4212,54.890434,9.804493,108.3,5.845,1.85,335.95,54.890602,9.803724,54.895069,9.793790
1386928515,0,0,545.9,0,-35,0,0,0,0,-0.0292,-2745.1675,6.8213,0.4212,54.890434,9.804493,108.3,5.845,1.85,335.95,54.890602,9.803724,54.895069,9.793790
1386928515,0,0,545.9,0,-35,0,0,0,0,-0.0292,-2745.1675,6.8213,0.4212,54.890434,9.804493,108.3,5.845,1.85,335.95,54.890602,9.803724,54.895069,9.793790
1386928516,0,0,545.9,0,-35,0,0,0,0,-0.0292,-2745.1675,6.8213,0.4212,54.890434,9.804493,108.3,5.845,1.85,335.95,54.890602,9.803724,54.895069,9.793790
1386928516,0,0,545.9,0,-35,0,0,0,0,-0.0292,-2745.1675,6.8213,0.4212,54.890434,9.804493,108.3,5.845,1.85,335.95,54.890602,9.803724,54.895069,9.793790
1386928516,0,0,545.9,0,-35,0,0,0,0,-0.0292,-2745.1675,6.8213,0.4212,54.894478,9.791833,108.3,5.845,1.85,335.95,54.890602,9.803724,54.895069,9.793790
1386928516,0,0,545.9,0,-35,0,0,0,0,-0.0292,-2745.1675,6.8213,0.4212,54.894478,9.791833,108.3,5.845,1.85,335.95,54.890602,9.803724,54.895069,9.793790
1386928517,0,0,545.9,0,-35,0,0,0,0,-0.0292,-2745.1675,6.8213,0.4212,54.894478,9.791833,108.3,5.845,1.85,335.95,54.890602,9.803724,54.895069,9.793790
1386928517,0,0,545.9,0,-35,0,0,0,0,-0.0292,-2745.1675,6.8213,0.4212,54.894478,9.791833,108.3,5.845,1.85,335.95,54.890602,9.803724,54.895069,9.793790
1386928517,0,0,545.9,0,-35,0,0,0,0,-0.0292,-2745.1675,6.8213,0.4212,54.894478,9.791833,108.3,5.845,1.85,335.95,54.890602,9.803724,54.895069,9.793790
1386928517,0,0,545.9,0,-35,0,0,0,0,-0.0292,-2745.1675,6.8213,0.4212,54.894478,9.791833,108.3,5.845,1.85,335.95,54.890602,9.803724,54.895069,9.793790
1386928518,0,0,545.9,0,-35,0,0,0,0,-0.0292,-2745.1675,6.8213,0.4212,54.894478,9.791833,108.3,5.845,1.85,335.95,54.890602,9.803724,54.895069,9.793790
1386928518,0,0,545.9,0,-35,0,0,0,0,-0.0292,-2745.1675,6.8213,0.4212,54.894478,9.791833,108.3,5.845,1.85,335.95,54.890602,9.803724,54.895069,9.793790
1386928518,0,0,545.9,0,-35,0,0,0,0,-0.0292,-2745.1675,6.8213,0.4212,54.894478,9.791833,108.3,5.845,1.85,335.95,54.890602,9.803724,54.895069,9.793790
1386928518,0,0,545.9,0,-35,0,0,0,0,-0.0292,-2745.1675,6.8213,0.4212,54.894478,9.791833,108.3,5.845,1.85,335.95,54.890602,9.803724,54.895069,9.793790
1386928519,4,0,545.9,0,-35,0,0,0,0,-0.0292,-2745.1675,6.8213,0.4212,54.894478,9.791833,108.3,5.845,1.85,335.95,54.890602,9.803724,54.895069,9.793790
1386928519,1,0,545.9,0,-35,-4,0,0,0,-0.0292,-2735.8342,6.8213,0.4212,54.894466,9.791851,108.3,5.845,1.85,335.95,54.894478,9.791833,54.895069,9.793790
1386928519,1,0,545.9,0,-35,-8,0,0,0,-0.0292,-2726.5010,6.8213,0.4212,54.894451,9.791865,108.3,5.845,1.85,335.95,54.894478,9.791833,54.895069,9.793790
1386928519,1,0,545.9,0,-32,-12,0,0,0,-0.0292,-2717.9675,6.8213,0.4212,54.894436,9.791875,108.3,5.845,1.85,335.95,54.894478,9.791833,54.895069,9.793790
1386928520,1,0,545.9,0,-24,-16,0,0,0,-0.0292,-2711.5676,6.8213,0.4212,54.894417,9.791881,108.3,5.845,1.85,335.95,54.894478,9.791833,54.895069,9.793790
1386928520,1,0,545.9,0,-18,-20,0,0,0,-0.0292,-2706.7676,6.8213,0.4212,54.894398,9.791884,108.3,5.845,1.85,335.95,54.894478,9.791833,54.895069,9.793790
1386928520,1,0,545.9,0,-13,-16,0,0,0,-0.0292,-2703.3010,6.8213,0.4212,54.894382,9.791886,108.3,5.845,1.85,335.95,54.894478,9.791833,54.895069,9.793790
1386928520,1,0,545.9,0,-9,-12,0,0,0,-0.0292,-2700.9011,6.8213,0.4212,54.894363,9.791887,108.3,5.845,1.85,335.95,54.894478,9.791833,54.895069,9.793790
1386928521,1,0,545.9,0,-7,-8,0,0,0,-0.0292,-2699.0344,6.8213,0.4212,54.894344,9.791887,108.3,5.845,1.85,335.95,54.894478,9.791833,54.895069,9.793790
1386928521,1,0,545.9,0,-5,-4,0,0,0,-0.0292,-2697.7012,6.8213,0.4212,54.894325,9.791886,108.3,5.845,1.85,335.95,54.894478,9.791833,54.895069,9.793790
1386928521,1,0,545.9,0,-4,0,0,713,50,-0.0292,-2696.6345,6.8213,0.4212,54.894310,9.791884,108.3,5.845,1.85,335.95,54.894478,9.791833,54.895069,9.793790
1386928521,1,0,545.9,0,-3,-4,0,713,100,-0.0292,-2695.8345,6.8213,0.4212,54.894291,9.791883,108.3,5.845,1.85,335.95,54.894478,9.791833,54.895069,9.793790
1386928522,1,0,545.9,0,-2,0,0,713,150,-0.0292,-2695.3010,6.8213,0.4212,54.894272,9.791880,108.3,5.845,1.85,335.95,54.894478,9.791833,54.895069,9.793790
1386928522,1,0,545.9,0,-1,-4,0,713,200,-0.0292,-2695.0344,6.8213,0.4212,54.894253,9.791877,108.3,5.845,1.85,335.95,54.894478,9.791833,54.895069,9.793790
1386928522,0,0,545.9,0,-1,-4,0,713,200,-0.0292,-2695.0344,6.8213,0.4212,54.894253,9.791877,108.3,5.845,1.85,335.95,54.894478,9.791833,54.895069,9.793790
1386928522,0,0,545.9,0,-1,-4,0,713,200,-0.0292,-2695.0344,6.8213,0.4212,54.894253,9.791877,108.3,5.845,1.85,335.95,54.894478,9.791833,54.895069,9.793790
1386928523,0,0,545.9,0,-1,-4,0,713,200,-0.0292,-2695.0344,6.8213,0.4212,54.894253,9.791877,108.3,5.845,1.85,335.95,54.894478,9.791833,54.895069,9.793790
1386928523,0,0,545.9,0,-1,-4,0,713,200,-0.0292,-2695.0344,6.8213,0.4212,54.894253,9.791877,108.3,5.845,1.85,335.95,54.894478,9.791833,54.895069,9.793790
1386928523,0,0,545.9,0,-1,-4,0,713,200,-0.0292,-2695.0344,6.8213,0.4212,54.894253,9.791877,108.3,5.845,1.85,335.95,54.894478,9.791833,54.895069,9.793790
1386928523,0,0,545.9,0,-1,-4,0,713,200,-0.0292,-2695.0344,6.8213,0.4212,54.894253,9.791877,108.3,5.845,1.85,335.95,54.894478,9.791833,54.895069,9.793790
1386928524,0,0,545.9,0,-1,-4,0,713,200,-0.0292,-2695.0344,6.8213,0.4212,54.894253,9.791877,108.3,5.845,1.85,335.95,54.894478,9.791833,54.895069,9.793790
1386928524,0,0,545.9,0,-1,-4,0,713,200,-0.0292,-2695.0344,6.8213,0.4212,54.894253,9.791877,108.3,5.845,1.85,335.95,54.894478,9.791833,54.895069,9.793790
1386928524,0,0,545.9,0,-1,-4,0,713,200,-0.0292,-2695.0344,6.8213,0.4212,54.894253,9.791877,108.3,5.845,1.85,335.95,54.894478,9.791833,54.895069,9.793790
1386928524,0,0,545.9,0,-1,-4,0,713,200,-0.0292,-2695.0344,6.8213,0.4212,54.894253,9.791877,108.3,5.845,1.85,335.95,54.894478,9.791833,54.895069,9.793790
1386928525,0,0,545.9,0,-1,-4,0,713,200,-0.0292,-2695.0344,6.8213,0.4212,54.894253,9.791877,108.3,5.845,1.85,335.95,54.894478,9.791833,54.895069,9.793790
1386928525,0,0,545.9,0,-1,-4,0,713,200,-0.0292,-2695.0344,6.8213,0.4212,54.894253,9.791877,108.3,5.845,1.85,335.95,54.894478,9.791833,54.895069,9.793790
1386928525,0,0,545.9,0,-1,-4,0,713,200,-0.0292,-2695.0344,6.8213,0.4212,54.894253,9.791877,108.3,5.845,1.85,335.95,54.894478,9.791833,54.895069,9.793790
1386928525,0,0,545.9,0,-1,-4,0,713,200,-0.0292,-2695.0344,6.8213,0.4212,54.894253,9.791877,108.3,5.845,1.85,335.95,54.894478,9.791833,54.895069,9.793790
1386928526,0,0,545.9,0,-1,-4,0,713,200,-0.0292,-2695.0344,6.8213,0.4212,54.894253,9.791877,108.3,5.845,1.85,335.95,54.894478,9.791833,54.895069,9.793790
1386928526,0,0,545.9,0,-1,-4,0,713,200,-0.0292,-2695.0344,6.8213,0.4212,54.894253,9.791877,108.3,5.845,1.85,335.95,54.894478,9.791833,54.895069,9.793790
1386928526,0,0,545.9,0,-1,-4,0,713,200,-0.0292,-2695.0344,6.8213,0.4212,54.894253,9.791877,108.3,5.845,1.85,335.95,54.894478,9.791833,54.895069,9.793790
1386928526,0,0,545.9,0,-1,-4,0,713,200,-0.0292,-2695.0344,6.8213,0.4212,54.894253,9.791877,108.3,5.845,1.85,335.95,54.894478,9.791833,54.895069,9.793790
1386928527,0,0,545.9,0,-1,-4,0,713,200,-0.0292,-2695.0344,6.8213,0.4212,54.894253,9.791877,108.3,5.845,1.85,335.95,54.894478,9.791833,54.895069,9.793790
1386928527,0,0,545.9,0,-1,-4,0,713,200,-0.0292,-2695.0344,6.8213,0.4212,54.894253,9.791877,108.3,5.845,1.85,335.95,54.894478,9.791833,54.895069,9.793790
1386928527,0,0,545.9,0,-1,-4,0,713,200,-0.0292,-2695.0344,6.8213,0.4212,54.894253,9.791877,108.3,5.845,1.85,335.95,54.894478,9.791833,54.895069,9.793790
1386928527,0,0,545.9,0,-1,-4,0,713,200,-0.0292,-2695.0344,6.8213,0.4212,54.894253,9.791877,108.3,5.845,1.85,335.95,54.894478,9.791833,54.895069,9.793790
1386928528,0,0,545.9,0,-1,-4,0,713,200,-0.0292,-2695.0344,6.8213,0.4212,54.894253,9.791877,108.3,5.845,1.85,335.95,54.894478,9.791833,54.895069,9.793790
1386928528,0,0,545.9,0,-1,-4,0,713,200,-0.0292,-2695.0344,6.8213,0.4212,54.894253,9.791877,108.3,5.845,1.85,335.95,54.894478,9.791833,54.895069,9.793790
1386928528,0,0,545.9,0,-1,-4,0,713,200,-0.0292,-2695.0344,6.8213,0.4212,54.894253,9.791877,108.3,5.845,1.85,335.95,54.894478,9.791833,54.895069,9.793790
1386928528,0,0,545.9,0,-1,-4,0,713,200,-0.0292,-2695.0344,6.8213,0.4212,54.894253,9.791877,108.3,5.845,1.85,335.95,54.894478,9.791833,54.895069,9.793790
1386928529,0,0,545.9,0,-1,-4,0,713,200,-0.0292,-2695.0344,6.8213,0.4212,54.894253,9.791877,108.3,5.845,1.85,335.95,54.894478,9.791833,54.895069,9.793790
1386928529,0,0,545.9,0,-1,-4,0,713,200,-0.0292,-2695.0344,6.8213,0.4212,54.894253,9.791877,108.3,5.845,1.85,335.95,54.894478,9.791833,54.895069,9.793790
1386928529,0,0,545.9,0,-1,-4,0,713,200,-0.0292,-2695.0344,6.8213,0.4212,54.894253,9.791877,108.3,5.845,1.85,335.95,54.894478,9.791833,54.895069,9.793790
1386928529,0,0,545.9,0,-1,-4,0,713,200,-0.0292,-2695.0344,6.8213,0.4212,54.894253,9.791877,108.3,5.845,1.85,335.95,54.894478,9.791833,54.895069,9.793790
1386928530,0,0,545.9,0,-1,-4,0,713,200,-0.0292,-2695.0344,6.8213,0.4212,54.894253,9.791877,108.3,5.845,1.85,335.95,54.894478,9.791833,54.895069,9.793790
1386928530,0,0,545.9,0,-1,-4,0,713,200,-0.0292,-2695.0344,6.8213,0.4212,54.894253,9.791877,108.3,5.845,1.85,335.95,54.894478,9.791833,54.895069,9.793790
1386928530,0,0,545.9,0,-1,-4,0,713,200,-0.0292,-2695.0344,6.8213,0.4212,54.894253,9.791877,108.3,5.845,1.85,335.95,54.894478,9.791833,54.895069,9.793790
1386928530,0,0,545.9,0,-1,-4,0,713,200,-0.0292,-2695.0344,6.8213,0.4212,54.894253,9.791877,108.3,5.845,1.85,335.95,54.894478,9.791833,54.895069,9.793790
1386928531,0,0,545.9,0,-1,-4,0,713,200,-0.0292,-2695.0344,6.8213,0.4212,54.894253,9.791877,108.3,5.845,1.85,335.95,54.894478,9.791833,54.895069,9.793790
1386928531,0,0,545.9,0,-1,-4,0,713,200,-0.0292,-2695.0344,6.8213,0.4212,54.894253,9.791877,108.3,5.845,1.85,335.95,54.894478,9.791833,54.895069,9.793790
1386928531,4,0,545.9,0,-1,-4,0,713,200,-0.0292,-2695.0344,6.8213,0.4212,54.894253,9.791877,108.3,5.845,1.85,335.95,54.894478,9.791833,54.895069,9.793790
1386928531,1,0,545.9,0,-1,0,0,713,250,-0.0292,-2694.7678,6.8213,0.4212,54.894238,9.791874,108.3,5.845,1.85,335.95,54.894253,9.791877,54.895069,9.793790
1386928532,1,0,545.9,0,-1,-4,0,713,300,-0.0292,-2694.5012,6.8213,0.4212,54.894218,9.791871,108.3,5.845,1.85,335.95,54.894253,9.791877,54.895069,9.793790
1386928532,1,0,545.9,0,0,0,0,713,350,-0.0292,-2694.5012,6.8213,0.4212,54.894199,9.791868,108.3,5.845,1.85,335.95,54.894253,9.791877,54.895069,9.793790
1386928532,1,0,280.9,0,-35,-4,0,713,400,-0.0292,-2685.1680,6.8213,0.4212,54.894184,9.791860,108.3,5.845,1.85,335.95,54.894253,9.791877,54.895069,9.793790
1386928532,1,0,545.9,0,9,0,0,713,450,-0.0292,-2687.5679,6.8213,0.4212,54.894165,9.791852,108.3,5.845,1.85,335.95,54.894253,9.791877,54.895069,9.793790
1386928533,1,0,545.9,0,6,4,0,713,500,-0.0292,-2689.1680,6.8213,0.4212,54.894146,9.791846,108.3,5.845,1.85,335.95,54.894253,9.791877,54.895069,9.793790
1386928533,1,0,545.9,0,5,8,0,713,550,-0.0292,-2690.5012,6.8213,0.4212,54.894127,9.791842,108.3,5.845,1.85,335.95,54.894253,9.791877,54.895069,9.793790
1386928533,1,0,545.9,0,4,4,0,0,500,-0.0292,-2691.5679,6.8213,0.4212,54.894112,9.791837,108.3,5.845,1.85,335.95,54.894253,9.791877,54.895069,9.793790
1386928533,1,0,545.9,0,2,0,0,0,450,-0.0292,-2692.1013,6.8213,0.4212,54.894093,9.791832,108.3,5.845,1.85,335.95,54.894253,9.791877,54.895069,9.793790
1386928534,1,0,545.9,0,2,4,0,0,400,-0.0292,-2692.6348,6.8213,0.4212,54.894073,9.791828,108.3,5.845,1.85,335.95,54.894253,9.791877,54.895069,9.793790
1386928534,1,0,545.9,0,1,0,0,0,350,-0.0292,-2692.9014,6.8213,0.4212,54.894054,9.791824,108.3,5.845,1.85,335.95,54.894253,9.791877,54.895069,9.793790
1386928534,1,0,545.9,0,1,4,0,0,300,-0.0292,-2693.1680,6.8213,0.4212,54.894039,9.791821,108.3,5.845,1.85,335.95,54.894253,9.791877,54.895069,9.793790
1386928534,1,0,545.9,0,1,0,0,0,250,-0.0292,-2693.4346,6.8213,0.4212,54.894020,9.791817,108.3,5.845,1.85,335.95,54.894253,9.791877,54.895069,9.793790
1386928535,1,0,545.9,0,1,4,0,0,200,-0.0292,-2693.7012,6.8213,0.4212,54.894001,9.791813,108.3,5.845,1.85,335.95,54.894253,9.791877,54.895069,9.793790
1386928535,1,0,545.9,0,0,0,0,0,150,-0.0292,-2693.7012,6.8213,0.4212,54.893982,9.791810,108.3,5.845,1.85,335.95,54.894253,9.791877,54.895069,9.793790
1386928535,1,0,545.9,0,0,4,0,0,100,-0.0292,-2693.7012,6.8213,0.4212,54.893967,9.791807,108.3,5.845,1.85,335.95,54.894253,9.791877,54.895069,9.793790
1386928535,1,0,545.9,0,0,0,0,0,50,-0.0292,-2693.7012,6.8213,0.4212,54.893948,9.791804,108.3,5.845,1.85,335.95,54.894253,9.791877,54.895069,9.793790
1386928536,1,0,545.9,0,0,4,0,0,0,-0.0292,-2693.7012,6.8213,0.4212,54.893929,9.791801,108.3,5.845,1.85,335.95,54.894253,9.791877,54.895069,9.793790
1386928536,1,0,545.9,0,0,0,0,0,0,-0.0292,-2693.7012,6.8213,0.4212,54.893909,9.791799,108.3,5.845,1.85,335.95,54.894253,9.791877,54.895069,9.793790
1386928536,1,0,485.9,0,35,4,0,0,0,-0.0292,-2703.0344,6.8213,0.4212,54.893894,9.791800,108.3,5.845,1.85,335.95,54.894253,9.791877,54.895069,9.793790
1386928536,1,0,485.9,0,35,8,0,0,0,-0.0292,-2712.3677,6.8213,0.4212,54.893875,9.791807,108.3,5.845,1.85,335.95,54.894253,9.791877,54.895069,9.793790
1386928537,1,0,485.9,0,35,12,0,0,0,-0.0292,-2721.7009,6.8213,0.4212,54.893860,9.791819,108.3,5.845,1.85,335.95,54.894253,9.791877,54.895069,9.793790
1386928537,1,0,485.9,0,32,16,0,0,0,-0.0292,-2730.2344,6.8213,0.4212,54.893845,9.791834,108.3,5.845,1.85,335.95,54.894253,9.791877,54.895069,9.793790
1386928537,1,0,485.9,0,24,20,0,0,0,-0.0292,-2736.6343,6.8213,0.4212,54.893829,9.791852,108.3,5.845,1.85,335.95,54.894253,9.791877,54.895069,9.793790
1386928537,1,0,485.9,0,17,16,0,0,0,-0.0292,-2741.1677,6.8213,0.4212,54.893818,9.791873,108.3,5.845,1.85,335.95,54.894253,9.791877,54.895069,9.793790
1386928538,1,0,485.9,0,13,12,0,0,0,-0.0292,-2744.6343,6.8213,0.4212,54.893803,9.791895,108.3,5.845,1.85,335.95,54.894253,9.791877,54.895069,9.793790
1386928538,1,0,485.9,0,9,8,0,0,0,-0.0292,-2747.0342,6.8213,0.4212,54.893791,9.791918,108.3,5.845,1.85,335.95,54.894253,9.791877,54.895069,9.793790
1386928538,1,0,485.9,0,7,4,0,0,0,-0.0292,-2748.9009,6.8213,0.4212,54.893776,9.791942,108.3,5.845,1.85,335.95,54.894253,9.791877,54.895069,9.793790
1386928539,1,0,485.9,0,5,8,0,0,0,-0.0292,-2750.2341,6.8213,0.4212,54.893764,9.791966,108.3,5.845,1.85,335.95,54.894253,9.791877,54.895069,9.793790
1386928539,1,0,485.9,0,4,4,0,0,0,-0.0292,-2751.3008,6.8213,0.4212,54.893757,9.791991,108.3,5.845,1.85,335.95,54.894253,9.791877,54.895069,9.793790
1386928539,1,0,485.9,0,3,0,0,713,50,-0.0292,-2752.1008,6.8213,0.4212,54.893745,9.792015,108.3,5.845,1.85,335.95,54.894253,9.791877,54.895069,9.793790
1386928539,1,0,485.9,0,2,4,0,713,100,-0.0292,-2752.6343,6.8213,0.4212,54.893734,9.792040,108.3,5.845,1.85,335.95,54.894253,9.791877,54.895069,9.793790
1386928540,1,0,485.9,0,1,0,0,713,150,-0.0292,-2752.9009,6.8213,0.4212,54.893723,9.792065,108.3,5.845,1.85,335.95,54.894253,9.791877,54.895069,9.793790
1386928540,1,0,485.9,0,1,4,0,713,200,-0.0292,-2753.1675,6.8213,0.4212,54.893711,9.792089,108.3,5.845,1.85,335.95,54.894253,9.791877,54.895069,9.793790
1386928540,1,0,485.9,0,1,0,0,713,250,-0.0292,-2753.4341,6.8213,0.4212,54.893703,9.792114,108.3,5.845,1.85,335.95,54.894253,9.791877,54.895069,9.793790
1386928540,1,0,485.9,0,1,4,0,713,300,-0.0292,-2753.7007,6.8213,0.4212,54.893692,9.792140,108.3,5.845,1.85,335.95,54.894253,9.791877,54.895069,9.793790
1386928541,1,0,485.9,0,0,0,0,713,350,-0.0292,-2753.7007,6.8213,0.4212,54.893681,9.792165,108.3,5.845,1.85,335.95,54.894253,9.791877,54.895069,9.793790
1386928541,1,0,411.6,0,35,4,0,713,400,-0.0292,-2763.0339,6.8213,0.4212,54.893673,9.792192,108.3,5.845,1.85,335.95,54.894253,9.791877,54.895069,9.793790
1386928541,1,0,390.9,0,35,8,0,713,450,-0.0292,-2772.3672,6.8213,0.4212,54.893665,9.792222,108.3,5.845,1.85,335.95,54.894253,9.791877,54.895069,9.793790
1386928541,1,0,485.9,0,-18,4,0,870,500,-0.0292,-2767.5671,6.8213,0.4212,54.893661,9.792251,108.3,5.845,1.85,335.95,54.894253,9.791877,54.895069,9.793790
1386928542,1,0,485.9,0,-14,0,0,713,550,-0.0292,-2763.8337,6.8213,0.4212,54.893654,9.792278,108.3,5.845,1.85,335.95,54.894253,9.791877,54.895069,9.793790
1386928542,1,0,485.9,0,-10,-4,0,713,600,-0.0292,-2761.1670,6.8213,0.4212,54.893646,9.792306,108.3,5.845,1.85,335.95,54.894253,9.791877,54.895069,9.793790
1386928542,1,0,485.9,0,-7,-8,0,713,650,-0.0292,-2759.3003,6.8213,0.4212,54.893635,9.792333,108.3,5.845,1.85,335.95,54.894253,9.791877,54.895069,9.793790
1386928542,1,0,485.9,0,-5,-4,0,713,700,-0.0292,-2757.9670,6.8213,0.4212,54.893627,9.792358,108.3,5.845,1.85,335.95,54.894253,9.791877,54.895069,9.793790
1386928543,1,0,485.9,0,-4,0,0,713,750,-0.0292,-2756.9004,6.8213,0.4212,54.893616,9.792385,108.3,5.845,1.85,335.95,54.894253,9.791877,54.895069,9.793790
1386928543,1,0,485.9,0,-3,-4,0,0,700,-0.0292,-2756.1003,6.8213,0.4212,54.893608,9.792411,108.3,5.845,1.85,335.95,54.894253,9.791877,54.895069,9.793790
1386928543,1,0,485.9,0,-2,0,0,0,650,-0.0292,-2755.5669,6.8213,0.4212,54.893597,9.792437,108.3,5.845,1.85,335.95,54.894253,9.791877,54.895069,9.793790
1386928543,1,0,485.9,0,-2,-4,0,0,600,-0.0292,-2755.0334,6.8213,0.4212,54.893585,9.792462,108.3,5.845,1.85,335.95,54.894253,9.791877,54.895069,9.793790
1386928544,1,0,485.9,0,-1,0,0,0,550,-0.0292,-2754.7668,6.8213,0.4212,54.893574,9.792487,108.3,5.845,1.85,335.95,54.894253,9.791877,54.895069,9.793790
1386928544,1,0,485.9,0,-1,-4,0,0,500,-0.0292,-2754.5002,6.8213,0.4212,54.893562,9.792513,108.3,5.845,1.85,335.95,54.894253,9.791877,54.895069,9.793790
1386928544,1,0,485.9,0,0,0,0,0,450,-0.0292,-2754.5002,6.8213,0.4212,54.893555,9.792538,108.3,5.845,1.85,335.95,54.894253,9.791877,54.895069,9.793790
1386928544,1,0,485.9,0,0,4,0,0,400,-0.0292,-2754.5002,6.8213,0.4212,54.893543,9.792563,108.3,5.845,1.85,335.95,54.894253,9.791877,54.895069,9.793790
1386928545,1,0,485.9,0,0,0,0,0,350,-0.0292,-2754.5002,6.8213,0.4212,54.893536,9.792589,108.3,5.845,1.85,335.95,54.894253,9.791877,54.895069,9.793790
1386928545,1,0,485.9,0,0,4,0,0,300,-0.0292,-2754.5002,6.8213,0.4212,54.893524,9.792614,108.3,5.845,1.85,335.95,54.894253,9.791877,54.895069,9.793790
1386928545,1,0,485.9,0,0,0,0,0,250,-0.0292,-2754.5002,6.8213,0.4212,54.893513,9.792640,108.3,5.845,1.85,335.95,54.894253,9.791877,54.895069,9.793790
1386928545,1,0,485.9,0,0,4,0,0,200,-0.0292,-2754.5002,6.8213,0.4212,54.893505,9.792665,108.3,5.845,1.85,335.95,54.894253,9.791877,54.895069,9.793790
1386928546,1,0,485.9,0,0,0,0,0,150,-0.0292,-2754.5002,6.8213,0.4212,54.893494,9.792690,108.3,5.845,1.85,335.95,54.894253,9.791877,54.895069,9.793790
1386928546,1,0,485.9,0,0,4,0,0,100,-0.0292,-2754.5002,6.8213,0.4212,54.893486,9.792716,108.3,5.845,1.85,335.95,54.894253,9.791877,54.895069,9.793790
1386928546,1,0,485.9,0,0,0,0,0,50,-0.0292,-2754.5002,6.8213,0.4212,54.893475,9.792742,108.3,5.845,1.85,335.95,54.894253,9.791877,54.895069,9.793790
1386928546,1,0,485.9,0,0,4,0,0,0,-0.0292,-2754.5002,6.8213,0.4212,54.893463,9.792768,108.3,5.845,1.85,335.95,54.894253,9.791877,54.895069,9.793790
1386928547,1,0,485.9,0,0,0,0,0,0,-0.0292,-2754.5002,6.8213,0.4212,54.893456,9.792792,108.3,5.845,1.85,335.95,54.894253,9.791877,54.895069,9.793790
1386928547,1,0,545.9,0,-35,-4,0,0,0,-0.0292,-2745.1670,6.8213,0.4212,54.893444,9.792814,108.3,5.845,1.85,335.95,54.894253,9.791877,54.895069,9.793790
1386928547,1,0,545.9,0,-35,-8,0,0,0,-0.0292,-2735.8337,6.8213,0.4212,54.893433,9.792832,108.3,5.845,1.85,335.95,54.894253,9.791877,54.895069,9.793790
1386928547,1,0,545.9,0,-35,-12,0,0,0,-0.0292,-2726.5005,6.8213,0.4212,54.893417,9.792847,108.3,5.845,1.85,335.95,54.894253,9.791877,54.895069,9.793790
1386928548,1,0,545.9,0,-32,-16,0,0,0,-0.0292,-2717.9670,6.8213,0.4212,54.893402,9.792856,108.3,5.845,1.85,335.95,54.894253,9.791877,54.895069,9.793790
1386928548,1,0,545.9,0,-24,-20,0,0,0,-0.0292,-2711.5671,6.8213,0.4212,54.893383,9.792862,108.3,5.845,1.85,335.95,54.894253,9.791877,54.895069,9.793790
1386928548,1,0,545.9,0,-18,-16,0,0,0,-0.0292,-2706.7671,6.8213,0.4212,54.893364,9.792866,108.3,5.845,1.85,335.95,54.894253,9.791877,54.895069,9.793790
1386928548,1,0,545.9,0,-13,-12,0,0,0,-0.0292,-2703.3005,6.8213,0.4212,54.893345,9.792868,108.3,5.845,1.85,335.95,54.894253,9.791877,54.895069,9.793790
1386928549,1,0,545.9,0,-9,-8,0,0,0,-0.0292,-2700.9006,6.8213,0.4212,54.893330,9.792869,108.3,5.845,1.85,335.95,54.894253,9.791877,54.895069,9.793790
1386928549,1,0,545.9,0,-7,-4,0,0,0,-0.0292,-2699.0339,6.8213,0.4212,54.893311,9.792868,108.3,5.845,1.85,335.95,54.894253,9.791877,54.895069,9.793790
1386928549,1,0,545.9,0,-5,-8,0,0,0,-0.0292,-2697.7007,6.8213,0.4212,54.893291,9.792867,108.3,5.845,1.85,335.95,54.894253,9.791877,54.895069,9.793790
1386928549,1,0,545.9,0,-4,-4,0,713,50,-0.0292,-2696.6340,6.8213,0.4212,54.893276,9.792865,108.3,5.845,1.85,335.95,54.894253,9.791877,54.895069,9.793790
1386928550,1,0,545.9,0,-3,0,0,713,100,-0.0292,-2695.8340,6.8213,0.4212,54.893257,9.792863,108.3,5.845,1.85,335.95,54.894253,9.791877,54.895069,9.793790
1386928550,1,0,545.9,0,-2,-4,0,713,150,-0.0292,-2695.3005,6.8213,0.4212,54.893238,9.792860,108.3,5.845,1.85,335.95,54.894253,9.791877,54.895069,9.793790
1386928550,1,0,545.9,0,-1,0,0,713,200,-0.0292,-2695.0339,6.8213,0.4212,54.893219,9.792857,108.3,5.845,1.85,335.95,54.894253,9.791877,54.895069,9.793790
1386928550,1,0,545.9,0,-1,-4,0,713,250,-0.0292,-2694.7673,6.8213,0.4212,54.893204,9.792854,108.3,5.845,1.85,335.95,54.894253,9.791877,54.895069,9.793790
1386928551,1,0,545.9,0,-1,0,0,713,300,-0.0292,-2694.5007,6.8213,0.4212,54.893185,9.792851,108.3,5.845,1.85,335.95,54.894253,9.791877,54.895069,9.793790
1386928551,1,0,545.9,0,0,4,0,713,350,-0.0292,-2694.5007,6.8213,0.4212,54.893166,9.792848,108.3,5.845,1.85,335.95,54.894253,9.791877,54.895069,9.793790
1386928551,1,0,280.9,0,-35,0,0,713,400,-0.0292,-2685.1675,6.8213,0.4212,54.893150,9.792839,108.3,5.845,1.85,335.95,54.894253,9.791877,54.895069,9.793790
1386928551,1,0,280.9,0,-35,-4,0,713,450,-0.0292,-2675.8342,6.8213,0.4212,54.893135,9.792827,108.3,5.845,1.85,335.95,54.894253,9.791877,54.895069,9.793790
1386928552,1,0,280.9,0,-35,-8,0,870,500,-0.0292,-2666.5010,6.8213,0.4212,54.893120,9.792809,108.3,5.845,1.85,335.95,54.894253,9.791877,54.895069,9.793790
1386928552,1,0,280.9,0,-35,-12,0,870,550,-0.0292,-2657.1677,6.8213,0.4212,54.893108,9.792788,108.3,5.845,1.85,335.95,54.894253,9.791877,54.895069,9.793790
1386928552,1,0,280.9,0,-35,-16,0,759,600,-0.0292,-2647.8345,6.8213,0.4212,54.893097,9.792763,108.3,5.845,1.85,335.95,54.894253,9.791877,54.895069,9.793790
1386928552,1,0,280.9,0,-35,-20,0,617,650,-0.0292,-2638.5012,6.8213,0.4212,54.893089,9.792735,108.3,5.845,1.85,335.95,54.894253,9.791877,54.895069,9.793790
1386928553,1,0,280.9,0,-35,-24,0,470,600,-0.0292,-2629.1680,6.8213,0.4212,54.893082,9.792706,108.3,5.845,1.85,335.95,54.894253,9.791877,54.895069,9.793790
1386928553,1,0,280.9,0,-30,-28,0,321,550,-0.0292,-2621.1680,6.8213,0.4212,54.893078,9.792675,108.3,5.845,1.85,335.95,54.894253,9.791877,54.895069,9.793790
1386928553,1,0,280.9,0,-22,-24,0,199,500,-0.0292,-2615.3013,6.8213,0.4212,54.893074,9.792644,108.3,5.845,1.85,335.95,54.894253,9.791877,54.895069,9.793790
1386928553,1,0,280.9,0,-16,-20,0,119,450,-0.0292,-2611.0347,6.8213,0.4212,54.893074,9.792612,108.3,5.845,1.85,335.95,54.894253,9.791877,54.895069,9.793790
1386928554,1,0,280.9,0,-12,-16,0,69,400,-0.0292,-2607.8347,6.8213,0.4212,54.893078,9.792581,108.3,5.845,1.85,335.95,54.894253,9.791877,54.895069,9.793790
1386928554,1,0,280.9,0,-9,-12,0,38,350,-0.0292,-2605.4348,6.8213,0.4212,54.893078,9.792550,108.3,5.845,1.85,335.95,54.894253,9.791877,54.895069,9.793790
1386928554,1,0,280.9,0,-6,-8,0,21,300,-0.0292,-2603.8347,6.8213,0.4212,54.893078,9.792519,108.3,5.845,1.85,335.95,54.894253,9.791877,54.895069,9.793790
1386928554,1,0,280.9,0,-5,-4,0,11,250,-0.0292,-2602.5015,6.8213,0.4212,54.893078,9.792487,108.3,5.845,1.85,335.95,54.894253,9.791877,54.895069,9.793790
1386928555,1,0,280.9,0,-3,0,0,6,200,-0.0292,-2601.7014,6.8213,0.4212,54.893078,9.792457,108.3,5.845,1.85,335.95,54.894253,9.791877,54.895069,9.793790
1386928555,1,0,280.9,0,-3,-4,0,3,150,-0.0292,-2600.9014,6.8213,0.4212,54.893078,9.792426,108.3,5.845,1.85,335.95,54.894253,9.791877,54.895069,9.793790
1386928555,1,0,280.9,0,-2,0,0,1,100,-0.0292,-2600.3679,6.8213,0.4212,54.893078,9.792395,108.3,5.845,1.85,335.95,54.894253,9.791877,54.895069,9.793790
1386928555,1,0,280.9,0,-1,-4,0,0,50,-0.0292,-2600.1013,6.8213,0.4212,54.893078,9.792364,108.3,5.845,1.85,335.95,54.894253,9.791877,54.895069,9.793790
1386928556,1,0,280.9,0,-1,0,0,0,0,-0.0292,-2599.8347,6.8213,0.4212,54.893078,9.792334,108.3,5.845,1.85,335.95,54.894253,9.791877,54.895069,9.793790
1386928556,1,0,280.9,0,-1,-4,0,0,0,-0.0292,-2599.5681,6.8213,0.4212,54.893078,9.792302,108.3,5.845,1.85,335.95,54.894253,9.791877,54.895069,9.793790
1386928556,1,0,280.9,0,-1,0,0,0,0,-0.0292,-2599.3015,6.8213,0.4212,54.893078,9.792272,108.3,5.845,1.85,335.95,54.894253,9.791877,54.895069,9.793790
1386928556,1,0,280.9,0,0,4,0,0,0,-0.0292,-2599.3015,6.8213,0.4212,54.893078,9.792241,108.3,5.845,1.85,335.95,54.894253,9.791877,54.895069,9.793790
1386928557,1,0,280.9,0,0,0,0,0,0,-0.0292,-2599.3015,6.8213,0.4212,54.893078,9.792211,108.3,5.845,1.85,335.95,54.894253,9.791877,54.895069,9.793790
1386928557,1,0,280.9,0,0,4,0,0,0,-0.0292,-2599.3015,6.8213,0.4212,54.893078,9.792180,108.3,5.845,1.85,335.95,54.894253,9.791877,54.895069,9.793790
1386928557,1,0,280.9,0,0,0,0,0,0,-0.0292,-2599.3015,6.8213,0.4212,54.893078,9.792150,108.3,5.845,1.85,335.95,54.894253,9.791877,54.895069,9.793790
1386928557,1,0,280.9,0,0,4,0,0,0,-0.0292,-2599.3015,6.8213,0.4212,54.893078,9.792119,108.3,5.845,1.85,335.95,54.894253,9.791877,54.895069,9.793790
1386928558,1,0,280.9,0,0,0,0,0,0,-0.0292,-2599.3015,6.8213,0.4212,54.893078,9.792088,108.3,5.845,1.85,335.95,54.894253,9.791877,54.895069,9.793790
1386928558,1,0,280.9,0,0,4,0,0,0,-0.0292,-2599.3015,6.8213,0.4212,54.893078,9.792057,108.3,5.845,1.85,335.95,54.894253,9.791877,54.895069,9.793790
1386928558,1,0,280.9,0,0,0,0,0,0,-0.0292,-2599.3015,6.8213,0.4212,54.893078,9.792027,108.3,5.845,1.85,335.95,54.894253,9.791877,54.895069,9.793790
1386928558,1,0,280.9,0,0,4,0,0,0,-0.0292,-2599.3015,6.8213,0.4212,54.893078,9.791996,108.3,5.845,1.85,335.95,54.894253,9.791877,54.895069,9.793790
1386928559,1,0,280.9,0,0,0,0,0,0,-0.0292,-2599.3015,6.8213,0.4212,54.893078,9.791965,108.3,5.845,1.85,335.95,54.894253,9.791877,54.895069,9.793790
1386928559,1,0,280.9,0,0,4,0,0,0,-0.0292,-2599.3015,6.8213,0.4212,54.893078,9.791935,108.3,5.845,1.85,335.95,54.894253,9.791877,54.895069,9.793790
1386928559,0,0,280.9,0,0,4,0,0,0,-0.0292,-2599.3015,6.8213,0.4212,54.893078,9.791935,108.3,5.845,1.85,335.95,54.894253,9.791877,54.895069,9.793790
1386928559,0,0,280.9,0,0,4,0,0,0,-0.0292,-2599.3015,6.8213,0.4212,54.893078,9.791935,108.3,5.845,1.85,335.95,54.894253,9.791877,54.895069,9.793790
1386928560,0,0,280.9,0,0,4,0,0,0,-0.0292,-2599.3015,6.8213,0.4212,54.893078,9.791935,108.3,5.845,1.85,335.95,54.894253,9.791877,54.895069,9.793790
1386928560,0,0,280.9,0,0,4,0,0,0,-0.0292,-2599.3015,6.8213,0.4212,54.893078,9.791935,108.3,5.845,1.85,335.95,54.894253,9.791877,54.895069,9.793790
1386928560,0,0,280.9,0,0,4,0,0,0,-0.0292,-2599.3015,6.8213,0.4212,54.893078,9.791935,108.3,5.845,1.85,335.95,54.894253,9.791877,54.895069,9.793790
1386928560,0,0,280.9,0,0,4,0,0,0,-0.0292,-2599.3015,6.8213,0.4212,54.893078,9.791935,108.3,5.845,1.85,335.95,54.894253,9.791877,54.895069,9.793790
1386928561,0,0,280.9,0,0,4,0,0,0,-0.0292,-2599.3015,6.8213,0.4212,54.893078,9.791935,108.3,5.845,1.85,335.95,54.894253,9.791877,54.895069,9.793790
1386928561,0,0,280.9,0,0,4,0,0,0,-0.0292,-2599.3015,6.8213,0.4212,54.893078,9.791935,108.3,5.845,1.85,335.95,54.894253,9.791877,54.895069,9.793790
1386928561,0,0,280.9,0,0,4,0,0,0,-0.0292,-2599.3015,6.8213,0.4212,54.893078,9.791935,108.3,5.845,1.85,335.95,54.894253,9.791877,54.895069,9.793790
1386928561,0,0,280.9,0,0,4,0,0,0,-0.0292,-2599.3015,6.8213,0.4212,54.893078,9.791935,108.3,5.845,1.85,335.95,54.894253,9.791877,54.895069,9.793790
1386928562,0,0,280.9,0,0,4,0,0,0,-0.0292,-2599.3015,6.8213,0.4212,54.893078,9.791935,108.3,5.845,1.85,335.95,54.894253,9.791877,54.895069,9.793790
1386928562,0,0,280.9,0,0,4,0,0,0,-0.0292,-2599.3015,6.8213,0.4212,54.893078,9.791935,108.3,5.845,1.85,335.95,54.894253,9.791877,54.895069,9.793790
1386928562,0,0,280.9,0,0,4,0,0,0,-0.0292,-2599.3015,6.8213,0.4212,54.893078,9.791935,108.3,5.845,1.85,335.95,54.894253,9.791877,54.895069,9.793790
1386928562,0,0,280.9,0,0,4,0,0,0,-0.0292,-2599.3015,6.8213,0.4212,54.893078,9.791935,108.3,5.845,1.85,335.95,54.894253,9.791877,54.895069,9.793790
1386928563,0,0,280.9,0,0,4,0,0,0,-0.0292,-2599.3015,6.8213,0.4212,54.893078,9.791935,108.3,5.845,1.85,335.95,54.894253,9.791877,54.895069,9.793790
1386928563,0,0,280.9,0,0,4,0,0,0,-0.0292,-2599.3015,6.8213,0.4212,54.893078,9.791935,108.3,5.845,1.85,335.95,54.894253,9.791877,54.895069,9.793790
1386928563,0,0,280.9,0,0,4,0,0,0,-0.0292,-2599.3015,6.8213,0.4212,54.893078,9.791935,108.3,5.845,1.85,335.95,54.894253,9.791877,54.895069,9.793790
1386928563,0,0,280.9,0,0,4,0,0,0,-0.0292,-2599.3015,6.8213,0.4212,54.893078,9.791935,108.3,5.845,1.85,335.95,54.894253,9.791877,54.895069,9.793790
1386928564,0,0,280.9,0,0,4,0,0,0,-0.0292,-2599.3015,6.8213,0.4212,54.893078,9.791935,108.3,5.845,1.85,335.95,54.894253,9.791877,54.895069,9.793790
1386928564,0,0,280.9,0,0,4,0,0,0,-0.0292,-2599.3015,6.8213,0.4212,54.893078,9.791935,108.3,5.845,1.85,335.95,54.894253,9.791877,54.895069,9.793790
1386928564,0,0,280.9,0,0,4,0,0,0,-0.0292,-2599.3015,6.8213,0.4212,54.893078,9.791935,108.3,5.845,1.85,335.95,54.894253,9.791877,54.895069,9.793790
1386928564,0,0,280.9,0,0,4,0,0,0,-0.0292,-2599.3015,6.8213,0.4212,54.893078,9.791935,108.3,5.845,1.85,335.95,54.894253,9.791877,54.895069,9.793790
1386928565,0,0,280.9,0,0,4,0,0,0,-0.0292,-2599.3015,6.8213,0.4212,54.893078,9.791935,108.3,5.845,1.85,335.95,54.894253,9.791877,54.895069,9.793790
1386928565,0,0,280.9,0,0,4,0,0,0,-0.0292,-2599.3015,6.8213,0.4212,54.893078,9.791935,108.3,5.845,1.85,335.95,54.894253,9.791877,54.895069,9.793790
1386928565,0,0,280.9,0,0,4,0,0,0,-0.0292,-2599.3015,6.8213,0.4212,54.893078,9.791935,108.3,5.845,1.85,335.95,54.894253,9.791877,54.895069,9.793790
1386928565,0,0,280.9,0,0,4,0,0,0,-0.0292,-2599.3015,6.8213,0.4212,54.893078,9.791935,108.3,5.845,1.85,335.95,54.894253,9.791877,54.895069,9.793790
1386928566,0,0,280.9,0,0,4,0,0,0,-0.0292,-2599.3015,6.8213,0.4212,54.893078,9.791935,108.3,5.845,1.85,335.95,54.894253,9.791877,54.895069,9.793790
1386928566,0,0,280.9,0,0,4,0,0,0,-0.0292,-2599.3015,6.8213,0.4212,54.893078,9.791935,108.3,5.845,1.85,335.95,54.894253,9.791877,54.895069,9.793790
1386928566,0,0,280.9,0,0,4,0,0,0,-0.0292,-2599.3015,6.8213,0.4212,54.893078,9.791935,108.3,5.845,1.85,335.95,54.894253,9.791877,54.895069,9.793790
1386928566,0,0,280.9,0,0,4,0,0,0,-0.0292,-2599.3015,6.8213,0.4212,54.893078,9.791935,108.3,5.845,1.85,335.95,54.894253,9.791877,54.895069,9.793790
1386928567,0,0,280.9,0,0,4,0,0,0,-0.0292,-2599.3015,6.8213,0.4212,54.893078,9.791935,108.3,5.845,1.85,335.95,54.894253,9.791877,54.895069,9.793790
1386928567,0,0,280.9,0,0,4,0,0,0,-0.0292,-2599.3015,6.8213,0.4212,54.893078,9.791935,108.3,5.845,1.85,335.95,54.894253,9.791877,54.895069,9.793790
1386928567,0,0,280.9,0,0,4,0,0,0,-0.0292,-2599.3015,6.8213,0.4212,54.893078,9.791935,108.3,5.845,1.85,335.95,54.894253,9.791877,54.895069,9.793790
1386928567,0,0,280.9,0,0,4,0,0,0,-0.0292,-2599.3015,6.8213,0.4212,54.893078,9.791935,108.3,5.845,1.85,335.95,54.894253,9.791877,54.895069,9.793790
1386928568,0,0,280.9,0,0,4,0,0,0,-0.0292,-2599.3015,6.8213,0.4212,54.893078,9.791935,108.3,5.845,1.85,335.95,54.894253,9.791877,54.895069,9.793790
1386928568,0,0,280.9,0,0,4,0,0,0,-0.0292,-2599.3015,6.8213,0.4212,54.893078,9.791935,108.3,5.845,1.85,335.95,54.894253,9.791877,54.895069,9.793790
1386928568,0,0,280.9,0,0,4,0,0,0,-0.0292,-2599.3015,6.8213,0.4212,54.893078,9.791935,108.3,5.845,1.85,335.95,54.894253,9.791877,54.895069,9.793790
1386928568,0,0,280.9,0,0,4,0,0,0,-0.0292,-2599.3015,6.8213,0.4212,54.893078,9.791935,108.3,5.845,1.85,335.95,54.894253,9.791877,54.895069,9.793790
1386928569,0,0,280.9,0,0,4,0,0,0,-0.0292,-2599.3015,6.8213,0.4212,54.893078,9.791935,108.3,5.845,1.85,335.95,54.894253,9.791877,54.895069,9.793790
1386928569,0,0,280.9,0,0,4,0,0,0,-0.0292,-2599.3015,6.8213,0.4212,54.893078,9.791935,108.3,5.845,1.85,335.95,54.894253,9.791877,54.895069,9.793790
1386928569,0,0,280.9,0,0,4,0,0,0,-0.0292,-2599.3015,6.8213,0.4212,54.893078,9.791935,108.3,5.845,1.85,335.95,54.894253,9.791877,54.895069,9.793790
1386928569,0,0,280.9,0,0,4,0,0,0,-0.0292,-2599.3015,6.8213,0.4212,54.893078,9.791935,108.3,5.845,1.85,335.95,54.894253,9.791877,54.895069,9.793790
1386928570,0,0,280.9,0,0,4,0,0,0,-0.0292,-2599.3015,6.8213,0.4212,54.893078,9.791935,108.3,5.845,1.85,335.95,54.894253,9.791877,54.895069,9.793790
1386928570,0,0,280.9,0,0,4,0,0,0,-0.0292,-2599.3015,6.8213,0.4212,54.893078,9.791935,108.3,5.845,1.85,335.95,54.894253,9.791877,54.895069,9.793790
1386928570,0,0,280.9,0,0,4,0,0,0,-0.0292,-2599.3015,6.8213,0.4212,54.893078,9.791935,108.3,5.845,1.85,335.95,54.894253,9.791877,54.895069,9.793790
1386928570,0,0,280.9,0,0,4,0,0,0,-0.0292,-2599.3015,6.8213,0.4212,54.893078,9.791935,108.3,5.845,1.85,335.95,54.894253,9.791877,54.895069,9.793790
1386928571,0,0,280.9,0,0,4,0,0,0,-0.0292,-2599.3015,6.8213,0.4212,54.893078,9.791935,108.3,5.845,1.85,335.95,54.894253,9.791877,54.895069,9.793790
1386928571,0,0,280.9,0,0,4,0,0,0,-0.0292,-2599.3015,6.8213,0.4212,54.893078,9.791935,108.3,5.845,1.85,335.95,54.894253,9.791877,54.895069,9.793790
1386928571,0,0,280.9,0,0,4,0,0,0,-0.0292,-2599.3015,6.8213,0.4212,54.893078,9.791935,108.3,5.845,1.85,335.95,54.894253,9.791877,54.895069,9.793790
1386928571,0,0,280.9,0,0,4,0,0,0,-0.0292,-2599.3015,6.8213,0.4212,54.893078,9.791935,108.3,5.845,1.85,335.95,54.894253,9.791877,54.895069,9.793790
1386928572,0,0,280.9,0,0,4,0,0,0,-0.0292,-2599.3015,6.8213,0.4212,54.893078,9.791935,108.3,5.845,1.85,335.95,54.894253,9.791877,54.895069,9.793790
1386928572,0,0,280.9,0,0,4,0,0,0,-0.0292,-2599.3015,6.8213,0.4212,54.893078,9.791935,108.3,5.845,1.85,335.95,54.894253,9.791877,54.895069,9.793790
1386928572,0,0,280.9,0,0,4,0,0,0,-0.0292,-2599.3015,6.8213,0.4212,54.893078,9.791935,108.3,5.845,1.85,335.95,54.894253,9.791877,54.895069,9.793790
1386928572,0,0,280.9,0,0,4,0,0,0,-0.0292,-2599.3015,6.8213,0.4212,54.893078,9.791935,108.3,5.845,1.85,335.95,54.894253,9.791877,54.895069,9.793790
1386928573,0,0,280.9,0,0,4,0,0,0,-0.0292,-2599.3015,6.8213,0.4212,54.893078,9.791935,108.3,5.845,1.85,335.95,54.894253,9.791877,54.895069,9.793790
1386928573,0,0,280.9,0,0,4,0,0,0,-0.0292,-2599.3015,6.8213,0.4212,54.893078,9.791935,108.3,5.845,1.85,335.95,54.894253,9.791877,54.895069,9.793790
1386928573,0,0,280.9,0,0,4,0,0,0,-0.0292,-2599.3015,6.8213,0.4212,54.893078,9.791935,108.3,5.845,1.85,335.95,54.894253,9.791877,54.895069,9.793790
1386928573,0,0,280.9,0,0,4,0,0,0,-0.0292,-2599.3015,6.8213,0.4212,54.893078,9.791935,108.3,5.845,1.85,335.95,54.894253,9.791877,54.895069,9.793790
1386928574,0,0,280.9,0,0,4,0,0,0,-0.0292,-2599.3015,6.8213,0.4212,54.893078,9.791935,108.3,5.845,1.85,335.95,54.894253,9.791877,54.895069,9.793790
1386928574,0,0,280.9,0,0,4,0,0,0,-0.0292,-2599.3015,6.8213,0.4212,54.893078,9.791935,108.3,5.845,1.85,335.95,54.894253,9.791877,54.895069,9.793790
1386928574,0,0,280.9,0,0,4,0,0,0,-0.0292,-2599.3015,6.8213,0.4212,54.893078,9.791935,108.3,5.845,1.85,335.95,54.894253,9.791877,54.895069,9.793790
1386928574,0,0,280.9,0,0,4,0,0,0,-0.0292,-2599.3015,6.8213,0.4212,54.893078,9.791935,108.3,5.845,1.85,335.95,54.894253,9.791877,54.895069,9.793790
1386928575,0,0,280.9,0,0,4,0,0,0,-0.0292,-2599.3015,6.8213,0.4212,54.893078,9.791935,108.3,5.845,1.85,335.95,54.894253,9.791877,54.895069,9.793790
1386928575,0,0,280.9,0,0,4,0,0,0,-0.0292,-2599.3015,6.8213,0.4212,54.893078,9.791935,108.3,5.845,1.85,335.95,54.894253,9.791877,54.895069,9.793790
1386928575,0,0,280.9,0,0,4,0,0,0,-0.0292,-2599.3015,6.8213,0.4212,54.893078,9.791935,108.3,5.845,1.85,335.95,54.894253,9.791877,54.895069,9.793790
1386928575,0,0,280.9,0,0,4,0,0,0,-0.0292,-2599.3015,6.8213,0.4212,54.893078,9.791935,108.3,5.845,1.85,335.95,54.894253,9.791877,54.895069,9.793790
1386928576,0,0,280.9,0,0,4,0,0,0,-0.0292,-2599.3015,6.8213,0.4212,54.893078,9.791935,108.3,5.845,1.85,335.95,54.894253,9.791877,54.895069,9.793790
1386928576,0,0,280.9,0,0,4,0,0,0,-0.0292,-2599.3015,6.8213,0.4212,54.893078,9.791935,108.3,5.845,1.85,335.95,54.894253,9.791877,54.895069,9.793790
1386928576,0,0,280.9,0,0,4,0,0,0,-0.0292,-2599.3015,6.8213,0.4212,54.893078,9.791935,108.3,5.845,1.85,335.95,54.894253,9.791877,54.895069,9.793790
1386928576,0,0,280.9,0,0,4,0,0,0,-0.0292,-2599.3015,6.8213,0.4212,54.893078,9.791935,108.3,5.845,1.85,335.95,54.894253,9.791877,54.895069,9.793790
1386928577,0,0,280.9,0,0,4,0,0,0,-0.0292,-2599.3015,6.8213,0.4212,54.893078,9.791935,108.3,5.845,1.85,335.95,54.894253,9.791877,54.895069,9.793790
1386928577,0,0,280.9,0,0,4,0,0,0,-0.0292,-2599.3015,6.8213,0.4212,54.893078,9.791935,108.3,5.845,1.85,335.95,54.894253,9.791877,54.895069,9.793790
1386928577,0,0,280.9,0,0,4,0,0,0,-0.0292,-2599.3015,6.8213,0.4212,54.893078,9.791935,108.3,5.845,1.85,335.95,54.894253,9.791877,54.895069,9.793790
1386928577,0,0,280.9,0,0,4,0,0,0,-0.0292,-2599.3015,6.8213,0.4212,54.893078,9.791935,108.3,5.845,1.85,335.95,54.894253,9.791877,54.895069,9.793790
1386928578,0,0,280.9,0,0,4,0,0,0,-0.0292,-2599.3015,6.8213,0.4212,54.893078,9.791935,108.3,5.845,1.85,335.95,54.894253,9.791877,54.895069,9.793790
1386928578,0,0,280.9,0,0,4,0,0,0,-0.0292,-2599.3015,6.8213,0.4212,54.893078,9.791935,108.3,5.845,1.85,335.95,54.894253,9.791877,54.895069,9.793790
1386928578,0,0,280.9,0,0,4,0,0,0,-0.0292,-2599.3015,6.8213,0.4212,54.893078,9.791935,108.3,5.845,1.85,335.95,54.894253,9.791877,54.895069,9.793790
1386928578,0,0,280.9,0,0,4,0,0,0,-0.0292,-2599.3015,6.8213,0.4212,54.893078,9.791935,108.3,5.845,1.85,335.95,54.894253,9.791877,54.895069,9.793790
1386928579,0,0,280.9,0,0,4,0,0,0,-0.0292,-2599.3015,6.8213,0.4212,54.893078,9.791935,108.3,5.845,1.85,335.95,54.894253,9.791877,54.895069,9.793790
1386928579,0,0,280.9,0,0,4,0,0,0,-0.0292,-2599.3015,6.8213,0.4212,54.893078,9.791935,108.3,5.845,1.85,335.95,54.894253,9.791877,54.895069,9.793790
1386928579,0,0,280.9,0,0,4,0,0,0,-0.0292,-2599.3015,6.8213,0.4212,54.893078,9.791935,108.3,5.845,1.85,335.95,54.894253,9.791877,54.895069,9.793790
1386928579,0,0,280.9,0,0,4,0,0,0,-0.0292,-2599.3015,6.8213,0.4212,54.893078,9.791935,108.3,5.845,1.85,335.95,54.894253,9.791877,54.895069,9.793790
1386928580,0,0,280.9,0,0,4,0,0,0,-0.0292,-2599.3015,6.8213,0.4212,54.893078,9.791935,108.3,5.845,1.85,335.95,54.894253,9.791877,54.895069,9.793790
1386928580,0,0,280.9,0,0,4,0,0,0,-0.0292,-2599.3015,6.8213,0.4212,54.893078,9.791935,108.3,5.845,1.85,335.95,54.894253,9.791877,54.895069,9.793790
1386928580,0,0,280.9,0,0,4,0,0,0,-0.0292,-2599.3015,6.8213,0.4212,54.893078,9.791935,108.3,5.845,1.85,335.95,54.894253,9.791877,54.895069,9.793790
1386928580,0,0,280.9,0,0,4,0,0,0,-0.0292,-2599.3015,6.8213,0.4212,54.893078,9.791935,108.3,5.845,1.85,335.95,54.894253,9.791877,54.895069,9.793790
1386928581,0,0,280.9,0,0,4,0,0,0,-0.0292,-2599.3015,6.8213,0.4212,54.893078,9.791935,108.3,5.845,1.85,335.95,54.894253,9.791877,54.895069,9.793790
1386928581,0,0,280.9,0,0,4,0,0,0,-0.0292,-2599.3015,6.8213,0.4212,54.893078,9.791935,108.3,5.845,1.85,335.95,54.894253,9.791877,54.895069,9.793790
1386928581,0,0,280.9,0,0,4,0,0,0,-0.0292,-2599.3015,6.8213,0.4212,54.893078,9.791935,108.3,5.845,1.85,335.95,54.894253,9.791877,54.895069,9.793790
1386928581,0,0,280.9,0,0,4,0,0,0,-0.0292,-2599.3015,6.8213,0.4212,54.893078,9.791935,108.3,5.845,1.85,335.95,54.894253,9.791877,54.895069,9.793790
1386928582,0,0,280.9,0,0,4,0,0,0,-0.0292,-2599.3015,6.8213,0.4212,54.893078,9.791935,108.3,5.845,1.85,335.95,54.894253,9.791877,54.895069,9.793790
1386928582,0,0,280.9,0,0,4,0,0,0,-0.0292,-2599.3015,6.8213,0.4212,54.893078,9.791935,108.3,5.845,1.85,335.95,54.894253,9.791877,54.895069,9.793790
1386928582,0,0,280.9,0,0,4,0,0,0,-0.0292,-2599.3015,6.8213,0.4212,54.893078,9.791935,108.3,5.845,1.85,335.95,54.894253,9.791877,54.895069,9.793790
1386928582,0,0,280.9,0,0,4,0,0,0,-0.0292,-2599.3015,6.8213,0.4212,54.893078,9.791935,108.3,5.845,1.85,335.95,54.894253,9.791877,54.895069,9.793790
1386928583,0,0,280.9,0,0,4,0,0,0,-0.0292,-2599.3015,6.8213,0.4212,54.893078,9.791935,108.3,5.845,1.85,335.95,54.894253,9.791877,54.895069,9.793790
1386928583,0,0,280.9,0,0,4,0,0,0,-0.0292,-2599.3015,6.8213,0.4212,54.893078,9.791935,108.3,5.845,1.85,335.95,54.894253,9.791877,54.895069,9.793790
1386928583,0,0,280.9,0,0,4,0,0,0,-0.0292,-2599.3015,6.8213,0.4212,54.893078,9.791935,108.3,5.845,1.85,335.95,54.894253,9.791877,54.895069,9.793790
1386928583,0,0,280.9,0,0,4,0,0,0,-0.0292,-2599.3015,6.8213,0.4212,54.893078,9.791935,108.3,5.845,1.85,335.95,54.894253,9.791877,54.895069,9.793790
1386928584,0,0,280.9,0,0,4,0,0,0,-0.0292,-2599.3015,6.8213,0.4212,54.893078,9.791935,108.3,5.845,1.85,335.95,54.894253,9.791877,54.895069,9.793790
1386928584,0,0,280.9,0,0,4,0,0,0,-0.0292,-2599.3015,6.8213,0.4212,54.893078,9.791935,108.3,5.845,1.85,335.95,54.894253,9.791877,54.895069,9.793790
1386928584,0,0,280.9,0,0,4,0,0,0,-0.0292,-2599.3015,6.8213,0.4212,54.893078,9.791935,108.3,5.845,1.85,335.95,54.894253,9.791877,54.895069,9.793790
1386928584,0,0,280.9,0,0,4,0,0,0,-0.0292,-2599.3015,6.8213,0.4212,54.893078,9.791935,108.3,5.845,1.85,335.95,54.894253,9.791877,54.895069,9.793790
1386928585,0,0,280.9,0,0,4,0,0,0,-0.0292,-2599.3015,6.8213,0.4212,54.893078,9.791935,108.3,5.845,1.85,335.95,54.894253,9.791877,54.895069,9.793790
1386928585,0,0,280.9,0,0,4,0,0,0,-0.0292,-2599.3015,6.8213,0.4212,54.893078,9.791935,108.3,5.845,1.85,335.95,54.894253,9.791877,54.895069,9.793790
1386928585,0,0,280.9,0,0,4,0,0,0,-0.0292,-2599.3015,6.8213,0.4212,54.893078,9.791935,108.3,5.845,1.85,335.95,54.894253,9.791877,54.895069,9.793790
1386928585,0,0,280.9,0,0,4,0,0,0,-0.0292,-2599.3015,6.8213,0.4212,54.893078,9.791935,108.3,5.845,1.85,335.95,54.894253,9.791877,54.895069,9.793790
1386928586,0,0,280.9,0,0,4,0,0,0,-0.0292,-2599.3015,6.8213,0.4212,54.893078,9.791935,108.3,5.845,1.85,335.95,54.894253,9.791877,54.895069,9.793790
1386928586,0,0,280.9,0,0,4,0,0,0,-0.0292,-2599.3015,6.8213,0.4212,54.893078,9.791935,108.3,5.845,1.85,335.95,54.894253,9.791877,54.895069,9.793790
1386928586,0,0,280.9,0,0,4,0,0,0,-0.0292,-2599.3015,6.8213,0.4212,54.893078,9.791935,108.3,5.845,1.85,335.95,54.894253,9.791877,54.895069,9.793790
1386928586,0,0,280.9,0,0,4,0,0,0,-0.0292,-2599.3015,6.8213,0.4212,54.893078,9.791935,108.3,5.845,1.85,335.95,54.894253,9.791877,54.895069,9.793790
1386928587,0,0,280.9,0,0,4,0,0,0,-0.0292,-2599.3015,6.8213,0.4212,54.893078,9.791935,108.3,5.845,1.85,335.95,54.894253,9.791877,54.895069,9.793790
1386928587,0,0,280.9,0,0,4,0,0,0,-0.0292,-2599.3015,6.8213,0.4212,54.893078,9.791935,108.3,5.845,1.85,335.95,54.894253,9.791877,54.895069,9.793790
1386928587,0,0,280.9,0,0,4,0,0,0,-0.0292,-2599.3015,6.8213,0.4212,54.893078,9.791935,108.3,5.845,1.85,335.95,54.894253,9.791877,54.895069,9.793790
1386928587,0,0,280.9,0,0,4,0,0,0,-0.0292,-2599.3015,6.8213,0.4212,54.893078,9.791935,108.3,5.845,1.85,335.95,54.894253,9.791877,54.895069,9.793790
1386928588,0,0,280.9,0,0,4,0,0,0,-0.0292,-2599.3015,6.8213,0.4212,54.893078,9.791935,108.3,5.845,1.85,335.95,54.894253,9.791877,54.895069,9.793790
1386928588,0,0,280.9,0,0,4,0,0,0,-0.0292,-2599.3015,6.8213,0.4212,54.893078,9.791935,108.3,5.845,1.85,335.95,54.894253,9.791877,54.895069,9.793790
1386928588,0,0,280.9,0,0,4,0,0,0,-0.0292,-2599.3015,6.8213,0.4212,54.893078,9.791935,108.3,5.845,1.85,335.95,54.894253,9.791877,54.895069,9.793790
1386928588,0,0,280.9,0,0,4,0,0,0,-0.0292,-2599.3015,6.8213,0.4212,54.893078,9.791935,108.3,5.845,1.85,335.95,54.894253,9.791877,54.895069,9.793790
1386928589,0,0,280.9,0,0,4,0,0,0,-0.0292,-2599.3015,6.8213,0.4212,54.893078,9.791935,108.3,5.845,1.85,335.95,54.894253,9.791877,54.895069,9.793790
1386928589,0,0,280.9,0,0,4,0,0,0,-0.0292,-2599.3015,6.8213,0.4212,54.893078,9.791935,108.3,5.845,1.85,335.95,54.894253,9.791877,54.895069,9.793790
1386928589,0,0,280.9,0,0,4,0,0,0,-0.0292,-2599.3015,6.8213,0.4212,54.893078,9.791935,108.3,5.845,1.85,335.95,54.894253,9.791877,54.895069,9.793790
1386928589,0,0,280.9,0,0,4,0,0,0,-0.0292,-2599.3015,6.8213,0.4212,54.893078,9.791935,108.3,5.845,1.85,335.95,54.894253,9.791877,54.895069,9.793790
1386928590,0,0,280.9,0,0,4,0,0,0,-0.0292,-2599.3015,6.8213,0.4212,54.893078,9.791935,108.3,5.845,1.85,335.95,54.894253,9.791877,54.895069,9.793790
1386928590,0,0,280.9,0,0,4,0,0,0,-0.0292,-2599.3015,6.8213,0.4212,54.893078,9.791935,108.3,5.845,1.85,335.95,54.894253,9.791877,54.895069,9.793790
1386928590,0,0,280.9,0,0,4,0,0,0,-0.0292,-2599.3015,6.8213,0.4212,54.893078,9.791935,108.3,5.845,1.85,335.95,54.894253,9.791877,54.895069,9.793790
1386928590,0,0,280.9,0,0,4,0,0,0,-0.0292,-2599.3015,6.8213,0.4212,54.893078,9.791935,108.3,5.845,1.85,335.95,54.894253,9.791877,54.895069,9.793790
1386928591,0,0,280.9,0,0,4,0,0,0,-0.0292,-2599.3015,6.8213,0.4212,54.893078,9.791935,108.3,5.845,1.85,335.95,54.894253,9.791877,54.895069,9.793790
1386928591,0,0,280.9,0,0,4,0,0,0,-0.0292,-2599.3015,6.8213,0.4212,54.893078,9.791935,108.3,5.845,1.85,335.95,54.894253,9.791877,54.895069,9.793790
1386928591,0,0,280.9,0,0,4,0,0,0,-0.0292,-2599.3015,6.8213,0.4212,54.893078,9.791935,108.3,5.845,1.85,335.95,54.894253,9.791877,54.895069,9.793790
1386928591,0,0,280.9,0,0,4,0,0,0,-0.0292,-2599.3015,6.8213,0.4212,54.893078,9.791935,108.3,5.845,1.85,335.95,54.894253,9.791877,54.895069,9.793790
1386928592,0,0,280.9,0,0,4,0,0,0,-0.0292,-2599.3015,6.8213,0.4212,54.893078,9.791935,108.3,5.845,1.85,335.95,54.894253,9.791877,54.895069,9.793790
1386928592,0,0,280.9,0,0,4,0,0,0,-0.0292,-2599.3015,6.8213,0.4212,54.893078,9.791935,108.3,5.845,1.85,335.95,54.894253,9.791877,54.895069,9.793790
1386928592,0,0,280.9,0,0,4,0,0,0,-0.0292,-2599.3015,6.8213,0.4212,54.893078,9.791935,108.3,5.845,1.85,335.95,54.894253,9.791877,54.895069,9.793790
1386928592,0,0,280.9,0,0,4,0,0,0,-0.0292,-2599.3015,6.8213,0.4212,54.893078,9.791935,108.3,5.845,1.85,335.95,54.894253,9.791877,54.895069,9.793790
1386928593,0,0,280.9,0,0,4,0,0,0,-0.0292,-2599.3015,6.8213,0.4212,54.893078,9.791935,108.3,5.845,1.85,335.95,54.894253,9.791877,54.895069,9.793790
1386928593,0,0,280.9,0,0,4,0,0,0,-0.0292,-2599.3015,6.8213,0.4212,54.893078,9.791935,108.3,5.845,1.85,335.95,54.894253,9.791877,54.895069,9.793790
1386928593,0,0,280.9,0,0,4,0,0,0,-0.0292,-2599.3015,6.8213,0.4212,54.893078,9.791935,108.3,5.845,1.85,335.95,54.894253,9.791877,54.895069,9.793790
1386928593,0,0,280.9,0,0,4,0,0,0,-0.0292,-2599.3015,6.8213,0.4212,54.893078,9.791935,108.3,5.845,1.85,335.95,54.894253,9.791877,54.895069,9.793790
1386928594,0,0,280.9,0,0,4,0,0,0,-0.0292,-2599.3015,6.8213,0.4212,54.893078,9.791935,108.3,5.845,1.85,335.95,54.894253,9.791877,54.895069,9.793790
1386928594,0,0,280.9,0,0,4,0,0,0,-0.0292,-2599.3015,6.8213,0.4212,54.893078,9.791935,108.3,5.845,1.85,335.95,54.894253,9.791877,54.895069,9.793790
1386928594,0,0,280.9,0,0,4,0,0,0,-0.0292,-2599.3015,6.8213,0.4212,54.893078,9.791935,108.3,5.845,1.85,335.95,54.894253,9.791877,54.895069,9.793790
1386928594,0,0,280.9,0,0,4,0,0,0,-0.0292,-2599.3015,6.8213,0.4212,54.893078,9.791935,108.3,5.845,1.85,335.95,54.894253,9.791877,54.895069,9.793790
1386928595,0,0,280.9,0,0,4,0,0,0,-0.0292,-2599.3015,6.8213,0.4212,54.893078,9.791935,108.3,5.845,1.85,335.95,54.894253,9.791877,54.895069,9.793790
1386928595,0,0,280.9,0,0,4,0,0,0,-0.0292,-2599.3015,6.8213,0.4212,54.893078,9.791935,108.3,5.845,1.85,335.95,54.894253,9.791877,54.895069,9.793790
1386928595,0,0,280.9,0,0,4,0,0,0,-0.0292,-2599.3015,6.8213,0.4212,54.893078,9.791935,108.3,5.845,1.85,335.95,54.894253,9.791877,54.895069,9.793790
1386928595,0,0,280.9,0,0,4,0,0,0,-0.0292,-2599.3015,6.8213,0.4212,54.893078,9.791935,108.3,5.845,1.85,335.95,54.894253,9.791877,54.895069,9.793790
