MCU_timestamp,Navigation_System,Manual_Control,Guidance_Heading,Manual_Ctrl_Rudder,Rudder_Desired_Angle,Rudder_Feedback,Manual_Ctrl_Sail,Sail_Desired_Pos,Sail_Feedback,Rate,Heading,Pitch,Roll,Latitude,Longitude,COG,SOG,Wind_Speed,Wind_Angle,Point_Start_Lat,Point_Start_Lon,Point_End_Lat,Point_End_Lon
1386961617,1,0,150.0,0,35,4,0,713,400,-0.0292,5240.4287,6.8213,0.4212,54.892342,9.791747,108.3,5.845,1.85,0.00,54.892357,9.791758,0.000000,0.000000
1386961617,1,0,150.0,0,35,8,0,713,450,-0.0292,5231.0952,6.8213,0.4212,54.892323,9.791741,108.3,5.845,1.85,0.00,54.892357,9.791758,0.000000,0.000000
1386961618,1,0,150.0,0,35,12,0,713,500,-0.0292,5221.7617,6.8213,0.4212,54.892303,9.791740,108.3,5.845,1.85,0.00,54.892357,9.791758,0.000000,0.000000
1386961618,1,0,150.0,0,32,16,0,0,450,-0.0292,5213.2285,6.8213,0.4212,54.892284,9.791744,108.3,5.845,1.85,0.00,54.892357,9.791758,0.000000,0.000000
1386961618,1,0,150.0,0,23,20,0,0,400,-0.0292,5207.0952,6.8213,0.4212,54.892269,9.791751,108.3,5.845,1.85,0.00,54.892357,9.791758,0.000000,0.000000
1386961618,1,0,150.0,0,17,16,0,713,450,-0.0292,5202.5620,6.8213,0.4212,54.892250,9.791760,108.3,5.845,1.85,0.00,54.892357,9.791758,0.000000,0.000000
1386961619,1,0,150.0,0,13,12,0,713,500,-0.0292,5199.0952,6.8213,0.4212,54.892231,9.791772,108.3,5.845,1.85,0.00,54.892357,9.791758,0.000000,0.000000
1386961619,1,0,150.0,0,9,8,0,713,550,-0.0292,5196.6953,6.8213,0.4212,54.892216,9.791784,108.3,5.845,1.85,0.00,54.892357,9.791758,0.000000,0.000000
1386961619,1,0,150.0,0,7,4,0,713,600,-0.0292,5194.8286,6.8213,0.4212,54.892200,9.791798,108.3,5.845,1.85,0.00,54.892357,9.791758,0.000000,0.000000
1386961619,1,0,150.0,0,5,8,0,713,650,-0.0292,5193.4951,6.8213,0.4212,54.892185,9.791812,108.3,5.845,1.85,0.00,54.892357,9.791758,0.000000,0.000000
1386961620,1,0,150.0,0,3,4,0,0,600,-0.0292,5192.6953,6.8213,0.4212,54.892170,9.791826,108.3,5.845,1.85,0.00,54.892357,9.791758,0.000000,0.000000
1386961620,1,0,150.0,0,3,0,0,0,550,-0.0292,5191.8955,6.8213,0.4212,54.892151,9.791841,108.3,5.845,1.85,0.00,54.892357,9.791758,0.000000,0.000000
1386961620,1,0,150.0,0,2,4,0,0,500,-0.0292,5191.3623,6.8213,0.4212,54.892136,9.791856,108.3,5.845,1.85,0.00,54.892357,9.791758,0.000000,0.000000
1386961620,1,0,150.0,0,1,0,0,0,450,-0.0292,5191.0957,6.8213,0.4212,54.892120,9.791871,108.3,5.845,1.85,0.00,54.892357,9.791758,0.000000,0.000000
1386961621,1,0,150.0,0,1,4,0,0,400,-0.0292,5190.8291,6.8213,0.4212,54.892101,9.791886,108.3,5.845,1.85,0.00,54.892357,9.791758,0.000000,0.000000
1386961621,1,0,150.0,0,1,0,0,0,350,-0.0292,5190.5625,6.8213,0.4212,54.892086,9.791902,108.3,5.845,1.85,0.00,54.892357,9.791758,0.000000,0.000000
1386961621,1,0,150.0,0,1,4,0,0,300,-0.0292,5190.2959,6.8213,0.4212,54.892071,9.791918,108.3,5.845,1.85,0.00,54.892357,9.791758,0.000000,0.000000
1386961621,1,0,150.0,0,0,0,0,0,250,-0.0292,5190.2959,6.8213,0.4212,54.892052,9.791933,108.3,5.845,1.85,0.00,54.892357,9.791758,0.000000,0.000000
1386961622,1,0,150.0,0,0,4,0,0,200,-0.0292,5190.2959,6.8213,0.4212,54.892036,9.791948,108.3,5.845,1.85,0.00,54.892357,9.791758,0.000000,0.000000
1386961622,1,0,150.0,0,0,0,0,0,150,-0.0292,5190.2959,6.8213,0.4212,54.892021,9.791964,108.3,5.845,1.85,0.00,54.892357,9.791758,0.000000,0.000000
1386961622,1,0,150.0,0,0,4,0,0,100,-0.0292,5190.2959,6.8213,0.4212,54.892002,9.791979,108.3,5.845,1.85,0.00,54.892357,9.791758,0.000000,0.000000
1386961622,1,0,150.0,0,0,0,0,0,50,-0.0292,5190.2959,6.8213,0.4212,54.891987,9.791995,108.3,5.845,1.85,0.00,54.892357,9.791758,0.000000,0.000000
1386961623,1,0,150.0,0,0,4,0,0,0,-0.0292,5190.2959,6.8213,0.4212,54.891972,9.792010,108.3,5.845,1.85,0.00,54.892357,9.791758,0.000000,0.000000
1386961623,1,0,150.0,0,0,0,0,0,0,-0.0292,5190.2959,6.8213,0.4212,54.891953,9.792026,108.3,5.845,1.85,0.00,54.892357,9.791758,0.000000,0.000000
1386961623,1,0,210.0,0,-35,-4,0,0,0,-0.0292,5199.6294,6.8213,0.4212,54.891933,9.792037,108.3,5.845,1.85,0.00,54.892357,9.791758,0.000000,0.000000
1386961623,1,0,210.0,0,-35,-8,0,0,0,-0.0292,5208.9629,6.8213,0.4212,54.891914,9.792043,108.3,5.845,1.85,0.00,54.892357,9.791758,0.000000,0.000000
1386961624,1,0,210.0,0,-35,-12,0,0,0,-0.0292,5218.2964,6.8213,0.4212,54.891899,9.792044,108.3,5.845,1.85,0.00,54.892357,9.791758,0.000000,0.000000
1386961624,1,0,210.0,0,-32,-16,0,0,0,-0.0292,5226.8296,6.8213,0.4212,54.891880,9.792040,108.3,5.845,1.85,0.00,54.892357,9.791758,0.000000,0.000000
1386961624,1,0,210.0,0,-23,-20,0,0,0,-0.0292,5232.9629,6.8213,0.4212,54.891861,9.792032,108.3,5.845,1.85,0.00,54.892357,9.791758,0.000000,0.000000
1386961624,1,0,210.0,0,-17,-16,0,0,0,-0.0292,5237.4961,6.8213,0.4212,54.891846,9.792023,108.3,5.845,1.85,0.00,54.892357,9.791758,0.000000,0.000000
1386961625,1,0,210.0,0,-13,-12,0,0,0,-0.0292,5240.9629,6.8213,0.4212,54.891830,9.792012,108.3,5.845,1.85,0.00,54.892357,9.791758,0.000000,0.000000
1386961625,1,0,210.0,0,-9,-8,0,0,0,-0.0292,5243.3628,6.8213,0.4212,54.891811,9.792000,108.3,5.845,1.85,0.00,54.892357,9.791758,0.000000,0.000000
1386961625,1,0,210.0,0,-7,-4,0,0,0,-0.0292,5245.2295,6.8213,0.4212,54.891796,9.791986,108.3,5.845,1.85,0.00,54.892357,9.791758,0.000000,0.000000
1386961625,1,0,210.0,0,-5,-8,0,0,0,-0.0292,5246.5630,6.8213,0.4212,54.891781,9.791973,108.3,5.845,1.85,0.00,54.892357,9.791758,0.000000,0.000000
1386961626,1,0,210.0,0,-3,-4,0,713,50,-0.0292,5247.3628,6.8213,0.4212,54.891766,9.791959,108.3,5.845,1.85,0.00,54.892357,9.791758,0.000000,0.000000
1386961626,1,0,210.0,0,-3,0,0,713,100,-0.0292,5248.1626,6.8213,0.4212,54.891750,9.791944,108.3,5.845,1.85,0.00,54.892357,9.791758,0.000000,0.000000
1386961626,1,0,210.0,0,-2,-4,0,713,150,-0.0292,5248.6958,6.8213,0.4212,54.891731,9.791929,108.3,5.845,1.85,0.00,54.892357,9.791758,0.000000,0.000000
1386961626,0,0,210.0,0,-2,-4,0,713,150,-0.0292,5248.6958,6.8213,0.4212,54.891731,9.791929,108.3,5.845,1.85,0.00,54.892357,9.791758,0.000000,0.000000
1386961627,0,0,210.0,0,-2,-4,0,713,150,-0.0292,5248.6958,6.8213,0.4212,54.891731,9.791929,108.3,5.845,1.85,0.00,54.892357,9.791758,0.000000,0.000000
1386961627,0,0,210.0,0,-2,-4,0,713,150,-0.0292,5248.6958,6.8213,0.4212,54.891731,9.791929,108.3,5.845,1.85,0.00,54.892357,9.791758,0.000000,0.000000
1386961627,0,0,210.0,0,-2,-4,0,713,150,-0.0292,5248.6958,6.8213,0.4212,54.891731,9.791929,108.3,5.845,1.85,0.00,54.892357,9.791758,0.000000,0.000000
1386961627,0,0,210.0,0,-2,-4,0,713,150,-0.0292,5248.6958,6.8213,0.4212,54.891731,9.791929,108.3,5.845,1.85,0.00,54.892357,9.791758,0.000000,0.000000
1386961628,0,0,210.0,0,-2,-4,0,713,150,-0.0292,5248.6958,6.8213,0.4212,54.891731,9.791929,108.3,5.845,1.85,0.00,54.892357,9.791758,0.000000,0.000000
1386961628,0,0,210.0,0,-2,-4,0,713,150,-0.0292,5248.6958,6.8213,0.4212,54.891731,9.791929,108.3,5.845,1.85,0.00,54.892357,9.791758,0.000000,0.000000
1386961628,0,0,210.0,0,-2,-4,0,713,150,-0.0292,5248.6958,6.8213,0.4212,54.891731,9.791929,108.3,5.845,1.85,0.00,54.892357,9.791758,0.000000,0.000000
1386961628,0,0,210.0,0,-2,-4,0,713,150,-0.0292,5248.6958,6.8213,0.4212,54.891731,9.791929,108.3,5.845,1.85,0.00,54.892357,9.791758,0.000000,0.000000
1386961629,0,0,210.0,0,-2,-4,0,713,150,-0.0292,5248.6958,6.8213,0.4212,54.891731,9.791929,108.3,5.845,1.85,0.00,54.892357,9.791758,0.000000,0.000000
1386961629,0,0,210.0,0,-2,-4,0,713,150,-0.0292,5248.6958,6.8213,0.4212,54.891731,9.791929,108.3,5.845,1.85,0.00,54.892357,9.791758,0.000000,0.000000
1386961629,0,0,210.0,0,-2,-4,0,713,150,-0.0292,5248.6958,6.8213,0.4212,54.891731,9.791929,108.3,5.845,1.85,0.00,54.892357,9.791758,0.000000,0.000000
1386961629,0,0,210.0,0,-2,-4,0,713,150,-0.0292,5248.6958,6.8213,0.4212,54.891731,9.791929,108.3,5.845,1.85,0.00,54.892357,9.791758,0.000000,0.000000
1386961630,0,0,210.0,0,-2,-4,0,713,150,-0.0292,5248.6958,6.8213,0.4212,54.891731,9.791929,108.3,5.845,1.85,0.00,54.892357,9.791758,0.000000,0.000000
1386961630,0,0,210.0,0,-2,-4,0,713,150,-0.0292,5248.6958,6.8213,0.4212,54.891731,9.791929,108.3,5.845,1.85,0.00,54.892357,9.791758,0.000000,0.000000
1386961630,0,0,210.0,0,-2,-4,0,713,150,-0.0292,5248.6958,6.8213,0.4212,54.891731,9.791929,108.3,5.845,1.85,0.00,54.892357,9.791758,0.000000,0.000000
1386961630,0,0,210.0,0,-2,-4,0,713,150,-0.0292,5248.6958,6.8213,0.4212,54.891731,9.791929,108.3,5.845,1.85,0.00,54.892357,9.791758,0.000000,0.000000
1386961631,0,0,210.0,0,-2,-4,0,713,150,-0.0292,5248.6958,6.8213,0.4212,54.891731,9.791929,108.3,5.845,1.85,0.00,54.892357,9.791758,0.000000,0.000000
1386961631,0,0,210.0,0,-2,-4,0,713,150,-0.0292,5248.6958,6.8213,0.4212,54.891731,9.791929,108.3,5.845,1.85,0.00,54.892357,9.791758,0.000000,0.000000
1386961631,0,0,210.0,0,-2,-4,0,713,150,-0.0292,5248.6958,6.8213,0.4212,54.891731,9.791929,108.3,5.845,1.85,0.00,54.892357,9.791758,0.000000,0.000000
1386961631,0,0,210.0,0,-2,-4,0,713,150,-0.0292,5248.6958,6.8213,0.4212,54.891731,9.791929,108.3,5.845,1.85,0.00,54.892357,9.791758,0.000000,0.000000
1386961632,0,0,210.0,0,-2,-4,0,713,150,-0.0292,5248.6958,6.8213,0.4212,54.891731,9.791929,108.3,5.845,1.85,0.00,54.892357,9.791758,0.000000,0.000000
1386961632,0,0,210.0,0,-2,-4,0,713,150,-0.0292,5248.6958,6.8213,0.4212,54.891731,9.791929,108.3,5.845,1.85,0.00,54.892357,9.791758,0.000000,0.000000
1386961632,4,0,210.0,0,-2,-4,0,713,150,-0.0292,5248.6958,6.8213,0.4212,54.891731,9.791929,108.3,5.845,1.85,0.00,54.892357,9.791758,0.000000,0.000000
1386961632,1,0,210.0,0,-1,0,0,713,200,-0.0292,5248.9624,6.8213,0.4212,54.891716,9.791914,108.3,5.845,1.85,0.00,54.891731,9.791929,54.895069,9.793790
1386961633,1,0,210.0,0,-1,-4,0,713,250,-0.0292,5249.2290,6.8213,0.4212,54.891701,9.791899,108.3,5.845,1.85,0.00,54.891731,9.791929,54.895069,9.793790
1386961633,1,0,210.0,0,-1,0,0,713,300,-0.0292,5249.4956,6.8213,0.4212,54.891682,9.791883,108.3,5.845,1.85,0.00,54.891731,9.791929,54.895069,9.793790
1386961633,1,0,210.0,0,-1,-4,0,713,350,-0.0292,5249.7622,6.8213,0.4212,54.891666,9.791868,108.3,5.845,1.85,0.00,54.891731,9.791929,54.895069,9.793790
1386961633,1,0,210.0,0,0,0,0,713,400,-0.0292,5249.7622,6.8213,0.4212,54.891651,9.791852,108.3,5.845,1.85,0.00,54.891731,9.791929,54.895069,9.793790
1386961634,1,0,210.0,0,0,4,0,713,450,-0.0292,5249.7622,6.8213,0.4212,54.891632,9.791837,108.3,5.845,1.85,0.00,54.891731,9.791929,54.895069,9.793790
1386961634,1,0,210.0,0,0,0,0,0,400,-0.0292,5249.7622,6.8213,0.4212,54.891617,9.791821,108.3,5.845,1.85,0.00,54.891731,9.791929,54.895069,9.793790
1386961634,1,0,210.0,0,0,4,0,0,350,-0.0292,5249.7622,6.8213,0.4212,54.891602,9.791805,108.3,5.845,1.85,0.00,54.891731,9.791929,54.895069,9.793790
1386961634,1,0,210.0,0,0,0,0,0,300,-0.0292,5249.7622,6.8213,0.4212,54.891582,9.791790,108.3,5.845,1.85,0.00,54.891731,9.791929,54.895069,9.793790
1386961635,1,0,210.0,0,0,4,0,0,250,-0.0292,5249.7622,6.8213,0.4212,54.891567,9.791775,108.3,5.845,1.85,0.00,54.891731,9.791929,54.895069,9.793790
1386961635,1,0,210.0,0,0,0,0,0,200,-0.0292,5249.7622,6.8213,0.4212,54.891552,9.791759,108.3,5.845,1.85,0.00,54.891731,9.791929,54.895069,9.793790
1386961635,1,0,210.0,0,0,4,0,0,150,-0.0292,5249.7622,6.8213,0.4212,54.891533,9.791743,108.3,5.845,1.85,0.00,54.891731,9.791929,54.895069,9.793790
1386961635,1,0,210.0,0,0,0,0,0,100,-0.0292,5249.7622,6.8213,0.4212,54.891518,9.791728,108.3,5.845,1.85,0.00,54.891731,9.791929,54.895069,9.793790
1386961636,0,0,210.0,0,0,0,0,0,100,-0.0292,5249.7622,6.8213,0.4212,54.891518,9.791728,108.3,5.845,1.85,0.00,54.891731,9.791929,54.895069,9.793790
1386961636,0,0,210.0,0,0,0,0,0,100,-0.0292,5249.7622,6.8213,0.4212,54.891518,9.791728,108.3,5.845,1.85,0.00,54.891731,9.791929,54.895069,9.793790
1386961636,0,0,210.0,0,0,0,0,0,100,-0.0292,5249.7622,6.8213,0.4212,54.891518,9.791728,108.3,5.845,1.85,0.00,54.891731,9.791929,54.895069,9.793790
1386961636,0,0,210.0,0,0,0,0,0,100,-0.0292,5249.7622,6.8213,0.4212,54.891518,9.791728,108.3,5.845,1.85,0.00,54.891731,9.791929,54.895069,9.793790
1386961637,0,0,210.0,0,0,0,0,0,100,-0.0292,5249.7622,6.8213,0.4212,54.891518,9.791728,108.3,5.845,1.85,0.00,54.891731,9.791929,54.895069,9.793790
1386961637,0,0,210.0,0,0,0,0,0,100,-0.0292,5249.7622,6.8213,0.4212,54.891518,9.791728,108.3,5.845,1.85,0.00,54.891731,9.791929,54.895069,9.793790
1386961637,0,0,210.0,0,0,0,0,0,100,-0.0292,5249.7622,6.8213,0.4212,54.891518,9.791728,108.3,5.845,1.85,0.00,54.891731,9.791929,54.895069,9.793790
1386961637,0,0,210.0,0,0,0,0,0,100,-0.0292,5249.7622,6.8213,0.4212,54.891518,9.791728,108.3,5.845,1.85,0.00,54.891731,9.791929,54.895069,9.793790
1386961638,0,0,210.0,0,0,0,0,0,100,-0.0292,5249.7622,6.8213,0.4212,54.891518,9.791728,108.3,5.845,1.85,0.00,54.891731,9.791929,54.895069,9.793790
1386961638,0,0,210.0,0,0,0,0,0,100,-0.0292,5249.7622,6.8213,0.4212,54.891518,9.791728,108.3,5.845,1.85,0.00,54.891731,9.791929,54.895069,9.793790
1386961638,0,0,210.0,0,0,0,0,0,100,-0.0292,5249.7622,6.8213,0.4212,54.891518,9.791728,108.3,5.845,1.85,0.00,54.891731,9.791929,54.895069,9.793790
1386961638,0,0,210.0,0,0,0,0,0,100,-0.0292,5249.7622,6.8213,0.4212,54.891518,9.791728,108.3,5.845,1.85,0.00,54.891731,9.791929,54.895069,9.793790
1386961639,0,0,210.0,0,0,0,0,0,100,-0.0292,5249.7622,6.8213,0.4212,54.891518,9.791728,108.3,5.845,1.85,0.00,54.891731,9.791929,54.895069,9.793790
1386961639,0,0,210.0,0,0,0,0,0,100,-0.0292,5249.7622,6.8213,0.4212,54.891518,9.791728,108.3,5.845,1.85,0.00,54.891731,9.791929,54.895069,9.793790
1386961639,0,0,210.0,0,0,0,0,0,100,-0.0292,5249.7622,6.8213,0.4212,54.891518,9.791728,108.3,5.845,1.85,0.00,54.891731,9.791929,54.895069,9.793790
1386961639,0,0,210.0,0,0,0,0,0,100,-0.0292,5249.7622,6.8213,0.4212,54.891518,9.791728,108.3,5.845,1.85,0.00,54.891731,9.791929,54.895069,9.793790
1386961640,0,0,210.0,0,0,0,0,0,100,-0.0292,5249.7622,6.8213,0.4212,54.891518,9.791728,108.3,5.845,1.85,0.00,54.891731,9.791929,54.895069,9.793790
1386961640,0,0,210.0,0,0,0,0,0,100,-0.0292,5249.7622,6.8213,0.4212,54.891518,9.791728,108.3,5.845,1.85,0.00,54.891731,9.791929,54.895069,9.793790
1386961640,0,0,210.0,0,0,0,0,0,100,-0.0292,5249.7622,6.8213,0.4212,54.891518,9.791728,108.3,5.845,1.85,0.00,54.891731,9.791929,54.895069,9.793790
1386961640,0,0,210.0,0,0,0,0,0,100,-0.0292,5249.7622,6.8213,0.4212,54.891518,9.791728,108.3,5.845,1.85,0.00,54.891731,9.791929,54.895069,9.793790
1386961641,0,0,210.0,0,0,0,0,0,100,-0.0292,5249.7622,6.8213,0.4212,54.891518,9.791728,108.3,5.845,1.85,0.00,54.891731,9.791929,54.895069,9.793790
1386961641,0,0,210.0,0,0,0,0,0,100,-0.0292,5249.7622,6.8213,0.4212,54.891518,9.791728,108.3,5.845,1.85,0.00,54.891731,9.791929,54.895069,9.793790
1386961641,0,0,210.0,0,0,0,0,0,100,-0.0292,5249.7622,6.8213,0.4212,54.891518,9.791728,108.3,5.845,1.85,0.00,54.891731,9.791929,54.895069,9.793790
1386961641,0,0,210.0,0,0,0,0,0,100,-0.0292,5249.7622,6.8213,0.4212,54.891518,9.791728,108.3,5.845,1.85,0.00,54.891731,9.791929,54.895069,9.793790
1386961642,0,0,210.0,0,0,0,0,0,100,-0.0292,5249.7622,6.8213,0.4212,54.891518,9.791728,108.3,5.845,1.85,0.00,54.891731,9.791929,54.895069,9.793790
1386961642,0,0,210.0,0,0,0,0,0,100,-0.0292,5249.7622,6.8213,0.4212,54.891518,9.791728,108.3,5.845,1.85,0.00,54.891731,9.791929,54.895069,9.793790
1386961642,0,0,210.0,0,0,0,0,0,100,-0.0292,5249.7622,6.8213,0.4212,54.891518,9.791728,108.3,5.845,1.85,0.00,54.891731,9.791929,54.895069,9.793790
1386961642,0,0,210.0,0,0,0,0,0,100,-0.0292,5249.7622,6.8213,0.4212,54.891518,9.791728,108.3,5.845,1.85,0.00,54.891731,9.791929,54.895069,9.793790
1386961643,0,0,210.0,0,0,0,0,0,100,-0.0292,5249.7622,6.8213,0.4212,54.891518,9.791728,108.3,5.845,1.85,0.00,54.891731,9.791929,54.895069,9.793790
1386961643,0,0,210.0,0,0,0,0,0,100,-0.0292,5249.7622,6.8213,0.4212,54.891518,9.791728,108.3,5.845,1.85,0.00,54.891731,9.791929,54.895069,9.793790
1386961643,0,0,210.0,0,0,0,0,0,100,-0.0292,5249.7622,6.8213,0.4212,54.891518,9.791728,108.3,5.845,1.85,0.00,54.891731,9.791929,54.895069,9.793790
1386961643,0,0,210.0,0,0,0,0,0,100,-0.0292,5249.7622,6.8213,0.4212,54.891518,9.791728,108.3,5.845,1.85,0.00,54.891731,9.791929,54.895069,9.793790
1386961644,0,0,210.0,0,0,0,0,0,100,-0.0292,5249.7622,6.8213,0.4212,54.891518,9.791728,108.3,5.845,1.85,0.00,54.891731,9.791929,54.895069,9.793790
1386961644,0,0,210.0,0,0,0,0,0,100,-0.0292,5249.7622,6.8213,0.4212,54.891518,9.791728,108.3,5.845,1.85,0.00,54.891731,9.791929,54.895069,9.793790
1386961644,0,0,210.0,0,0,0,0,0,100,-0.0292,5249.7622,6.8213,0.4212,54.891518,9.791728,108.3,5.845,1.85,0.00,54.891731,9.791929,54.895069,9.793790
1386961644,0,0,210.0,0,0,0,0,0,100,-0.0292,5249.7622,6.8213,0.4212,54.891518,9.791728,108.3,5.845,1.85,0.00,54.891731,9.791929,54.895069,9.793790
1386961645,0,0,210.0,0,0,0,0,0,100,-0.0292,5249.7622,6.8213,0.4212,54.891518,9.791728,108.3,5.845,1.85,0.00,54.891731,9.791929,54.895069,9.793790
1386961645,0,0,210.0,0,0,0,0,0,100,-0.0292,5249.7622,6.8213,0.4212,54.891518,9.791728,108.3,5.845,1.85,0.00,54.891731,9.791929,54.895069,9.793790
1386961645,0,0,210.0,0,0,0,0,0,100,-0.0292,5249.7622,6.8213,0.4212,54.891518,9.791728,108.3,5.845,1.85,0.00,54.891731,9.791929,54.895069,9.793790
1386961645,0,0,210.0,0,0,0,0,0,100,-0.0292,5249.7622,6.8213,0.4212,54.891518,9.791728,108.3,5.845,1.85,0.00,54.891731,9.791929,54.895069,9.793790
1386961646,0,0,210.0,0,0,0,0,0,100,-0.0292,5249.7622,6.8213,0.4212,54.891518,9.791728,108.3,5.845,1.85,0.00,54.891731,9.791929,54.895069,9.793790
1386961646,0,0,210.0,0,0,0,0,0,100,-0.0292,5249.7622,6.8213,0.4212,54.891518,9.791728,108.3,5.845,1.85,0.00,54.891731,9.791929,54.895069,9.793790
1386961646,0,0,210.0,0,0,0,0,0,100,-0.0292,5249.7622,6.8213,0.4212,54.891518,9.791728,108.3,5.845,1.85,0.00,54.891731,9.791929,54.895069,9.793790
1386961646,0,0,210.0,0,0,0,0,0,100,-0.0292,5249.7622,6.8213,0.4212,54.891518,9.791728,108.3,5.845,1.85,0.00,54.891731,9.791929,54.895069,9.793790
1386961647,0,0,210.0,0,0,0,0,0,100,-0.0292,5249.7622,6.8213,0.4212,54.891518,9.791728,108.3,5.845,1.85,0.00,54.891731,9.791929,54.895069,9.793790
1386961647,0,0,210.0,0,0,0,0,0,100,-0.0292,5249.7622,6.8213,0.4212,54.891518,9.791728,108.3,5.845,1.85,0.00,54.891731,9.791929,54.895069,9.793790
1386961647,0,0,210.0,0,0,0,0,0,100,-0.0292,5249.7622,6.8213,0.4212,54.891518,9.791728,108.3,5.845,1.85,0.00,54.891731,9.791929,54.895069,9.793790
1386961647,0,0,210.0,0,0,0,0,0,100,-0.0292,5249.7622,6.8213,0.4212,54.891518,9.791728,108.3,5.845,1.85,0.00,54.891731,9.791929,54.895069,9.793790
1386961648,0,0,210.0,0,0,0,0,0,100,-0.0292,5249.7622,6.8213,0.4212,54.891518,9.791728,108.3,5.845,1.85,0.00,54.891731,9.791929,54.895069,9.793790
1386961648,0,0,210.0,0,0,0,0,0,100,-0.0292,5249.7622,6.8213,0.4212,54.891518,9.791728,108.3,5.845,1.85,0.00,54.891731,9.791929,54.895069,9.793790
1386961648,0,0,210.0,0,0,0,0,0,100,-0.0292,5249.7622,6.8213,0.4212,54.891518,9.791728,108.3,5.845,1.85,0.00,54.891731,9.791929,54.895069,9.793790
1386961648,0,0,210.0,0,0,0,0,0,100,-0.0292,5249.7622,6.8213,0.4212,54.891518,9.791728,108.3,5.845,1.85,0.00,54.891731,9.791929,54.895069,9.793790
1386961649,0,0,210.0,0,0,0,0,0,100,-0.0292,5249.7622,6.8213,0.4212,54.891518,9.791728,108.3,5.845,1.85,0.00,54.891731,9.791929,54.895069,9.793790
1386961649,0,0,210.0,0,0,0,0,0,100,-0.0292,5249.7622,6.8213,0.4212,54.891518,9.791728,108.3,5.845,1.85,0.00,54.891731,9.791929,54.895069,9.793790
1386961649,0,0,210.0,0,0,0,0,0,100,-0.0292,5249.7622,6.8213,0.4212,54.891518,9.791728,108.3,5.845,1.85,0.00,54.891731,9.791929,54.895069,9.793790
1386961649,0,0,210.0,0,0,0,0,0,100,-0.0292,5249.7622,6.8213,0.4212,54.891518,9.791728,108.3,5.845,1.85,0.00,54.891731,9.791929,54.895069,9.793790
1386961650,0,0,210.0,0,0,0,0,0,100,-0.0292,5249.7622,6.8213,0.4212,54.891518,9.791728,108.3,5.845,1.85,0.00,54.891731,9.791929,54.895069,9.793790
1386961650,0,0,210.0,0,0,0,0,0,100,-0.0292,5249.7622,6.8213,0.4212,54.891518,9.791728,108.3,5.845,1.85,0.00,54.891731,9.791929,54.895069,9.793790
1386961650,0,0,210.0,0,0,0,0,0,100,-0.0292,5249.7622,6.8213,0.4212,54.891518,9.791728,108.3,5.845,1.85,0.00,54.891731,9.791929,54.895069,9.793790
1386961651,0,0,210.0,0,0,0,0,0,100,-0.0292,5249.7622,6.8213,0.4212,54.891518,9.791728,108.3,5.845,1.85,0.00,54.891731,9.791929,54.895069,9.793790
1386961651,0,0,210.0,0,0,0,0,0,100,-0.0292,5249.7622,6.8213,0.4212,54.891518,9.791728,108.3,5.845,1.85,0.00,54.891731,9.791929,54.895069,9.793790
1386961651,4,0,210.0,0,0,0,0,0,100,-0.0292,5249.7622,6.8213,0.4212,54.891518,9.791728,108.3,5.845,1.85,0.00,54.891731,9.791929,54.895069,9.793790
1386961651,1,0,210.0,0,0,4,0,0,50,-0.0292,5249.7622,6.8213,0.4212,54.891502,9.791713,108.3,5.845,1.85,0.00,54.891518,9.791728,54.895069,9.793790
1386961652,1,0,210.0,0,0,0,0,0,0,-0.0292,5249.7622,6.8213,0.4212,54.891487,9.791698,108.3,5.845,1.85,0.00,54.891518,9.791728,54.895069,9.793790
1386961652,1,0,210.0,0,0,4,0,0,0,-0.0292,5249.7622,6.8213,0.4212,54.891472,9.791681,108.3,5.845,1.85,0.00,54.891518,9.791728,54.895069,9.793790
1386961652,1,0,150.0,0,35,8,0,0,0,-0.0292,5240.4287,6.8213,0.4212,54.891457,9.791671,108.3,5.845,1.85,0.00,54.891518,9.791728,54.895069,9.793790
1386961652,1,0,150.0,0,35,12,0,0,0,-0.0292,5231.0952,6.8213,0.4212,54.891438,9.791665,108.3,5.845,1.85,0.00,54.891518,9.791728,54.895069,9.793790
1386961653,1,0,150.0,0,35,16,0,0,0,-0.0292,5221.7617,6.8213,0.4212,54.891418,9.791664,108.3,5.845,1.85,0.00,54.891518,9.791728,54.895069,9.793790
1386961653,1,0,150.0,0,32,20,0,0,0,-0.0292,5213.2285,6.8213,0.4212,54.891399,9.791668,108.3,5.845,1.85,0.00,54.891518,9.791728,54.895069,9.793790
1386961653,1,0,150.0,0,23,24,0,0,0,-0.0292,5207.0952,6.8213,0.4212,54.891384,9.791675,108.3,5.845,1.85,0.00,54.891518,9.791728,54.895069,9.793790
1386961653,1,0,150.0,0,17,20,0,0,0,-0.0292,5202.5620,6.8213,0.4212,54.891365,9.791684,108.3,5.845,1.85,0.00,54.891518,9.791728,54.895069,9.793790
1386961654,1,0,150.0,0,13,16,0,0,0,-0.0292,5199.0952,6.8213,0.4212,54.891346,9.791696,108.3,5.845,1.85,0.00,54.891518,9.791728,54.895069,9.793790
1386961654,1,0,150.0,0,9,12,0,0,0,-0.0292,5196.6953,6.8213,0.4212,54.891331,9.791708,108.3,5.845,1.85,0.00,54.891518,9.791728,54.895069,9.793790
1386961654,1,0,150.0,0,7,8,0,0,0,-0.0292,5194.8286,6.8213,0.4212,54.891312,9.791721,108.3,5.845,1.85,0.00,54.891518,9.791728,54.895069,9.793790
1386961654,1,0,150.0,0,5,4,0,0,0,-0.0292,5193.4951,6.8213,0.4212,54.891293,9.791736,108.3,5.845,1.85,0.00,54.891518,9.791728,54.895069,9.793790
1386961655,1,0,150.0,0,3,0,0,713,50,-0.0292,5192.6953,6.8213,0.4212,54.891277,9.791750,108.3,5.845,1.85,0.00,54.891518,9.791728,54.895069,9.793790
1386961655,1,0,150.0,0,3,4,0,713,100,-0.0292,5191.8955,6.8213,0.4212,54.891262,9.791764,108.3,5.845,1.85,0.00,54.891518,9.791728,54.895069,9.793790
1386961655,1,0,150.0,0,2,0,0,713,150,-0.0292,5191.3623,6.8213,0.4212,54.891247,9.791780,108.3,5.845,1.85,0.00,54.891518,9.791728,54.895069,9.793790
1386961655,1,0,150.0,0,1,4,0,713,200,-0.0292,5191.0957,6.8213,0.4212,54.891232,9.791794,108.3,5.845,1.85,0.00,54.891518,9.791728,54.895069,9.793790
1386961656,1,0,150.0,0,1,0,0,713,250,-0.0292,5190.8291,6.8213,0.4212,54.891216,9.791809,108.3,5.845,1.85,0.00,54.891518,9.791728,54.895069,9.793790
1386961656,1,0,150.0,0,1,4,0,713,300,-0.0292,5190.5625,6.8213,0.4212,54.891201,9.791824,108.3,5.845,1.85,0.00,54.891518,9.791728,54.895069,9.793790
1386961656,1,0,150.0,0,1,0,0,713,350,-0.0292,5190.2959,6.8213,0.4212,54.891186,9.791840,108.3,5.845,1.85,0.00,54.891518,9.791728,54.895069,9.793790
1386961656,1,0,55.0,0,35,4,0,713,400,-0.0292,5180.9624,6.8213,0.4212,54.891171,9.791860,108.3,5.845,1.85,0.00,54.891518,9.791728,54.895069,9.793790
1386961657,1,0,55.0,0,35,8,0,713,450,-0.0292,5171.6289,6.8213,0.4212,54.891159,9.791883,108.3,5.845,1.85,0.00,54.891518,9.791728,54.895069,9.793790
1386961657,1,0,55.0,0,35,12,0,870,500,-0.0292,5162.2954,6.8213,0.4212,54.891148,9.791909,108.3,5.845,1.85,0.00,54.891518,9.791728,54.895069,9.793790
1386961657,1,0,55.0,0,35,16,0,870,550,-0.0292,5152.9619,6.8213,0.4212,54.891140,9.791938,108.3,5.845,1.85,0.00,54.891518,9.791728,54.895069,9.793790
1386961657,1,0,55.0,0,35,20,0,758,600,-0.0292,5143.6284,6.8213,0.4212,54.891136,9.791968,108.3,5.845,1.85,0.00,54.891518,9.791728,54.895069,9.793790
1386961658,1,0,55.0,0,35,24,0,615,650,-0.0292,5134.2949,6.8213,0.4212,54.891132,9.792000,108.3,5.845,1.85,0.00,54.891518,9.791728,54.895069,9.793790
1386961658,1,0,55.0,0,35,28,0,468,600,-0.0292,5124.9614,6.8213,0.4212,54.891136,9.792030,108.3,5.845,1.85,0.00,54.891518,9.791728,54.895069,9.793790
1386961658,1,0,55.0,0,30,32,0,319,550,-0.0292,5116.9614,6.8213,0.4212,54.891140,9.792061,108.3,5.845,1.85,0.00,54.891518,9.791728,54.895069,9.793790
1386961658,1,0,55.0,0,22,28,0,198,500,-0.0292,5111.0947,6.8213,0.4212,54.891144,9.792090,108.3,5.845,1.85,0.00,54.891518,9.791728,54.895069,9.793790
1386961659,1,0,55.0,0,16,24,0,117,450,-0.0292,5106.8281,6.8213,0.4212,54.891151,9.792119,108.3,5.845,1.85,0.00,54.891518,9.791728,54.895069,9.793790
1386961659,1,0,55.0,0,12,20,0,68,400,-0.0292,5103.6279,6.8213,0.4212,54.891159,9.792147,108.3,5.845,1.85,0.00,54.891518,9.791728,54.895069,9.793790
1386961659,1,0,55.0,0,9,16,0,38,350,-0.0292,5101.2280,6.8213,0.4212,54.891167,9.792174,108.3,5.845,1.85,0.00,54.891518,9.791728,54.895069,9.793790
1386961659,1,0,55.0,0,6,12,0,20,300,-0.0292,5099.6279,6.8213,0.4212,54.891174,9.792201,108.3,5.845,1.85,0.00,54.891518,9.791728,54.895069,9.793790
1386961660,1,0,55.0,0,5,8,0,11,250,-0.0292,5098.2944,6.8213,0.4212,54.891186,9.792228,108.3,5.845,1.85,0.00,54.891518,9.791728,54.895069,9.793790
1386961660,1,0,55.0,0,3,4,0,6,200,-0.0292,5097.4946,6.8213,0.4212,54.891193,9.792254,108.3,5.845,1.85,0.00,54.891518,9.791728,54.895069,9.793790
1386961660,1,0,55.0,0,2,0,0,3,150,-0.0292,5096.9614,6.8213,0.4212,54.891201,9.792280,108.3,5.845,1.85,0.00,54.891518,9.791728,54.895069,9.793790
1386961660,1,0,55.0,0,2,4,0,2,100,-0.0292,5096.4282,6.8213,0.4212,54.891212,9.792307,108.3,5.845,1.85,0.00,54.891518,9.791728,54.895069,9.793790
1386961661,1,0,55.0,0,1,0,0,1,50,-0.0292,5096.1616,6.8213,0.4212,54.891220,9.792333,108.3,5.845,1.85,0.00,54.891518,9.791728,54.895069,9.793790
1386961661,1,0,55.0,0,1,4,0,1,0,-0.0292,5095.8950,6.8213,0.4212,54.891232,9.792358,108.3,5.845,1.85,0.00,54.891518,9.791728,54.895069,9.793790
1386961661,1,0,55.0,0,1,0,0,0,0,-0.0292,5095.6284,6.8213,0.4212,54.891243,9.792384,108.3,5.845,1.85,0.00,54.891518,9.791728,54.895069,9.793790
1386961661,1,0,55.0,0,1,4,0,0,0,-0.0292,5095.3618,6.8213,0.4212,54.891254,9.792410,108.3,5.845,1.85,0.00,54.891518,9.791728,54.895069,9.793790
1386961662,1,0,-55.0,0,35,8,0,0,0,-0.0292,5086.0283,6.8213,0.4212,54.891270,9.792433,108.3,5.845,1.85,0.00,54.891518,9.791728,54.895069,9.793790
1386961662,1,0,-55.0,0,35,12,0,0,0,-0.0292,5076.6948,6.8213,0.4212,54.891285,9.792451,108.3,5.845,1.85,0.00,54.891518,9.791728,54.895069,9.793790
1386961662,1,0,-55.0,0,35,16,0,0,0,-0.0292,5067.3613,6.8213,0.4212,54.891300,9.792465,108.3,5.845,1.85,0.00,54.891518,9.791728,54.895069,9.793790
1386961662,1,0,-55.0,0,35,20,0,0,0,-0.0292,5058.0278,6.8213,0.4212,54.891319,9.792475,108.3,5.845,1.85,0.00,54.891518,9.791728,54.895069,9.793790
1386961663,1,0,-55.0,0,35,24,0,0,0,-0.0292,5048.6943,6.8213,0.4212,54.891338,9.792480,108.3,5.845,1.85,0.00,54.891518,9.791728,54.895069,9.793790
1386961663,1,0,-55.0,0,35,28,0,0,0,-0.0292,5039.3608,6.8213,0.4212,54.891357,9.792480,108.3,5.845,1.85,0.00,54.891518,9.791728,54.895069,9.793790
1386961663,1,0,-55.0,0,35,32,0,0,0,-0.0292,5030.0273,6.8213,0.4212,54.891373,9.792474,108.3,5.845,1.85,0.00,54.891518,9.791728,54.895069,9.793790
1386961663,1,0,-55.0,0,35,36,0,0,0,-0.0292,5020.6938,6.8213,0.4212,54.891392,9.792463,108.3,5.845,1.85,0.00,54.891518,9.791728,54.895069,9.793790
1386961664,1,0,-55.0,0,35,32,0,0,0,-0.0292,5011.3604,6.8213,0.4212,54.891407,9.792448,108.3,5.845,1.85,0.00,54.891518,9.791728,54.895069,9.793790
1386961664,1,0,-55.0,0,26,28,0,0,0,-0.0292,5004.4272,6.8213,0.4212,54.891418,9.792430,108.3,5.845,1.85,0.00,54.891518,9.791728,54.895069,9.793790
1386961664,1,0,-55.0,0,19,24,0,0,0,-0.0292,4999.3604,6.8213,0.4212,54.891434,9.792409,108.3,5.845,1.85,0.00,54.891518,9.791728,54.895069,9.793790
1386961664,1,0,-55.0,0,14,20,0,0,0,-0.0292,4995.6270,6.8213,0.4212,54.891445,9.792387,108.3,5.845,1.85,0.00,54.891518,9.791728,54.895069,9.793790
1386961665,1,0,-55.0,0,11,16,0,0,0,-0.0292,4992.6938,6.8213,0.4212,54.891457,9.792364,108.3,5.845,1.85,0.00,54.891518,9.791728,54.895069,9.793790
1386961665,1,0,-55.0,0,8,12,0,0,0,-0.0292,4990.5605,6.8213,0.4212,54.891468,9.792340,108.3,5.845,1.85,0.00,54.891518,9.791728,54.895069,9.793790
1386961665,1,0,-55.0,0,6,8,0,0,0,-0.0292,4988.9604,6.8213,0.4212,54.891479,9.792315,108.3,5.845,1.85,0.00,54.891518,9.791728,54.895069,9.793790
1386961665,1,0,-55.0,0,4,4,0,0,0,-0.0292,4987.8936,6.8213,0.4212,54.891487,9.792291,108.3,5.845,1.85,0.00,54.891518,9.791728,54.895069,9.793790
1386961666,1,0,-55.0,0,3,0,0,0,0,-0.0292,4987.0938,6.8213,0.4212,54.891499,9.792265,108.3,5.845,1.85,0.00,54.891518,9.791728,54.895069,9.793790
1386961666,1,0,-55.0,0,2,4,0,0,0,-0.0292,4986.5605,6.8213,0.4212,54.891510,9.792240,108.3,5.845,1.85,0.00,54.891518,9.791728,54.895069,9.793790
1386961666,1,0,-55.0,0,2,0,0,0,0,-0.0292,4986.0273,6.8213,0.4212,54.891521,9.792215,108.3,5.845,1.85,0.00,54.891518,9.791728,54.895069,9.793790
1386961666,1,0,-55.0,0,1,4,0,0,0,-0.0292,4985.7607,6.8213,0.4212,54.891533,9.792190,108.3,5.845,1.85,0.00,54.891518,9.791728,54.895069,9.793790
1386961667,1,0,-55.0,0,1,0,0,0,0,-0.0292,4985.4941,6.8213,0.4212,54.891541,9.792165,108.3,5.845,1.85,0.00,54.891518,9.791728,54.895069,9.793790
1386961667,1,0,-55.0,0,0,4,0,0,0,-0.0292,4985.4941,6.8213,0.4212,54.891552,9.792139,108.3,5.845,1.85,0.00,54.891518,9.791728,54.895069,9.793790
1386961667,1,0,-55.0,0,0,0,0,0,0,-0.0292,4985.4941,6.8213,0.4212,54.891560,9.792113,108.3,5.845,1.85,0.00,54.891518,9.791728,54.895069,9.793790
1386961667,1,0,-55.0,0,0,4,0,0,0,-0.0292,4985.4941,6.8213,0.4212,54.891571,9.792089,108.3,5.845,1.85,0.00,54.891518,9.791728,54.895069,9.793790
1386961668,1,0,-55.0,0,0,0,0,0,0,-0.0292,4985.4941,6.8213,0.4212,54.891582,9.792063,108.3,5.845,1.85,0.00,54.891518,9.791728,54.895069,9.793790
1386961668,1,0,-55.0,0,0,4,0,0,0,-0.0292,4985.4941,6.8213,0.4212,54.891590,9.792038,108.3,5.845,1.85,0.00,54.891518,9.791728,54.895069,9.793790
1386961668,1,0,-55.0,0,0,0,0,0,0,-0.0292,4985.4941,6.8213,0.4212,54.891602,9.792012,108.3,5.845,1.85,0.00,54.891518,9.791728,54.895069,9.793790
1386961668,1,0,-55.0,0,0,4,0,0,0,-0.0292,4985.4941,6.8213,0.4212,54.891609,9.791986,108.3,5.845,1.85,0.00,54.891518,9.791728,54.895069,9.793790
1386961669,1,0,-55.0,0,0,0,0,0,0,-0.0292,4985.4941,6.8213,0.4212,54.891621,9.791962,108.3,5.845,1.85,0.00,54.891518,9.791728,54.895069,9.793790
1386961669,1,0,-55.0,0,0,4,0,0,0,-0.0292,4985.4941,6.8213,0.4212,54.891632,9.791936,108.3,5.845,1.85,0.00,54.891518,9.791728,54.895069,9.793790
1386961669,1,0,-55.0,0,0,0,0,0,0,-0.0292,4985.4941,6.8213,0.4212,54.891640,9.791911,108.3,5.845,1.85,0.00,54.891518,9.791728,54.895069,9.793790
1386961669,1,0,-55.0,0,0,4,0,0,0,-0.0292,4985.4941,6.8213,0.4212,54.891651,9.791885,108.3,5.845,1.85,0.00,54.891518,9.791728,54.895069,9.793790
1386961670,1,0,-55.0,0,0,0,0,0,0,-0.0292,4985.4941,6.8213,0.4212,54.891659,9.791860,108.3,5.845,1.85,0.00,54.891518,9.791728,54.895069,9.793790
1386961670,1,0,-55.0,0,0,4,0,0,0,-0.0292,4985.4941,6.8213,0.4212,54.891670,9.791834,108.3,5.845,1.85,0.00,54.891518,9.791728,54.895069,9.793790
1386961670,1,0,-55.0,0,0,0,0,0,0,-0.0292,4985.4941,6.8213,0.4212,54.891682,9.791808,108.3,5.845,1.85,0.00,54.891518,9.791728,54.895069,9.793790
1386961670,1,0,-55.0,0,0,4,0,0,0,-0.0292,4985.4941,6.8213,0.4212,54.891689,9.791783,108.3,5.845,1.85,0.00,54.891518,9.791728,54.895069,9.793790
1386961671,1,0,-55.0,0,0,0,0,0,0,-0.0292,4985.4941,6.8213,0.4212,54.891701,9.791758,108.3,5.845,1.85,0.00,54.891518,9.791728,54.895069,9.793790
1386961671,1,0,-55.0,0,0,4,0,0,0,-0.0292,4985.4941,6.8213,0.4212,54.891708,9.791732,108.3,5.845,1.85,0.00,54.891518,9.791728,54.895069,9.793790
1386961671,1,0,-55.0,0,0,0,0,0,0,-0.0292,4985.4941,6.8213,0.4212,54.891720,9.791706,108.3,5.845,1.85,0.00,54.891518,9.791728,54.895069,9.793790
1386961671,1,0,-55.0,0,0,4,0,0,0,-0.0292,4985.4941,6.8213,0.4212,54.891731,9.791680,108.3,5.845,1.85,0.00,54.891518,9.791728,54.895069,9.793790
1386961672,1,0,-55.0,0,0,0,0,0,0,-0.0292,4985.4941,6.8213,0.4212,54.891743,9.791656,108.3,5.845,1.85,0.00,54.891518,9.791728,54.895069,9.793790
1386961672,1,0,-55.0,0,0,4,0,0,0,-0.0292,4985.4941,6.8213,0.4212,54.891754,9.791630,108.3,5.845,1.85,0.00,54.891518,9.791728,54.895069,9.793790
1386961672,1,0,-55.0,0,0,0,0,0,0,-0.0292,4985.4941,6.8213,0.4212,54.891762,9.791604,108.3,5.845,1.85,0.00,54.891518,9.791728,54.895069,9.793790
1386961672,1,0,-55.0,0,0,4,0,0,0,-0.0292,4985.4941,6.8213,0.4212,54.891773,9.791578,108.3,5.845,1.85,0.00,54.891518,9.791728,54.895069,9.793790
1386961673,1,0,-55.0,0,0,0,0,0,0,-0.0292,4985.4941,6.8213,0.4212,54.891785,9.791553,108.3,5.845,1.85,0.00,54.891518,9.791728,54.895069,9.793790
1386961673,1,0,-55.0,0,0,4,0,0,0,-0.0292,4985.4941,6.8213,0.4212,54.891796,9.791528,108.3,5.845,1.85,0.00,54.891518,9.791728,54.895069,9.793790
1386961673,1,0,-55.0,0,0,0,0,0,0,-0.0292,4985.4941,6.8213,0.4212,54.891808,9.791502,108.3,5.845,1.85,0.00,54.891518,9.791728,54.895069,9.793790
1386961673,1,0,-55.0,0,0,4,0,0,0,-0.0292,4985.4941,6.8213,0.4212,54.891819,9.791477,108.3,5.845,1.85,0.00,54.891518,9.791728,54.895069,9.793790
1386961674,1,0,-55.0,0,0,0,0,0,0,-0.0292,4985.4941,6.8213,0.4212,54.891830,9.791451,108.3,5.845,1.85,0.00,54.891518,9.791728,54.895069,9.793790
1386961674,1,0,-55.0,0,0,4,0,0,0,-0.0292,4985.4941,6.8213,0.4212,54.891842,9.791426,108.3,5.845,1.85,0.00,54.891518,9.791728,54.895069,9.793790
1386961674,1,0,-55.0,0,0,0,0,0,0,-0.0292,4985.4941,6.8213,0.4212,54.891853,9.791401,108.3,5.845,1.85,0.00,54.891518,9.791728,54.895069,9.793790
1386961674,1,0,-55.0,0,0,4,0,0,0,-0.0292,4985.4941,6.8213,0.4212,54.891861,9.791375,108.3,5.845,1.85,0.00,54.891518,9.791728,54.895069,9.793790
1386961675,1,0,-55.0,0,0,0,0,0,0,-0.0292,4985.4941,6.8213,0.4212,54.891872,9.791350,108.3,5.845,1.85,0.00,54.891518,9.791728,54.895069,9.793790
1386961675,1,0,-55.0,0,0,4,0,0,0,-0.0292,4985.4941,6.8213,0.4212,54.891880,9.791325,108.3,5.845,1.85,0.00,54.891518,9.791728,54.895069,9.793790
1386961675,1,0,-55.0,0,0,0,0,0,0,-0.0292,4985.4941,6.8213,0.4212,54.891891,9.791299,108.3,5.845,1.85,0.00,54.891518,9.791728,54.895069,9.793790
1386961675,1,0,-55.0,0,0,4,0,0,0,-0.0292,4985.4941,6.8213,0.4212,54.891903,9.791274,108.3,5.845,1.85,0.00,54.891518,9.791728,54.895069,9.793790
1386961676,1,0,-55.0,0,0,0,0,0,0,-0.0292,4985.4941,6.8213,0.4212,54.891911,9.791248,108.3,5.845,1.85,0.00,54.891518,9.791728,54.895069,9.793790
1386961676,1,0,-55.0,0,0,4,0,0,0,-0.0292,4985.4941,6.8213,0.4212,54.891922,9.791224,108.3,5.845,1.85,0.00,54.891518,9.791728,54.895069,9.793790
1386961676,1,0,-55.0,0,0,0,0,0,0,-0.0292,4985.4941,6.8213,0.4212,54.891930,9.791198,108.3,5.845,1.85,0.00,54.891518,9.791728,54.895069,9.793790
1386961676,1,0,-55.0,0,0,4,0,0,0,-0.0292,4985.4941,6.8213,0.4212,54.891941,9.791172,108.3,5.845,1.85,0.00,54.891518,9.791728,54.895069,9.793790
1386961677,1,0,-55.0,0,0,0,0,0,0,-0.0292,4985.4941,6.8213,0.4212,54.891953,9.791147,108.3,5.845,1.85,0.00,54.891518,9.791728,54.895069,9.793790
1386961677,1,0,55.0,0,-35,-4,0,0,0,-0.0292,4994.8276,6.8213,0.4212,54.891964,9.791125,108.3,5.845,1.85,0.00,54.891518,9.791728,54.895069,9.793790
1386961677,1,0,55.0,0,-35,-8,0,0,0,-0.0292,5004.1611,6.8213,0.4212,54.891979,9.791107,108.3,5.845,1.85,0.00,54.891518,9.791728,54.895069,9.793790
1386961677,1,0,55.0,0,-35,-12,0,0,0,-0.0292,5013.4946,6.8213,0.4212,54.891994,9.791093,108.3,5.845,1.85,0.00,54.891518,9.791728,54.895069,9.793790
1386961678,1,0,55.0,0,-35,-16,0,0,0,-0.0292,5022.8281,6.8213,0.4212,54.892014,9.791083,108.3,5.845,1.85,0.00,54.891518,9.791728,54.895069,9.793790
1386961678,1,0,55.0,0,-35,-20,0,0,0,-0.0292,5032.1616,6.8213,0.4212,54.892033,9.791080,108.3,5.845,1.85,0.00,54.891518,9.791728,54.895069,9.793790
1386961678,1,0,55.0,0,-35,-24,0,0,0,-0.0292,5041.4951,6.8213,0.4212,54.892052,9.791080,108.3,5.845,1.85,0.00,54.891518,9.791728,54.895069,9.793790
1386961678,1,0,55.0,0,-35,-28,0,0,0,-0.0292,5050.8286,6.8213,0.4212,54.892067,9.791086,108.3,5.845,1.85,0.00,54.891518,9.791728,54.895069,9.793790
1386961679,1,0,55.0,0,-35,-32,0,0,0,-0.0292,5060.1621,6.8213,0.4212,54.892086,9.791098,108.3,5.845,1.85,0.00,54.891518,9.791728,54.895069,9.793790
1386961679,1,0,55.0,0,-35,-36,0,0,0,-0.0292,5069.4956,6.8213,0.4212,54.892101,9.791113,108.3,5.845,1.85,0.00,54.891518,9.791728,54.895069,9.793790
1386961679,1,0,55.0,0,-26,-32,0,0,0,-0.0292,5076.4287,6.8213,0.4212,54.892117,9.791132,108.3,5.845,1.85,0.00,54.891518,9.791728,54.895069,9.793790
1386961679,1,0,55.0,0,-19,-28,0,0,0,-0.0292,5081.4956,6.8213,0.4212,54.892132,9.791152,108.3,5.845,1.85,0.00,54.891518,9.791728,54.895069,9.793790
1386961680,1,0,55.0,0,-14,-24,0,0,0,-0.0292,5085.2290,6.8213,0.4212,54.892143,9.791174,108.3,5.845,1.85,0.00,54.891518,9.791728,54.895069,9.793790
1386961680,1,0,55.0,0,-10,-20,0,0,0,-0.0292,5087.8955,6.8213,0.4212,54.892155,9.791197,108.3,5.845,1.85,0.00,54.891518,9.791728,54.895069,9.793790
1386961680,1,0,55.0,0,-7,-16,0,0,0,-0.0292,5089.7622,6.8213,0.4212,54.892166,9.791221,108.3,5.845,1.85,0.00,54.891518,9.791728,54.895069,9.793790
1386961680,1,0,55.0,0,-5,-12,0,0,0,-0.0292,5091.0957,6.8213,0.4212,54.892181,9.791245,108.3,5.845,1.85,0.00,54.891518,9.791728,54.895069,9.793790
1386961681,1,0,55.0,0,-4,-8,0,0,0,-0.0292,5092.1626,6.8213,0.4212,54.892193,9.791269,108.3,5.845,1.85,0.00,54.891518,9.791728,54.895069,9.793790
