MCU_timestamp,Navigation_System,Manual_Control,Guidance_Heading,Manual_Ctrl_Rudder,Rudder_Desired_Angle,Rudder_Feedback,Manual_Ctrl_Sail,Sail_Desired_Pos,Sail_Feedback,Rate,Heading,Pitch,Roll,Latitude,Longitude,COG,SOG,Wind_Speed,Wind_Angle,Point_Start_Lat,Point_Start_Lon,Point_End_Lat,Point_End_Lon
1386835129,1,0,545.9,0,35,4,0,0,25,-0.0292,-393.7085,6.8213,0.4212,54.901310,9.795264,108.3,5.845,1.85,335.95,54.901295,9.795281,0.000000,0.000000
1386835129,1,0,545.9,0,35,8,0,0,0,-0.0292,-403.0418,6.8213,0.4212,54.901325,9.795243,108.3,5.845,1.85,335.95,54.901295,9.795281,0.000000,0.000000
1386835129,1,0,545.9,0,35,12,0,0,25,-0.0292,-412.3752,6.8213,0.4212,54.901337,9.795219,108.3,5.845,1.85,335.95,54.901295,9.795281,0.000000,0.000000
1386835129,1,0,545.9,0,35,16,0,0,0,-0.0292,-421.7085,6.8213,0.4212,54.901348,9.795192,108.3,5.845,1.85,335.95,54.901295,9.795281,0.000000,0.000000
1386835130,1,0,545.9,0,35,20,0,0,25,-0.0292,-431.0418,6.8213,0.4212,54.901352,9.795162,108.3,5.845,1.85,335.95,54.901295,9.795281,0.000000,0.000000
1386835130,1,0,545.9,0,35,24,0,0,0,-0.0292,-440.3752,6.8213,0.4212,54.901356,9.795131,108.3,5.845,1.85,335.95,54.901295,9.795281,0.000000,0.000000
1386835130,1,0,545.9,0,35,28,0,0,25,-0.0292,-449.7085,6.8213,0.4212,54.901356,9.795099,108.3,5.845,1.85,335.95,54.901295,9.795281,0.000000,0.000000
1386835130,1,0,545.9,0,35,32,0,32,50,-0.0292,-459.0419,6.8213,0.4212,54.901352,9.795069,108.3,5.845,1.85,335.95,54.901295,9.795281,0.000000,0.000000
1386835131,1,0,545.9,0,35,36,0,97,75,-0.0292,-468.3752,6.8213,0.4212,54.901344,9.795039,108.3,5.845,1.85,335.95,54.901295,9.795281,0.000000,0.000000
1386835131,1,0,545.9,0,35,32,0,177,100,-0.0292,-477.7086,6.8213,0.4212,54.901333,9.795012,108.3,5.845,1.85,335.95,54.901295,9.795281,0.000000,0.000000
1386835131,1,0,545.9,0,35,36,0,262,125,-0.0292,-487.0419,6.8213,0.4212,54.901321,9.794987,108.3,5.845,1.85,335.95,54.901295,9.795281,0.000000,0.000000
1386835131,1,0,545.9,0,35,32,0,347,150,-0.0292,-496.3752,6.8213,0.4212,54.901306,9.794966,108.3,5.845,1.85,335.95,54.901295,9.795281,0.000000,0.000000
1386835132,1,0,545.9,0,35,36,0,429,175,-0.0292,-505.7086,6.8213,0.4212,54.901291,9.794949,108.3,5.845,1.85,335.95,54.901295,9.795281,0.000000,0.000000
1386835132,1,0,545.9,0,28,32,0,506,200,-0.0292,-513.1752,6.8213,0.4212,54.901276,9.794934,108.3,5.845,1.85,335.95,54.901295,9.795281,0.000000,0.000000
1386835132,1,0,545.9,0,21,28,0,563,225,-0.0292,-518.7752,6.8213,0.4212,54.901257,9.794923,108.3,5.845,1.85,335.95,54.901295,9.795281,0.000000,0.000000
1386835133,1,0,545.9,0,15,24,0,578,250,-0.0292,-522.7752,6.8213,0.4212,54.901241,9.794913,108.3,5.845,1.85,335.95,54.901295,9.795281,0.000000,0.000000
1386835133,1,0,545.9,0,11,20,0,409,275,-0.0292,-525.7086,6.8213,0.4212,54.901226,9.794906,108.3,5.845,1.85,335.95,54.901295,9.795281,0.000000,0.000000
1386835133,1,0,545.9,0,8,16,0,409,300,-0.0292,-527.8419,6.8213,0.4212,54.901207,9.794899,108.3,5.845,1.85,335.95,54.901295,9.795281,0.000000,0.000000
1386835133,1,0,545.9,0,6,12,0,409,325,-0.0292,-529.4419,6.8213,0.4212,54.901188,9.794893,108.3,5.845,1.85,335.95,54.901295,9.795281,0.000000,0.000000
1386835134,1,0,545.9,0,5,8,0,409,350,-0.0292,-530.7752,6.8213,0.4212,54.901173,9.794888,108.3,5.845,1.85,335.95,54.901295,9.795281,0.000000,0.000000
1386835134,1,0,545.9,0,3,4,0,409,375,-0.0292,-531.5752,6.8213,0.4212,54.901154,9.794884,108.3,5.845,1.85,335.95,54.901295,9.795281,0.000000,0.000000
1386835134,1,0,545.9,0,2,0,0,409,400,-0.0292,-532.1085,6.8213,0.4212,54.901134,9.794880,108.3,5.845,1.85,335.95,54.901295,9.795281,0.000000,0.000000
1386835134,1,0,545.9,0,2,4,0,409,425,-0.0292,-532.6418,6.8213,0.4212,54.901115,9.794876,108.3,5.845,1.85,335.95,54.901295,9.795281,0.000000,0.000000
1386835135,1,0,545.9,0,1,0,0,409,400,-0.0292,-532.9085,6.8213,0.4212,54.901100,9.794872,108.3,5.845,1.85,335.95,54.901295,9.795281,0.000000,0.000000
1386835135,1,0,545.9,0,1,4,0,409,425,-0.0292,-533.1752,6.8213,0.4212,54.901081,9.794868,108.3,5.845,1.85,335.95,54.901295,9.795281,0.000000,0.000000
1386835135,1,0,545.9,0,1,0,0,409,400,-0.0292,-533.4418,6.8213,0.4212,54.901062,9.794865,108.3,5.845,1.85,335.95,54.901295,9.795281,0.000000,0.000000
1386835135,1,0,545.9,0,1,4,0,409,425,-0.0292,-533.7085,6.8213,0.4212,54.901047,9.794861,108.3,5.845,1.85,335.95,54.901295,9.795281,0.000000,0.000000
1386835136,1,0,545.9,0,0,0,0,409,400,-0.0292,-533.7085,6.8213,0.4212,54.901028,9.794857,108.3,5.845,1.85,335.95,54.901295,9.795281,0.000000,0.000000
1386835136,1,0,545.9,0,0,4,0,409,425,-0.0292,-533.7085,6.8213,0.4212,54.901009,9.794854,108.3,5.845,1.85,335.95,54.901295,9.795281,0.000000,0.000000
1386835136,1,0,545.9,0,0,0,0,409,400,-0.0292,-533.7085,6.8213,0.4212,54.900990,9.794851,108.3,5.845,1.85,335.95,54.901295,9.795281,0.000000,0.000000
1386835136,0,0,545.9,0,0,0,0,409,400,-0.0292,-533.7085,6.8213,0.4212,54.900990,9.794851,108.3,5.845,1.85,335.95,54.901295,9.795281,0.000000,0.000000
1386835137,0,0,545.9,0,0,0,0,409,400,-0.0292,-533.7085,6.8213,0.4212,54.900990,9.794851,108.3,5.845,1.85,335.95,54.901295,9.795281,0.000000,0.000000
1386835137,0,0,545.9,0,0,0,0,409,400,-0.0292,-533.7085,6.8213,0.4212,54.900990,9.794851,108.3,5.845,1.85,335.95,54.901295,9.795281,0.000000,0.000000
1386835137,4,0,545.9,0,0,0,0,409,400,-0.0292,-533.7085,6.8213,0.4212,54.900990,9.794851,108.3,5.845,1.85,335.95,54.901295,9.795281,0.000000,0.000000
1386835137,1,0,545.9,0,0,4,0,409,425,-0.0292,-533.7085,6.8213,0.4212,54.900974,9.794848,108.3,5.845,1.85,335.95,54.900990,9.794851,54.895069,9.793790
1386835138,1,0,545.9,0,0,0,0,409,400,-0.0292,-533.7085,6.8213,0.4212,54.900955,9.794846,108.3,5.845,1.85,335.95,54.900990,9.794851,54.895069,9.793790
1386835138,1,0,545.9,0,0,4,0,409,425,-0.0292,-533.7085,6.8213,0.4212,54.900936,9.794843,108.3,5.845,1.85,335.95,54.900990,9.794851,54.895069,9.793790
1386835138,1,0,545.9,0,0,0,0,409,400,-0.0292,-533.7085,6.8213,0.4212,54.900917,9.794840,108.3,5.845,1.85,335.95,54.900990,9.794851,54.895069,9.793790
1386835138,1,0,545.9,0,0,4,0,409,425,-0.0292,-533.7085,6.8213,0.4212,54.900902,9.794836,108.3,5.845,1.85,335.95,54.900990,9.794851,54.895069,9.793790
1386835139,1,0,545.9,0,0,0,0,409,400,-0.0292,-533.7085,6.8213,0.4212,54.900883,9.794832,108.3,5.845,1.85,335.95,54.900990,9.794851,54.895069,9.793790
1386835139,1,0,545.9,0,0,4,0,409,425,-0.0292,-533.7085,6.8213,0.4212,54.900864,9.794828,108.3,5.845,1.85,335.95,54.900990,9.794851,54.895069,9.793790
1386835139,1,0,545.9,0,0,0,0,409,400,-0.0292,-533.7085,6.8213,0.4212,54.900845,9.794825,108.3,5.845,1.85,335.95,54.900990,9.794851,54.895069,9.793790
1386835139,1,0,545.9,0,0,4,0,409,425,-0.0292,-533.7085,6.8213,0.4212,54.900829,9.794821,108.3,5.845,1.85,335.95,54.900990,9.794851,54.895069,9.793790
1386835140,1,0,545.9,0,0,0,0,409,400,-0.0292,-533.7085,6.8213,0.4212,54.900810,9.794817,108.3,5.845,1.85,335.95,54.900990,9.794851,54.895069,9.793790
1386835140,1,0,545.9,0,0,4,0,409,425,-0.0292,-533.7085,6.8213,0.4212,54.900791,9.794814,108.3,5.845,1.85,335.95,54.900990,9.794851,54.895069,9.793790
1386835140,1,0,545.9,0,0,0,0,409,400,-0.0292,-533.7085,6.8213,0.4212,54.900772,9.794811,108.3,5.845,1.85,335.95,54.900990,9.794851,54.895069,9.793790
1386835140,1,0,545.9,0,0,4,0,409,425,-0.0292,-533.7085,6.8213,0.4212,54.900757,9.794808,108.3,5.845,1.85,335.95,54.900990,9.794851,54.895069,9.793790
1386835141,1,0,545.9,0,0,0,0,409,400,-0.0292,-533.7085,6.8213,0.4212,54.900738,9.794806,108.3,5.845,1.85,335.95,54.900990,9.794851,54.895069,9.793790
1386835141,1,0,545.9,0,0,4,0,409,425,-0.0292,-533.7085,6.8213,0.4212,54.900719,9.794803,108.3,5.845,1.85,335.95,54.900990,9.794851,54.895069,9.793790
1386835141,1,0,545.9,0,0,0,0,409,400,-0.0292,-533.7085,6.8213,0.4212,54.900703,9.794800,108.3,5.845,1.85,335.95,54.900990,9.794851,54.895069,9.793790
1386835141,1,0,545.9,0,0,4,0,409,425,-0.0292,-533.7085,6.8213,0.4212,54.900684,9.794797,108.3,5.845,1.85,335.95,54.900990,9.794851,54.895069,9.793790
1386835142,1,0,545.9,0,0,0,0,409,400,-0.0292,-533.7085,6.8213,0.4212,54.900665,9.794793,108.3,5.845,1.85,335.95,54.900990,9.794851,54.895069,9.793790
1386835142,1,0,545.9,0,0,4,0,409,425,-0.0292,-533.7085,6.8213,0.4212,54.900646,9.794789,108.3,5.845,1.85,335.95,54.900990,9.794851,54.895069,9.793790
1386835142,1,0,545.9,0,0,0,0,409,400,-0.0292,-533.7085,6.8213,0.4212,54.900631,9.794785,108.3,5.845,1.85,335.95,54.900990,9.794851,54.895069,9.793790
1386835142,1,0,545.9,0,0,4,0,409,425,-0.0292,-533.7085,6.8213,0.4212,54.900612,9.794782,108.3,5.845,1.85,335.95,54.900990,9.794851,54.895069,9.793790
1386835143,1,0,545.9,0,0,0,0,409,400,-0.0292,-533.7085,6.8213,0.4212,54.900593,9.794778,108.3,5.845,1.85,335.95,54.900990,9.794851,54.895069,9.793790
1386835143,1,0,545.9,0,0,4,0,409,425,-0.0292,-533.7085,6.8213,0.4212,54.900574,9.794774,108.3,5.845,1.85,335.95,54.900990,9.794851,54.895069,9.793790
1386835143,1,0,545.9,0,0,0,0,409,400,-0.0292,-533.7085,6.8213,0.4212,54.900558,9.794771,108.3,5.845,1.85,335.95,54.900990,9.794851,54.895069,9.793790
1386835143,1,0,545.9,0,0,4,0,409,425,-0.0292,-533.7085,6.8213,0.4212,54.900539,9.794768,108.3,5.845,1.85,335.95,54.900990,9.794851,54.895069,9.793790
1386835144,1,0,545.9,0,0,0,0,409,400,-0.0292,-533.7085,6.8213,0.4212,54.900520,9.794765,108.3,5.845,1.85,335.95,54.900990,9.794851,54.895069,9.793790
1386835144,1,0,545.9,0,0,4,0,409,425,-0.0292,-533.7085,6.8213,0.4212,54.900501,9.794763,108.3,5.845,1.85,335.95,54.900990,9.794851,54.895069,9.793790
1386835144,1,0,545.9,0,0,0,0,409,400,-0.0292,-533.7085,6.8213,0.4212,54.900486,9.794760,108.3,5.845,1.85,335.95,54.900990,9.794851,54.895069,9.793790
1386835144,1,0,545.9,0,0,4,0,409,425,-0.0292,-533.7085,6.8213,0.4212,54.900467,9.794757,108.3,5.845,1.85,335.95,54.900990,9.794851,54.895069,9.793790
1386835145,1,0,545.9,0,0,0,0,409,400,-0.0292,-533.7085,6.8213,0.4212,54.900448,9.794754,108.3,5.845,1.85,335.95,54.900990,9.794851,54.895069,9.793790
1386835145,1,0,545.9,0,0,4,0,409,425,-0.0292,-533.7085,6.8213,0.4212,54.900433,9.794750,108.3,5.845,1.85,335.95,54.900990,9.794851,54.895069,9.793790
1386835145,1,0,545.9,0,0,0,0,409,400,-0.0292,-533.7085,6.8213,0.4212,54.900414,9.794746,108.3,5.845,1.85,335.95,54.900990,9.794851,54.895069,9.793790
1386835145,1,0,545.9,0,0,4,0,409,425,-0.0292,-533.7085,6.8213,0.4212,54.900394,9.794743,108.3,5.845,1.85,335.95,54.900990,9.794851,54.895069,9.793790
1386835146,1,0,545.9,0,0,0,0,409,400,-0.0292,-533.7085,6.8213,0.4212,54.900375,9.794739,108.3,5.845,1.85,335.95,54.900990,9.794851,54.895069,9.793790
1386835146,1,0,545.9,0,0,4,0,409,425,-0.0292,-533.7085,6.8213,0.4212,54.900360,9.794735,108.3,5.845,1.85,335.95,54.900990,9.794851,54.895069,9.793790
1386835146,1,0,545.9,0,0,0,0,409,400,-0.0292,-533.7085,6.8213,0.4212,54.900341,9.794731,108.3,5.845,1.85,335.95,54.900990,9.794851,54.895069,9.793790
1386835146,1,0,545.9,0,0,4,0,409,425,-0.0292,-533.7085,6.8213,0.4212,54.900322,9.794728,108.3,5.845,1.85,335.95,54.900990,9.794851,54.895069,9.793790
1386835147,1,0,545.9,0,0,0,0,409,400,-0.0292,-533.7085,6.8213,0.4212,54.900303,9.794725,108.3,5.845,1.85,335.95,54.900990,9.794851,54.895069,9.793790
1386835147,1,0,545.9,0,0,4,0,409,425,-0.0292,-533.7085,6.8213,0.4212,54.900288,9.794723,108.3,5.845,1.85,335.95,54.900990,9.794851,54.895069,9.793790
1386835147,1,0,545.9,0,0,0,0,409,400,-0.0292,-533.7085,6.8213,0.4212,54.900269,9.794720,108.3,5.845,1.85,335.95,54.900990,9.794851,54.895069,9.793790
1386835147,1,0,545.9,0,0,4,0,409,425,-0.0292,-533.7085,6.8213,0.4212,54.900249,9.794717,108.3,5.845,1.85,335.95,54.900990,9.794851,54.895069,9.793790
1386835148,1,0,545.9,0,0,0,0,409,400,-0.0292,-533.7085,6.8213,0.4212,54.900230,9.794714,108.3,5.845,1.85,335.95,54.900990,9.794851,54.895069,9.793790
1386835148,1,0,545.9,0,0,4,0,409,425,-0.0292,-533.7085,6.8213,0.4212,54.900215,9.794711,108.3,5.845,1.85,335.95,54.900990,9.794851,54.895069,9.793790
1386835148,1,0,545.9,0,0,0,0,409,400,-0.0292,-533.7085,6.8213,0.4212,54.901081,9.788621,108.3,5.845,1.85,335.95,54.900990,9.794851,54.895069,9.793790
1386835148,1,0,545.9,0,0,4,0,409,425,-0.0292,-533.7085,6.8213,0.4212,54.901062,9.788617,108.3,5.845,1.85,335.95,54.900990,9.794851,54.895069,9.793790
1386835149,1,0,545.9,0,0,0,0,409,400,-0.0292,-533.7085,6.8213,0.4212,54.901047,9.788613,108.3,5.845,1.85,335.95,54.900990,9.794851,54.895069,9.793790
1386835149,1,0,545.9,0,0,4,0,409,425,-0.0292,-533.7085,6.8213,0.4212,54.901028,9.788610,108.3,5.845,1.85,335.95,54.900990,9.794851,54.895069,9.793790
1386835149,1,0,545.9,0,0,0,0,409,400,-0.0292,-533.7085,6.8213,0.4212,54.901009,9.788606,108.3,5.845,1.85,335.95,54.900990,9.794851,54.895069,9.793790
1386835149,1,0,545.9,0,0,4,0,409,425,-0.0292,-533.7085,6.8213,0.4212,54.900990,9.788602,108.3,5.845,1.85,335.95,54.900990,9.794851,54.895069,9.793790
1386835150,0,0,545.9,0,0,4,0,409,425,-0.0292,-533.7085,6.8213,0.4212,54.900990,9.788602,108.3,5.845,1.85,335.95,54.900990,9.794851,54.895069,9.793790
1386835150,0,0,545.9,0,0,4,0,409,425,-0.0292,-533.7085,6.8213,0.4212,54.900990,9.788602,108.3,5.845,1.85,335.95,54.900990,9.794851,54.895069,9.793790
1386835150,0,0,545.9,0,0,4,0,409,425,-0.0292,-533.7085,6.8213,0.4212,54.900990,9.788602,108.3,5.845,1.85,335.95,54.900990,9.794851,54.895069,9.793790
1386835150,0,0,545.9,0,0,4,0,409,425,-0.0292,-533.7085,6.8213,0.4212,54.900990,9.788602,108.3,5.845,1.85,335.95,54.900990,9.794851,54.895069,9.793790
1386835151,0,0,545.9,0,0,4,0,409,425,-0.0292,-533.7085,6.8213,0.4212,54.900990,9.788602,108.3,5.845,1.85,335.95,54.900990,9.794851,54.895069,9.793790
1386835151,0,0,545.9,0,0,4,0,409,425,-0.0292,-533.7085,6.8213,0.4212,54.900990,9.788602,108.3,5.845,1.85,335.95,54.900990,9.794851,54.895069,9.793790
1386835151,0,0,545.9,0,0,4,0,409,425,-0.0292,-533.7085,6.8213,0.4212,54.900990,9.788602,108.3,5.845,1.85,335.95,54.900990,9.794851,54.895069,9.793790
1386835151,0,0,545.9,0,0,4,0,409,425,-0.0292,-533.7085,6.8213,0.4212,54.900990,9.788602,108.3,5.845,1.85,335.95,54.900990,9.794851,54.895069,9.793790
1386835152,0,0,545.9,0,0,4,0,409,425,-0.0292,-533.7085,6.8213,0.4212,54.900990,9.788602,108.3,5.845,1.85,335.95,54.900990,9.794851,54.895069,9.793790
1386835152,4,0,545.9,0,0,4,0,409,425,-0.0292,-533.7085,6.8213,0.4212,54.900990,9.788602,108.3,5.845,1.85,335.95,54.900990,9.794851,54.895069,9.793790
1386835152,1,0,545.9,0,0,0,0,409,400,-0.0292,-533.7085,6.8213,0.4212,54.900974,9.788598,108.3,5.845,1.85,335.95,54.900990,9.788602,54.895069,9.793790
1386835152,1,0,545.9,0,0,4,0,409,425,-0.0292,-533.7085,6.8213,0.4212,54.900955,9.788595,108.3,5.845,1.85,335.95,54.900990,9.788602,54.895069,9.793790
1386835153,1,0,545.9,0,0,0,0,409,400,-0.0292,-533.7085,6.8213,0.4212,54.900936,9.788592,108.3,5.845,1.85,335.95,54.900990,9.788602,54.895069,9.793790
1386835153,1,0,545.9,0,0,4,0,409,425,-0.0292,-533.7085,6.8213,0.4212,54.900917,9.788589,108.3,5.845,1.85,335.95,54.900990,9.788602,54.895069,9.793790
1386835153,1,0,545.9,0,0,0,0,409,400,-0.0292,-533.7085,6.8213,0.4212,54.900902,9.788587,108.3,5.845,1.85,335.95,54.900990,9.788602,54.895069,9.793790
1386835153,1,0,545.9,0,0,4,0,409,425,-0.0292,-533.7085,6.8213,0.4212,54.900883,9.788584,108.3,5.845,1.85,335.95,54.900990,9.788602,54.895069,9.793790
1386835154,1,0,545.9,0,0,0,0,409,400,-0.0292,-533.7085,6.8213,0.4212,54.900864,9.788580,108.3,5.845,1.85,335.95,54.900990,9.788602,54.895069,9.793790
1386835154,1,0,545.9,0,0,4,0,409,425,-0.0292,-533.7085,6.8213,0.4212,54.900845,9.788576,108.3,5.845,1.85,335.95,54.900990,9.788602,54.895069,9.793790
1386835154,1,0,545.9,0,0,0,0,409,400,-0.0292,-533.7085,6.8213,0.4212,54.900829,9.788572,108.3,5.845,1.85,335.95,54.900990,9.788602,54.895069,9.793790
1386835154,1,0,545.9,0,0,4,0,409,425,-0.0292,-533.7085,6.8213,0.4212,54.900810,9.788568,108.3,5.845,1.85,335.95,54.900990,9.788602,54.895069,9.793790
1386835155,1,0,545.9,0,0,0,0,409,400,-0.0292,-533.7085,6.8213,0.4212,54.900791,9.788565,108.3,5.845,1.85,335.95,54.900990,9.788602,54.895069,9.793790
1386835155,1,0,545.9,0,0,4,0,409,425,-0.0292,-533.7085,6.8213,0.4212,54.900772,9.788561,108.3,5.845,1.85,335.95,54.900990,9.788602,54.895069,9.793790
1386835155,1,0,545.9,0,0,0,0,409,400,-0.0292,-533.7085,6.8213,0.4212,54.900757,9.788557,108.3,5.845,1.85,335.95,54.900990,9.788602,54.895069,9.793790
1386835155,1,0,545.9,0,0,4,0,409,425,-0.0292,-533.7085,6.8213,0.4212,54.900738,9.788554,108.3,5.845,1.85,335.95,54.900990,9.788602,54.895069,9.793790
1386835156,1,0,545.9,0,0,0,0,409,400,-0.0292,-533.7085,6.8213,0.4212,54.900719,9.788551,108.3,5.845,1.85,335.95,54.900990,9.788602,54.895069,9.793790
1386835156,1,0,545.9,0,0,4,0,409,425,-0.0292,-533.7085,6.8213,0.4212,54.900703,9.788548,108.3,5.845,1.85,335.95,54.900990,9.788602,54.895069,9.793790
1386835156,1,0,545.9,0,0,0,0,409,400,-0.0292,-533.7085,6.8213,0.4212,54.900684,9.788546,108.3,5.845,1.85,335.95,54.900990,9.788602,54.895069,9.793790
1386835156,1,0,545.9,0,0,4,0,409,425,-0.0292,-533.7085,6.8213,0.4212,54.900665,9.788543,108.3,5.845,1.85,335.95,54.900990,9.788602,54.895069,9.793790
1386835157,1,0,545.9,0,0,0,0,409,400,-0.0292,-533.7085,6.8213,0.4212,54.900646,9.788540,108.3,5.845,1.85,335.95,54.900990,9.788602,54.895069,9.793790
1386835157,1,0,545.9,0,0,4,0,409,425,-0.0292,-533.7085,6.8213,0.4212,54.900631,9.788536,108.3,5.845,1.85,335.95,54.900990,9.788602,54.895069,9.793790
1386835157,1,0,545.9,0,0,0,0,409,400,-0.0292,-533.7085,6.8213,0.4212,54.900612,9.788532,108.3,5.845,1.85,335.95,54.900990,9.788602,54.895069,9.793790
1386835157,1,0,545.9,0,0,4,0,409,425,-0.0292,-533.7085,6.8213,0.4212,54.900593,9.788528,108.3,5.845,1.85,335.95,54.900990,9.788602,54.895069,9.793790
1386835158,1,0,545.9,0,0,0,0,409,400,-0.0292,-533.7085,6.8213,0.4212,54.900574,9.788525,108.3,5.845,1.85,335.95,54.900990,9.788602,54.895069,9.793790
1386835158,1,0,545.9,0,0,4,0,409,425,-0.0292,-533.7085,6.8213,0.4212,54.900558,9.788521,108.3,5.845,1.85,335.95,54.900990,9.788602,54.895069,9.793790
1386835158,1,0,545.9,0,0,0,0,409,400,-0.0292,-533.7085,6.8213,0.4212,54.900539,9.788517,108.3,5.845,1.85,335.95,54.900990,9.788602,54.895069,9.793790
1386835158,1,0,545.9,0,0,4,0,409,425,-0.0292,-533.7085,6.8213,0.4212,54.900520,9.788513,108.3,5.845,1.85,335.95,54.900990,9.788602,54.895069,9.793790
1386835159,1,0,545.9,0,0,0,0,409,400,-0.0292,-533.7085,6.8213,0.4212,54.900501,9.788510,108.3,5.845,1.85,335.95,54.900990,9.788602,54.895069,9.793790
1386835159,1,0,545.9,0,0,4,0,409,425,-0.0292,-533.7085,6.8213,0.4212,54.900486,9.788507,108.3,5.845,1.85,335.95,54.900990,9.788602,54.895069,9.793790
1386835159,1,0,545.9,0,0,0,0,409,400,-0.0292,-533.7085,6.8213,0.4212,54.900467,9.788505,108.3,5.845,1.85,335.95,54.900990,9.788602,54.895069,9.793790
1386835159,1,0,545.9,0,0,4,0,409,425,-0.0292,-533.7085,6.8213,0.4212,54.900448,9.788502,108.3,5.845,1.85,335.95,54.900990,9.788602,54.895069,9.793790
1386835160,1,0,545.9,0,0,0,0,409,400,-0.0292,-533.7085,6.8213,0.4212,54.900433,9.788499,108.3,5.845,1.85,335.95,54.900990,9.788602,54.895069,9.793790
1386835160,1,0,545.9,0,0,4,0,409,425,-0.0292,-533.7085,6.8213,0.4212,54.900414,9.788496,108.3,5.845,1.85,335.95,54.900990,9.788602,54.895069,9.793790
1386835160,1,0,545.9,0,0,0,0,409,400,-0.0292,-533.7085,6.8213,0.4212,54.900394,9.788492,108.3,5.845,1.85,335.95,54.900990,9.788602,54.895069,9.793790
1386835160,1,0,545.9,0,0,4,0,409,425,-0.0292,-533.7085,6.8213,0.4212,54.900375,9.788488,108.3,5.845,1.85,335.95,54.900990,9.788602,54.895069,9.793790
1386835161,1,0,545.9,0,0,0,0,409,400,-0.0292,-533.7085,6.8213,0.4212,54.900360,9.788485,108.3,5.845,1.85,335.95,54.900990,9.788602,54.895069,9.793790
1386835161,1,0,545.9,0,0,4,0,409,425,-0.0292,-533.7085,6.8213,0.4212,54.900341,9.788481,108.3,5.845,1.85,335.95,54.900990,9.788602,54.895069,9.793790
1386835161,1,0,545.9,0,0,0,0,409,400,-0.0292,-533.7085,6.8213,0.4212,54.900322,9.788477,108.3,5.845,1.85,335.95,54.900990,9.788602,54.895069,9.793790
1386835161,1,0,545.9,0,0,4,0,409,425,-0.0292,-533.7085,6.8213,0.4212,54.900303,9.788473,108.3,5.845,1.85,335.95,54.900990,9.788602,54.895069,9.793790
1386835162,1,0,545.9,0,0,0,0,409,400,-0.0292,-533.7085,6.8213,0.4212,54.900288,9.788469,108.3,5.845,1.85,335.95,54.900990,9.788602,54.895069,9.793790
1386835162,1,0,545.9,0,0,4,0,409,425,-0.0292,-533.7085,6.8213,0.4212,54.900269,9.788466,108.3,5.845,1.85,335.95,54.900990,9.788602,54.895069,9.793790
1386835162,1,0,545.9,0,0,0,0,409,400,-0.0292,-533.7085,6.8213,0.4212,54.900249,9.788464,108.3,5.845,1.85,335.95,54.900990,9.788602,54.895069,9.793790
1386835162,1,0,545.9,0,0,4,0,409,425,-0.0292,-533.7085,6.8213,0.4212,54.900230,9.788461,108.3,5.845,1.85,335.95,54.900990,9.788602,54.895069,9.793790
1386835163,1,0,545.9,0,0,0,0,409,400,-0.0292,-533.7085,6.8213,0.4212,54.900215,9.788458,108.3,5.845,1.85,335.95,54.900990,9.788602,54.895069,9.793790
1386835163,1,0,545.9,0,0,4,0,409,425,-0.0292,-533.7085,6.8213,0.4212,54.900196,9.788455,108.3,5.845,1.85,335.95,54.900990,9.788602,54.895069,9.793790
1386835163,1,0,545.9,0,0,0,0,409,400,-0.0292,-533.7085,6.8213,0.4212,54.900177,9.788451,108.3,5.845,1.85,335.95,54.900990,9.788602,54.895069,9.793790
1386835164,1,0,545.9,0,0,4,0,409,425,-0.0292,-533.7085,6.8213,0.4212,54.900162,9.788447,108.3,5.845,1.85,335.95,54.900990,9.788602,54.895069,9.793790
1386835164,1,0,545.9,0,0,0,0,409,400,-0.0292,-533.7085,6.8213,0.4212,54.900143,9.788444,108.3,5.845,1.85,335.95,54.900990,9.788602,54.895069,9.793790
1386835164,1,0,545.9,0,0,4,0,409,425,-0.0292,-533.7085,6.8213,0.4212,54.900124,9.788440,108.3,5.845,1.85,335.95,54.900990,9.788602,54.895069,9.793790
1386835164,1,0,545.9,0,0,0,0,409,400,-0.0292,-533.7085,6.8213,0.4212,54.900105,9.788436,108.3,5.845,1.85,335.95,54.900990,9.788602,54.895069,9.793790
1386835165,1,0,545.9,0,0,4,0,409,425,-0.0292,-533.7085,6.8213,0.4212,54.900089,9.788432,108.3,5.845,1.85,335.95,54.900990,9.788602,54.895069,9.793790
1386835165,1,0,545.9,0,0,0,0,409,400,-0.0292,-533.7085,6.8213,0.4212,54.900070,9.788428,108.3,5.845,1.85,335.95,54.900990,9.788602,54.895069,9.793790
1386835165,1,0,545.9,0,0,4,0,409,425,-0.0292,-533.7085,6.8213,0.4212,54.900051,9.788425,108.3,5.845,1.85,335.95,54.900990,9.788602,54.895069,9.793790
1386835165,1,0,545.9,0,0,0,0,409,400,-0.0292,-533.7085,6.8213,0.4212,54.900032,9.788423,108.3,5.845,1.85,335.95,54.900990,9.788602,54.895069,9.793790
1386835166,1,0,545.9,0,0,4,0,409,425,-0.0292,-533.7085,6.8213,0.4212,54.900017,9.788420,108.3,5.845,1.85,335.95,54.900990,9.788602,54.895069,9.793790
1386835166,1,0,545.9,0,0,0,0,409,400,-0.0292,-533.7085,6.8213,0.4212,54.899998,9.788417,108.3,5.845,1.85,335.95,54.900990,9.788602,54.895069,9.793790
1386835166,1,0,545.9,0,0,4,0,409,425,-0.0292,-533.7085,6.8213,0.4212,54.899979,9.788414,108.3,5.845,1.85,335.95,54.900990,9.788602,54.895069,9.793790
1386835166,1,0,545.9,0,0,0,0,409,400,-0.0292,-533.7085,6.8213,0.4212,54.899960,9.788411,108.3,5.845,1.85,335.95,54.900990,9.788602,54.895069,9.793790
1386835167,1,0,545.9,0,0,4,0,409,425,-0.0292,-533.7085,6.8213,0.4212,54.899944,9.788407,108.3,5.845,1.85,335.95,54.900990,9.788602,54.895069,9.793790
1386835167,1,0,545.9,0,0,0,0,409,400,-0.0292,-533.7085,6.8213,0.4212,54.899925,9.788404,108.3,5.845,1.85,335.95,54.900990,9.788602,54.895069,9.793790
1386835167,1,0,545.9,0,0,4,0,409,425,-0.0292,-533.7085,6.8213,0.4212,54.899906,9.788400,108.3,5.845,1.85,335.95,54.900990,9.788602,54.895069,9.793790
1386835167,1,0,545.9,0,0,0,0,409,400,-0.0292,-533.7085,6.8213,0.4212,54.899891,9.788396,108.3,5.845,1.85,335.95,54.900990,9.788602,54.895069,9.793790
1386835168,1,0,545.9,0,0,4,0,409,425,-0.0292,-533.7085,6.8213,0.4212,54.899872,9.788392,108.3,5.845,1.85,335.95,54.900990,9.788602,54.895069,9.793790
1386835168,1,0,545.9,0,0,0,0,409,400,-0.0292,-533.7085,6.8213,0.4212,54.899853,9.788388,108.3,5.845,1.85,335.95,54.900990,9.788602,54.895069,9.793790
1386835168,1,0,545.9,0,0,4,0,409,425,-0.0292,-533.7085,6.8213,0.4212,54.899834,9.788384,108.3,5.845,1.85,335.95,54.900990,9.788602,54.895069,9.793790
1386835168,1,0,545.9,0,0,0,0,409,400,-0.0292,-533.7085,6.8213,0.4212,54.899818,9.788382,108.3,5.845,1.85,335.95,54.900990,9.788602,54.895069,9.793790
1386835169,1,0,545.9,0,0,4,0,409,425,-0.0292,-533.7085,6.8213,0.4212,54.899799,9.788379,108.3,5.845,1.85,335.95,54.900990,9.788602,54.895069,9.793790
1386835169,1,0,545.9,0,0,0,0,409,400,-0.0292,-533.7085,6.8213,0.4212,54.899780,9.788376,108.3,5.845,1.85,335.95,54.900990,9.788602,54.895069,9.793790
1386835169,1,0,545.9,0,0,4,0,409,425,-0.0292,-533.7085,6.8213,0.4212,54.899761,9.788373,108.3,5.845,1.85,335.95,54.900990,9.788602,54.895069,9.793790
1386835169,1,0,545.9,0,0,0,0,409,400,-0.0292,-533.7085,6.8213,0.4212,54.899746,9.788370,108.3,5.845,1.85,335.95,54.900990,9.788602,54.895069,9.793790
1386835170,1,0,545.9,0,0,4,0,409,425,-0.0292,-533.7085,6.8213,0.4212,54.899727,9.788367,108.3,5.845,1.85,335.95,54.900990,9.788602,54.895069,9.793790
1386835170,1,0,545.9,0,0,0,0,409,400,-0.0292,-533.7085,6.8213,0.4212,54.899708,9.788363,108.3,5.845,1.85,335.95,54.900990,9.788602,54.895069,9.793790
1386835170,1,0,545.9,0,0,4,0,409,425,-0.0292,-533.7085,6.8213,0.4212,54.899689,9.788360,108.3,5.845,1.85,335.95,54.900990,9.788602,54.895069,9.793790
1386835170,1,0,545.9,0,0,0,0,409,400,-0.0292,-533.7085,6.8213,0.4212,54.899673,9.788356,108.3,5.845,1.85,335.95,54.900990,9.788602,54.895069,9.793790
1386835171,1,0,545.9,0,0,4,0,409,425,-0.0292,-533.7085,6.8213,0.4212,54.899654,9.788352,108.3,5.845,1.85,335.95,54.900990,9.788602,54.895069,9.793790
1386835171,1,0,545.9,0,0,0,0,409,400,-0.0292,-533.7085,6.8213,0.4212,54.899635,9.788348,108.3,5.845,1.85,335.95,54.900990,9.788602,54.895069,9.793790
1386835171,1,0,545.9,0,0,4,0,409,425,-0.0292,-533.7085,6.8213,0.4212,54.899616,9.788344,108.3,5.845,1.85,335.95,54.900990,9.788602,54.895069,9.793790
1386835171,1,0,545.9,0,0,0,0,409,400,-0.0292,-533.7085,6.8213,0.4212,54.899601,9.788342,108.3,5.845,1.85,335.95,54.900990,9.788602,54.895069,9.793790
1386835172,1,0,545.9,0,0,4,0,409,425,-0.0292,-533.7085,6.8213,0.4212,54.899582,9.788339,108.3,5.845,1.85,335.95,54.900990,9.788602,54.895069,9.793790
1386835172,1,0,545.9,0,0,0,0,409,400,-0.0292,-533.7085,6.8213,0.4212,54.899563,9.788336,108.3,5.845,1.85,335.95,54.900990,9.788602,54.895069,9.793790
1386835172,1,0,545.9,0,0,4,0,409,425,-0.0292,-533.7085,6.8213,0.4212,54.899548,9.788333,108.3,5.845,1.85,335.95,54.900990,9.788602,54.895069,9.793790
1386835172,1,0,545.9,0,0,0,0,409,400,-0.0292,-533.7085,6.8213,0.4212,54.899529,9.788330,108.3,5.845,1.85,335.95,54.900990,9.788602,54.895069,9.793790
1386835173,1,0,545.9,0,0,4,0,409,425,-0.0292,-533.7085,6.8213,0.4212,54.899509,9.788327,108.3,5.845,1.85,335.95,54.900990,9.788602,54.895069,9.793790
1386835173,1,0,545.9,0,0,0,0,409,400,-0.0292,-533.7085,6.8213,0.4212,54.899490,9.788324,108.3,5.845,1.85,335.95,54.900990,9.788602,54.895069,9.793790
1386835173,1,0,545.9,0,0,4,0,409,425,-0.0292,-533.7085,6.8213,0.4212,54.899475,9.788321,108.3,5.845,1.85,335.95,54.900990,9.788602,54.895069,9.793790
1386835173,1,0,545.9,0,0,0,0,409,400,-0.0292,-533.7085,6.8213,0.4212,54.899456,9.788317,108.3,5.845,1.85,335.95,54.900990,9.788602,54.895069,9.793790
1386835174,1,0,545.9,0,0,4,0,409,425,-0.0292,-533.7085,6.8213,0.4212,54.899437,9.788313,108.3,5.845,1.85,335.95,54.900990,9.788602,54.895069,9.793790
1386835174,1,0,545.9,0,0,0,0,409,400,-0.0292,-533.7085,6.8213,0.4212,54.899418,9.788309,108.3,5.845,1.85,335.95,54.900990,9.788602,54.895069,9.793790
1386835174,1,0,545.9,0,0,4,0,409,425,-0.0292,-533.7085,6.8213,0.4212,54.899403,9.788305,108.3,5.845,1.85,335.95,54.900990,9.788602,54.895069,9.793790
1386835174,1,0,545.9,0,0,0,0,409,400,-0.0292,-533.7085,6.8213,0.4212,54.899384,9.788301,108.3,5.845,1.85,335.95,54.900990,9.788602,54.895069,9.793790
1386835175,1,0,545.9,0,0,4,0,409,425,-0.0292,-533.7085,6.8213,0.4212,54.899364,9.788299,108.3,5.845,1.85,335.95,54.900990,9.788602,54.895069,9.793790
1386835175,1,0,545.9,0,0,0,0,409,400,-0.0292,-533.7085,6.8213,0.4212,54.899345,9.788296,108.3,5.845,1.85,335.95,54.900990,9.788602,54.895069,9.793790
1386835175,1,0,545.9,0,0,4,0,409,425,-0.0292,-533.7085,6.8213,0.4212,54.899330,9.788293,108.3,5.845,1.85,335.95,54.900990,9.788602,54.895069,9.793790
1386835175,1,0,545.9,0,0,0,0,409,400,-0.0292,-533.7085,6.8213,0.4212,54.899311,9.788290,108.3,5.845,1.85,335.95,54.900990,9.788602,54.895069,9.793790
1386835176,1,0,545.9,0,0,4,0,409,425,-0.0292,-533.7085,6.8213,0.4212,54.899292,9.788287,108.3,5.845,1.85,335.95,54.900990,9.788602,54.895069,9.793790
1386835176,1,0,545.9,0,0,0,0,409,400,-0.0292,-533.7085,6.8213,0.4212,54.899277,9.788284,108.3,5.845,1.85,335.95,54.900990,9.788602,54.895069,9.793790
1386835176,1,0,545.9,0,0,4,0,409,425,-0.0292,-533.7085,6.8213,0.4212,54.899258,9.788281,108.3,5.845,1.85,335.95,54.900990,9.788602,54.895069,9.793790
1386835176,1,0,545.9,0,0,0,0,409,400,-0.0292,-533.7085,6.8213,0.4212,54.899239,9.788278,108.3,5.845,1.85,335.95,54.900990,9.788602,54.895069,9.793790
1386835177,1,0,545.9,0,0,4,0,409,425,-0.0292,-533.7085,6.8213,0.4212,54.899220,9.788274,108.3,5.845,1.85,335.95,54.900990,9.788602,54.895069,9.793790
1386835177,1,0,545.9,0,0,0,0,409,400,-0.0292,-533.7085,6.8213,0.4212,54.899204,9.788270,108.3,5.845,1.85,335.95,54.900990,9.788602,54.895069,9.793790
1386835177,1,0,545.9,0,0,4,0,409,425,-0.0292,-533.7085,6.8213,0.4212,54.899185,9.788266,108.3,5.845,1.85,335.95,54.900990,9.788602,54.895069,9.793790
1386835177,1,0,545.9,0,0,0,0,409,400,-0.0292,-533.7085,6.8213,0.4212,54.899166,9.788262,108.3,5.845,1.85,335.95,54.900990,9.788602,54.895069,9.793790
1386835178,1,0,545.9,0,0,4,0,409,425,-0.0292,-533.7085,6.8213,0.4212,54.899147,9.788259,108.3,5.845,1.85,335.95,54.900990,9.788602,54.895069,9.793790
1386835178,1,0,545.9,0,0,0,0,409,400,-0.0292,-533.7085,6.8213,0.4212,54.899132,9.788256,108.3,5.845,1.85,335.95,54.900990,9.788602,54.895069,9.793790
1386835178,1,0,545.9,0,0,4,0,409,425,-0.0292,-533.7085,6.8213,0.4212,54.899113,9.788253,108.3,5.845,1.85,335.95,54.900990,9.788602,54.895069,9.793790
1386835178,1,0,545.9,0,0,0,0,409,400,-0.0292,-533.7085,6.8213,0.4212,54.899094,9.788250,108.3,5.845,1.85,335.95,54.900990,9.788602,54.895069,9.793790
1386835179,1,0,545.9,0,0,4,0,409,425,-0.0292,-533.7085,6.8213,0.4212,54.899075,9.788247,108.3,5.845,1.85,335.95,54.900990,9.788602,54.895069,9.793790
1386835179,1,0,545.9,0,0,0,0,409,400,-0.0292,-533.7085,6.8213,0.4212,54.899059,9.788244,108.3,5.845,1.85,335.95,54.900990,9.788602,54.895069,9.793790
1386835179,1,0,545.9,0,0,4,0,409,425,-0.0292,-533.7085,6.8213,0.4212,54.899040,9.788241,108.3,5.845,1.85,335.95,54.900990,9.788602,54.895069,9.793790
1386835179,1,0,545.9,0,0,0,0,409,400,-0.0292,-533.7085,6.8213,0.4212,54.899021,9.788239,108.3,5.845,1.85,335.95,54.900990,9.788602,54.895069,9.793790
1386835180,1,0,545.9,0,0,4,0,409,425,-0.0292,-533.7085,6.8213,0.4212,54.899006,9.788235,108.3,5.845,1.85,335.95,54.900990,9.788602,54.895069,9.793790
1386835180,1,0,545.9,0,0,0,0,409,400,-0.0292,-533.7085,6.8213,0.4212,54.898987,9.788231,108.3,5.845,1.85,335.95,54.900990,9.788602,54.895069,9.793790
1386835180,1,0,545.9,0,0,4,0,409,425,-0.0292,-533.7085,6.8213,0.4212,54.898968,9.788227,108.3,5.845,1.85,335.95,54.900990,9.788602,54.895069,9.793790
1386835180,1,0,545.9,0,0,0,0,409,400,-0.0292,-533.7085,6.8213,0.4212,54.898949,9.788223,108.3,5.845,1.85,335.95,54.900990,9.788602,54.895069,9.793790
1386835181,1,0,545.9,0,0,4,0,409,425,-0.0292,-533.7085,6.8213,0.4212,54.898933,9.788219,108.3,5.845,1.85,335.95,54.900990,9.788602,54.895069,9.793790
1386835181,1,0,545.9,0,0,0,0,409,400,-0.0292,-533.7085,6.8213,0.4212,54.898914,9.788216,108.3,5.845,1.85,335.95,54.900990,9.788602,54.895069,9.793790
1386835181,1,0,545.9,0,0,4,0,409,425,-0.0292,-533.7085,6.8213,0.4212,54.898895,9.788213,108.3,5.845,1.85,335.95,54.900990,9.788602,54.895069,9.793790
1386835181,1,0,545.9,0,0,0,0,409,400,-0.0292,-533.7085,6.8213,0.4212,54.898876,9.788210,108.3,5.845,1.85,335.95,54.900990,9.788602,54.895069,9.793790
1386835182,1,0,545.9,0,0,4,0,409,425,-0.0292,-533.7085,6.8213,0.4212,54.898861,9.788207,108.3,5.845,1.85,335.95,54.900990,9.788602,54.895069,9.793790
1386835182,1,0,545.9,0,0,0,0,409,400,-0.0292,-533.7085,6.8213,0.4212,54.898842,9.788204,108.3,5.845,1.85,335.95,54.900990,9.788602,54.895069,9.793790
1386835182,1,0,545.9,0,0,4,0,409,425,-0.0292,-533.7085,6.8213,0.4212,54.898823,9.788201,108.3,5.845,1.85,335.95,54.900990,9.788602,54.895069,9.793790
1386835182,1,0,545.9,0,0,0,0,409,400,-0.0292,-533.7085,6.8213,0.4212,54.898804,9.788198,108.3,5.845,1.85,335.95,54.900990,9.788602,54.895069,9.793790
1386835183,1,0,545.9,0,0,4,0,409,425,-0.0292,-533.7085,6.8213,0.4212,54.898788,9.788196,108.3,5.845,1.85,335.95,54.900990,9.788602,54.895069,9.793790
1386835183,1,0,545.9,0,0,0,0,409,400,-0.0292,-533.7085,6.8213,0.4212,54.898769,9.788192,108.3,5.845,1.85,335.95,54.900990,9.788602,54.895069,9.793790
1386835183,1,0,545.9,0,0,4,0,409,425,-0.0292,-533.7085,6.8213,0.4212,54.898750,9.788188,108.3,5.845,1.85,335.95,54.900990,9.788602,54.895069,9.793790
1386835183,1,0,545.9,0,0,0,0,409,400,-0.0292,-533.7085,6.8213,0.4212,54.898735,9.788184,108.3,5.845,1.85,335.95,54.900990,9.788602,54.895069,9.793790
1386835184,1,0,545.9,0,0,4,0,409,425,-0.0292,-533.7085,6.8213,0.4212,54.898716,9.788180,108.3,5.845,1.85,335.95,54.900990,9.788602,54.895069,9.793790
1386835184,1,0,545.9,0,0,0,0,409,400,-0.0292,-533.7085,6.8213,0.4212,54.898697,9.788177,108.3,5.845,1.85,335.95,54.900990,9.788602,54.895069,9.793790
1386835184,1,0,545.9,0,0,4,0,409,425,-0.0292,-533.7085,6.8213,0.4212,54.898678,9.788173,108.3,5.845,1.85,335.95,54.900990,9.788602,54.895069,9.793790
1386835184,1,0,545.9,0,0,0,0,409,400,-0.0292,-533.7085,6.8213,0.4212,54.898663,9.788170,108.3,5.845,1.85,335.95,54.900990,9.788602,54.895069,9.793790
1386835185,1,0,545.9,0,0,4,0,409,425,-0.0292,-533.7085,6.8213,0.4212,54.898643,9.788167,108.3,5.845,1.85,335.95,54.900990,9.788602,54.895069,9.793790
1386835185,1,0,545.9,0,0,0,0,409,400,-0.0292,-533.7085,6.8213,0.4212,54.898624,9.788164,108.3,5.845,1.85,335.95,54.900990,9.788602,54.895069,9.793790
1386835185,1,0,545.9,0,0,4,0,409,425,-0.0292,-533.7085,6.8213,0.4212,54.898605,9.788161,108.3,5.845,1.85,335.95,54.900990,9.788602,54.895069,9.793790
1386835185,1,0,545.9,0,0,0,0,409,400,-0.0292,-533.7085,6.8213,0.4212,54.898590,9.788158,108.3,5.845,1.85,335.95,54.900990,9.788602,54.895069,9.793790
1386835186,1,0,545.9,0,0,4,0,409,425,-0.0292,-533.7085,6.8213,0.4212,54.898571,9.788156,108.3,5.845,1.85,335.95,54.900990,9.788602,54.895069,9.793790
1386835186,1,0,545.9,0,0,0,0,409,400,-0.0292,-533.7085,6.8213,0.4212,54.898552,9.788153,108.3,5.845,1.85,335.95,54.900990,9.788602,54.895069,9.793790
1386835186,1,0,545.9,0,0,4,0,409,425,-0.0292,-533.7085,6.8213,0.4212,54.898533,9.788149,108.3,5.845,1.85,335.95,54.900990,9.788602,54.895069,9.793790
1386835186,1,0,545.9,0,0,0,0,409,400,-0.0292,-533.7085,6.8213,0.4212,54.898518,9.788145,108.3,5.845,1.85,335.95,54.900990,9.788602,54.895069,9.793790
1386835187,1,0,545.9,0,0,4,0,409,425,-0.0292,-533.7085,6.8213,0.4212,54.898499,9.788141,108.3,5.845,1.85,335.95,54.900990,9.788602,54.895069,9.793790
1386835187,1,0,545.9,0,0,0,0,409,400,-0.0292,-533.7085,6.8213,0.4212,54.898479,9.788137,108.3,5.845,1.85,335.95,54.900990,9.788602,54.895069,9.793790
1386835187,1,0,545.9,0,0,4,0,409,425,-0.0292,-533.7085,6.8213,0.4212,54.898464,9.788134,108.3,5.845,1.85,335.95,54.900990,9.788602,54.895069,9.793790
1386835187,1,0,545.9,0,0,0,0,409,400,-0.0292,-533.7085,6.8213,0.4212,54.898445,9.788130,108.3,5.845,1.85,335.95,54.900990,9.788602,54.895069,9.793790
1386835188,1,0,545.9,0,0,4,0,409,425,-0.0292,-533.7085,6.8213,0.4212,54.898426,9.788127,108.3,5.845,1.85,335.95,54.900990,9.788602,54.895069,9.793790
1386835188,1,0,545.9,0,0,0,0,409,400,-0.0292,-533.7085,6.8213,0.4212,54.898407,9.788124,108.3,5.845,1.85,335.95,54.900990,9.788602,54.895069,9.793790
1386835188,1,0,545.9,0,0,4,0,409,425,-0.0292,-533.7085,6.8213,0.4212,54.898392,9.788121,108.3,5.845,1.85,335.95,54.900990,9.788602,54.895069,9.793790
1386835188,1,0,545.9,0,0,0,0,409,400,-0.0292,-533.7085,6.8213,0.4212,54.898373,9.788118,108.3,5.845,1.85,335.95,54.900990,9.788602,54.895069,9.793790
1386835189,1,0,545.9,0,0,4,0,409,425,-0.0292,-533.7085,6.8213,0.4212,54.898354,9.788116,108.3,5.845,1.85,335.95,54.900990,9.788602,54.895069,9.793790
1386835189,1,0,545.9,0,0,0,0,409,400,-0.0292,-533.7085,6.8213,0.4212,54.898335,9.788113,108.3,5.845,1.85,335.95,54.900990,9.788602,54.895069,9.793790
1386835189,1,0,545.9,0,0,4,0,409,425,-0.0292,-533.7085,6.8213,0.4212,54.898319,9.788110,108.3,5.845,1.85,335.95,54.900990,9.788602,54.895069,9.793790
1386835189,1,0,545.9,0,0,0,0,409,400,-0.0292,-533.7085,6.8213,0.4212,54.898300,9.788106,108.3,5.845,1.85,335.95,54.900990,9.788602,54.895069,9.793790
1386835190,1,0,545.9,0,0,4,0,409,425,-0.0292,-533.7085,6.8213,0.4212,54.898281,9.788102,108.3,5.845,1.85,335.95,54.900990,9.788602,54.895069,9.793790
1386835190,1,0,545.9,0,0,0,0,409,400,-0.0292,-533.7085,6.8213,0.4212,54.898262,9.788098,108.3,5.845,1.85,335.95,54.900990,9.788602,54.895069,9.793790
1386835190,1,0,545.9,0,0,4,0,409,425,-0.0292,-533.7085,6.8213,0.4212,54.898247,9.788095,108.3,5.845,1.85,335.95,54.900990,9.788602,54.895069,9.793790
1386835190,1,0,545.9,0,0,0,0,409,400,-0.0292,-533.7085,6.8213,0.4212,54.898228,9.788091,108.3,5.845,1.85,335.95,54.900990,9.788602,54.895069,9.793790
1386835191,1,0,545.9,0,0,4,0,409,425,-0.0292,-533.7085,6.8213,0.4212,54.898209,9.788087,108.3,5.845,1.85,335.95,54.900990,9.788602,54.895069,9.793790
1386835191,1,0,545.9,0,0,0,0,409,400,-0.0292,-533.7085,6.8213,0.4212,54.898190,9.788084,108.3,5.845,1.85,335.95,54.900990,9.788602,54.895069,9.793790
1386835191,1,0,545.9,0,0,4,0,409,425,-0.0292,-533.7085,6.8213,0.4212,54.898174,9.788081,108.3,5.845,1.85,335.95,54.900990,9.788602,54.895069,9.793790
1386835191,1,0,545.9,0,0,0,0,409,400,-0.0292,-533.7085,6.8213,0.4212,54.898155,9.788078,108.3,5.845,1.85,335.95,54.900990,9.788602,54.895069,9.793790
1386835192,1,0,545.9,0,0,4,0,409,425,-0.0292,-533.7085,6.8213,0.4212,54.898136,9.788075,108.3,5.845,1.85,335.95,54.900990,9.788602,54.895069,9.793790
1386835192,1,0,545.9,0,0,0,0,409,400,-0.0292,-533.7085,6.8213,0.4212,54.898121,9.788073,108.3,5.845,1.85,335.95,54.900990,9.788602,54.895069,9.793790
1386835192,1,0,545.9,0,0,4,0,409,425,-0.0292,-533.7085,6.8213,0.4212,54.898102,9.788070,108.3,5.845,1.85,335.95,54.900990,9.788602,54.895069,9.793790
1386835192,1,0,545.9,0,0,0,0,409,400,-0.0292,-533.7085,6.8213,0.4212,54.898083,9.788067,108.3,5.845,1.85,335.95,54.900990,9.788602,54.895069,9.793790
1386835193,1,0,545.9,0,0,4,0,409,425,-0.0292,-533.7085,6.8213,0.4212,54.898064,9.788063,108.3,5.845,1.85,335.95,54.900990,9.788602,54.895069,9.793790
1386835193,1,0,545.9,0,0,0,0,409,400,-0.0292,-533.7085,6.8213,0.4212,54.898048,9.788059,108.3,5.845,1.85,335.95,54.900990,9.788602,54.895069,9.793790
1386835193,1,0,545.9,0,0,4,0,409,425,-0.0292,-533.7085,6.8213,0.4212,54.898029,9.788055,108.3,5.845,1.85,335.95,54.900990,9.788602,54.895069,9.793790
1386835193,1,0,545.9,0,0,0,0,409,400,-0.0292,-533.7085,6.8213,0.4212,54.898010,9.788052,108.3,5.845,1.85,335.95,54.900990,9.788602,54.895069,9.793790
1386835194,1,0,545.9,0,0,4,0,409,425,-0.0292,-533.7085,6.8213,0.4212,54.897991,9.788048,108.3,5.845,1.85,335.95,54.900990,9.788602,54.895069,9.793790
1386835194,1,0,545.9,0,0,0,0,409,400,-0.0292,-533.7085,6.8213,0.4212,54.897976,9.788044,108.3,5.845,1.85,335.95,54.900990,9.788602,54.895069,9.793790
1386835194,1,0,545.9,0,0,4,0,409,425,-0.0292,-533.7085,6.8213,0.4212,54.897957,9.788041,108.3,5.845,1.85,335.95,54.900990,9.788602,54.895069,9.793790
1386835194,1,0,545.9,0,0,0,0,409,400,-0.0292,-533.7085,6.8213,0.4212,54.897938,9.788038,108.3,5.845,1.85,335.95,54.900990,9.788602,54.895069,9.793790
1386835195,1,0,545.9,0,0,4,0,409,425,-0.0292,-533.7085,6.8213,0.4212,54.897919,9.788035,108.3,5.845,1.85,335.95,54.900990,9.788602,54.895069,9.793790
1386835195,1,0,545.9,0,0,0,0,409,400,-0.0292,-533.7085,6.8213,0.4212,54.897903,9.788033,108.3,5.845,1.85,335.95,54.900990,9.788602,54.895069,9.793790
1386835195,1,0,545.9,0,0,4,0,409,425,-0.0292,-533.7085,6.8213,0.4212,54.897884,9.788030,108.3,5.845,1.85,335.95,54.900990,9.788602,54.895069,9.793790
1386835195,1,0,545.9,0,0,0,0,409,400,-0.0292,-533.7085,6.8213,0.4212,54.897865,9.788027,108.3,5.845,1.85,335.95,54.900990,9.788602,54.895069,9.793790
1386835196,1,0,545.9,0,0,4,0,409,425,-0.0292,-533.7085,6.8213,0.4212,54.897850,9.788024,108.3,5.845,1.85,335.95,54.900990,9.788602,54.895069,9.793790
1386835196,1,0,545.9,0,0,0,0,409,400,-0.0292,-533.7085,6.8213,0.4212,54.897831,9.788020,108.3,5.845,1.85,335.95,54.900990,9.788602,54.895069,9.793790
1386835196,1,0,545.9,0,0,4,0,409,425,-0.0292,-533.7085,6.8213,0.4212,54.897812,9.788016,108.3,5.845,1.85,335.95,54.900990,9.788602,54.895069,9.793790
1386835196,1,0,545.9,0,0,0,0,409,400,-0.0292,-533.7085,6.8213,0.4212,54.897793,9.788013,108.3,5.845,1.85,335.95,54.900990,9.788602,54.895069,9.793790
1386835197,1,0,545.9,0,0,4,0,409,425,-0.0292,-533.7085,6.8213,0.4212,54.897778,9.788009,108.3,5.845,1.85,335.95,54.900990,9.788602,54.895069,9.793790
1386835197,1,0,545.9,0,0,0,0,409,400,-0.0292,-533.7085,6.8213,0.4212,54.897758,9.788005,108.3,5.845,1.85,335.95,54.900990,9.788602,54.895069,9.793790
1386835197,1,0,545.9,0,0,4,0,409,425,-0.0292,-533.7085,6.8213,0.4212,54.897739,9.788001,108.3,5.845,1.85,335.95,54.900990,9.788602,54.895069,9.793790
1386835197,1,0,545.9,0,0,0,0,409,400,-0.0292,-533.7085,6.8213,0.4212,54.897720,9.787998,108.3,5.845,1.85,335.95,54.900990,9.788602,54.895069,9.793790
1386835198,1,0,545.9,0,0,4,0,409,425,-0.0292,-533.7085,6.8213,0.4212,54.897705,9.787995,108.3,5.845,1.85,335.95,54.900990,9.788602,54.895069,9.793790
1386835198,1,0,545.9,0,0,0,0,409,400,-0.0292,-533.7085,6.8213,0.4212,54.897686,9.787992,108.3,5.845,1.85,335.95,54.900990,9.788602,54.895069,9.793790
1386835198,1,0,545.9,0,0,4,0,409,425,-0.0292,-533.7085,6.8213,0.4212,54.897667,9.787990,108.3,5.845,1.85,335.95,54.900990,9.788602,54.895069,9.793790
1386835198,1,0,545.9,0,0,0,0,409,400,-0.0292,-533.7085,6.8213,0.4212,54.897648,9.787987,108.3,5.845,1.85,335.95,54.900990,9.788602,54.895069,9.793790
1386835199,1,0,545.9,0,0,4,0,409,425,-0.0292,-533.7085,6.8213,0.4212,54.897633,9.787984,108.3,5.845,1.85,335.95,54.900990,9.788602,54.895069,9.793790
1386835199,1,0,545.9,0,0,0,0,409,400,-0.0292,-533.7085,6.8213,0.4212,54.897614,9.787981,108.3,5.845,1.85,335.95,54.900990,9.788602,54.895069,9.793790
1386835199,1,0,545.9,0,0,4,0,409,425,-0.0292,-533.7085,6.8213,0.4212,54.897594,9.787977,108.3,5.845,1.85,335.95,54.900990,9.788602,54.895069,9.793790
1386835199,1,0,545.9,0,0,0,0,409,400,-0.0292,-533.7085,6.8213,0.4212,54.897579,9.787973,108.3,5.845,1.85,335.95,54.900990,9.788602,54.895069,9.793790
1386835200,1,0,545.9,0,0,4,0,409,425,-0.0292,-533.7085,6.8213,0.4212,54.897560,9.787970,108.3,5.845,1.85,335.95,54.900990,9.788602,54.895069,9.793790
1386835200,1,0,545.9,0,0,0,0,409,400,-0.0292,-533.7085,6.8213,0.4212,54.897541,9.787966,108.3,5.845,1.85,335.95,54.900990,9.788602,54.895069,9.793790
1386835200,1,0,545.9,0,0,4,0,409,425,-0.0292,-533.7085,6.8213,0.4212,54.897522,9.787962,108.3,5.845,1.85,335.95,54.900990,9.788602,54.895069,9.793790
1386835200,1,0,545.9,0,0,0,0,409,400,-0.0292,-533.7085,6.8213,0.4212,54.897507,9.787958,108.3,5.845,1.85,335.95,54.900990,9.788602,54.895069,9.793790
1386835201,1,0,482.9,0,35,4,0,409,425,-0.0292,-543.0418,6.8213,0.4212,54.897488,9.787960,108.3,5.845,1.85,335.95,54.900990,9.788602,54.895069,9.793790
1386835201,1,0,515.9,0,21,8,0,409,400,-0.0292,-548.6418,6.8213,0.4212,54.897469,9.787964,108.3,5.845,1.85,335.95,54.900990,9.788602,54.895069,9.793790
1386835201,1,0,549.0,0,-18,4,0,409,425,-0.0292,-543.8418,6.8213,0.4212,54.897449,9.787966,108.3,5.845,1.85,335.95,54.900990,9.788602,54.895069,9.793790
1386835202,1,0,549.0,0,-13,0,0,409,400,-0.0292,-540.3751,6.8213,0.4212,54.897434,9.787966,108.3,5.845,1.85,335.95,54.900990,9.788602,54.895069,9.793790
1386835202,1,0,549.0,0,-9,-4,0,409,425,-0.0292,-537.9751,6.8213,0.4212,54.897415,9.787965,108.3,5.845,1.85,335.95,54.900990,9.788602,54.895069,9.793790
1386835202,1,0,482.9,0,35,0,0,0,400,-0.0292,-547.3084,6.8213,0.4212,54.897396,9.787969,108.3,5.845,1.85,335.95,54.900990,9.788602,54.895069,9.793790
1386835202,1,0,515.9,0,17,4,0,0,375,-0.0292,-551.8417,6.8213,0.4212,54.897381,9.787974,108.3,5.845,1.85,335.95,54.900990,9.788602,54.895069,9.793790
1386835203,1,0,605.9,0,-35,0,0,0,350,-0.0292,-542.5084,6.8213,0.4212,54.897362,9.787975,108.3,5.845,1.85,335.95,54.900990,9.788602,54.895069,9.793790
1386835203,1,0,515.9,0,22,4,0,0,325,-0.0292,-548.3751,6.8213,0.4212,54.897343,9.787980,108.3,5.845,1.85,335.95,54.900990,9.788602,54.895069,9.793790
1386835203,1,0,482.8,0,35,8,0,0,300,-0.0292,-557.7084,6.8213,0.4212,54.897324,9.787990,108.3,5.845,1.85,335.95,54.900990,9.788602,54.895069,9.793790
1386835203,1,0,605.9,0,-35,4,0,0,275,-0.0292,-548.3751,6.8213,0.4212,54.897308,9.787994,108.3,5.845,1.85,335.95,54.900990,9.788602,54.895069,9.793790
1386835204,1,0,549.2,0,-18,0,0,0,250,-0.0292,-543.5751,6.8213,0.4212,54.897289,9.787996,108.3,5.845,1.85,335.95,54.900990,9.788602,54.895069,9.793790
1386835204,1,0,549.2,0,-13,-4,0,0,225,-0.0292,-540.1084,6.8213,0.4212,54.897270,9.787996,108.3,5.845,1.85,335.95,54.900990,9.788602,54.895069,9.793790
1386835204,1,0,549.2,0,-9,-8,0,0,200,-0.0292,-537.7084,6.8213,0.4212,54.897251,9.787995,108.3,5.845,1.85,335.95,54.900990,9.788602,54.895069,9.793790
1386835204,1,0,482.7,0,35,-4,0,0,175,-0.0292,-547.0417,6.8213,0.4212,54.897236,9.787999,108.3,5.845,1.85,335.95,54.900990,9.788602,54.895069,9.793790
1386835205,1,0,515.9,0,17,0,0,0,150,-0.0292,-551.5750,6.8213,0.4212,54.897217,9.788006,108.3,5.845,1.85,335.95,54.900990,9.788602,54.895069,9.793790
1386835205,1,0,515.9,0,12,4,0,0,125,-0.0292,-554.7750,6.8213,0.4212,54.897198,9.788013,108.3,5.845,1.85,335.95,54.900990,9.788602,54.895069,9.793790
1386835205,1,0,515.9,0,9,8,0,0,100,-0.0292,-557.1750,6.8213,0.4212,54.897182,9.788022,108.3,5.845,1.85,335.95,54.900990,9.788602,54.895069,9.793790
1386835205,1,0,515.9,0,7,4,0,0,75,-0.0292,-559.0417,6.8213,0.4212,54.897167,9.788033,108.3,5.845,1.85,335.95,54.900990,9.788602,54.895069,9.793790
1386835206,1,0,482.6,0,35,8,0,0,50,-0.0292,-568.3750,6.8213,0.4212,54.897152,9.788048,108.3,5.845,1.85,335.95,54.900990,9.788602,54.895069,9.793790
1386835206,1,0,482.5,0,29,12,0,0,25,-0.0292,-576.1083,6.8213,0.4212,54.897137,9.788066,108.3,5.845,1.85,335.95,54.900990,9.788602,54.895069,9.793790
1386835206,1,0,605.9,0,-35,8,0,0,0,-0.0292,-566.7750,6.8213,0.4212,54.897118,9.788080,108.3,5.845,1.85,335.95,54.900990,9.788602,54.895069,9.793790
1386835206,1,0,482.4,0,31,12,0,0,25,-0.0292,-575.0417,6.8213,0.4212,54.897102,9.788098,108.3,5.845,1.85,335.95,54.900990,9.788602,54.895069,9.793790
1386835207,1,0,515.9,0,-11,8,0,0,0,-0.0292,-572.1083,6.8213,0.4212,54.897087,9.788115,108.3,5.845,1.85,335.95,54.900990,9.788602,54.895069,9.793790
1386835207,1,0,515.9,0,-8,4,0,0,25,-0.0292,-569.9750,6.8213,0.4212,54.897068,9.788130,108.3,5.845,1.85,335.95,54.900990,9.788602,54.895069,9.793790
1386835207,1,0,485.9,0,24,8,0,0,0,-0.0292,-576.3750,6.8213,0.4212,54.897053,9.788149,108.3,5.845,1.85,335.95,54.900990,9.788602,54.895069,9.793790
1386835207,1,0,485.9,0,18,12,0,0,25,-0.0292,-581.1750,6.8213,0.4212,54.897041,9.788169,108.3,5.845,1.85,335.95,54.900990,9.788602,54.895069,9.793790
1386835208,1,0,485.9,0,13,16,0,0,0,-0.0292,-584.6417,6.8213,0.4212,54.897026,9.788191,108.3,5.845,1.85,335.95,54.900990,9.788602,54.895069,9.793790
1386835208,1,0,485.9,0,9,12,0,0,25,-0.0292,-587.0417,6.8213,0.4212,54.897015,9.788214,108.3,5.845,1.85,335.95,54.900990,9.788602,54.895069,9.793790
1386835208,1,0,485.9,0,7,8,0,409,50,-0.0292,-588.9083,6.8213,0.4212,54.896999,9.788238,108.3,5.845,1.85,335.95,54.900990,9.788602,54.895069,9.793790
1386835208,1,0,485.9,0,5,4,0,409,75,-0.0292,-590.2416,6.8213,0.4212,54.896988,9.788261,108.3,5.845,1.85,335.95,54.900990,9.788602,54.895069,9.793790
1386835209,1,0,485.9,0,4,8,0,409,100,-0.0292,-591.3083,6.8213,0.4212,54.896973,9.788285,108.3,5.845,1.85,335.95,54.900990,9.788602,54.895069,9.793790
1386835209,1,0,485.9,0,3,4,0,409,125,-0.0292,-592.1083,6.8213,0.4212,54.896961,9.788310,108.3,5.845,1.85,335.95,54.900990,9.788602,54.895069,9.793790
1386835209,1,0,485.9,0,2,0,0,409,150,-0.0292,-592.6416,6.8213,0.4212,54.896954,9.788335,108.3,5.845,1.85,335.95,54.900990,9.788602,54.895069,9.793790
1386835209,1,0,485.9,0,1,4,0,409,175,-0.0292,-592.9083,6.8213,0.4212,54.896942,9.788360,108.3,5.845,1.85,335.95,54.900990,9.788602,54.895069,9.793790
1386835210,1,0,485.9,0,1,0,0,409,200,-0.0292,-593.1749,6.8213,0.4212,54.896931,9.788384,108.3,5.845,1.85,335.95,54.900990,9.788602,54.895069,9.793790
1386835210,1,0,485.9,0,1,4,0,409,225,-0.0292,-593.4416,6.8213,0.4212,54.896919,9.788410,108.3,5.845,1.85,335.95,54.900990,9.788602,54.895069,9.793790
1386835210,1,0,485.9,0,1,0,0,409,250,-0.0292,-593.7083,6.8213,0.4212,54.896908,9.788435,108.3,5.845,1.85,335.95,54.900990,9.788602,54.895069,9.793790
1386835210,1,0,485.9,0,0,4,0,409,275,-0.0292,-593.7083,6.8213,0.4212,54.896900,9.788460,108.3,5.845,1.85,335.95,54.900990,9.788602,54.895069,9.793790
1386835211,1,0,485.9,0,0,0,0,409,300,-0.0292,-593.7083,6.8213,0.4212,54.896889,9.788486,108.3,5.845,1.85,335.95,54.900990,9.788602,54.895069,9.793790
1386835211,1,0,485.9,0,0,4,0,409,325,-0.0292,-593.7083,6.8213,0.4212,54.896881,9.788510,108.3,5.845,1.85,335.95,54.900990,9.788602,54.895069,9.793790
1386835211,1,0,485.8,0,0,0,0,409,350,-0.0292,-593.7083,6.8213,0.4212,54.896870,9.788536,108.3,5.845,1.85,335.95,54.900990,9.788602,54.895069,9.793790
1386835211,1,0,480.6,0,6,4,0,409,375,-0.0292,-595.3082,6.8213,0.4212,54.896858,9.788562,108.3,5.845,1.85,335.95,54.900990,9.788602,54.895069,9.793790
1386835212,1,0,480.6,0,4,8,0,409,400,-0.0292,-596.3749,6.8213,0.4212,54.896851,9.788588,108.3,5.845,1.85,335.95,54.900990,9.788602,54.895069,9.793790
1386835212,1,0,480.6,0,3,4,0,409,425,-0.0292,-597.1749,6.8213,0.4212,54.896839,9.788614,108.3,5.845,1.85,335.95,54.900990,9.788602,54.895069,9.793790
1386835212,1,0,480.6,0,2,0,0,409,400,-0.0292,-597.7082,6.8213,0.4212,54.896832,9.788640,108.3,5.845,1.85,335.95,54.900990,9.788602,54.895069,9.793790
1386835212,1,0,480.6,0,2,4,0,409,425,-0.0292,-598.2415,6.8213,0.4212,54.896824,9.788667,108.3,5.845,1.85,335.95,54.900990,9.788602,54.895069,9.793790
1386835213,1,0,480.6,0,1,0,0,409,400,-0.0292,-598.5082,6.8213,0.4212,54.896812,9.788693,108.3,5.845,1.85,335.95,54.900990,9.788602,54.895069,9.793790
1386835213,1,0,480.6,0,1,4,0,409,425,-0.0292,-598.7748,6.8213,0.4212,54.896805,9.788720,108.3,5.845,1.85,335.95,54.900990,9.788602,54.895069,9.793790
1386835213,1,0,480.6,0,1,0,0,409,400,-0.0292,-599.0415,6.8213,0.4212,54.896797,9.788747,108.3,5.845,1.85,335.95,54.900990,9.788602,54.895069,9.793790
1386835213,1,0,480.6,0,0,4,0,409,425,-0.0292,-599.0415,6.8213,0.4212,54.896786,9.788774,108.3,5.845,1.85,335.95,54.900990,9.788602,54.895069,9.793790
1386835214,1,0,480.6,0,0,0,0,409,400,-0.0292,-599.0415,6.8213,0.4212,54.896778,9.788800,108.3,5.845,1.85,335.95,54.900990,9.788602,54.895069,9.793790
1386835214,1,0,480.6,0,0,4,0,409,425,-0.0292,-599.0415,6.8213,0.4212,54.896770,9.788827,108.3,5.845,1.85,335.95,54.900990,9.788602,54.895069,9.793790
1386835214,1,0,480.6,0,0,0,0,409,400,-0.0292,-599.0415,6.8213,0.4212,54.896759,9.788854,108.3,5.845,1.85,335.95,54.900990,9.788602,54.895069,9.793790
1386835214,1,0,480.6,0,0,4,0,409,425,-0.0292,-599.0415,6.8213,0.4212,54.896751,9.788880,108.3,5.845,1.85,335.95,54.900990,9.788602,54.895069,9.793790
1386835215,1,0,480.6,0,0,0,0,409,400,-0.0292,-599.0415,6.8213,0.4212,54.896740,9.788907,108.3,5.845,1.85,335.95,54.900990,9.788602,54.895069,9.793790
1386835215,1,0,480.6,0,0,4,0,409,425,-0.0292,-599.0415,6.8213,0.4212,54.896732,9.788934,108.3,5.845,1.85,335.95,54.900990,9.788602,54.895069,9.793790
1386835215,1,0,480.6,0,0,0,0,409,400,-0.0292,-599.0415,6.8213,0.4212,54.896725,9.788960,108.3,5.845,1.85,335.95,54.900990,9.788602,54.895069,9.793790
1386835215,1,0,480.6,0,0,4,0,409,425,-0.0292,-599.0415,6.8213,0.4212,54.896713,9.788987,108.3,5.845,1.85,335.95,54.900990,9.788602,54.895069,9.793790
1386835216,1,0,480.6,0,0,0,0,409,400,-0.0292,-599.0415,6.8213,0.4212,54.896706,9.789015,108.3,5.845,1.85,335.95,54.900990,9.788602,54.895069,9.793790
1386835216,1,0,480.6,0,0,4,0,409,425,-0.0292,-599.0415,6.8213,0.4212,54.896698,9.789042,108.3,5.845,1.85,335.95,54.900990,9.788602,54.895069,9.793790
1386835216,1,0,480.7,0,0,0,0,409,400,-0.0292,-599.0415,6.8213,0.4212,54.896687,9.789068,108.3,5.845,1.85,335.95,54.900990,9.788602,54.895069,9.793790
1386835216,1,0,480.6,0,0,4,0,409,425,-0.0292,-599.0415,6.8213,0.4212,54.896679,9.789095,108.3,5.845,1.85,335.95,54.900990,9.788602,54.895069,9.793790
1386835217,1,0,480.7,0,0,0,0,409,400,-0.0292,-599.0415,6.8213,0.4212,54.896671,9.789122,108.3,5.845,1.85,335.95,54.900990,9.788602,54.895069,9.793790
1386835217,1,0,480.7,0,0,4,0,409,425,-0.0292,-599.0415,6.8213,0.4212,54.896660,9.789148,108.3,5.845,1.85,335.95,54.900990,9.788602,54.895069,9.793790
1386835217,1,0,480.6,0,0,0,0,409,400,-0.0292,-599.0415,6.8213,0.4212,54.896652,9.789175,108.3,5.845,1.85,335.95,54.900990,9.788602,54.895069,9.793790
1386835217,1,0,480.7,0,0,4,0,409,425,-0.0292,-599.0415,6.8213,0.4212,54.896641,9.789202,108.3,5.845,1.85,335.95,54.900990,9.788602,54.895069,9.793790
1386835218,1,0,480.6,0,0,0,0,409,400,-0.0292,-599.0415,6.8213,0.4212,54.896633,9.789229,108.3,5.845,1.85,335.95,54.900990,9.788602,54.895069,9.793790
1386835218,1,0,480.7,0,0,4,0,409,425,-0.0292,-599.0415,6.8213,0.4212,54.896626,9.789256,108.3,5.845,1.85,335.95,54.900990,9.788602,54.895069,9.793790
1386835218,1,0,480.7,0,0,0,0,409,400,-0.0292,-599.0415,6.8213,0.4212,54.896614,9.789283,108.3,5.845,1.85,335.95,54.900990,9.788602,54.895069,9.793790
1386835218,1,0,480.6,0,0,4,0,409,425,-0.0292,-599.0415,6.8213,0.4212,54.896606,9.789310,108.3,5.845,1.85,335.95,54.900990,9.788602,54.895069,9.793790
1386835219,1,0,480.7,0,0,0,0,409,400,-0.0292,-599.0415,6.8213,0.4212,54.896599,9.789336,108.3,5.845,1.85,335.95,54.900990,9.788602,54.895069,9.793790
1386835219,1,0,480.7,0,0,4,0,409,425,-0.0292,-599.0415,6.8213,0.4212,54.896587,9.789363,108.3,5.845,1.85,335.95,54.900990,9.788602,54.895069,9.793790
1386835219,1,0,480.7,0,0,0,0,409,400,-0.0292,-599.0415,6.8213,0.4212,54.896580,9.789390,108.3,5.845,1.85,335.95,54.900990,9.788602,54.895069,9.793790
1386835219,1,0,480.7,0,0,4,0,409,425,-0.0292,-599.0415,6.8213,0.4212,54.896568,9.789416,108.3,5.845,1.85,335.95,54.900990,9.788602,54.895069,9.793790
1386835220,1,0,480.6,0,0,0,0,409,400,-0.0292,-599.0415,6.8213,0.4212,54.896561,9.789443,108.3,5.845,1.85,335.95,54.900990,9.788602,54.895069,9.793790
1386835220,1,0,480.7,0,0,4,0,409,425,-0.0292,-599.0415,6.8213,0.4212,54.896553,9.789470,108.3,5.845,1.85,335.95,54.900990,9.788602,54.895069,9.793790
1386835220,1,0,480.7,0,0,0,0,409,400,-0.0292,-599.0415,6.8213,0.4212,54.896542,9.789496,108.3,5.845,1.85,335.95,54.900990,9.788602,54.895069,9.793790
1386835220,1,0,480.7,0,0,4,0,409,425,-0.0292,-599.0415,6.8213,0.4212,54.896534,9.789523,108.3,5.845,1.85,335.95,54.900990,9.788602,54.895069,9.793790
1386835221,1,0,480.7,0,0,0,0,409,400,-0.0292,-599.0415,6.8213,0.4212,54.896526,9.789550,108.3,5.845,1.85,335.95,54.900990,9.788602,54.895069,9.793790
1386835221,1,0,480.7,0,0,4,0,409,425,-0.0292,-599.0415,6.8213,0.4212,54.896515,9.789577,108.3,5.845,1.85,335.95,54.900990,9.788602,54.895069,9.793790
1386835221,1,0,480.7,0,0,0,0,409,400,-0.0292,-599.0415,6.8213,0.4212,54.896507,9.789603,108.3,5.845,1.85,335.95,54.900990,9.788602,54.895069,9.793790
1386835221,1,0,480.7,0,0,4,0,409,425,-0.0292,-599.0415,6.8213,0.4212,54.896500,9.789630,108.3,5.845,1.85,335.95,54.900990,9.788602,54.895069,9.793790
1386835222,1,0,480.7,0,0,0,0,409,400,-0.0292,-599.0415,6.8213,0.4212,54.896488,9.789658,108.3,5.845,1.85,335.95,54.900990,9.788602,54.895069,9.793790
1386835222,1,0,480.7,0,0,4,0,409,425,-0.0292,-599.0415,6.8213,0.4212,54.896481,9.789684,108.3,5.845,1.85,335.95,54.900990,9.788602,54.895069,9.793790
1386835222,1,0,480.7,0,0,0,0,409,400,-0.0292,-599.0415,6.8213,0.4212,54.896469,9.789711,108.3,5.845,1.85,335.95,54.900990,9.788602,54.895069,9.793790
1386835222,1,0,480.7,0,0,4,0,409,425,-0.0292,-599.0415,6.8213,0.4212,54.896461,9.789738,108.3,5.845,1.85,335.95,54.900990,9.788602,54.895069,9.793790
1386835223,1,0,480.7,0,0,0,0,409,400,-0.0292,-599.0415,6.8213,0.4212,54.896454,9.789764,108.3,5.845,1.85,335.95,54.900990,9.788602,54.895069,9.793790
1386835223,1,0,480.7,0,0,4,0,409,425,-0.0292,-599.0415,6.8213,0.4212,54.896442,9.789791,108.3,5.845,1.85,335.95,54.900990,9.788602,54.895069,9.793790
1386835223,1,0,480.7,0,0,0,0,409,400,-0.0292,-599.0415,6.8213,0.4212,54.896435,9.789818,108.3,5.845,1.85,335.95,54.900990,9.788602,54.895069,9.793790
1386835223,1,0,480.7,0,0,4,0,409,425,-0.0292,-599.0415,6.8213,0.4212,54.896427,9.789845,108.3,5.845,1.85,335.95,54.900990,9.788602,54.895069,9.793790
1386835224,1,0,480.7,0,0,0,0,409,400,-0.0292,-599.0415,6.8213,0.4212,54.896416,9.789872,108.3,5.845,1.85,335.95,54.900990,9.788602,54.895069,9.793790
1386835224,1,0,480.7,0,0,4,0,409,425,-0.0292,-599.0415,6.8213,0.4212,54.896408,9.789899,108.3,5.845,1.85,335.95,54.900990,9.788602,54.895069,9.793790
1386835224,1,0,485.9,0,-5,0,0,409,400,-0.0292,-597.7082,6.8213,0.4212,54.897438,9.790498,108.3,5.845,1.85,335.95,54.900990,9.788602,54.895069,9.793790
1386835224,1,0,485.9,0,-4,-4,0,409,425,-0.0292,-596.6415,6.8213,0.4212,54.897427,9.790524,108.3,5.845,1.85,335.95,54.900990,9.788602,54.895069,9.793790
1386835225,1,0,485.9,0,-3,0,0,0,400,-0.0292,-595.8416,6.8213,0.4212,54.897419,9.790549,108.3,5.845,1.85,335.95,54.900990,9.788602,54.895069,9.793790
1386835225,1,0,485.9,0,-2,-4,0,0,375,-0.0292,-595.3082,6.8213,0.4212,54.897408,9.790575,108.3,5.845,1.85,335.95,54.900990,9.788602,54.895069,9.793790
1386835225,1,0,485.9,0,-1,0,0,0,350,-0.0292,-595.0416,6.8213,0.4212,54.897396,9.790600,108.3,5.845,1.85,335.95,54.900990,9.788602,54.895069,9.793790
1386835225,1,0,485.9,0,-1,-4,0,0,325,-0.0292,-594.7749,6.8213,0.4212,54.897385,9.790626,108.3,5.845,1.85,335.95,54.900990,9.788602,54.895069,9.793790
1386835226,1,0,485.9,0,-1,0,0,0,300,-0.0292,-594.5082,6.8213,0.4212,54.897373,9.790650,108.3,5.845,1.85,335.95,54.900990,9.788602,54.895069,9.793790
1386835226,1,0,485.9,0,0,4,0,0,275,-0.0292,-594.5082,6.8213,0.4212,54.897362,9.790676,108.3,5.845,1.85,335.95,54.900990,9.788602,54.895069,9.793790
1386835226,1,0,485.9,0,0,0,0,0,250,-0.0292,-594.5082,6.8213,0.4212,54.897350,9.790702,108.3,5.845,1.85,335.95,54.900990,9.788602,54.895069,9.793790
1386835226,1,0,485.9,0,0,4,0,0,225,-0.0292,-594.5082,6.8213,0.4212,54.897343,9.790728,108.3,5.845,1.85,335.95,54.900990,9.788602,54.895069,9.793790
1386835227,1,0,485.9,0,0,0,0,0,200,-0.0292,-594.5082,6.8213,0.4212,54.897331,9.790753,108.3,5.845,1.85,335.95,54.900990,9.788602,54.895069,9.793790
1386835227,1,0,485.9,0,0,4,0,0,175,-0.0292,-594.5082,6.8213,0.4212,54.897324,9.790778,108.3,5.845,1.85,335.95,54.900990,9.788602,54.895069,9.793790
1386835227,1,0,485.9,0,0,0,0,0,150,-0.0292,-594.5082,6.8213,0.4212,54.897312,9.790804,108.3,5.845,1.85,335.95,54.900990,9.788602,54.895069,9.793790
1386835227,1,0,485.9,0,0,4,0,0,125,-0.0292,-594.5082,6.8213,0.4212,54.897301,9.790830,108.3,5.845,1.85,335.95,54.900990,9.788602,54.895069,9.793790
1386835228,1,0,485.9,0,0,0,0,0,100,-0.0292,-594.5082,6.8213,0.4212,54.897293,9.790855,108.3,5.845,1.85,335.95,54.900990,9.788602,54.895069,9.793790
1386835228,1,0,485.9,0,0,4,0,0,75,-0.0292,-594.5082,6.8213,0.4212,54.897282,9.790881,108.3,5.845,1.85,335.95,54.900990,9.788602,54.895069,9.793790
1386835228,1,0,485.9,0,0,0,0,0,50,-0.0292,-594.5082,6.8213,0.4212,54.897274,9.790906,108.3,5.845,1.85,335.95,54.900990,9.788602,54.895069,9.793790
1386835228,1,0,485.9,0,0,4,0,0,25,-0.0292,-594.5082,6.8213,0.4212,54.897263,9.790932,108.3,5.845,1.85,335.95,54.900990,9.788602,54.895069,9.793790
1386835229,1,0,485.9,0,0,0,0,0,0,-0.0292,-594.5082,6.8213,0.4212,54.897251,9.790956,108.3,5.845,1.85,335.95,54.900990,9.788602,54.895069,9.793790
