MCU_timestamp,Navigation_System,Manual_Control,Guidance_Heading,Manual_Ctrl_Rudder,Rudder_Desired_Angle,Rudder_Feedback,Manual_Ctrl_Sail,Sail_Desired_Pos,Sail_Feedback,Rate,Heading,Pitch,Roll,Latitude,Longitude,COG,SOG,Wind_Speed,Wind_Angle,Point_Start_Lat,Point_Start_Lon,Point_End_Lat,Point_End_Lon
1386833213,0,0,0.0,0,0,0,0,0,0,-0.0292,185.4922,6.8213,0.4212,54.897758,9.795010,108.3,5.845,1.85,335.95,0.000000,0.000000,0.000000,0.000000
1386833213,0,0,0.0,0,0,0,0,0,0,-0.0292,185.4922,6.8213,0.4212,54.897758,9.795010,108.3,5.845,1.85,335.95,0.000000,0.000000,0.000000,0.000000
1386833213,0,0,0.0,0,0,0,0,0,0,-0.0292,185.4922,6.8213,0.4212,54.897758,9.795010,108.3,5.845,1.85,335.95,0.000000,0.000000,0.000000,0.000000
1386833213,0,0,0.0,0,0,0,0,0,0,-0.0292,185.4922,6.8213,0.4212,54.897758,9.795010,108.3,5.845,1.85,335.95,0.000000,0.000000,0.000000,0.000000
1386833214,0,0,0.0,0,0,0,0,0,0,-0.0292,185.4922,6.8213,0.4212,54.897758,9.795010,108.3,5.845,1.85,335.95,0.000000,0.000000,0.000000,0.000000
1386833214,0,0,0.0,0,0,0,0,0,0,-0.0292,185.4922,6.8213,0.4212,54.897758,9.795010,108.3,5.845,1.85,335.95,0.000000,0.000000,0.000000,0.000000
1386833214,0,0,0.0,0,0,0,0,0,0,-0.0292,185.4922,6.8213,0.4212,54.897758,9.795010,108.3,5.845,1.85,335.95,0.000000,0.000000,0.000000,0.000000
1386833214,0,0,0.0,0,0,0,0,0,0,-0.0292,185.4922,6.8213,0.4212,54.890881,9.810727,108.3,5.845,1.85,335.95,0.000000,0.000000,0.000000,0.000000
1386833215,0,0,0.0,0,0,0,0,0,0,-0.0292,185.4922,6.8213,0.4212,54.890881,9.810727,108.3,5.845,1.85,335.95,0.000000,0.000000,0.000000,0.000000
1386833215,0,0,0.0,0,0,0,0,0,0,-0.0292,185.4922,6.8213,0.4212,54.890881,9.810727,108.3,5.845,1.85,335.95,0.000000,0.000000,0.000000,0.000000
1386833215,0,0,0.0,0,0,0,0,0,0,-0.0292,185.4922,6.8213,0.4212,54.890881,9.810727,108.3,5.845,1.85,335.95,0.000000,0.000000,0.000000,0.000000
1386833215,0,0,0.0,0,0,0,0,0,0,-0.0292,185.4922,6.8213,0.4212,54.890881,9.810727,108.3,5.845,1.85,335.95,0.000000,0.000000,0.000000,0.000000
1386833216,0,0,0.0,0,0,0,0,0,0,-0.0292,185.4922,6.8213,0.4212,54.890881,9.810727,108.3,5.845,1.85,335.95,0.000000,0.000000,0.000000,0.000000
1386833216,0,0,0.0,0,0,0,0,0,0,-0.0292,185.4922,6.8213,0.4212,54.890881,9.810727,108.3,5.845,1.85,335.95,0.000000,0.000000,0.000000,0.000000
1386833216,0,0,0.0,0,0,0,0,0,0,-0.0292,185.4922,6.8213,0.4212,54.890881,9.810727,108.3,5.845,1.85,335.95,0.000000,0.000000,0.000000,0.000000
1386833216,0,0,0.0,0,0,0,0,0,0,-0.0292,185.4922,6.8213,0.4212,54.890881,9.810727,108.3,5.845,1.85,335.95,0.000000,0.000000,0.000000,0.000000
1386833217,0,0,0.0,0,0,0,0,0,0,-0.0292,185.4922,6.8213,0.4212,54.890881,9.810727,108.3,5.845,1.85,335.95,0.000000,0.000000,0.000000,0.000000
1386833217,0,0,0.0,0,0,0,0,0,0,-0.0292,185.4922,6.8213,0.4212,54.890881,9.810727,108.3,5.845,1.85,335.95,0.000000,0.000000,0.000000,0.000000
1386833217,0,0,0.0,0,0,0,0,0,0,-0.0292,185.4922,6.8213,0.4212,54.890881,9.810727,108.3,5.845,1.85,335.95,0.000000,0.000000,0.000000,0.000000
1386833217,0,0,0.0,0,0,0,0,0,0,-0.0292,185.4922,6.8213,0.4212,54.890881,9.810727,108.3,5.845,1.85,335.95,0.000000,0.000000,0.000000,0.000000
1386833218,0,0,0.0,0,0,0,0,0,0,-0.0292,185.4922,6.8213,0.4212,54.890881,9.810727,108.3,5.845,1.85,335.95,0.000000,0.000000,0.000000,0.000000
1386833218,0,0,0.0,0,0,0,0,0,0,-0.0292,185.4922,6.8213,0.4212,54.890881,9.810727,108.3,5.845,1.85,335.95,0.000000,0.000000,0.000000,0.000000
1386833218,0,0,0.0,0,0,0,0,0,0,-0.0292,185.4922,6.8213,0.4212,54.897816,9.795063,108.3,5.845,1.85,335.95,0.000000,0.000000,0.000000,0.000000
1386833218,0,0,0.0,0,0,0,0,0,0,-0.0292,185.4922,6.8213,0.4212,54.897816,9.795063,108.3,5.845,1.85,335.95,0.000000,0.000000,0.000000,0.000000
1386833219,0,0,0.0,0,0,0,0,0,0,-0.0292,185.4922,6.8213,0.4212,54.897816,9.795063,108.3,5.845,1.85,335.95,0.000000,0.000000,0.000000,0.000000
1386833219,0,0,0.0,0,0,0,0,0,0,-0.0292,185.4922,6.8213,0.4212,54.897816,9.795063,108.3,5.845,1.85,335.95,0.000000,0.000000,0.000000,0.000000
1386833219,0,0,0.0,0,0,0,0,0,0,-0.0292,185.4922,6.8213,0.4212,54.897816,9.795063,108.3,5.845,1.85,335.95,0.000000,0.000000,0.000000,0.000000
1386833219,0,0,0.0,0,0,0,0,0,0,-0.0292,185.4922,6.8213,0.4212,54.897816,9.795063,108.3,5.845,1.85,335.95,0.000000,0.000000,0.000000,0.000000
1386833220,0,0,0.0,0,0,0,0,0,0,-0.0292,185.4922,6.8213,0.4212,54.897816,9.795063,108.3,5.845,1.85,335.95,0.000000,0.000000,0.000000,0.000000
1386833220,0,0,0.0,0,0,0,0,0,0,-0.0292,185.4922,6.8213,0.4212,54.897816,9.795063,108.3,5.845,1.85,335.95,0.000000,0.000000,0.000000,0.000000
1386833220,0,0,0.0,0,0,0,0,0,0,-0.0292,185.4922,6.8213,0.4212,54.897816,9.795063,108.3,5.845,1.85,335.95,0.000000,0.000000,0.000000,0.000000
1386833220,0,0,0.0,0,0,0,0,0,0,-0.0292,185.4922,6.8213,0.4212,54.897816,9.795063,108.3,5.845,1.85,335.95,0.000000,0.000000,0.000000,0.000000
1386833221,0,0,0.0,0,0,0,0,0,0,-0.0292,185.4922,6.8213,0.4212,54.897816,9.795063,108.3,5.845,1.85,335.95,0.000000,0.000000,0.000000,0.000000
1386833221,0,0,0.0,0,0,0,0,0,0,-0.0292,185.4922,6.8213,0.4212,54.897816,9.795063,108.3,5.845,1.85,335.95,0.000000,0.000000,0.000000,0.000000
1386833221,0,0,0.0,0,0,0,0,0,0,-0.0292,185.4922,6.8213,0.4212,54.901371,9.790428,108.3,5.845,1.85,335.95,0.000000,0.000000,0.000000,0.000000
1386833221,0,0,0.0,0,0,0,0,0,0,-0.0292,185.4922,6.8213,0.4212,54.901371,9.790428,108.3,5.845,1.85,335.95,0.000000,0.000000,0.000000,0.000000
1386833222,0,0,0.0,0,0,0,0,0,0,-0.0292,185.4922,6.8213,0.4212,54.901371,9.790428,108.3,5.845,1.85,335.95,0.000000,0.000000,0.000000,0.000000
1386833222,0,0,0.0,0,0,0,0,0,0,-0.0292,185.4922,6.8213,0.4212,54.901371,9.790428,108.3,5.845,1.85,335.95,0.000000,0.000000,0.000000,0.000000
1386833222,0,0,0.0,0,0,0,0,0,0,-0.0292,185.4922,6.8213,0.4212,54.901371,9.790428,108.3,5.845,1.85,335.95,0.000000,0.000000,0.000000,0.000000
1386833222,0,0,0.0,0,0,0,0,0,0,-0.0292,185.4922,6.8213,0.4212,54.901371,9.790428,108.3,5.845,1.85,335.95,0.000000,0.000000,0.000000,0.000000
1386833223,0,0,0.0,0,0,0,0,0,0,-0.0292,185.4922,6.8213,0.4212,54.901371,9.790428,108.3,5.845,1.85,335.95,0.000000,0.000000,0.000000,0.000000
1386833223,4,0,0.0,0,0,0,0,0,0,-0.0292,185.4922,6.8213,0.4212,54.901371,9.790428,108.3,5.845,1.85,335.95,0.000000,0.000000,0.000000,0.000000
1386833223,1,0,485.9,0,35,4,0,409,400,-0.0292,176.1588,6.8213,0.4212,54.901352,9.790430,108.3,5.845,1.85,335.95,54.901371,9.790428,54.895069,9.793790
1386833223,1,0,485.9,0,35,8,0,409,425,-0.0292,166.8255,6.8213,0.4212,54.901333,9.790438,108.3,5.845,1.85,335.95,54.901371,9.790428,54.895069,9.793790
1386833224,1,0,485.9,0,35,12,0,409,400,-0.0292,157.4922,6.8213,0.4212,54.901318,9.790450,108.3,5.845,1.85,335.95,54.901371,9.790428,54.895069,9.793790
1386833224,1,0,485.9,0,32,16,0,0,375,-0.0292,148.9588,6.8213,0.4212,54.901299,9.790465,108.3,5.845,1.85,335.95,54.901371,9.790428,54.895069,9.793790
1386833224,1,0,485.9,0,23,20,0,0,350,-0.0292,142.8255,6.8213,0.4212,54.901283,9.790484,108.3,5.845,1.85,335.95,54.901371,9.790428,54.895069,9.793790
1386833224,1,0,485.9,0,17,16,0,409,375,-0.0292,138.2922,6.8213,0.4212,54.901272,9.790505,108.3,5.845,1.85,335.95,54.901371,9.790428,54.895069,9.793790
1386833225,1,0,485.9,0,12,12,0,409,400,-0.0292,135.0922,6.8213,0.4212,54.901257,9.790527,108.3,5.845,1.85,335.95,54.901371,9.790428,54.895069,9.793790
1386833225,1,0,485.9,0,9,8,0,409,425,-0.0292,132.6922,6.8213,0.4212,54.901245,9.790550,108.3,5.845,1.85,335.95,54.901371,9.790428,54.895069,9.793790
1386833225,1,0,485.9,0,7,4,0,409,400,-0.0292,130.8255,6.8213,0.4212,54.901230,9.790574,108.3,5.845,1.85,335.95,54.901371,9.790428,54.895069,9.793790
1386833225,1,0,485.9,0,5,8,0,409,425,-0.0292,129.4922,6.8213,0.4212,54.901218,9.790598,108.3,5.845,1.85,335.95,54.901371,9.790428,54.895069,9.793790
1386833226,1,0,485.9,0,4,4,0,409,400,-0.0292,128.4255,6.8213,0.4212,54.901207,9.790623,108.3,5.845,1.85,335.95,54.901371,9.790428,54.895069,9.793790
1386833226,1,0,485.9,0,2,0,0,409,425,-0.0292,127.8922,6.8213,0.4212,54.901196,9.790647,108.3,5.845,1.85,335.95,54.901371,9.790428,54.895069,9.793790
1386833226,1,0,485.9,0,2,4,0,409,400,-0.0292,127.3589,6.8213,0.4212,54.901184,9.790671,108.3,5.845,1.85,335.95,54.901371,9.790428,54.895069,9.793790
1386833226,1,0,485.9,0,1,0,0,409,425,-0.0292,127.0922,6.8213,0.4212,54.901173,9.790696,108.3,5.845,1.85,335.95,54.901371,9.790428,54.895069,9.793790
1386833227,1,0,485.9,0,1,4,0,409,400,-0.0292,126.8255,6.8213,0.4212,54.901161,9.790722,108.3,5.845,1.85,335.95,54.901371,9.790428,54.895069,9.793790
1386833227,1,0,485.9,0,1,0,0,409,425,-0.0292,126.5588,6.8213,0.4212,54.901150,9.790747,108.3,5.845,1.85,335.95,54.901371,9.790428,54.895069,9.793790
1386833227,1,0,485.9,0,1,4,0,409,400,-0.0292,126.2922,6.8213,0.4212,54.901138,9.790771,108.3,5.845,1.85,335.95,54.901371,9.790428,54.895069,9.793790
1386833227,1,0,485.9,0,0,0,0,409,425,-0.0292,126.2922,6.8213,0.4212,54.901131,9.790796,108.3,5.845,1.85,335.95,54.901371,9.790428,54.895069,9.793790
1386833228,1,0,485.9,0,0,4,0,409,400,-0.0292,126.2922,6.8213,0.4212,54.901119,9.790821,108.3,5.845,1.85,335.95,54.901371,9.790428,54.895069,9.793790
1386833228,1,0,485.9,0,0,0,0,409,425,-0.0292,126.2922,6.8213,0.4212,54.901108,9.790847,108.3,5.845,1.85,335.95,54.901371,9.790428,54.895069,9.793790
1386833228,1,0,485.9,0,0,4,0,0,400,-0.0292,126.2922,6.8213,0.4212,54.901096,9.790872,108.3,5.845,1.85,335.95,54.901371,9.790428,54.895069,9.793790
1386833228,1,0,485.9,0,0,0,0,0,375,-0.0292,126.2922,6.8213,0.4212,54.901085,9.790897,108.3,5.845,1.85,335.95,54.901371,9.790428,54.895069,9.793790
1386833229,1,0,485.9,0,0,4,0,0,350,-0.0292,126.2922,6.8213,0.4212,54.901073,9.790922,108.3,5.845,1.85,335.95,54.901371,9.790428,54.895069,9.793790
1386833229,1,0,485.9,0,0,0,0,0,325,-0.0292,126.2922,6.8213,0.4212,54.901062,9.790947,108.3,5.845,1.85,335.95,54.901371,9.790428,54.895069,9.793790
1386833229,1,0,485.9,0,0,4,0,0,300,-0.0292,126.2922,6.8213,0.4212,54.901051,9.790973,108.3,5.845,1.85,335.95,54.901371,9.790428,54.895069,9.793790
1386833229,1,0,485.9,0,0,0,0,0,275,-0.0292,126.2922,6.8213,0.4212,54.901039,9.790998,108.3,5.845,1.85,335.95,54.901371,9.790428,54.895069,9.793790
1386833230,1,0,485.9,0,0,4,0,0,250,-0.0292,126.2922,6.8213,0.4212,54.900940,9.791956,108.3,5.845,1.85,335.95,54.901371,9.790428,54.895069,9.793790
1386833230,1,0,485.9,0,0,0,0,0,225,-0.0292,126.2922,6.8213,0.4212,54.900928,9.791981,108.3,5.845,1.85,335.95,54.901371,9.790428,54.895069,9.793790
1386833230,1,0,485.9,0,0,4,0,0,200,-0.0292,126.2922,6.8213,0.4212,54.900917,9.792006,108.3,5.845,1.85,335.95,54.901371,9.790428,54.895069,9.793790
1386833230,1,0,485.9,0,0,0,0,0,175,-0.0292,126.2922,6.8213,0.4212,54.900909,9.792031,108.3,5.845,1.85,335.95,54.901371,9.790428,54.895069,9.793790
1386833231,1,0,485.9,0,0,4,0,0,150,-0.0292,126.2922,6.8213,0.4212,54.900898,9.792056,108.3,5.845,1.85,335.95,54.901371,9.790428,54.895069,9.793790
1386833231,1,0,485.9,0,0,0,0,0,125,-0.0292,126.2922,6.8213,0.4212,54.900887,9.792081,108.3,5.845,1.85,335.95,54.901371,9.790428,54.895069,9.793790
1386833231,1,0,485.9,0,0,4,0,0,100,-0.0292,126.2922,6.8213,0.4212,54.900875,9.792106,108.3,5.845,1.85,335.95,54.901371,9.790428,54.895069,9.793790
1386833231,1,0,485.9,0,0,0,0,0,75,-0.0292,126.2922,6.8213,0.4212,54.900864,9.792131,108.3,5.845,1.85,335.95,54.901371,9.790428,54.895069,9.793790
1386833232,1,0,485.9,0,0,4,0,0,50,-0.0292,126.2922,6.8213,0.4212,54.900852,9.792156,108.3,5.845,1.85,335.95,54.901371,9.790428,54.895069,9.793790
1386833232,1,0,485.9,0,0,0,0,0,25,-0.0292,126.2922,6.8213,0.4212,54.900841,9.792182,108.3,5.845,1.85,335.95,54.901371,9.790428,54.895069,9.793790
1386833232,1,0,485.9,0,0,4,0,0,0,-0.0292,126.2922,6.8213,0.4212,54.900829,9.792207,108.3,5.845,1.85,335.95,54.901371,9.790428,54.895069,9.793790
1386833232,1,0,485.9,0,0,0,0,0,25,-0.0292,126.2922,6.8213,0.4212,54.900818,9.792232,108.3,5.845,1.85,335.95,54.901371,9.790428,54.895069,9.793790
1386833233,1,0,545.9,0,-35,-4,0,0,0,-0.0292,135.6255,6.8213,0.4212,54.900806,9.792253,108.3,5.845,1.85,335.95,54.901371,9.790428,54.895069,9.793790
1386833233,1,0,545.9,0,-35,-8,0,0,25,-0.0292,144.9588,6.8213,0.4212,54.900791,9.792271,108.3,5.845,1.85,335.95,54.901371,9.790428,54.895069,9.793790
1386833233,1,0,545.9,0,-35,-12,0,0,0,-0.0292,154.2922,6.8213,0.4212,54.900776,9.792284,108.3,5.845,1.85,335.95,54.901371,9.790428,54.895069,9.793790
1386833233,1,0,545.9,0,-32,-16,0,0,25,-0.0292,162.8255,6.8213,0.4212,54.900757,9.792294,108.3,5.845,1.85,335.95,54.901371,9.790428,54.895069,9.793790
1386833234,1,0,545.9,0,-23,-20,0,0,0,-0.0292,168.9588,6.8213,0.4212,54.900738,9.792299,108.3,5.845,1.85,335.95,54.901371,9.790428,54.895069,9.793790
1386833234,1,0,545.9,0,-17,-16,0,0,25,-0.0292,173.4922,6.8213,0.4212,54.900719,9.792302,108.3,5.845,1.85,335.95,54.901371,9.790428,54.895069,9.793790
1386833234,1,0,545.9,0,-12,-12,0,0,0,-0.0292,176.6922,6.8213,0.4212,54.900703,9.792304,108.3,5.845,1.85,335.95,54.901371,9.790428,54.895069,9.793790
1386833234,1,0,545.9,0,-9,-8,0,0,25,-0.0292,179.0922,6.8213,0.4212,54.900684,9.792304,108.3,5.845,1.85,335.95,54.901371,9.790428,54.895069,9.793790
1386833235,1,0,545.9,0,-7,-4,0,409,50,-0.0292,180.9588,6.8213,0.4212,54.900665,9.792303,108.3,5.845,1.85,335.95,54.901371,9.790428,54.895069,9.793790
1386833235,1,0,545.9,0,-5,-8,0,409,75,-0.0292,182.2922,6.8213,0.4212,54.900646,9.792302,108.3,5.845,1.85,335.95,54.901371,9.790428,54.895069,9.793790
1386833235,1,0,545.9,0,-4,-4,0,409,100,-0.0292,183.3588,6.8213,0.4212,54.900631,9.792300,108.3,5.845,1.85,335.95,54.901371,9.790428,54.895069,9.793790
1386833235,1,0,545.9,0,-3,0,0,409,125,-0.0292,184.1588,6.8213,0.4212,54.900612,9.792297,108.3,5.845,1.85,335.95,54.901371,9.790428,54.895069,9.793790
1386833236,1,0,545.9,0,-2,-4,0,409,150,-0.0292,184.6922,6.8213,0.4212,54.900593,9.792295,108.3,5.845,1.85,335.95,54.901371,9.790428,54.895069,9.793790
1386833236,1,0,545.9,0,-1,0,0,409,175,-0.0292,184.9588,6.8213,0.4212,54.900574,9.792292,108.3,5.845,1.85,335.95,54.901371,9.790428,54.895069,9.793790
1386833236,1,0,545.9,0,-1,-4,0,409,200,-0.0292,185.2255,6.8213,0.4212,54.900558,9.792289,108.3,5.845,1.85,335.95,54.901371,9.790428,54.895069,9.793790
1386833237,1,0,545.9,0,-1,0,0,409,225,-0.0292,185.4922,6.8213,0.4212,54.900539,9.792285,108.3,5.845,1.85,335.95,54.901371,9.790428,54.895069,9.793790
1386833237,1,0,545.9,0,0,4,0,409,250,-0.0292,185.4922,6.8213,0.4212,54.900520,9.792282,108.3,5.845,1.85,335.95,54.901371,9.790428,54.895069,9.793790
1386833237,1,0,545.9,0,0,0,0,409,275,-0.0292,185.4922,6.8213,0.4212,54.900501,9.792279,108.3,5.845,1.85,335.95,54.901371,9.790428,54.895069,9.793790
1386833237,1,0,545.9,0,0,4,0,409,300,-0.0292,185.4922,6.8213,0.4212,54.900486,9.792276,108.3,5.845,1.85,335.95,54.901371,9.790428,54.895069,9.793790
1386833238,1,0,545.9,0,0,0,0,409,325,-0.0292,185.4922,6.8213,0.4212,54.900467,9.792274,108.3,5.845,1.85,335.95,54.901371,9.790428,54.895069,9.793790
1386833238,1,0,545.9,0,0,4,0,409,350,-0.0292,185.4922,6.8213,0.4212,54.900448,9.792271,108.3,5.845,1.85,335.95,54.901371,9.790428,54.895069,9.793790
1386833238,1,0,545.9,0,0,0,0,409,375,-0.0292,185.4922,6.8213,0.4212,54.900433,9.792268,108.3,5.845,1.85,335.95,54.901371,9.790428,54.895069,9.793790
1386833238,1,0,545.9,0,0,4,0,0,350,-0.0292,185.4922,6.8213,0.4212,54.900414,9.792265,108.3,5.845,1.85,335.95,54.901371,9.790428,54.895069,9.793790
1386833239,1,0,545.9,0,0,0,0,0,325,-0.0292,185.4922,6.8213,0.4212,54.900394,9.792262,108.3,5.845,1.85,335.95,54.901371,9.790428,54.895069,9.793790
1386833239,1,0,545.9,0,0,4,0,0,300,-0.0292,185.4922,6.8213,0.4212,54.900375,9.792259,108.3,5.845,1.85,335.95,54.901371,9.790428,54.895069,9.793790
1386833239,1,0,545.9,0,0,0,0,0,275,-0.0292,185.4922,6.8213,0.4212,54.900360,9.792256,108.3,5.845,1.85,335.95,54.901371,9.790428,54.895069,9.793790
1386833239,1,0,545.9,0,0,4,0,0,250,-0.0292,185.4922,6.8213,0.4212,54.900341,9.792253,108.3,5.845,1.85,335.95,54.901371,9.790428,54.895069,9.793790
1386833240,1,0,545.9,0,0,0,0,0,225,-0.0292,185.4922,6.8213,0.4212,54.900322,9.792251,108.3,5.845,1.85,335.95,54.901371,9.790428,54.895069,9.793790
1386833240,1,0,545.9,0,0,4,0,0,200,-0.0292,185.4922,6.8213,0.4212,54.900303,9.792247,108.3,5.845,1.85,335.95,54.901371,9.790428,54.895069,9.793790
1386833240,1,0,545.9,0,0,0,0,0,175,-0.0292,185.4922,6.8213,0.4212,54.900288,9.792243,108.3,5.845,1.85,335.95,54.901371,9.790428,54.895069,9.793790
1386833240,1,0,545.9,0,0,4,0,0,150,-0.0292,185.4922,6.8213,0.4212,54.900269,9.792240,108.3,5.845,1.85,335.95,54.901371,9.790428,54.895069,9.793790
1386833241,1,0,545.9,0,0,0,0,0,125,-0.0292,185.4922,6.8213,0.4212,54.900249,9.792237,108.3,5.845,1.85,335.95,54.901371,9.790428,54.895069,9.793790
1386833241,1,0,545.9,0,0,4,0,0,100,-0.0292,185.4922,6.8213,0.4212,54.900230,9.792234,108.3,5.845,1.85,335.95,54.901371,9.790428,54.895069,9.793790
1386833241,1,0,545.9,0,0,0,0,0,75,-0.0292,185.4922,6.8213,0.4212,54.900215,9.792232,108.3,5.845,1.85,335.95,54.901371,9.790428,54.895069,9.793790
1386833241,1,0,545.9,0,0,4,0,0,50,-0.0292,185.4922,6.8213,0.4212,54.900196,9.792229,108.3,5.845,1.85,335.95,54.901371,9.790428,54.895069,9.793790
1386833242,1,0,545.9,0,0,0,0,0,25,-0.0292,185.4922,6.8213,0.4212,54.900177,9.792226,108.3,5.845,1.85,335.95,54.901371,9.790428,54.895069,9.793790
1386833242,1,0,545.9,0,0,4,0,0,0,-0.0292,185.4922,6.8213,0.4212,54.900162,9.792223,108.3,5.845,1.85,335.95,54.901371,9.790428,54.895069,9.793790
1386833242,1,0,545.9,0,0,0,0,0,25,-0.0292,185.4922,6.8213,0.4212,54.900143,9.792220,108.3,5.845,1.85,335.95,54.901371,9.790428,54.895069,9.793790
1386833242,1,0,485.9,0,35,4,0,0,0,-0.0292,176.1588,6.8213,0.4212,54.900124,9.792222,108.3,5.845,1.85,335.95,54.901371,9.790428,54.895069,9.793790
1386833243,1,0,485.9,0,35,8,0,0,25,-0.0292,166.8255,6.8213,0.4212,54.900105,9.792229,108.3,5.845,1.85,335.95,54.901371,9.790428,54.895069,9.793790
1386833243,1,0,485.9,0,35,12,0,0,0,-0.0292,157.4922,6.8213,0.4212,54.900089,9.792241,108.3,5.845,1.85,335.95,54.901371,9.790428,54.895069,9.793790
1386833243,1,0,485.9,0,32,16,0,0,25,-0.0292,148.9588,6.8213,0.4212,54.900074,9.792257,108.3,5.845,1.85,335.95,54.901371,9.790428,54.895069,9.793790
1386833243,1,0,485.9,0,23,20,0,0,0,-0.0292,142.8255,6.8213,0.4212,54.900059,9.792276,108.3,5.845,1.85,335.95,54.901371,9.790428,54.895069,9.793790
1386833244,1,0,485.9,0,17,16,0,0,25,-0.0292,138.2922,6.8213,0.4212,54.900047,9.792297,108.3,5.845,1.85,335.95,54.901371,9.790428,54.895069,9.793790
1386833244,1,0,485.9,0,12,12,0,0,0,-0.0292,135.0922,6.8213,0.4212,54.900036,9.792319,108.3,5.845,1.85,335.95,54.901371,9.790428,54.895069,9.793790
1386833244,1,0,485.9,0,9,8,0,0,25,-0.0292,132.6922,6.8213,0.4212,54.900024,9.792342,108.3,5.845,1.85,335.95,54.901371,9.790428,54.895069,9.793790
1386833244,1,0,485.9,0,7,4,0,409,50,-0.0292,130.8255,6.8213,0.4212,54.900013,9.792366,108.3,5.845,1.85,335.95,54.901371,9.790428,54.895069,9.793790
1386833245,1,0,485.9,0,5,8,0,409,75,-0.0292,129.4922,6.8213,0.4212,54.899998,9.792391,108.3,5.845,1.85,335.95,54.901371,9.790428,54.895069,9.793790
1386833245,1,0,485.9,0,4,4,0,409,100,-0.0292,128.4255,6.8213,0.4212,54.899986,9.792416,108.3,5.845,1.85,335.95,54.901371,9.790428,54.895069,9.793790
1386833245,1,0,485.9,0,2,0,0,409,125,-0.0292,127.8922,6.8213,0.4212,54.899979,9.792440,108.3,5.845,1.85,335.95,54.901371,9.790428,54.895069,9.793790
1386833245,1,0,485.9,0,2,4,0,409,150,-0.0292,127.3588,6.8213,0.4212,54.899967,9.792465,108.3,5.845,1.85,335.95,54.901371,9.790428,54.895069,9.793790
1386833246,1,0,485.9,0,1,0,0,409,175,-0.0292,127.0922,6.8213,0.4212,54.899956,9.792490,108.3,5.845,1.85,335.95,54.901371,9.790428,54.895069,9.793790
1386833246,1,0,485.9,0,1,4,0,409,200,-0.0292,126.8255,6.8213,0.4212,54.899944,9.792515,108.3,5.845,1.85,335.95,54.901371,9.790428,54.895069,9.793790
1386833246,1,0,485.9,0,1,0,0,409,225,-0.0292,126.5588,6.8213,0.4212,54.899933,9.792540,108.3,5.845,1.85,335.95,54.901371,9.790428,54.895069,9.793790
1386833246,1,0,485.9,0,1,4,0,409,250,-0.0292,126.2922,6.8213,0.4212,54.899925,9.792565,108.3,5.845,1.85,335.95,54.901371,9.790428,54.895069,9.793790
1386833247,1,0,485.9,0,0,0,0,409,275,-0.0292,126.2922,6.8213,0.4212,54.899914,9.792590,108.3,5.845,1.85,335.95,54.901371,9.790428,54.895069,9.793790
1386833247,1,0,485.9,0,0,4,0,409,300,-0.0292,126.2922,6.8213,0.4212,54.899906,9.792615,108.3,5.845,1.85,335.95,54.901371,9.790428,54.895069,9.793790
1386833247,1,0,485.9,0,0,0,0,409,325,-0.0292,126.2922,6.8213,0.4212,54.899895,9.792641,108.3,5.845,1.85,335.95,54.901371,9.790428,54.895069,9.793790
1386833247,1,0,485.9,0,0,4,0,409,350,-0.0292,126.2922,6.8213,0.4212,54.899883,9.792665,108.3,5.845,1.85,335.95,54.901371,9.790428,54.895069,9.793790
1386833248,1,0,485.9,0,0,0,0,409,375,-0.0292,126.2922,6.8213,0.4212,54.899872,9.792691,108.3,5.845,1.85,335.95,54.901371,9.790428,54.895069,9.793790
1386833248,1,0,485.9,0,0,4,0,409,400,-0.0292,126.2922,6.8213,0.4212,54.899860,9.792716,108.3,5.845,1.85,335.95,54.901371,9.790428,54.895069,9.793790
1386833248,1,0,485.9,0,0,0,0,409,425,-0.0292,126.2922,6.8213,0.4212,54.899853,9.792742,108.3,5.845,1.85,335.95,54.901371,9.790428,54.895069,9.793790
1386833248,1,0,485.9,0,0,4,0,409,400,-0.0292,126.2922,6.8213,0.4212,54.899841,9.792767,108.3,5.845,1.85,335.95,54.901371,9.790428,54.895069,9.793790
1386833249,1,0,485.9,0,0,0,0,409,425,-0.0292,126.2922,6.8213,0.4212,54.899830,9.792791,108.3,5.845,1.85,335.95,54.901371,9.790428,54.895069,9.793790
1386833249,1,0,485.9,0,0,4,0,409,400,-0.0292,126.2922,6.8213,0.4212,54.899818,9.792817,108.3,5.845,1.85,335.95,54.901371,9.790428,54.895069,9.793790
1386833249,1,0,485.9,0,0,0,0,409,425,-0.0292,126.2922,6.8213,0.4212,54.899807,9.792842,108.3,5.845,1.85,335.95,54.901371,9.790428,54.895069,9.793790
1386833249,1,0,485.9,0,0,4,0,409,400,-0.0292,126.2922,6.8213,0.4212,54.899796,9.792868,108.3,5.845,1.85,335.95,54.901371,9.790428,54.895069,9.793790
1386833250,1,0,485.9,0,0,0,0,409,425,-0.0292,126.2922,6.8213,0.4212,54.899784,9.792892,108.3,5.845,1.85,335.95,54.901371,9.790428,54.895069,9.793790
1386833250,1,0,485.9,0,0,4,0,409,400,-0.0292,126.2922,6.8213,0.4212,54.899773,9.792917,108.3,5.845,1.85,335.95,54.901371,9.790428,54.895069,9.793790
1386833250,1,0,485.9,0,0,0,0,409,425,-0.0292,126.2922,6.8213,0.4212,54.899761,9.792943,108.3,5.845,1.85,335.95,54.901371,9.790428,54.895069,9.793790
1386833250,1,0,485.9,0,0,4,0,409,400,-0.0292,126.2922,6.8213,0.4212,54.899754,9.792968,108.3,5.845,1.85,335.95,54.901371,9.790428,54.895069,9.793790
1386833251,1,0,485.9,0,0,0,0,409,425,-0.0292,126.2922,6.8213,0.4212,54.899742,9.792994,108.3,5.845,1.85,335.95,54.901371,9.790428,54.895069,9.793790
1386833251,1,0,485.9,0,0,4,0,409,400,-0.0292,126.2922,6.8213,0.4212,54.899731,9.793018,108.3,5.845,1.85,335.95,54.901371,9.790428,54.895069,9.793790
1386833251,1,0,485.9,0,0,0,0,409,425,-0.0292,126.2922,6.8213,0.4212,54.899719,9.793043,108.3,5.845,1.85,335.95,54.901371,9.790428,54.895069,9.793790
1386833251,1,0,485.9,0,0,4,0,409,400,-0.0292,126.2922,6.8213,0.4212,54.899708,9.793068,108.3,5.845,1.85,335.95,54.901371,9.790428,54.895069,9.793790
1386833252,1,0,485.9,0,0,0,0,409,425,-0.0292,126.2922,6.8213,0.4212,54.899696,9.793093,108.3,5.845,1.85,335.95,54.901371,9.790428,54.895069,9.793790
1386833252,1,0,485.9,0,0,4,0,409,400,-0.0292,126.2922,6.8213,0.4212,54.899685,9.793118,108.3,5.845,1.85,335.95,54.901371,9.790428,54.895069,9.793790
1386833252,1,0,485.9,0,0,0,0,409,425,-0.0292,126.2922,6.8213,0.4212,54.899673,9.793143,108.3,5.845,1.85,335.95,54.901371,9.790428,54.895069,9.793790
1386833252,1,0,485.9,0,0,4,0,409,400,-0.0292,126.2922,6.8213,0.4212,54.899662,9.793169,108.3,5.845,1.85,335.95,54.901371,9.790428,54.895069,9.793790
1386833253,1,0,485.9,0,0,0,0,409,425,-0.0292,126.2922,6.8213,0.4212,54.899654,9.793194,108.3,5.845,1.85,335.95,54.901371,9.790428,54.895069,9.793790
1386833253,1,0,485.9,0,0,4,0,409,400,-0.0292,126.2922,6.8213,0.4212,54.899643,9.793219,108.3,5.845,1.85,335.95,54.901371,9.790428,54.895069,9.793790
1386833253,1,0,485.9,0,0,0,0,409,425,-0.0292,126.2922,6.8213,0.4212,54.899635,9.793244,108.3,5.845,1.85,335.95,54.901371,9.790428,54.895069,9.793790
1386833253,1,0,485.9,0,0,4,0,409,400,-0.0292,126.2922,6.8213,0.4212,54.899624,9.793269,108.3,5.845,1.85,335.95,54.901371,9.790428,54.895069,9.793790
1386833254,1,0,485.9,0,0,0,0,409,425,-0.0292,126.2922,6.8213,0.4212,54.899612,9.793295,108.3,5.845,1.85,335.95,54.901371,9.790428,54.895069,9.793790
1386833254,1,0,485.9,0,0,4,0,409,400,-0.0292,126.2922,6.8213,0.4212,54.899601,9.793320,108.3,5.845,1.85,335.95,54.901371,9.790428,54.895069,9.793790
1386833254,1,0,485.9,0,0,0,0,409,425,-0.0292,126.2922,6.8213,0.4212,54.899590,9.793344,108.3,5.845,1.85,335.95,54.901371,9.790428,54.895069,9.793790
1386833254,1,0,485.9,0,0,4,0,409,400,-0.0292,126.2922,6.8213,0.4212,54.899582,9.793370,108.3,5.845,1.85,335.95,54.901371,9.790428,54.895069,9.793790
1386833255,1,0,485.9,0,0,0,0,409,425,-0.0292,126.2922,6.8213,0.4212,54.899570,9.793395,108.3,5.845,1.85,335.95,54.901371,9.790428,54.895069,9.793790
1386833255,1,0,485.9,0,0,4,0,409,400,-0.0292,126.2922,6.8213,0.4212,54.899559,9.793421,108.3,5.845,1.85,335.95,54.901371,9.790428,54.895069,9.793790
1386833255,1,0,485.9,0,0,0,0,409,425,-0.0292,126.2922,6.8213,0.4212,54.899548,9.793446,108.3,5.845,1.85,335.95,54.901371,9.790428,54.895069,9.793790
1386833255,1,0,485.9,0,0,4,0,409,400,-0.0292,126.2922,6.8213,0.4212,54.899536,9.793471,108.3,5.845,1.85,335.95,54.901371,9.790428,54.895069,9.793790
1386833256,1,0,485.9,0,0,0,0,409,425,-0.0292,126.2922,6.8213,0.4212,54.899525,9.793496,108.3,5.845,1.85,335.95,54.901371,9.790428,54.895069,9.793790
1386833256,1,0,485.9,0,0,4,0,409,400,-0.0292,126.2922,6.8213,0.4212,54.899513,9.793521,108.3,5.845,1.85,335.95,54.901371,9.790428,54.895069,9.793790
1386833256,1,0,485.9,0,0,0,0,409,425,-0.0292,126.2922,6.8213,0.4212,54.899502,9.793547,108.3,5.845,1.85,335.95,54.901371,9.790428,54.895069,9.793790
1386833256,1,0,485.9,0,0,4,0,409,400,-0.0292,126.2922,6.8213,0.4212,54.899490,9.793571,108.3,5.845,1.85,335.95,54.901371,9.790428,54.895069,9.793790
1386833257,1,0,485.9,0,0,0,0,409,425,-0.0292,126.2922,6.8213,0.4212,54.899483,9.793597,108.3,5.845,1.85,335.95,54.901371,9.790428,54.895069,9.793790
1386833257,1,0,485.9,0,0,4,0,409,400,-0.0292,126.2922,6.8213,0.4212,54.899471,9.793622,108.3,5.845,1.85,335.95,54.901371,9.790428,54.895069,9.793790
1386833257,1,0,485.9,0,0,0,0,409,425,-0.0292,126.2922,6.8213,0.4212,54.899460,9.793647,108.3,5.845,1.85,335.95,54.901371,9.790428,54.895069,9.793790
1386833257,1,0,485.9,0,0,4,0,409,400,-0.0292,126.2922,6.8213,0.4212,54.899448,9.793673,108.3,5.845,1.85,335.95,54.901371,9.790428,54.895069,9.793790
1386833258,1,0,485.9,0,0,0,0,409,425,-0.0292,126.2922,6.8213,0.4212,54.899437,9.793697,108.3,5.845,1.85,335.95,54.901371,9.790428,54.895069,9.793790
1386833258,1,0,485.9,0,0,4,0,409,400,-0.0292,126.2922,6.8213,0.4212,54.899426,9.793723,108.3,5.845,1.85,335.95,54.901371,9.790428,54.895069,9.793790
1386833258,1,0,485.9,0,0,0,0,409,425,-0.0292,126.2922,6.8213,0.4212,54.899414,9.793748,108.3,5.845,1.85,335.95,54.901371,9.790428,54.895069,9.793790
1386833258,1,0,485.9,0,0,4,0,409,400,-0.0292,126.2922,6.8213,0.4212,54.899403,9.793773,108.3,5.845,1.85,335.95,54.901371,9.790428,54.895069,9.793790
1386833259,1,0,485.9,0,0,0,0,409,425,-0.0292,126.2922,6.8213,0.4212,54.899391,9.793798,108.3,5.845,1.85,335.95,54.901371,9.790428,54.895069,9.793790
1386833259,1,0,485.9,0,0,4,0,409,400,-0.0292,126.2922,6.8213,0.4212,54.899380,9.793823,108.3,5.845,1.85,335.95,54.901371,9.790428,54.895069,9.793790
1386833259,1,0,485.9,0,0,0,0,409,425,-0.0292,126.2922,6.8213,0.4212,54.899368,9.793849,108.3,5.845,1.85,335.95,54.901371,9.790428,54.895069,9.793790
1386833259,1,0,485.9,0,0,4,0,409,400,-0.0292,126.2922,6.8213,0.4212,54.899361,9.793874,108.3,5.845,1.85,335.95,54.901371,9.790428,54.895069,9.793790
1386833260,1,0,485.9,0,0,0,0,409,425,-0.0292,126.2922,6.8213,0.4212,54.899349,9.793900,108.3,5.845,1.85,335.95,54.901371,9.790428,54.895069,9.793790
1386833260,1,0,485.9,0,0,4,0,409,400,-0.0292,126.2922,6.8213,0.4212,54.899338,9.793924,108.3,5.845,1.85,335.95,54.901371,9.790428,54.895069,9.793790
1386833260,1,0,485.9,0,0,0,0,409,425,-0.0292,126.2922,6.8213,0.4212,54.899326,9.793949,108.3,5.845,1.85,335.95,54.901371,9.790428,54.895069,9.793790
1386833260,1,0,485.9,0,0,4,0,409,400,-0.0292,126.2922,6.8213,0.4212,54.899315,9.793975,108.3,5.845,1.85,335.95,54.901371,9.790428,54.895069,9.793790
1386833261,1,0,485.9,0,0,0,0,409,425,-0.0292,126.2922,6.8213,0.4212,54.899303,9.794000,108.3,5.845,1.85,335.95,54.901371,9.790428,54.895069,9.793790
1386833261,1,0,485.9,0,0,4,0,409,400,-0.0292,126.2922,6.8213,0.4212,54.899292,9.794025,108.3,5.845,1.85,335.95,54.901371,9.790428,54.895069,9.793790
1386833261,1,0,485.9,0,0,0,0,409,425,-0.0292,126.2922,6.8213,0.4212,54.899281,9.794050,108.3,5.845,1.85,335.95,54.901371,9.790428,54.895069,9.793790
1386833261,1,0,485.9,0,0,4,0,409,400,-0.0292,126.2922,6.8213,0.4212,54.899269,9.794075,108.3,5.845,1.85,335.95,54.901371,9.790428,54.895069,9.793790
1386833262,1,0,485.9,0,0,0,0,409,425,-0.0292,126.2922,6.8213,0.4212,54.899261,9.794101,108.3,5.845,1.85,335.95,54.901371,9.790428,54.895069,9.793790
1386833262,1,0,485.9,0,0,4,0,409,400,-0.0292,126.2922,6.8213,0.4212,54.899250,9.794126,108.3,5.845,1.85,335.95,54.901371,9.790428,54.895069,9.793790
1386833262,1,0,485.9,0,0,0,0,409,425,-0.0292,126.2922,6.8213,0.4212,54.899239,9.794151,108.3,5.845,1.85,335.95,54.901371,9.790428,54.895069,9.793790
1386833262,1,0,485.9,0,0,4,0,409,400,-0.0292,126.2922,6.8213,0.4212,54.899227,9.794176,108.3,5.845,1.85,335.95,54.901371,9.790428,54.895069,9.793790
1386833263,1,0,485.9,0,0,0,0,409,425,-0.0292,126.2922,6.8213,0.4212,54.899216,9.794201,108.3,5.845,1.85,335.95,54.901371,9.790428,54.895069,9.793790
1386833263,1,0,485.9,0,0,4,0,409,400,-0.0292,126.2922,6.8213,0.4212,54.899204,9.794227,108.3,5.845,1.85,335.95,54.901371,9.790428,54.895069,9.793790
1386833263,1,0,485.9,0,0,0,0,409,425,-0.0292,126.2922,6.8213,0.4212,54.899193,9.794251,108.3,5.845,1.85,335.95,54.901371,9.790428,54.895069,9.793790
1386833263,1,0,485.9,0,0,4,0,409,400,-0.0292,126.2922,6.8213,0.4212,54.899181,9.794277,108.3,5.845,1.85,335.95,54.901371,9.790428,54.895069,9.793790
1386833264,1,0,485.9,0,0,0,0,409,425,-0.0292,126.2922,6.8213,0.4212,54.899170,9.794302,108.3,5.845,1.85,335.95,54.901371,9.790428,54.895069,9.793790
1386833264,1,0,485.9,0,0,4,0,409,400,-0.0292,126.2922,6.8213,0.4212,54.899158,9.794328,108.3,5.845,1.85,335.95,54.901371,9.790428,54.895069,9.793790
1386833264,1,0,485.9,0,0,0,0,409,425,-0.0292,126.2922,6.8213,0.4212,54.899147,9.794353,108.3,5.845,1.85,335.95,54.901371,9.790428,54.895069,9.793790
1386833264,1,0,485.9,0,0,4,0,409,400,-0.0292,126.2922,6.8213,0.4212,54.899139,9.794377,108.3,5.845,1.85,335.95,54.901371,9.790428,54.895069,9.793790
1386833265,1,0,485.9,0,0,0,0,409,425,-0.0292,126.2922,6.8213,0.4212,54.899128,9.794403,108.3,5.845,1.85,335.95,54.901371,9.790428,54.895069,9.793790
1386833265,1,0,485.9,0,0,4,0,409,400,-0.0292,126.2922,6.8213,0.4212,54.899117,9.794428,108.3,5.845,1.85,335.95,54.901371,9.790428,54.895069,9.793790
1386833265,1,0,485.9,0,0,0,0,409,425,-0.0292,126.2922,6.8213,0.4212,54.899105,9.794454,108.3,5.845,1.85,335.95,54.901371,9.790428,54.895069,9.793790
1386833265,1,0,485.9,0,0,4,0,409,400,-0.0292,126.2922,6.8213,0.4212,54.899094,9.794478,108.3,5.845,1.85,335.95,54.901371,9.790428,54.895069,9.793790
1386833266,1,0,485.9,0,0,0,0,409,425,-0.0292,126.2922,6.8213,0.4212,54.899082,9.794503,108.3,5.845,1.85,335.95,54.901371,9.790428,54.895069,9.793790
1386833266,1,0,485.9,0,0,4,0,409,400,-0.0292,126.2922,6.8213,0.4212,54.899071,9.794529,108.3,5.845,1.85,335.95,54.901371,9.790428,54.895069,9.793790
1386833266,1,0,485.9,0,0,0,0,409,425,-0.0292,126.2922,6.8213,0.4212,54.899059,9.794554,108.3,5.845,1.85,335.95,54.901371,9.790428,54.895069,9.793790
1386833266,1,0,485.9,0,0,4,0,0,400,-0.0292,126.2922,6.8213,0.4212,54.899048,9.794580,108.3,5.845,1.85,335.95,54.901371,9.790428,54.895069,9.793790
1386833267,1,0,485.9,0,0,0,0,0,375,-0.0292,126.2922,6.8213,0.4212,54.899040,9.794604,108.3,5.845,1.85,335.95,54.901371,9.790428,54.895069,9.793790
1386833267,1,0,485.9,0,0,4,0,0,350,-0.0292,126.2922,6.8213,0.4212,54.899029,9.794629,108.3,5.845,1.85,335.95,54.901371,9.790428,54.895069,9.793790
1386833267,1,0,485.9,0,0,0,0,0,325,-0.0292,126.2922,6.8213,0.4212,54.899017,9.794654,108.3,5.845,1.85,335.95,54.901371,9.790428,54.895069,9.793790
1386833267,1,0,485.9,0,0,4,0,0,300,-0.0292,126.2922,6.8213,0.4212,54.899006,9.794679,108.3,5.845,1.85,335.95,54.901371,9.790428,54.895069,9.793790
1386833268,1,0,485.9,0,0,0,0,0,275,-0.0292,126.2922,6.8213,0.4212,54.898994,9.794704,108.3,5.845,1.85,335.95,54.901371,9.790428,54.895069,9.793790
1386833268,1,0,485.9,0,0,4,0,0,250,-0.0292,126.2922,6.8213,0.4212,54.898983,9.794729,108.3,5.845,1.85,335.95,54.901371,9.790428,54.895069,9.793790
1386833268,1,0,485.9,0,0,0,0,0,225,-0.0292,126.2922,6.8213,0.4212,54.898972,9.794755,108.3,5.845,1.85,335.95,54.901371,9.790428,54.895069,9.793790
1386833268,1,0,485.9,0,0,4,0,0,200,-0.0292,126.2922,6.8213,0.4212,54.898960,9.794780,108.3,5.845,1.85,335.95,54.901371,9.790428,54.895069,9.793790
1386833269,1,0,485.9,0,0,0,0,0,175,-0.0292,126.2922,6.8213,0.4212,54.898949,9.794805,108.3,5.845,1.85,335.95,54.901371,9.790428,54.895069,9.793790
1386833269,1,0,485.9,0,0,4,0,0,150,-0.0292,126.2922,6.8213,0.4212,54.898937,9.794830,108.3,5.845,1.85,335.95,54.901371,9.790428,54.895069,9.793790
1386833269,1,0,485.9,0,0,0,0,0,125,-0.0292,126.2922,6.8213,0.4212,54.898926,9.794855,108.3,5.845,1.85,335.95,54.901371,9.790428,54.895069,9.793790
1386833270,1,0,485.9,0,0,4,0,0,100,-0.0292,126.2922,6.8213,0.4212,54.898918,9.794881,108.3,5.845,1.85,335.95,54.901371,9.790428,54.895069,9.793790
1386833270,1,0,485.9,0,0,0,0,0,75,-0.0292,126.2922,6.8213,0.4212,54.898907,9.794906,108.3,5.845,1.85,335.95,54.901371,9.790428,54.895069,9.793790
1386833270,1,0,485.9,0,0,4,0,0,50,-0.0292,126.2922,6.8213,0.4212,54.898895,9.794930,108.3,5.845,1.85,335.95,54.901371,9.790428,54.895069,9.793790
1386833270,1,0,485.9,0,0,0,0,0,25,-0.0292,126.2922,6.8213,0.4212,54.898884,9.794956,108.3,5.845,1.85,335.95,54.901371,9.790428,54.895069,9.793790
1386833271,1,0,485.9,0,0,4,0,0,0,-0.0292,126.2922,6.8213,0.4212,54.898872,9.794981,108.3,5.845,1.85,335.95,54.901371,9.790428,54.895069,9.793790
1386833271,1,0,485.9,0,0,0,0,0,25,-0.0292,126.2922,6.8213,0.4212,54.898861,9.795007,108.3,5.845,1.85,335.95,54.901371,9.790428,54.895069,9.793790
1386833271,1,0,545.9,0,-35,-4,0,0,0,-0.0292,135.6255,6.8213,0.4212,54.898846,9.795029,108.3,5.845,1.85,335.95,54.901371,9.790428,54.895069,9.793790
1386833271,1,0,545.9,0,-35,-8,0,0,25,-0.0292,144.9588,6.8213,0.4212,54.898830,9.795047,108.3,5.845,1.85,335.95,54.901371,9.790428,54.895069,9.793790
1386833272,1,0,545.9,0,-35,-12,0,0,0,-0.0292,154.2921,6.8213,0.4212,54.898815,9.795060,108.3,5.845,1.85,335.95,54.901371,9.790428,54.895069,9.793790
1386833272,1,0,545.9,0,-32,-16,0,0,25,-0.0292,162.8255,6.8213,0.4212,54.898796,9.795070,108.3,5.845,1.85,335.95,54.901371,9.790428,54.895069,9.793790
1386833272,1,0,545.9,0,-23,-20,0,0,0,-0.0292,168.9588,6.8213,0.4212,54.898777,9.795076,108.3,5.845,1.85,335.95,54.901371,9.790428,54.895069,9.793790
1386833272,1,0,545.9,0,-17,-16,0,0,25,-0.0292,173.4922,6.8213,0.4212,54.898762,9.795079,108.3,5.845,1.85,335.95,54.901371,9.790428,54.895069,9.793790
1386833273,1,0,545.9,0,-12,-12,0,0,0,-0.0292,176.6922,6.8213,0.4212,54.898743,9.795080,108.3,5.845,1.85,335.95,54.901371,9.790428,54.895069,9.793790
1386833273,1,0,545.9,0,-9,-8,0,0,25,-0.0292,179.0921,6.8213,0.4212,54.898724,9.795080,108.3,5.845,1.85,335.95,54.901371,9.790428,54.895069,9.793790
1386833273,1,0,545.9,0,-7,-4,0,409,50,-0.0292,180.9588,6.8213,0.4212,54.898705,9.795079,108.3,5.845,1.85,335.95,54.901371,9.790428,54.895069,9.793790
1386833273,1,0,545.9,0,-5,-8,0,409,75,-0.0292,182.2921,6.8213,0.4212,54.898689,9.795077,108.3,5.845,1.85,335.95,54.901371,9.790428,54.895069,9.793790
1386833274,1,0,545.9,0,-4,-4,0,409,100,-0.0292,183.3588,6.8213,0.4212,54.898670,9.795075,108.3,5.845,1.85,335.95,54.901371,9.790428,54.895069,9.793790
1386833274,1,0,545.9,0,-3,0,0,409,125,-0.0292,184.1588,6.8213,0.4212,54.898651,9.795073,108.3,5.845,1.85,335.95,54.901371,9.790428,54.895069,9.793790
1386833274,1,0,545.9,0,-2,-4,0,409,150,-0.0292,184.6922,6.8213,0.4212,54.898632,9.795071,108.3,5.845,1.85,335.95,54.901371,9.790428,54.895069,9.793790
1386833274,1,0,545.9,0,-1,0,0,409,175,-0.0292,184.9588,6.8213,0.4212,54.898617,9.795069,108.3,5.845,1.85,335.95,54.901371,9.790428,54.895069,9.793790
1386833275,1,0,545.9,0,-1,-4,0,409,200,-0.0292,185.2255,6.8213,0.4212,54.898598,9.795066,108.3,5.845,1.85,335.95,54.901371,9.790428,54.895069,9.793790
1386833275,1,0,545.9,0,-1,0,0,409,225,-0.0292,185.4921,6.8213,0.4212,54.898579,9.795063,108.3,5.845,1.85,335.95,54.901371,9.790428,54.895069,9.793790
1386833275,1,0,545.9,0,0,4,0,409,250,-0.0292,185.4921,6.8213,0.4212,54.898563,9.795060,108.3,5.845,1.85,335.95,54.901371,9.790428,54.895069,9.793790
1386833275,1,0,545.9,0,0,0,0,409,275,-0.0292,185.4921,6.8213,0.4212,54.898544,9.795057,108.3,5.845,1.85,335.95,54.901371,9.790428,54.895069,9.793790
1386833276,1,0,545.9,0,0,4,0,409,300,-0.0292,185.4921,6.8213,0.4212,54.898525,9.795054,108.3,5.845,1.85,335.95,54.901371,9.790428,54.895069,9.793790
1386833276,1,0,545.9,0,0,0,0,409,325,-0.0292,185.4921,6.8213,0.4212,54.898506,9.795052,108.3,5.845,1.85,335.95,54.901371,9.790428,54.895069,9.793790
1386833276,1,0,546.1,0,-1,-4,0,409,350,-0.0292,185.7588,6.8213,0.4212,54.898491,9.795049,108.3,5.845,1.85,335.95,54.901371,9.790428,54.895069,9.793790
1386833276,1,0,552.0,0,-6,-8,0,409,375,-0.0292,187.3588,6.8213,0.4212,54.898472,9.795045,108.3,5.845,1.85,335.95,54.901371,9.790428,54.895069,9.793790
1386833277,1,0,552.0,0,-5,-4,0,409,400,-0.0292,188.6921,6.8213,0.4212,54.898453,9.795040,108.3,5.845,1.85,335.95,54.901371,9.790428,54.895069,9.793790
1386833277,1,0,552.1,0,-3,0,0,409,425,-0.0292,189.4921,6.8213,0.4212,54.898434,9.795034,108.3,5.845,1.85,335.95,54.901371,9.790428,54.895069,9.793790
1386833277,1,0,552.1,0,-3,-4,0,409,400,-0.0292,190.2921,6.8213,0.4212,54.898418,9.795029,108.3,5.845,1.85,335.95,54.901371,9.790428,54.895069,9.793790
1386833277,1,0,552.1,0,-2,0,0,409,425,-0.0292,190.8255,6.8213,0.4212,54.898399,9.795023,108.3,5.845,1.85,335.95,54.901371,9.790428,54.895069,9.793790
1386833278,1,0,552.1,0,-1,-4,0,409,400,-0.0292,191.0921,6.8213,0.4212,54.898380,9.795017,108.3,5.845,1.85,335.95,54.901371,9.790428,54.895069,9.793790
1386833278,1,0,552.1,0,-1,0,0,409,425,-0.0292,191.3588,6.8213,0.4212,54.898365,9.795012,108.3,5.845,1.85,335.95,54.901371,9.790428,54.895069,9.793790
1386833278,1,0,552.1,0,-1,-4,0,409,400,-0.0292,191.6255,6.8213,0.4212,54.898346,9.795005,108.3,5.845,1.85,335.95,54.901371,9.790428,54.895069,9.793790
1386833278,1,0,552.1,0,0,0,0,409,425,-0.0292,191.6255,6.8213,0.4212,54.898327,9.794998,108.3,5.845,1.85,335.95,54.901371,9.790428,54.895069,9.793790
1386833279,1,0,552.1,0,0,4,0,409,400,-0.0292,191.6255,6.8213,0.4212,54.898308,9.794991,108.3,5.845,1.85,335.95,54.901371,9.790428,54.895069,9.793790
1386833279,1,0,552.1,0,0,0,0,409,425,-0.0292,191.6255,6.8213,0.4212,54.898293,9.794985,108.3,5.845,1.85,335.95,54.901371,9.790428,54.895069,9.793790
1386833279,1,0,552.1,0,0,4,0,409,400,-0.0292,191.6255,6.8213,0.4212,54.898273,9.794979,108.3,5.845,1.85,335.95,54.901371,9.790428,54.895069,9.793790
1386833279,1,0,552.1,0,0,0,0,409,425,-0.0292,191.6255,6.8213,0.4212,54.898254,9.794973,108.3,5.845,1.85,335.95,54.901371,9.790428,54.895069,9.793790
1386833280,1,0,552.1,0,-1,-4,0,409,400,-0.0292,191.8921,6.8213,0.4212,54.898235,9.794967,108.3,5.845,1.85,335.95,54.901371,9.790428,54.895069,9.793790
1386833280,1,0,552.1,0,0,0,0,409,425,-0.0292,191.8921,6.8213,0.4212,54.898220,9.794960,108.3,5.845,1.85,335.95,54.901371,9.790428,54.895069,9.793790
1386833280,1,0,552.1,0,0,4,0,409,400,-0.0292,191.8921,6.8213,0.4212,54.898201,9.794953,108.3,5.845,1.85,335.95,54.901371,9.790428,54.895069,9.793790
1386833280,1,0,552.1,0,0,0,0,409,425,-0.0292,191.8921,6.8213,0.4212,54.898182,9.794947,108.3,5.845,1.85,335.95,54.901371,9.790428,54.895069,9.793790
1386833281,1,0,552.1,0,0,4,0,409,400,-0.0292,191.8921,6.8213,0.4212,54.898163,9.794940,108.3,5.845,1.85,335.95,54.901371,9.790428,54.895069,9.793790
1386833281,1,0,552.1,0,0,0,0,409,425,-0.0292,191.8921,6.8213,0.4212,54.898148,9.794934,108.3,5.845,1.85,335.95,54.901371,9.790428,54.895069,9.793790
1386833281,1,0,552.1,0,0,4,0,409,400,-0.0292,191.8921,6.8213,0.4212,54.898129,9.794928,108.3,5.845,1.85,335.95,54.901371,9.790428,54.895069,9.793790
1386833281,1,0,552.1,0,0,0,0,409,425,-0.0292,191.8921,6.8213,0.4212,54.898109,9.794921,108.3,5.845,1.85,335.95,54.901371,9.790428,54.895069,9.793790
1386833282,1,0,552.1,0,0,4,0,409,400,-0.0292,191.8921,6.8213,0.4212,54.898094,9.794914,108.3,5.845,1.85,335.95,54.901371,9.790428,54.895069,9.793790
1386833282,1,0,552.1,0,0,0,0,409,425,-0.0292,191.8921,6.8213,0.4212,54.898075,9.794908,108.3,5.845,1.85,335.95,54.901371,9.790428,54.895069,9.793790
1386833282,1,0,552.1,0,0,4,0,409,400,-0.0292,191.8921,6.8213,0.4212,54.898056,9.794901,108.3,5.845,1.85,335.95,54.901371,9.790428,54.895069,9.793790
1386833282,1,0,552.1,0,0,0,0,409,425,-0.0292,191.8921,6.8213,0.4212,54.898037,9.794895,108.3,5.845,1.85,335.95,54.901371,9.790428,54.895069,9.793790
1386833283,1,0,552.2,0,0,4,0,409,400,-0.0292,191.8921,6.8213,0.4212,54.898022,9.794889,108.3,5.845,1.85,335.95,54.901371,9.790428,54.895069,9.793790
1386833283,1,0,552.2,0,0,0,0,409,425,-0.0292,191.8921,6.8213,0.4212,54.898003,9.794883,108.3,5.845,1.85,335.95,54.901371,9.790428,54.895069,9.793790
1386833283,1,0,552.2,0,0,4,0,409,400,-0.0292,191.8921,6.8213,0.4212,54.897984,9.794876,108.3,5.845,1.85,335.95,54.901371,9.790428,54.895069,9.793790
1386833283,1,0,552.2,0,0,0,0,409,425,-0.0292,191.8921,6.8213,0.4212,54.897964,9.794869,108.3,5.845,1.85,335.95,54.901371,9.790428,54.895069,9.793790
1386833284,1,0,552.2,0,0,4,0,409,400,-0.0292,191.8921,6.8213,0.4212,54.897949,9.794863,108.3,5.845,1.85,335.95,54.901371,9.790428,54.895069,9.793790
1386833284,1,0,552.2,0,0,0,0,409,425,-0.0292,191.8921,6.8213,0.4212,54.897930,9.794856,108.3,5.845,1.85,335.95,54.901371,9.790428,54.895069,9.793790
1386833284,1,0,552.2,0,0,4,0,409,400,-0.0292,191.8921,6.8213,0.4212,54.897911,9.794850,108.3,5.845,1.85,335.95,54.901371,9.790428,54.895069,9.793790
1386833284,1,0,552.2,0,0,0,0,409,425,-0.0292,191.8921,6.8213,0.4212,54.897892,9.794845,108.3,5.845,1.85,335.95,54.901371,9.790428,54.895069,9.793790
1386833285,1,0,552.2,0,0,4,0,409,400,-0.0292,191.8921,6.8213,0.4212,54.897877,9.794838,108.3,5.845,1.85,335.95,54.901371,9.790428,54.895069,9.793790
1386833285,1,0,552.2,0,0,0,0,409,425,-0.0292,191.8921,6.8213,0.4212,54.897858,9.794831,108.3,5.845,1.85,335.95,54.901371,9.790428,54.895069,9.793790
1386833285,1,0,552.2,0,0,4,0,409,400,-0.0292,191.8921,6.8213,0.4212,54.897839,9.794825,108.3,5.845,1.85,335.95,54.901371,9.790428,54.895069,9.793790
1386833285,1,0,552.2,0,0,0,0,409,425,-0.0292,191.8921,6.8213,0.4212,54.897823,9.794818,108.3,5.845,1.85,335.95,54.901371,9.790428,54.895069,9.793790
1386833286,1,0,552.2,0,0,4,0,409,400,-0.0292,191.8921,6.8213,0.4212,54.897808,9.794811,108.3,5.845,1.85,335.95,54.901371,9.790428,54.895069,9.793790
1386833286,1,0,552.2,0,0,0,0,409,425,-0.0292,191.8921,6.8213,0.4212,54.897789,9.794806,108.3,5.845,1.85,335.95,54.901371,9.790428,54.895069,9.793790
1386833286,1,0,552.2,0,0,4,0,409,400,-0.0292,191.8921,6.8213,0.4212,54.897770,9.794799,108.3,5.845,1.85,335.95,54.901371,9.790428,54.895069,9.793790
1386833286,1,0,552.2,0,0,0,0,409,425,-0.0292,191.8921,6.8213,0.4212,54.897755,9.794792,108.3,5.845,1.85,335.95,54.901371,9.790428,54.895069,9.793790
1386833287,1,0,552.2,0,0,4,0,409,400,-0.0292,191.8921,6.8213,0.4212,54.897736,9.794785,108.3,5.845,1.85,335.95,54.901371,9.790428,54.895069,9.793790
1386833287,1,0,552.2,0,0,0,0,409,425,-0.0292,191.8921,6.8213,0.4212,54.897717,9.794779,108.3,5.845,1.85,335.95,54.901371,9.790428,54.895069,9.793790
1386833287,1,0,552.2,0,0,4,0,409,400,-0.0292,191.8921,6.8213,0.4212,54.897701,9.794772,108.3,5.845,1.85,335.95,54.901371,9.790428,54.895069,9.793790
1386833287,1,0,552.2,0,0,0,0,409,425,-0.0292,191.8921,6.8213,0.4212,54.897682,9.794766,108.3,5.845,1.85,335.95,54.901371,9.790428,54.895069,9.793790
1386833288,1,0,552.2,0,0,4,0,409,400,-0.0292,191.8921,6.8213,0.4212,54.897663,9.794761,108.3,5.845,1.85,335.95,54.901371,9.790428,54.895069,9.793790
1386833288,1,0,552.2,0,0,0,0,409,425,-0.0292,191.8921,6.8213,0.4212,54.897644,9.794754,108.3,5.845,1.85,335.95,54.901371,9.790428,54.895069,9.793790
1386833288,1,0,552.2,0,0,4,0,409,400,-0.0292,191.8921,6.8213,0.4212,54.897629,9.794747,108.3,5.845,1.85,335.95,54.901371,9.790428,54.895069,9.793790
1386833288,1,0,552.2,0,0,0,0,409,425,-0.0292,191.8921,6.8213,0.4212,54.897610,9.794741,108.3,5.845,1.85,335.95,54.901371,9.790428,54.895069,9.793790
1386833289,1,0,552.2,0,0,4,0,409,400,-0.0292,191.8921,6.8213,0.4212,54.897591,9.794734,108.3,5.845,1.85,335.95,54.901371,9.790428,54.895069,9.793790
1386833289,1,0,552.2,0,0,0,0,409,425,-0.0292,191.8921,6.8213,0.4212,54.897572,9.794727,108.3,5.845,1.85,335.95,54.901371,9.790428,54.895069,9.793790
1386833289,1,0,552.2,0,0,4,0,409,400,-0.0292,191.8921,6.8213,0.4212,54.897556,9.794722,108.3,5.845,1.85,335.95,54.901371,9.790428,54.895069,9.793790
1386833289,1,0,552.2,0,0,0,0,409,425,-0.0292,191.8921,6.8213,0.4212,54.897537,9.794716,108.3,5.845,1.85,335.95,54.901371,9.790428,54.895069,9.793790
1386833290,1,0,552.2,0,0,4,0,409,400,-0.0292,191.8921,6.8213,0.4212,54.897518,9.794709,108.3,5.845,1.85,335.95,54.901371,9.790428,54.895069,9.793790
1386833290,1,0,552.3,0,0,0,0,409,425,-0.0292,191.8921,6.8213,0.4212,54.897499,9.794703,108.3,5.845,1.85,335.95,54.901371,9.790428,54.895069,9.793790
1386833290,1,0,552.3,0,0,4,0,409,400,-0.0292,191.8921,6.8213,0.4212,54.897484,9.794696,108.3,5.845,1.85,335.95,54.901371,9.790428,54.895069,9.793790
1386833290,1,0,552.2,0,0,0,0,409,425,-0.0292,191.8921,6.8213,0.4212,54.897465,9.794689,108.3,5.845,1.85,335.95,54.901371,9.790428,54.895069,9.793790
1386833291,1,0,552.3,0,0,4,0,409,400,-0.0292,191.8921,6.8213,0.4212,54.897446,9.794683,108.3,5.845,1.85,335.95,54.901371,9.790428,54.895069,9.793790
1386833291,1,0,552.3,0,0,0,0,409,425,-0.0292,191.8921,6.8213,0.4212,54.897430,9.794677,108.3,5.845,1.85,335.95,54.901371,9.790428,54.895069,9.793790
1386833291,1,0,552.3,0,0,4,0,409,400,-0.0292,191.8921,6.8213,0.4212,54.897411,9.794670,108.3,5.845,1.85,335.95,54.901371,9.790428,54.895069,9.793790
1386833291,1,0,552.3,0,0,0,0,409,425,-0.0292,191.8921,6.8213,0.4212,54.897392,9.794663,108.3,5.845,1.85,335.95,54.901371,9.790428,54.895069,9.793790
1386833292,1,0,552.3,0,0,4,0,409,400,-0.0292,191.8921,6.8213,0.4212,54.897373,9.794657,108.3,5.845,1.85,335.95,54.901371,9.790428,54.895069,9.793790
1386833292,1,0,552.3,0,0,0,0,409,425,-0.0292,191.8921,6.8213,0.4212,54.897358,9.794650,108.3,5.845,1.85,335.95,54.901371,9.790428,54.895069,9.793790
1386833292,1,0,552.3,0,0,4,0,409,400,-0.0292,191.8921,6.8213,0.4212,54.897339,9.794643,108.3,5.845,1.85,335.95,54.901371,9.790428,54.895069,9.793790
1386833292,1,0,552.3,0,0,0,0,409,425,-0.0292,191.8921,6.8213,0.4212,54.897320,9.794638,108.3,5.845,1.85,335.95,54.901371,9.790428,54.895069,9.793790
1386833293,1,0,552.3,0,0,4,0,409,400,-0.0292,191.8921,6.8213,0.4212,54.897301,9.794632,108.3,5.845,1.85,335.95,54.901371,9.790428,54.895069,9.793790
1386833293,1,0,552.3,0,0,0,0,409,425,-0.0292,191.8921,6.8213,0.4212,54.897285,9.794625,108.3,5.845,1.85,335.95,54.901371,9.790428,54.895069,9.793790
1386833293,1,0,552.3,0,0,4,0,409,400,-0.0292,191.8921,6.8213,0.4212,54.897266,9.794619,108.3,5.845,1.85,335.95,54.901371,9.790428,54.895069,9.793790
1386833293,1,0,552.3,0,0,0,0,409,425,-0.0292,191.8921,6.8213,0.4212,54.897247,9.794612,108.3,5.845,1.85,335.95,54.901371,9.790428,54.895069,9.793790
1386833294,1,0,552.3,0,0,4,0,409,400,-0.0292,191.8921,6.8213,0.4212,54.897228,9.794605,108.3,5.845,1.85,335.95,54.901371,9.790428,54.895069,9.793790
1386833294,1,0,552.3,0,0,0,0,409,425,-0.0292,191.8921,6.8213,0.4212,54.897213,9.794599,108.3,5.845,1.85,335.95,54.901371,9.790428,54.895069,9.793790
1386833294,1,0,552.3,0,0,4,0,409,400,-0.0292,191.8921,6.8213,0.4212,54.897194,9.794593,108.3,5.845,1.85,335.95,54.901371,9.790428,54.895069,9.793790
1386833294,1,0,552.3,0,0,0,0,409,425,-0.0292,191.8921,6.8213,0.4212,54.897175,9.794587,108.3,5.845,1.85,335.95,54.901371,9.790428,54.895069,9.793790
1386833295,1,0,552.4,0,0,4,0,409,400,-0.0292,191.8921,6.8213,0.4212,54.897160,9.794580,108.3,5.845,1.85,335.95,54.901371,9.790428,54.895069,9.793790
1386833295,1,0,552.3,0,0,0,0,409,425,-0.0292,191.8921,6.8213,0.4212,54.897141,9.794574,108.3,5.845,1.85,335.95,54.901371,9.790428,54.895069,9.793790
1386833295,1,0,552.4,0,0,4,0,409,400,-0.0292,191.8921,6.8213,0.4212,54.897121,9.794567,108.3,5.845,1.85,335.95,54.901371,9.790428,54.895069,9.793790
1386833295,1,0,552.4,0,0,0,0,409,425,-0.0292,191.8921,6.8213,0.4212,54.897102,9.794560,108.3,5.845,1.85,335.95,54.901371,9.790428,54.895069,9.793790
1386833296,1,0,552.4,0,0,4,0,409,400,-0.0292,191.8921,6.8213,0.4212,54.897087,9.794554,108.3,5.845,1.85,335.95,54.901371,9.790428,54.895069,9.793790
1386833296,1,0,552.4,0,0,0,0,409,425,-0.0292,191.8921,6.8213,0.4212,54.897068,9.794548,108.3,5.845,1.85,335.95,54.901371,9.790428,54.895069,9.793790
1386833296,1,0,552.4,0,0,4,0,409,400,-0.0292,191.8921,6.8213,0.4212,54.897049,9.794541,108.3,5.845,1.85,335.95,54.901371,9.790428,54.895069,9.793790
1386833296,1,0,552.4,0,0,0,0,409,425,-0.0292,191.8921,6.8213,0.4212,54.897030,9.794535,108.3,5.845,1.85,335.95,54.901371,9.790428,54.895069,9.793790
1386833297,1,0,552.4,0,-1,-4,0,409,400,-0.0292,192.1588,6.8213,0.4212,54.897015,9.794528,108.3,5.845,1.85,335.95,54.901371,9.790428,54.895069,9.793790
1386833297,1,0,552.4,0,0,0,0,409,425,-0.0292,192.1588,6.8213,0.4212,54.896996,9.794521,108.3,5.845,1.85,335.95,54.901371,9.790428,54.895069,9.793790
1386833297,1,0,552.4,0,0,4,0,409,400,-0.0292,192.1588,6.8213,0.4212,54.896976,9.794515,108.3,5.845,1.85,335.95,54.901371,9.790428,54.895069,9.793790
1386833297,1,0,552.4,0,0,0,0,409,425,-0.0292,192.1588,6.8213,0.4212,54.896957,9.794509,108.3,5.845,1.85,335.95,54.901371,9.790428,54.895069,9.793790
1386833298,1,0,552.4,0,0,4,0,409,400,-0.0292,192.1588,6.8213,0.4212,54.896942,9.794502,108.3,5.845,1.85,335.95,54.901371,9.790428,54.895069,9.793790
1386833298,1,0,552.4,0,0,0,0,409,425,-0.0292,192.1588,6.8213,0.4212,54.896923,9.794496,108.3,5.845,1.85,335.95,54.901371,9.790428,54.895069,9.793790
1386833298,1,0,552.4,0,0,4,0,409,400,-0.0292,192.1588,6.8213,0.4212,54.896904,9.794489,108.3,5.845,1.85,335.95,54.901371,9.790428,54.895069,9.793790
1386833298,1,0,552.4,0,0,0,0,409,425,-0.0292,192.1588,6.8213,0.4212,54.896889,9.794482,108.3,5.845,1.85,335.95,54.901371,9.790428,54.895069,9.793790
1386833299,1,0,552.4,0,0,4,0,409,400,-0.0292,192.1588,6.8213,0.4212,54.896873,9.794476,108.3,5.845,1.85,335.95,54.901371,9.790428,54.895069,9.793790
1386833299,1,0,552.4,0,0,0,0,409,425,-0.0292,192.1588,6.8213,0.4212,54.896854,9.794469,108.3,5.845,1.85,335.95,54.901371,9.790428,54.895069,9.793790
1386833299,1,0,552.4,0,0,4,0,409,400,-0.0292,192.1588,6.8213,0.4212,54.896835,9.794462,108.3,5.845,1.85,335.95,54.901371,9.790428,54.895069,9.793790
1386833300,1,0,552.4,0,0,0,0,409,425,-0.0292,192.1588,6.8213,0.4212,54.896820,9.794456,108.3,5.845,1.85,335.95,54.901371,9.790428,54.895069,9.793790
1386833300,1,0,552.4,0,0,4,0,409,400,-0.0292,192.1588,6.8213,0.4212,54.896801,9.794449,108.3,5.845,1.85,335.95,54.901371,9.790428,54.895069,9.793790
1386833300,1,0,552.4,0,0,0,0,409,425,-0.0292,192.1588,6.8213,0.4212,54.896782,9.794442,108.3,5.845,1.85,335.95,54.901371,9.790428,54.895069,9.793790
1386833300,1,0,552.4,0,0,4,0,409,400,-0.0292,192.1588,6.8213,0.4212,54.896767,9.794436,108.3,5.845,1.85,335.95,54.901371,9.790428,54.895069,9.793790
1386833301,1,0,552.4,0,0,0,0,409,425,-0.0292,192.1588,6.8213,0.4212,54.896748,9.794429,108.3,5.845,1.85,335.95,54.901371,9.790428,54.895069,9.793790
1386833301,1,0,552.4,0,0,4,0,409,400,-0.0292,192.1588,6.8213,0.4212,54.896729,9.794423,108.3,5.845,1.85,335.95,54.901371,9.790428,54.895069,9.793790
1386833301,1,0,552.5,0,0,0,0,409,425,-0.0292,192.1588,6.8213,0.4212,54.896709,9.794416,108.3,5.845,1.85,335.95,54.901371,9.790428,54.895069,9.793790
1386833301,1,0,552.5,0,0,4,0,409,400,-0.0292,192.1588,6.8213,0.4212,54.896694,9.794410,108.3,5.845,1.85,335.95,54.901371,9.790428,54.895069,9.793790
1386833302,1,0,552.4,0,0,0,0,409,425,-0.0292,192.1588,6.8213,0.4212,54.896675,9.794403,108.3,5.845,1.85,335.95,54.901371,9.790428,54.895069,9.793790
1386833302,1,0,552.5,0,0,4,0,409,400,-0.0292,192.1588,6.8213,0.4212,54.896656,9.794396,108.3,5.845,1.85,335.95,54.901371,9.790428,54.895069,9.793790
1386833302,1,0,552.5,0,0,0,0,409,425,-0.0292,192.1588,6.8213,0.4212,54.896637,9.794390,108.3,5.845,1.85,335.95,54.901371,9.790428,54.895069,9.793790
1386833302,1,0,552.5,0,0,4,0,409,400,-0.0292,192.1588,6.8213,0.4212,54.896622,9.794383,108.3,5.845,1.85,335.95,54.901371,9.790428,54.895069,9.793790
1386833303,1,0,552.5,0,0,0,0,409,425,-0.0292,192.1588,6.8213,0.4212,54.896603,9.794376,108.3,5.845,1.85,335.95,54.901371,9.790428,54.895069,9.793790
1386833303,1,0,552.5,0,0,4,0,409,400,-0.0292,192.1588,6.8213,0.4212,54.896584,9.794370,108.3,5.845,1.85,335.95,54.901371,9.790428,54.895069,9.793790
1386833303,1,0,552.5,0,0,0,0,409,425,-0.0292,192.1588,6.8213,0.4212,54.896564,9.794363,108.3,5.845,1.85,335.95,54.901371,9.790428,54.895069,9.793790
1386833303,1,0,552.5,0,0,4,0,409,400,-0.0292,192.1588,6.8213,0.4212,54.896549,9.794356,108.3,5.845,1.85,335.95,54.901371,9.790428,54.895069,9.793790
1386833304,1,0,552.5,0,0,0,0,409,425,-0.0292,192.1588,6.8213,0.4212,54.896530,9.794350,108.3,5.845,1.85,335.95,54.901371,9.790428,54.895069,9.793790
1386833304,1,0,552.5,0,0,4,0,409,400,-0.0292,192.1588,6.8213,0.4212,54.896511,9.794343,108.3,5.845,1.85,335.95,54.901371,9.790428,54.895069,9.793790
1386833304,1,0,552.5,0,0,0,0,409,425,-0.0292,192.1588,6.8213,0.4212,54.896496,9.794337,108.3,5.845,1.85,335.95,54.901371,9.790428,54.895069,9.793790
1386833304,1,0,552.5,0,0,4,0,409,400,-0.0292,192.1588,6.8213,0.4212,54.896477,9.794331,108.3,5.845,1.85,335.95,54.901371,9.790428,54.895069,9.793790
1386833305,1,0,552.5,0,0,0,0,409,425,-0.0292,192.1588,6.8213,0.4212,54.896458,9.794324,108.3,5.845,1.85,335.95,54.901371,9.790428,54.895069,9.793790
1386833305,1,0,552.5,0,0,4,0,409,400,-0.0292,192.1588,6.8213,0.4212,54.896439,9.794317,108.3,5.845,1.85,335.95,54.901371,9.790428,54.895069,9.793790
1386833305,1,0,552.6,0,0,0,0,409,425,-0.0292,192.1588,6.8213,0.4212,54.896423,9.794311,108.3,5.845,1.85,335.95,54.901371,9.790428,54.895069,9.793790
1386833305,1,0,552.5,0,0,4,0,409,400,-0.0292,192.1588,6.8213,0.4212,54.896404,9.794304,108.3,5.845,1.85,335.95,54.901371,9.790428,54.895069,9.793790
1386833306,1,0,552.6,0,0,0,0,409,425,-0.0292,192.1588,6.8213,0.4212,54.896385,9.794297,108.3,5.845,1.85,335.95,54.901371,9.790428,54.895069,9.793790
1386833306,1,0,552.6,0,0,4,0,409,400,-0.0292,192.1588,6.8213,0.4212,54.896366,9.794291,108.3,5.845,1.85,335.95,54.901371,9.790428,54.895069,9.793790
1386833306,1,0,552.6,0,0,0,0,409,425,-0.0292,192.1588,6.8213,0.4212,54.896351,9.794284,108.3,5.845,1.85,335.95,54.901371,9.790428,54.895069,9.793790
1386833306,1,0,552.6,0,0,4,0,409,400,-0.0292,192.1588,6.8213,0.4212,54.896332,9.794277,108.3,5.845,1.85,335.95,54.901371,9.790428,54.895069,9.793790
1386833307,1,0,552.6,0,0,0,0,409,425,-0.0292,192.1588,6.8213,0.4212,54.896313,9.794271,108.3,5.845,1.85,335.95,54.901371,9.790428,54.895069,9.793790
1386833307,1,0,552.6,0,0,4,0,409,400,-0.0292,192.1588,6.8213,0.4212,54.896294,9.794264,108.3,5.845,1.85,335.95,54.901371,9.790428,54.895069,9.793790
1386833307,1,0,552.6,0,0,0,0,409,425,-0.0292,192.1588,6.8213,0.4212,54.896278,9.794257,108.3,5.845,1.85,335.95,54.901371,9.790428,54.895069,9.793790
1386833307,1,0,552.6,0,0,4,0,409,400,-0.0292,192.1588,6.8213,0.4212,54.896259,9.794251,108.3,5.845,1.85,335.95,54.901371,9.790428,54.895069,9.793790
1386833308,1,0,552.6,0,0,0,0,409,425,-0.0292,192.1588,6.8213,0.4212,54.896240,9.794245,108.3,5.845,1.85,335.95,54.901371,9.790428,54.895069,9.793790
1386833308,1,0,552.7,0,-1,-4,0,409,400,-0.0292,192.4255,6.8213,0.4212,54.896225,9.794238,108.3,5.845,1.85,335.95,54.901371,9.790428,54.895069,9.793790
1386833308,1,0,552.6,0,0,0,0,409,425,-0.0292,192.4255,6.8213,0.4212,54.896206,9.794231,108.3,5.845,1.85,335.95,54.901371,9.790428,54.895069,9.793790
1386833308,1,0,552.7,0,0,4,0,409,400,-0.0292,192.4255,6.8213,0.4212,54.896187,9.794225,108.3,5.845,1.85,335.95,54.901371,9.790428,54.895069,9.793790
1386833309,1,0,552.7,0,0,0,0,409,425,-0.0292,192.4255,6.8213,0.4212,54.896168,9.794218,108.3,5.845,1.85,335.95,54.901371,9.790428,54.895069,9.793790
1386833309,1,0,552.7,0,0,4,0,409,400,-0.0292,192.4255,6.8213,0.4212,54.896152,9.794210,108.3,5.845,1.85,335.95,54.901371,9.790428,54.895069,9.793790
1386833309,1,0,552.7,0,0,0,0,409,425,-0.0292,192.4255,6.8213,0.4212,54.896133,9.794204,108.3,5.845,1.85,335.95,54.901371,9.790428,54.895069,9.793790
1386833309,1,0,552.7,0,0,4,0,409,400,-0.0292,192.4255,6.8213,0.4212,54.896114,9.794197,108.3,5.845,1.85,335.95,54.901371,9.790428,54.895069,9.793790
1386833310,1,0,552.7,0,0,0,0,409,425,-0.0292,192.4255,6.8213,0.4212,54.896095,9.794190,108.3,5.845,1.85,335.95,54.901371,9.790428,54.895069,9.793790
1386833310,1,0,552.7,0,0,4,0,409,400,-0.0292,192.4255,6.8213,0.4212,54.896080,9.794184,108.3,5.845,1.85,335.95,54.901371,9.790428,54.895069,9.793790
1386833310,1,0,552.7,0,0,0,0,409,425,-0.0292,192.4255,6.8213,0.4212,54.896061,9.794177,108.3,5.845,1.85,335.95,54.901371,9.790428,54.895069,9.793790
1386833310,1,0,552.7,0,0,4,0,409,400,-0.0292,192.4255,6.8213,0.4212,54.896042,9.794170,108.3,5.845,1.85,335.95,54.901371,9.790428,54.895069,9.793790
1386833311,1,0,552.8,0,0,0,0,409,425,-0.0292,192.4255,6.8213,0.4212,54.896023,9.794164,108.3,5.845,1.85,335.95,54.901371,9.790428,54.895069,9.793790
1386833311,1,0,552.8,0,0,4,0,409,400,-0.0292,192.4255,6.8213,0.4212,54.896008,9.794157,108.3,5.845,1.85,335.95,54.901371,9.790428,54.895069,9.793790
1386833311,1,0,552.8,0,0,0,0,409,425,-0.0292,192.4255,6.8213,0.4212,54.895988,9.794150,108.3,5.845,1.85,335.95,54.901371,9.790428,54.895069,9.793790
1386833311,1,0,552.8,0,0,4,0,409,400,-0.0292,192.4255,6.8213,0.4212,54.895969,9.794144,108.3,5.845,1.85,335.95,54.901371,9.790428,54.895069,9.793790
1386833312,1,0,552.8,0,0,0,0,409,425,-0.0292,192.4255,6.8213,0.4212,54.895954,9.794137,108.3,5.845,1.85,335.95,54.901371,9.790428,54.895069,9.793790
1386833312,1,0,552.8,0,0,4,0,409,400,-0.0292,192.4255,6.8213,0.4212,54.895939,9.794130,108.3,5.845,1.85,335.95,54.901371,9.790428,54.895069,9.793790
1386833312,1,0,552.8,0,0,0,0,409,425,-0.0292,192.4255,6.8213,0.4212,54.895920,9.794124,108.3,5.845,1.85,335.95,54.901371,9.790428,54.895069,9.793790
1386833312,1,0,552.8,0,0,4,0,409,400,-0.0292,192.4255,6.8213,0.4212,54.895901,9.794117,108.3,5.845,1.85,335.95,54.901371,9.790428,54.895069,9.793790
1386833313,1,0,552.8,0,0,0,0,409,425,-0.0292,192.4255,6.8213,0.4212,54.895885,9.794110,108.3,5.845,1.85,335.95,54.901371,9.790428,54.895069,9.793790
1386833313,1,0,552.8,0,0,4,0,409,400,-0.0292,192.4255,6.8213,0.4212,54.895866,9.794104,108.3,5.845,1.85,335.95,54.901371,9.790428,54.895069,9.793790
1386833313,1,0,552.8,0,0,0,0,409,425,-0.0292,192.4255,6.8213,0.4212,54.895847,9.794097,108.3,5.845,1.85,335.95,54.901371,9.790428,54.895069,9.793790
1386833313,1,0,552.9,0,0,4,0,409,400,-0.0292,192.4255,6.8213,0.4212,54.895832,9.794090,108.3,5.845,1.85,335.95,54.901371,9.790428,54.895069,9.793790
1386833314,1,0,552.8,0,0,0,0,409,425,-0.0292,192.4255,6.8213,0.4212,54.895813,9.794083,108.3,5.845,1.85,335.95,54.901371,9.790428,54.895069,9.793790
1386833314,1,0,552.8,0,0,4,0,409,400,-0.0292,192.4255,6.8213,0.4212,54.895794,9.794076,108.3,5.845,1.85,335.95,54.901371,9.790428,54.895069,9.793790
