MCU_timestamp,Navigation_System,Manual_Control,Guidance_Heading,Manual_Ctrl_Rudder,Rudder_Desired_Angle,Rudder_Feedback,Manual_Ctrl_Sail,Sail_Desired_Pos,Sail_Feedback,Rate,Heading,Pitch,Roll,Latitude,Longitude,COG,SOG,Wind_Speed,Wind_Angle,Point_Start_Lat,Point_Start_Lon,Point_End_Lat,Point_End_Lon
1386924964,0,0,0.0,0,0,-32,0,0,0,-0.0292,-2549.7058,6.8213,0.4212,54.895123,9.793576,108.3,5.845,1.85,335.95,0.000000,0.000000,0.000000,0.000000
1386924965,0,0,0.0,0,0,-32,0,0,0,-0.0292,-2549.7058,6.8213,0.4212,54.895123,9.793576,108.3,5.845,1.85,335.95,0.000000,0.000000,0.000000,0.000000
1386924965,0,0,0.0,0,0,-32,0,0,0,-0.0292,-2549.7058,6.8213,0.4212,54.895123,9.793576,108.3,5.845,1.85,335.95,0.000000,0.000000,0.000000,0.000000
1386924965,0,0,0.0,0,0,-32,0,0,0,-0.0292,-2549.7058,6.8213,0.4212,54.895123,9.793576,108.3,5.845,1.85,335.95,0.000000,0.000000,0.000000,0.000000
1386924965,0,0,0.0,0,0,-32,0,0,0,-0.0292,-2549.7058,6.8213,0.4212,54.895123,9.793576,108.3,5.845,1.85,335.95,0.000000,0.000000,0.000000,0.000000
1386924966,0,0,0.0,0,0,-32,0,0,0,-0.0292,-2549.7058,6.8213,0.4212,54.895123,9.793576,108.3,5.845,1.85,335.95,0.000000,0.000000,0.000000,0.000000
1386924966,0,0,0.0,0,0,-32,0,0,0,-0.0292,-2549.7058,6.8213,0.4212,54.895123,9.793576,108.3,5.845,1.85,335.95,0.000000,0.000000,0.000000,0.000000
1386924966,0,0,0.0,0,0,-32,0,0,0,-0.0292,-2549.7058,6.8213,0.4212,54.895123,9.793576,108.3,5.845,1.85,335.95,0.000000,0.000000,0.000000,0.000000
1386924966,0,0,0.0,0,0,-32,0,0,0,-0.0292,-2549.7058,6.8213,0.4212,54.895123,9.793576,108.3,5.845,1.85,335.95,0.000000,0.000000,0.000000,0.000000
1386924967,0,0,0.0,0,0,-32,0,0,0,-0.0292,-2549.7058,6.8213,0.4212,54.895123,9.793576,108.3,5.845,1.85,335.95,0.000000,0.000000,0.000000,0.000000
1386924967,0,0,0.0,0,0,-32,0,0,0,-0.0292,-2549.7058,6.8213,0.4212,54.895123,9.793576,108.3,5.845,1.85,335.95,0.000000,0.000000,0.000000,0.000000
1386924967,0,0,0.0,0,0,-32,0,0,0,-0.0292,-2549.7058,6.8213,0.4212,54.895123,9.793576,108.3,5.845,1.85,335.95,0.000000,0.000000,0.000000,0.000000
1386924967,0,0,0.0,0,0,-32,0,0,0,-0.0292,-2549.7058,6.8213,0.4212,54.895123,9.793576,108.3,5.845,1.85,335.95,0.000000,0.000000,0.000000,0.000000
1386924968,0,0,0.0,0,0,-32,0,0,0,-0.0292,-2549.7058,6.8213,0.4212,54.895123,9.793576,108.3,5.845,1.85,335.95,0.000000,0.000000,0.000000,0.000000
1386924968,0,0,0.0,0,0,-32,0,0,0,-0.0292,-2549.7058,6.8213,0.4212,54.895123,9.793576,108.3,5.845,1.85,335.95,0.000000,0.000000,0.000000,0.000000
1386924968,0,0,0.0,0,0,-32,0,0,0,-0.0292,-2549.7058,6.8213,0.4212,54.895123,9.793576,108.3,5.845,1.85,335.95,0.000000,0.000000,0.000000,0.000000
1386924968,0,0,0.0,0,0,-32,0,0,0,-0.0292,-2549.7058,6.8213,0.4212,54.895123,9.793576,108.3,5.845,1.85,335.95,0.000000,0.000000,0.000000,0.000000
1386924969,4,0,0.0,0,0,-32,0,0,0,-0.0292,-2549.7058,6.8213,0.4212,54.895123,9.793576,108.3,5.845,1.85,335.95,0.000000,0.000000,0.000000,0.000000
1386924969,1,0,473.4,0,-35,-36,0,0,0,-0.0292,-2540.3726,6.8213,0.4212,54.895138,9.793565,108.3,5.845,1.85,335.95,54.895123,9.793576,54.895069,9.793790
1386924969,1,0,477.8,0,-35,-32,0,0,0,-0.0292,-2531.0393,6.8213,0.4212,54.895157,9.793559,108.3,5.845,1.85,335.95,54.895123,9.793576,54.895069,9.793790
1386924969,1,0,483.3,0,-35,-36,0,0,0,-0.0292,-2521.7061,6.8213,0.4212,54.895176,9.793558,108.3,5.845,1.85,335.95,54.895123,9.793576,54.895069,9.793790
1386924970,1,0,483.3,0,-35,-32,0,0,0,-0.0292,-2512.3728,6.8213,0.4212,54.895195,9.793562,108.3,5.845,1.85,335.95,54.895123,9.793576,54.895069,9.793790
1386924970,1,0,483.3,0,-35,-36,0,0,0,-0.0292,-2503.0396,6.8213,0.4212,54.895210,9.793571,108.3,5.845,1.85,335.95,54.895123,9.793576,54.895069,9.793790
1386924970,1,0,483.3,0,-35,-32,0,0,0,-0.0292,-2493.7063,6.8213,0.4212,54.895229,9.793586,108.3,5.845,1.85,335.95,54.895123,9.793576,54.895069,9.793790
1386924970,1,0,483.3,0,-35,-36,0,0,0,-0.0292,-2484.3730,6.8213,0.4212,54.895245,9.793604,108.3,5.845,1.85,335.95,54.895123,9.793576,54.895069,9.793790
1386924971,1,0,483.3,0,-35,-32,0,11,50,-0.0292,-2475.0398,6.8213,0.4212,54.895256,9.793626,108.3,5.845,1.85,335.95,54.895123,9.793576,54.895069,9.793790
1386924971,1,0,483.3,0,-35,-36,0,91,100,-0.0292,-2465.7065,6.8213,0.4212,54.895267,9.793651,108.3,5.845,1.85,335.95,54.895123,9.793576,54.895069,9.793790
1386924971,0,0,483.3,0,-35,-36,0,91,100,-0.0292,-2465.7065,6.8213,0.4212,54.895267,9.793651,108.3,5.845,1.85,335.95,54.895123,9.793576,54.895069,9.793790
1386924971,0,0,483.3,0,-35,-36,0,91,100,-0.0292,-2465.7065,6.8213,0.4212,54.895267,9.793651,108.3,5.845,1.85,335.95,54.895123,9.793576,54.895069,9.793790
1386924972,0,0,483.3,0,-35,-36,0,91,100,-0.0292,-2465.7065,6.8213,0.4212,54.895267,9.793651,108.3,5.845,1.85,335.95,54.895123,9.793576,54.895069,9.793790
1386924972,0,0,483.3,0,-35,-36,0,91,100,-0.0292,-2465.7065,6.8213,0.4212,54.895267,9.793651,108.3,5.845,1.85,335.95,54.895123,9.793576,54.895069,9.793790
1386924972,0,0,483.3,0,-35,-36,0,91,100,-0.0292,-2465.7065,6.8213,0.4212,54.895267,9.793651,108.3,5.845,1.85,335.95,54.895123,9.793576,54.895069,9.793790
1386924972,0,0,483.3,0,-35,-36,0,91,100,-0.0292,-2465.7065,6.8213,0.4212,54.895267,9.793651,108.3,5.845,1.85,335.95,54.895123,9.793576,54.895069,9.793790
1386924973,0,0,483.3,0,-35,-36,0,91,100,-0.0292,-2465.7065,6.8213,0.4212,54.895267,9.793651,108.3,5.845,1.85,335.95,54.895123,9.793576,54.895069,9.793790
1386924973,0,0,483.3,0,-35,-36,0,91,100,-0.0292,-2465.7065,6.8213,0.4212,54.895267,9.793651,108.3,5.845,1.85,335.95,54.895123,9.793576,54.895069,9.793790
1386924973,0,0,483.3,0,-35,-36,0,91,100,-0.0292,-2465.7065,6.8213,0.4212,54.897812,9.789881,108.3,5.845,1.85,335.95,54.895123,9.793576,54.895069,9.793790
1386924973,0,0,483.3,0,-35,-36,0,91,100,-0.0292,-2465.7065,6.8213,0.4212,54.897812,9.789881,108.3,5.845,1.85,335.95,54.895123,9.793576,54.895069,9.793790
1386924974,0,0,483.3,0,-35,-36,0,91,100,-0.0292,-2465.7065,6.8213,0.4212,54.897812,9.789881,108.3,5.845,1.85,335.95,54.895123,9.793576,54.895069,9.793790
1386924974,0,0,483.3,0,-35,-36,0,91,100,-0.0292,-2465.7065,6.8213,0.4212,54.897812,9.789881,108.3,5.845,1.85,335.95,54.895123,9.793576,54.895069,9.793790
1386924974,0,0,483.3,0,-35,-36,0,91,100,-0.0292,-2465.7065,6.8213,0.4212,54.897812,9.789881,108.3,5.845,1.85,335.95,54.895123,9.793576,54.895069,9.793790
1386924974,0,0,483.3,0,-35,-36,0,91,100,-0.0292,-2465.7065,6.8213,0.4212,54.896824,9.792005,108.3,5.845,1.85,335.95,54.895123,9.793576,54.895069,9.793790
1386924975,0,0,483.3,0,-35,-36,0,91,100,-0.0292,-2465.7065,6.8213,0.4212,54.896824,9.792005,108.3,5.845,1.85,335.95,54.895123,9.793576,54.895069,9.793790
1386924975,0,0,483.3,0,-35,-36,0,91,100,-0.0292,-2465.7065,6.8213,0.4212,54.896824,9.792005,108.3,5.845,1.85,335.95,54.895123,9.793576,54.895069,9.793790
1386924975,0,0,483.3,0,-35,-36,0,91,100,-0.0292,-2465.7065,6.8213,0.4212,54.896824,9.792005,108.3,5.845,1.85,335.95,54.895123,9.793576,54.895069,9.793790
1386924975,0,0,483.3,0,-35,-36,0,91,100,-0.0292,-2465.7065,6.8213,0.4212,54.896824,9.792005,108.3,5.845,1.85,335.95,54.895123,9.793576,54.895069,9.793790
1386924976,0,0,483.3,0,-35,-36,0,91,100,-0.0292,-2465.7065,6.8213,0.4212,54.896824,9.792005,108.3,5.845,1.85,335.95,54.895123,9.793576,54.895069,9.793790
1386924976,0,0,483.3,0,-35,-36,0,91,100,-0.0292,-2465.7065,6.8213,0.4212,54.896824,9.792005,108.3,5.845,1.85,335.95,54.895123,9.793576,54.895069,9.793790
1386924976,0,0,483.3,0,-35,-36,0,91,100,-0.0292,-2465.7065,6.8213,0.4212,54.896824,9.792005,108.3,5.845,1.85,335.95,54.895123,9.793576,54.895069,9.793790
1386924976,0,0,483.3,0,-35,-36,0,91,100,-0.0292,-2465.7065,6.8213,0.4212,54.896824,9.792005,108.3,5.845,1.85,335.95,54.895123,9.793576,54.895069,9.793790
1386924977,4,0,483.3,0,-35,-36,0,91,100,-0.0292,-2465.7065,6.8213,0.4212,54.896824,9.792005,108.3,5.845,1.85,335.95,54.895123,9.793576,54.895069,9.793790
1386924977,1,0,483.3,0,-35,-32,0,217,150,-0.0292,-2456.3733,6.8213,0.4212,54.896832,9.792032,108.3,5.845,1.85,335.95,54.896824,9.792005,54.895069,9.793790
1386924977,1,0,483.3,0,-35,-36,0,362,200,-0.0292,-2447.0400,6.8213,0.4212,54.896839,9.792062,108.3,5.845,1.85,335.95,54.896824,9.792005,54.895069,9.793790
1386924977,1,0,483.3,0,-35,-32,0,511,250,-0.0292,-2437.7068,6.8213,0.4212,54.896843,9.792093,108.3,5.845,1.85,335.95,54.896824,9.792005,54.895069,9.793790
1386924978,1,0,483.3,0,-35,-36,0,657,300,-0.0292,-2428.3735,6.8213,0.4212,54.896839,9.792125,108.3,5.845,1.85,335.95,54.896824,9.792005,54.895069,9.793790
1386924978,1,0,483.3,0,-32,-32,0,797,350,-0.0292,-2419.8401,6.8213,0.4212,54.896839,9.792155,108.3,5.845,1.85,335.95,54.896824,9.792005,54.895069,9.793790
1386924978,1,0,483.3,0,-23,-28,0,870,400,-0.0292,-2413.7068,6.8213,0.4212,54.896835,9.792186,108.3,5.845,1.85,335.95,54.896824,9.792005,54.895069,9.793790
1386924978,1,0,483.3,0,-17,-24,0,870,450,-0.0292,-2409.1733,6.8213,0.4212,54.896832,9.792215,108.3,5.845,1.85,335.95,54.896824,9.792005,54.895069,9.793790
1386924979,1,0,483.3,0,-12,-20,0,870,500,-0.0292,-2405.9734,6.8213,0.4212,54.896824,9.792244,108.3,5.845,1.85,335.95,54.896824,9.792005,54.895069,9.793790
1386924979,1,0,483.3,0,-9,-16,0,713,550,-0.0292,-2403.5735,6.8213,0.4212,54.896816,9.792273,108.3,5.845,1.85,335.95,54.896824,9.792005,54.895069,9.793790
1386924979,1,0,483.3,0,-7,-12,0,713,600,-0.0292,-2401.7068,6.8213,0.4212,54.896805,9.792300,108.3,5.845,1.85,335.95,54.896824,9.792005,54.895069,9.793790
1386924979,1,0,483.3,0,-5,-8,0,713,650,-0.0292,-2400.3735,6.8213,0.4212,54.896797,9.792327,108.3,5.845,1.85,335.95,54.896824,9.792005,54.895069,9.793790
1386924980,1,0,483.3,0,-4,-4,0,713,700,-0.0292,-2399.3069,6.8213,0.4212,54.896786,9.792355,108.3,5.845,1.85,335.95,54.896824,9.792005,54.895069,9.793790
1386924980,1,0,483.3,0,-3,0,0,713,750,-0.0292,-2398.5068,6.8213,0.4212,54.896778,9.792381,108.3,5.845,1.85,335.95,54.896824,9.792005,54.895069,9.793790
1386924980,1,0,483.3,0,-2,-4,0,713,700,-0.0292,-2397.9734,6.8213,0.4212,54.896767,9.792407,108.3,5.845,1.85,335.95,54.896824,9.792005,54.895069,9.793790
1386924980,1,0,483.3,0,-1,0,0,713,750,-0.0292,-2397.7068,6.8213,0.4212,54.896755,9.792434,108.3,5.845,1.85,335.95,54.896824,9.792005,54.895069,9.793790
1386924981,1,0,483.3,0,-1,-4,0,713,700,-0.0292,-2397.4402,6.8213,0.4212,54.896748,9.792459,108.3,5.845,1.85,335.95,54.896824,9.792005,54.895069,9.793790
1386924981,1,0,483.3,0,-1,0,0,713,750,-0.0292,-2397.1736,6.8213,0.4212,54.896736,9.792486,108.3,5.845,1.85,335.95,54.896824,9.792005,54.895069,9.793790
1386924981,1,0,483.3,0,0,4,0,713,700,-0.0292,-2397.1736,6.8213,0.4212,54.896729,9.792513,108.3,5.845,1.85,335.95,54.896824,9.792005,54.895069,9.793790
1386924981,1,0,483.3,0,0,0,0,713,750,-0.0292,-2397.1736,6.8213,0.4212,54.896717,9.792539,108.3,5.845,1.85,335.95,54.896824,9.792005,54.895069,9.793790
1386924982,1,0,483.3,0,0,4,0,713,700,-0.0292,-2397.1736,6.8213,0.4212,54.896706,9.792565,108.3,5.845,1.85,335.95,54.896824,9.792005,54.895069,9.793790
1386924982,1,0,483.3,0,0,0,0,713,750,-0.0292,-2397.1736,6.8213,0.4212,54.896694,9.792591,108.3,5.845,1.85,335.95,54.896824,9.792005,54.895069,9.793790
1386924982,1,0,483.3,0,0,4,0,713,700,-0.0292,-2397.1736,6.8213,0.4212,54.896683,9.792617,108.3,5.845,1.85,335.95,54.896824,9.792005,54.895069,9.793790
1386924982,1,0,483.3,0,0,0,0,713,750,-0.0292,-2397.1736,6.8213,0.4212,54.896675,9.792644,108.3,5.845,1.85,335.95,54.896824,9.792005,54.895069,9.793790
1386924983,1,0,483.3,0,0,4,0,713,700,-0.0292,-2397.1736,6.8213,0.4212,54.896664,9.792669,108.3,5.845,1.85,335.95,54.896824,9.792005,54.895069,9.793790
1386924983,1,0,483.3,0,0,0,0,713,750,-0.0292,-2397.1736,6.8213,0.4212,54.896656,9.792696,108.3,5.845,1.85,335.95,54.896824,9.792005,54.895069,9.793790
1386924983,1,0,483.3,0,0,4,0,713,700,-0.0292,-2397.1736,6.8213,0.4212,54.896645,9.792723,108.3,5.845,1.85,335.95,54.896824,9.792005,54.895069,9.793790
1386924984,1,0,483.3,0,0,0,0,713,750,-0.0292,-2397.1736,6.8213,0.4212,54.896633,9.792748,108.3,5.845,1.85,335.95,54.896824,9.792005,54.895069,9.793790
1386924984,1,0,483.3,0,0,4,0,713,700,-0.0292,-2397.1736,6.8213,0.4212,54.896626,9.792775,108.3,5.845,1.85,335.95,54.896824,9.792005,54.895069,9.793790
1386924984,1,0,483.3,0,0,0,0,713,750,-0.0292,-2397.1736,6.8213,0.4212,54.896614,9.792801,108.3,5.845,1.85,335.95,54.896824,9.792005,54.895069,9.793790
1386924984,1,0,483.3,0,0,4,0,713,700,-0.0292,-2397.1736,6.8213,0.4212,54.896606,9.792828,108.3,5.845,1.85,335.95,54.896824,9.792005,54.895069,9.793790
1386924985,1,0,483.3,0,0,0,0,713,750,-0.0292,-2397.1736,6.8213,0.4212,54.896595,9.792854,108.3,5.845,1.85,335.95,54.896824,9.792005,54.895069,9.793790
1386924985,1,0,483.3,0,0,4,0,713,700,-0.0292,-2397.1736,6.8213,0.4212,54.896584,9.792880,108.3,5.845,1.85,335.95,54.896824,9.792005,54.895069,9.793790
1386924985,1,0,483.3,0,0,0,0,713,750,-0.0292,-2397.1736,6.8213,0.4212,54.896576,9.792907,108.3,5.845,1.85,335.95,54.896824,9.792005,54.895069,9.793790
1386924985,1,0,483.3,0,0,4,0,713,700,-0.0292,-2397.1736,6.8213,0.4212,54.896564,9.792933,108.3,5.845,1.85,335.95,54.896824,9.792005,54.895069,9.793790
1386924986,1,0,483.3,0,0,0,0,713,750,-0.0292,-2397.1736,6.8213,0.4212,54.896557,9.792958,108.3,5.845,1.85,335.95,54.896824,9.792005,54.895069,9.793790
1386924986,1,0,483.3,0,0,4,0,713,700,-0.0292,-2397.1736,6.8213,0.4212,54.896545,9.792985,108.3,5.845,1.85,335.95,54.896824,9.792005,54.895069,9.793790
1386924986,1,0,483.3,0,0,0,0,713,750,-0.0292,-2397.1736,6.8213,0.4212,54.896534,9.793011,108.3,5.845,1.85,335.95,54.896824,9.792005,54.895069,9.793790
1386924986,1,0,483.3,0,0,4,0,713,700,-0.0292,-2397.1736,6.8213,0.4212,54.896526,9.793037,108.3,5.845,1.85,335.95,54.896824,9.792005,54.895069,9.793790
1386924987,1,0,483.3,0,0,0,0,713,750,-0.0292,-2397.1736,6.8213,0.4212,54.896515,9.793063,108.3,5.845,1.85,335.95,54.896824,9.792005,54.895069,9.793790
1386924987,1,0,483.3,0,0,4,0,713,700,-0.0292,-2397.1736,6.8213,0.4212,54.896507,9.793089,108.3,5.845,1.85,335.95,54.896824,9.792005,54.895069,9.793790
1386924987,1,0,483.3,0,0,0,0,713,750,-0.0292,-2397.1736,6.8213,0.4212,54.896496,9.793116,108.3,5.845,1.85,335.95,54.896824,9.792005,54.895069,9.793790
1386924987,1,0,483.3,0,0,4,0,713,700,-0.0292,-2397.1736,6.8213,0.4212,54.896484,9.793141,108.3,5.845,1.85,335.95,54.896824,9.792005,54.895069,9.793790
1386924988,1,0,483.3,0,0,0,0,713,750,-0.0292,-2397.1736,6.8213,0.4212,54.896473,9.793168,108.3,5.845,1.85,335.95,54.896824,9.792005,54.895069,9.793790
1386924988,1,0,483.3,0,0,4,0,713,700,-0.0292,-2397.1736,6.8213,0.4212,54.896461,9.793195,108.3,5.845,1.85,335.95,54.896824,9.792005,54.895069,9.793790
1386924988,1,0,483.3,0,0,0,0,713,750,-0.0292,-2397.1736,6.8213,0.4212,54.896454,9.793221,108.3,5.845,1.85,335.95,54.896824,9.792005,54.895069,9.793790
1386924988,1,0,483.3,0,0,4,0,713,700,-0.0292,-2397.1736,6.8213,0.4212,54.896442,9.793247,108.3,5.845,1.85,335.95,54.896824,9.792005,54.895069,9.793790
1386924989,1,0,483.3,0,0,0,0,713,750,-0.0292,-2397.1736,6.8213,0.4212,54.896435,9.793273,108.3,5.845,1.85,335.95,54.896824,9.792005,54.895069,9.793790
1386924989,1,0,483.3,0,0,4,0,713,700,-0.0292,-2397.1736,6.8213,0.4212,54.896423,9.793300,108.3,5.845,1.85,335.95,54.896824,9.792005,54.895069,9.793790
1386924989,1,0,483.3,0,0,0,0,713,750,-0.0292,-2397.1736,6.8213,0.4212,54.896412,9.793326,108.3,5.845,1.85,335.95,54.896824,9.792005,54.895069,9.793790
1386924989,1,0,483.3,0,0,4,0,713,700,-0.0292,-2397.1736,6.8213,0.4212,54.896404,9.793352,108.3,5.845,1.85,335.95,54.896824,9.792005,54.895069,9.793790
1386924990,1,0,483.3,0,0,0,0,713,750,-0.0292,-2397.1736,6.8213,0.4212,54.896393,9.793379,108.3,5.845,1.85,335.95,54.896824,9.792005,54.895069,9.793790
1386924990,1,0,483.3,0,0,4,0,713,700,-0.0292,-2397.1736,6.8213,0.4212,54.896385,9.793405,108.3,5.845,1.85,335.95,54.896824,9.792005,54.895069,9.793790
1386924990,1,0,483.3,0,0,0,0,713,750,-0.0292,-2397.1736,6.8213,0.4212,54.896374,9.793430,108.3,5.845,1.85,335.95,54.896824,9.792005,54.895069,9.793790
1386924990,1,0,483.3,0,0,4,0,713,700,-0.0292,-2397.1736,6.8213,0.4212,54.896362,9.793457,108.3,5.845,1.85,335.95,54.896824,9.792005,54.895069,9.793790
1386924991,1,0,483.3,0,0,0,0,713,750,-0.0292,-2397.1736,6.8213,0.4212,54.896355,9.793483,108.3,5.845,1.85,335.95,54.896824,9.792005,54.895069,9.793790
1386924991,1,0,483.3,0,0,4,0,713,700,-0.0292,-2397.1736,6.8213,0.4212,54.896343,9.793509,108.3,5.845,1.85,335.95,54.896824,9.792005,54.895069,9.793790
1386924991,1,0,483.3,0,0,0,0,713,750,-0.0292,-2397.1736,6.8213,0.4212,54.896336,9.793535,108.3,5.845,1.85,335.95,54.896824,9.792005,54.895069,9.793790
1386924991,1,0,483.3,0,0,4,0,713,700,-0.0292,-2397.1736,6.8213,0.4212,54.896324,9.793561,108.3,5.845,1.85,335.95,54.896824,9.792005,54.895069,9.793790
1386924992,1,0,483.3,0,0,0,0,713,750,-0.0292,-2397.1736,6.8213,0.4212,54.896313,9.793588,108.3,5.845,1.85,335.95,54.896824,9.792005,54.895069,9.793790
1386924992,1,0,483.3,0,0,4,0,713,700,-0.0292,-2397.1736,6.8213,0.4212,54.896305,9.793613,108.3,5.845,1.85,335.95,54.896824,9.792005,54.895069,9.793790
1386924992,1,0,483.3,0,0,0,0,713,750,-0.0292,-2397.1736,6.8213,0.4212,54.896294,9.793640,108.3,5.845,1.85,335.95,54.896824,9.792005,54.895069,9.793790
1386924992,1,0,483.3,0,0,4,0,713,700,-0.0292,-2397.1736,6.8213,0.4212,54.896286,9.793667,108.3,5.845,1.85,335.95,54.896824,9.792005,54.895069,9.793790
1386924993,1,0,483.3,0,0,0,0,713,750,-0.0292,-2397.1736,6.8213,0.4212,54.896275,9.793693,108.3,5.845,1.85,335.95,54.896824,9.792005,54.895069,9.793790
1386924993,1,0,483.3,0,0,4,0,713,700,-0.0292,-2397.1736,6.8213,0.4212,54.896263,9.793719,108.3,5.845,1.85,335.95,54.896824,9.792005,54.895069,9.793790
1386924993,1,0,483.3,0,0,0,0,713,750,-0.0292,-2397.1736,6.8213,0.4212,54.896255,9.793745,108.3,5.845,1.85,335.95,54.896824,9.792005,54.895069,9.793790
1386924993,1,0,483.3,0,0,4,0,713,700,-0.0292,-2397.1736,6.8213,0.4212,54.896244,9.793772,108.3,5.845,1.85,335.95,54.896824,9.792005,54.895069,9.793790
1386924994,1,0,483.3,0,0,0,0,713,750,-0.0292,-2397.1736,6.8213,0.4212,54.896236,9.793798,108.3,5.845,1.85,335.95,54.896824,9.792005,54.895069,9.793790
1386924994,1,0,483.3,0,0,4,0,713,700,-0.0292,-2397.1736,6.8213,0.4212,54.896225,9.793824,108.3,5.845,1.85,335.95,54.896824,9.792005,54.895069,9.793790
1386924994,1,0,483.3,0,0,0,0,713,750,-0.0292,-2397.1736,6.8213,0.4212,54.896214,9.793851,108.3,5.845,1.85,335.95,54.896824,9.792005,54.895069,9.793790
1386924994,1,0,483.3,0,0,4,0,713,700,-0.0292,-2397.1736,6.8213,0.4212,54.896202,9.793877,108.3,5.845,1.85,335.95,54.896824,9.792005,54.895069,9.793790
1386924995,1,0,483.3,0,0,0,0,713,750,-0.0292,-2397.1736,6.8213,0.4212,54.896191,9.793902,108.3,5.845,1.85,335.95,54.896824,9.792005,54.895069,9.793790
1386924995,1,0,483.3,0,0,4,0,713,700,-0.0292,-2397.1736,6.8213,0.4212,54.896183,9.793929,108.3,5.845,1.85,335.95,54.896824,9.792005,54.895069,9.793790
1386924995,1,0,483.3,0,0,0,0,713,750,-0.0292,-2397.1736,6.8213,0.4212,54.896172,9.793955,108.3,5.845,1.85,335.95,54.896824,9.792005,54.895069,9.793790
1386924995,1,0,483.3,0,0,4,0,713,700,-0.0292,-2397.1736,6.8213,0.4212,54.896164,9.793982,108.3,5.845,1.85,335.95,54.896824,9.792005,54.895069,9.793790
1386924996,1,0,483.3,0,0,0,0,713,750,-0.0292,-2397.1736,6.8213,0.4212,54.896152,9.794008,108.3,5.845,1.85,335.95,54.896824,9.792005,54.895069,9.793790
1386924996,1,0,485.9,0,-3,-4,0,713,700,-0.0292,-2396.3735,6.8213,0.4212,54.896141,9.794034,108.3,5.845,1.85,335.95,54.896824,9.792005,54.895069,9.793790
1386924996,1,0,485.9,0,-2,0,0,0,650,-0.0292,-2395.8401,6.8213,0.4212,54.896130,9.794060,108.3,5.845,1.85,335.95,54.896824,9.792005,54.895069,9.793790
1386924996,1,0,485.9,0,-2,-4,0,0,600,-0.0292,-2395.3066,6.8213,0.4212,54.896118,9.794086,108.3,5.845,1.85,335.95,54.896824,9.792005,54.895069,9.793790
1386924997,1,0,485.9,0,-1,0,0,0,550,-0.0292,-2395.0400,6.8213,0.4212,54.896107,9.794111,108.3,5.845,1.85,335.95,54.896824,9.792005,54.895069,9.793790
1386924997,1,0,485.9,0,-1,-4,0,0,500,-0.0292,-2394.7734,6.8213,0.4212,54.896095,9.794137,108.3,5.845,1.85,335.95,54.896824,9.792005,54.895069,9.793790
1386924997,1,0,485.9,0,-1,0,0,0,450,-0.0292,-2394.5068,6.8213,0.4212,54.896088,9.794162,108.3,5.845,1.85,335.95,54.896824,9.792005,54.895069,9.793790
1386924997,1,0,485.9,0,0,4,0,0,400,-0.0292,-2394.5068,6.8213,0.4212,54.896076,9.794188,108.3,5.845,1.85,335.95,54.896824,9.792005,54.895069,9.793790
1386924998,1,0,485.9,0,0,0,0,0,350,-0.0292,-2394.5068,6.8213,0.4212,54.896069,9.794212,108.3,5.845,1.85,335.95,54.896824,9.792005,54.895069,9.793790
1386924998,1,0,485.9,0,0,4,0,0,300,-0.0292,-2394.5068,6.8213,0.4212,54.896057,9.794238,108.3,5.845,1.85,335.95,54.896824,9.792005,54.895069,9.793790
1386924998,1,0,485.9,0,0,0,0,0,250,-0.0292,-2394.5068,6.8213,0.4212,54.896046,9.794264,108.3,5.845,1.85,335.95,54.896824,9.792005,54.895069,9.793790
1386924998,1,0,485.9,0,0,4,0,0,200,-0.0292,-2394.5068,6.8213,0.4212,54.896038,9.794289,108.3,5.845,1.85,335.95,54.896824,9.792005,54.895069,9.793790
1386924999,1,0,485.9,0,0,0,0,0,150,-0.0292,-2394.5068,6.8213,0.4212,54.896027,9.794314,108.3,5.845,1.85,335.95,54.896824,9.792005,54.895069,9.793790
1386924999,1,0,485.9,0,0,4,0,0,100,-0.0292,-2394.5068,6.8213,0.4212,54.896019,9.794339,108.3,5.845,1.85,335.95,54.896824,9.792005,54.895069,9.793790
1386924999,1,0,485.9,0,0,0,0,0,50,-0.0292,-2394.5068,6.8213,0.4212,54.896008,9.794365,108.3,5.845,1.85,335.95,54.896824,9.792005,54.895069,9.793790
1386924999,1,0,485.9,0,0,4,0,0,0,-0.0292,-2394.5068,6.8213,0.4212,54.895996,9.794391,108.3,5.845,1.85,335.95,54.896824,9.792005,54.895069,9.793790
1386925000,1,0,485.9,0,0,0,0,0,0,-0.0292,-2394.5068,6.8213,0.4212,54.895985,9.794415,108.3,5.845,1.85,335.95,54.896824,9.792005,54.895069,9.793790
1386925000,1,0,545.9,0,-35,-4,0,0,0,-0.0292,-2385.1736,6.8213,0.4212,54.895969,9.794437,108.3,5.845,1.85,335.95,54.896824,9.792005,54.895069,9.793790
1386925000,1,0,545.9,0,-35,-8,0,0,0,-0.0292,-2375.8403,6.8213,0.4212,54.895954,9.794456,108.3,5.845,1.85,335.95,54.896824,9.792005,54.895069,9.793790
1386925000,1,0,545.9,0,-35,-12,0,0,0,-0.0292,-2366.5071,6.8213,0.4212,54.895939,9.794470,108.3,5.845,1.85,335.95,54.896824,9.792005,54.895069,9.793790
1386925001,1,0,545.9,0,-32,-16,0,0,0,-0.0292,-2357.9736,6.8213,0.4212,54.895920,9.794480,108.3,5.845,1.85,335.95,54.896824,9.792005,54.895069,9.793790
1386925001,1,0,545.9,0,-24,-20,0,0,0,-0.0292,-2351.5737,6.8213,0.4212,54.895901,9.794486,108.3,5.845,1.85,335.95,54.896824,9.792005,54.895069,9.793790
1386925001,1,0,545.9,0,-18,-16,0,0,0,-0.0292,-2346.7737,6.8213,0.4212,54.895885,9.794490,108.3,5.845,1.85,335.95,54.896824,9.792005,54.895069,9.793790
1386925001,1,0,545.9,0,-13,-12,0,0,0,-0.0292,-2343.3071,6.8213,0.4212,54.895866,9.794492,108.3,5.845,1.85,335.95,54.896824,9.792005,54.895069,9.793790
1386925002,1,0,545.9,0,-9,-8,0,0,0,-0.0292,-2340.9072,6.8213,0.4212,54.895847,9.794492,108.3,5.845,1.85,335.95,54.896824,9.792005,54.895069,9.793790
1386925002,1,0,545.9,0,-7,-4,0,0,0,-0.0292,-2339.0405,6.8213,0.4212,54.895828,9.794491,108.3,5.845,1.85,335.95,54.896824,9.792005,54.895069,9.793790
1386925002,1,0,545.9,0,-5,-8,0,0,0,-0.0292,-2337.7073,6.8213,0.4212,54.895813,9.794490,108.3,5.845,1.85,335.95,54.896824,9.792005,54.895069,9.793790
1386925002,1,0,545.9,0,-4,-4,0,713,50,-0.0292,-2336.6406,6.8213,0.4212,54.895794,9.794488,108.3,5.845,1.85,335.95,54.896824,9.792005,54.895069,9.793790
1386925003,1,0,545.9,0,-3,0,0,713,100,-0.0292,-2335.8406,6.8213,0.4212,54.895775,9.794485,108.3,5.845,1.85,335.95,54.896824,9.792005,54.895069,9.793790
1386925003,1,0,545.9,0,-2,-4,0,713,150,-0.0292,-2335.3071,6.8213,0.4212,54.895760,9.794482,108.3,5.845,1.85,335.95,54.896824,9.792005,54.895069,9.793790
1386925003,1,0,545.9,0,-1,0,0,713,200,-0.0292,-2335.0405,6.8213,0.4212,54.895741,9.794479,108.3,5.845,1.85,335.95,54.896824,9.792005,54.895069,9.793790
1386925003,1,0,545.9,0,-1,-4,0,713,250,-0.0292,-2334.7739,6.8213,0.4212,54.895721,9.794477,108.3,5.845,1.85,335.95,54.896824,9.792005,54.895069,9.793790
1386925004,1,0,545.9,0,-1,0,0,713,300,-0.0292,-2334.5073,6.8213,0.4212,54.895702,9.794473,108.3,5.845,1.85,335.95,54.896824,9.792005,54.895069,9.793790
1386925004,1,0,545.9,0,0,4,0,713,350,-0.0292,-2334.5073,6.8213,0.4212,54.895687,9.794470,108.3,5.845,1.85,335.95,54.896824,9.792005,54.895069,9.793790
1386925004,1,0,546.7,0,-1,0,0,713,400,-0.0292,-2334.2407,6.8213,0.4212,54.895668,9.794467,108.3,5.845,1.85,335.95,54.896824,9.792005,54.895069,9.793790
1386925004,1,0,573.2,0,-27,-4,0,713,450,-0.0292,-2327.0408,6.8213,0.4212,54.895649,9.794460,108.3,5.845,1.85,335.95,54.896824,9.792005,54.895069,9.793790
1386925005,1,0,573.8,0,-21,-8,0,713,500,-0.0292,-2321.4407,6.8213,0.4212,54.895634,9.794451,108.3,5.845,1.85,335.95,54.896824,9.792005,54.895069,9.793790
1386925005,1,0,574.1,0,-16,-12,0,713,550,-0.0292,-2317.1741,6.8213,0.4212,54.895618,9.794438,108.3,5.845,1.85,335.95,54.896824,9.792005,54.895069,9.793790
1386925005,1,0,574.3,0,-12,-8,0,870,600,-0.0292,-2313.9741,6.8213,0.4212,54.895603,9.794424,108.3,5.845,1.85,335.95,54.896824,9.792005,54.895069,9.793790
1386925005,1,0,574.5,0,-8,-4,0,870,650,-0.0292,-2311.8408,6.8213,0.4212,54.895588,9.794410,108.3,5.845,1.85,335.95,54.896824,9.792005,54.895069,9.793790
1386925006,1,0,574.7,0,-6,-8,0,870,700,-0.0292,-2310.2407,6.8213,0.4212,54.895569,9.794394,108.3,5.845,1.85,335.95,54.896824,9.792005,54.895069,9.793790
1386925006,1,0,575.0,0,-5,-4,0,870,750,-0.0292,-2308.9075,6.8213,0.4212,54.895554,9.794378,108.3,5.845,1.85,335.95,54.896824,9.792005,54.895069,9.793790
1386925006,1,0,575.1,0,-4,0,0,870,800,-0.0292,-2307.8408,6.8213,0.4212,54.895538,9.794362,108.3,5.845,1.85,335.95,54.896824,9.792005,54.895069,9.793790
1386925006,1,0,575.2,0,-3,-4,0,870,850,-0.0292,-2307.0408,6.8213,0.4212,54.895523,9.794345,108.3,5.845,1.85,335.95,54.896824,9.792005,54.895069,9.793790
1386925007,1,0,575.3,0,-2,0,0,870,900,-0.0292,-2306.5073,6.8213,0.4212,54.895508,9.794328,108.3,5.845,1.85,335.95,54.896824,9.792005,54.895069,9.793790
1386925007,1,0,575.4,0,-2,-4,0,870,850,-0.0292,-2305.9739,6.8213,0.4212,54.895493,9.794311,108.3,5.845,1.85,335.95,54.896824,9.792005,54.895069,9.793790
1386925007,1,0,575.4,0,-1,0,0,870,900,-0.0292,-2305.7073,6.8213,0.4212,54.895477,9.794292,108.3,5.845,1.85,335.95,54.896824,9.792005,54.895069,9.793790
1386925007,1,0,575.5,0,-1,-4,0,870,850,-0.0292,-2305.4407,6.8213,0.4212,54.895462,9.794275,108.3,5.845,1.85,335.95,54.896824,9.792005,54.895069,9.793790
1386925008,1,0,575.6,0,-1,0,0,870,900,-0.0292,-2305.1741,6.8213,0.4212,54.895451,9.794257,108.3,5.845,1.85,335.95,54.896824,9.792005,54.895069,9.793790
1386925008,1,0,575.3,0,-1,-4,0,870,850,-0.0292,-2304.9075,6.8213,0.4212,54.895435,9.794240,108.3,5.845,1.85,335.95,54.896824,9.792005,54.895069,9.793790
1386925008,1,0,575.4,0,0,0,0,870,900,-0.0292,-2304.9075,6.8213,0.4212,54.895424,9.794222,108.3,5.845,1.85,335.95,54.896824,9.792005,54.895069,9.793790
1386925008,1,0,575.2,0,0,4,0,870,850,-0.0292,-2304.9075,6.8213,0.4212,54.895409,9.794204,108.3,5.845,1.85,335.95,54.896824,9.792005,54.895069,9.793790
1386925009,1,0,575.2,0,0,0,0,870,900,-0.0292,-2304.9075,6.8213,0.4212,54.895393,9.794186,108.3,5.845,1.85,335.95,54.896824,9.792005,54.895069,9.793790
1386925009,1,0,575.2,0,0,4,0,870,850,-0.0292,-2304.9075,6.8213,0.4212,54.895378,9.794168,108.3,5.845,1.85,335.95,54.896824,9.792005,54.895069,9.793790
1386925009,1,0,575.3,0,0,0,0,870,900,-0.0292,-2304.9075,6.8213,0.4212,54.895363,9.794150,108.3,5.845,1.85,335.95,54.896824,9.792005,54.895069,9.793790
1386925009,1,0,575.4,0,0,4,0,870,850,-0.0292,-2304.9075,6.8213,0.4212,54.895351,9.794132,108.3,5.845,1.85,335.95,54.896824,9.792005,54.895069,9.793790
1386925010,1,0,575.1,0,0,0,0,870,900,-0.0292,-2304.9075,6.8213,0.4212,54.895336,9.794114,108.3,5.845,1.85,335.95,54.896824,9.792005,54.895069,9.793790
1386925010,1,0,575.1,0,0,4,0,870,850,-0.0292,-2304.9075,6.8213,0.4212,54.895325,9.794096,108.3,5.845,1.85,335.95,54.896824,9.792005,54.895069,9.793790
1386925010,1,0,574.7,0,0,0,0,870,900,-0.0292,-2304.9075,6.8213,0.4212,54.895309,9.794078,108.3,5.845,1.85,335.95,54.896824,9.792005,54.895069,9.793790
1386925010,1,0,574.7,0,0,4,0,870,850,-0.0292,-2304.9075,6.8213,0.4212,54.895294,9.794060,108.3,5.845,1.85,335.95,54.896824,9.792005,54.895069,9.793790
1386925011,1,0,574.8,0,0,0,0,870,900,-0.0292,-2304.9075,6.8213,0.4212,54.895279,9.794042,108.3,5.845,1.85,335.95,54.896824,9.792005,54.895069,9.793790
1386925011,1,0,574.8,0,0,4,0,870,850,-0.0292,-2304.9075,6.8213,0.4212,54.895264,9.794024,108.3,5.845,1.85,335.95,54.896824,9.792005,54.895069,9.793790
1386925011,1,0,574.9,0,0,0,0,870,900,-0.0292,-2304.9075,6.8213,0.4212,54.895252,9.794006,108.3,5.845,1.85,335.95,54.896824,9.792005,54.895069,9.793790
1386925011,1,0,574.4,0,1,4,0,870,850,-0.0292,-2305.1741,6.8213,0.4212,54.895237,9.793988,108.3,5.845,1.85,335.95,54.896824,9.792005,54.895069,9.793790
1386925012,1,0,574.4,0,0,0,0,870,900,-0.0292,-2305.1741,6.8213,0.4212,54.895226,9.793970,108.3,5.845,1.85,335.95,54.896824,9.792005,54.895069,9.793790
1386925012,1,0,573.7,0,1,4,0,870,850,-0.0292,-2305.4407,6.8213,0.4212,54.895210,9.793952,108.3,5.845,1.85,335.95,54.896824,9.792005,54.895069,9.793790
1386925012,1,0,573.6,0,1,0,0,870,900,-0.0292,-2305.7073,6.8213,0.4212,54.895195,9.793935,108.3,5.845,1.85,335.95,54.896824,9.792005,54.895069,9.793790
1386925012,1,0,573.7,0,1,4,0,870,850,-0.0292,-2305.9739,6.8213,0.4212,54.895180,9.793918,108.3,5.845,1.85,335.95,54.896824,9.792005,54.895069,9.793790
1386925013,1,0,573.8,0,0,0,0,870,900,-0.0292,-2305.9739,6.8213,0.4212,54.895164,9.793900,108.3,5.845,1.85,335.95,54.896824,9.792005,54.895069,9.793790
1386925013,1,0,573.6,0,0,4,0,870,850,-0.0292,-2305.9739,6.8213,0.4212,54.895153,9.793882,108.3,5.845,1.85,335.95,54.896824,9.792005,54.895069,9.793790
1386925013,1,0,572.5,0,1,0,0,870,900,-0.0292,-2306.2405,6.8213,0.4212,54.895138,9.793864,108.3,5.845,1.85,335.95,54.896824,9.792005,54.895069,9.793790
1386925013,1,0,572.1,0,2,4,0,870,850,-0.0292,-2306.7739,6.8213,0.4212,54.895123,9.793847,108.3,5.845,1.85,335.95,54.896824,9.792005,54.895069,9.793790
1386925014,1,0,571.8,0,1,0,0,870,900,-0.0292,-2307.0405,6.8213,0.4212,54.895107,9.793830,108.3,5.845,1.85,335.95,54.896824,9.792005,54.895069,9.793790
1386925014,1,0,571.3,0,2,4,0,870,850,-0.0292,-2307.5740,6.8213,0.4212,54.895092,9.793814,108.3,5.845,1.85,335.95,54.895069,9.793790,54.895348,9.797490
1386925014,1,0,545.9,0,26,8,0,870,900,-0.0292,-2314.5073,6.8213,0.4212,54.895077,9.793800,108.3,5.845,1.85,335.95,54.895069,9.793790,54.895348,9.797490
1386925015,1,0,545.9,0,20,12,0,870,850,-0.0292,-2319.8406,6.8213,0.4212,54.895058,9.793789,108.3,5.845,1.85,335.95,54.895069,9.793790,54.895348,9.797490
1386925015,1,0,545.9,0,14,16,0,713,800,-0.0292,-2323.5740,6.8213,0.4212,54.895042,9.793779,108.3,5.845,1.85,335.95,54.895069,9.793790,54.895348,9.797490
1386925015,1,0,545.9,0,10,12,0,713,750,-0.0292,-2326.2407,6.8213,0.4212,54.895027,9.793773,108.3,5.845,1.85,335.95,54.895069,9.793790,54.895348,9.797490
1386925015,1,0,545.9,0,8,8,0,713,700,-0.0292,-2328.3740,6.8213,0.4212,54.895008,9.793767,108.3,5.845,1.85,335.95,54.895069,9.793790,54.895348,9.797490
1386925016,1,0,545.9,0,6,4,0,713,750,-0.0292,-2329.9741,6.8213,0.4212,54.894989,9.793761,108.3,5.845,1.85,335.95,54.895069,9.793790,54.895348,9.797490
1386925016,1,0,545.9,0,4,8,0,713,700,-0.0292,-2331.0408,6.8213,0.4212,54.894974,9.793756,108.3,5.845,1.85,335.95,54.895069,9.793790,54.895348,9.797490
1386925016,1,0,545.9,0,3,4,0,0,650,-0.0292,-2331.8408,6.8213,0.4212,54.894955,9.793752,108.3,5.845,1.85,335.95,54.895069,9.793790,54.895348,9.797490
1386925016,1,0,545.9,0,2,0,0,0,600,-0.0292,-2332.3743,6.8213,0.4212,54.894936,9.793747,108.3,5.845,1.85,335.95,54.895069,9.793790,54.895348,9.797490
1386925017,1,0,545.9,0,2,4,0,0,550,-0.0292,-2332.9077,6.8213,0.4212,54.894917,9.793742,108.3,5.845,1.85,335.95,54.895069,9.793790,54.895348,9.797490
1386925017,1,0,545.9,0,1,0,0,0,500,-0.0292,-2333.1743,6.8213,0.4212,54.894901,9.793739,108.3,5.845,1.85,335.95,54.895069,9.793790,54.895348,9.797490
1386925017,1,0,545.9,0,1,4,0,0,450,-0.0292,-2333.4409,6.8213,0.4212,54.894882,9.793736,108.3,5.845,1.85,335.95,54.895069,9.793790,54.895348,9.797490
1386925017,1,0,545.9,0,1,0,0,0,400,-0.0292,-2333.7075,6.8213,0.4212,54.894863,9.793734,108.3,5.845,1.85,335.95,54.895069,9.793790,54.895348,9.797490
1386925018,1,0,545.9,0,0,4,0,0,350,-0.0292,-2333.7075,6.8213,0.4212,54.894844,9.793731,108.3,5.845,1.85,335.95,54.895069,9.793790,54.895348,9.797490
1386925018,1,0,545.9,0,0,0,0,0,300,-0.0292,-2333.7075,6.8213,0.4212,54.894829,9.793728,108.3,5.845,1.85,335.95,54.895069,9.793790,54.895348,9.797490
1386925018,1,0,545.9,0,0,4,0,0,250,-0.0292,-2333.7075,6.8213,0.4212,54.894810,9.793724,108.3,5.845,1.85,335.95,54.895069,9.793790,54.895348,9.797490
1386925018,1,0,545.9,0,0,0,0,0,200,-0.0292,-2333.7075,6.8213,0.4212,54.894791,9.793720,108.3,5.845,1.85,335.95,54.895069,9.793790,54.895348,9.797490
1386925019,1,0,545.9,0,0,4,0,0,150,-0.0292,-2333.7075,6.8213,0.4212,54.894775,9.793716,108.3,5.845,1.85,335.95,54.895069,9.793790,54.895348,9.797490
1386925019,1,0,545.9,0,0,0,0,0,100,-0.0292,-2333.7075,6.8213,0.4212,54.894756,9.793713,108.3,5.845,1.85,335.95,54.895069,9.793790,54.895348,9.797490
1386925019,1,0,545.9,0,0,4,0,0,50,-0.0292,-2333.7075,6.8213,0.4212,54.894737,9.793709,108.3,5.845,1.85,335.95,54.895069,9.793790,54.895348,9.797490
1386925019,1,0,545.9,0,0,0,0,0,0,-0.0292,-2333.7075,6.8213,0.4212,54.894718,9.793705,108.3,5.845,1.85,335.95,54.895069,9.793790,54.895348,9.797490
1386925020,1,0,545.9,0,0,4,0,0,0,-0.0292,-2333.7075,6.8213,0.4212,54.894703,9.793701,108.3,5.845,1.85,335.95,54.895069,9.793790,54.895348,9.797490
1386925020,1,0,485.9,0,35,8,0,0,0,-0.0292,-2343.0408,6.8213,0.4212,54.894684,9.793703,108.3,5.845,1.85,335.95,54.895069,9.793790,54.895348,9.797490
1386925020,1,0,485.9,0,35,12,0,0,0,-0.0292,-2352.3740,6.8213,0.4212,54.894665,9.793710,108.3,5.845,1.85,335.95,54.895069,9.793790,54.895348,9.797490
1386925020,1,0,485.9,0,35,16,0,0,0,-0.0292,-2361.7073,6.8213,0.4212,54.894650,9.793721,108.3,5.845,1.85,335.95,54.895069,9.793790,54.895348,9.797490
1386925021,1,0,485.9,0,32,20,0,0,0,-0.0292,-2370.2407,6.8213,0.4212,54.894634,9.793736,108.3,5.845,1.85,335.95,54.895069,9.793790,54.895348,9.797490
1386925021,1,0,485.9,0,24,24,0,0,0,-0.0292,-2376.6406,6.8213,0.4212,54.894619,9.793756,108.3,5.845,1.85,335.95,54.895069,9.793790,54.895348,9.797490
1386925021,1,0,485.9,0,17,20,0,0,0,-0.0292,-2381.1741,6.8213,0.4212,54.894608,9.793776,108.3,5.845,1.85,335.95,54.895069,9.793790,54.895348,9.797490
1386925021,1,0,485.9,0,13,16,0,0,0,-0.0292,-2384.6406,6.8213,0.4212,54.894592,9.793797,108.3,5.845,1.85,335.95,54.895069,9.793790,54.895348,9.797490
1386925022,1,0,485.9,0,9,12,0,0,0,-0.0292,-2387.0405,6.8213,0.4212,54.894581,9.793820,108.3,5.845,1.85,335.95,54.895069,9.793790,54.895348,9.797490
1386925022,1,0,485.9,0,7,8,0,0,0,-0.0292,-2388.9072,6.8213,0.4212,54.894566,9.793844,108.3,5.845,1.85,335.95,54.895069,9.793790,54.895348,9.797490
1386925022,1,0,485.9,0,5,4,0,0,0,-0.0292,-2390.2405,6.8213,0.4212,54.894554,9.793868,108.3,5.845,1.85,335.95,54.895069,9.793790,54.895348,9.797490
1386925022,1,0,485.9,0,4,8,0,0,0,-0.0292,-2391.3071,6.8213,0.4212,54.894543,9.793893,108.3,5.845,1.85,335.95,54.895069,9.793790,54.895348,9.797490
1386925023,1,0,485.9,0,3,4,0,713,50,-0.0292,-2392.1072,6.8213,0.4212,54.894531,9.793918,108.3,5.845,1.85,335.95,54.895069,9.793790,54.895348,9.797490
1386925023,1,0,485.9,0,2,0,0,713,100,-0.0292,-2392.6406,6.8213,0.4212,54.894520,9.793942,108.3,5.845,1.85,335.95,54.895069,9.793790,54.895348,9.797490
1386925023,1,0,485.9,0,1,4,0,713,150,-0.0292,-2392.9072,6.8213,0.4212,54.894508,9.793967,108.3,5.845,1.85,335.95,54.895069,9.793790,54.895348,9.797490
1386925023,1,0,485.9,0,1,0,0,713,200,-0.0292,-2393.1738,6.8213,0.4212,54.894497,9.793992,108.3,5.845,1.85,335.95,54.895069,9.793790,54.895348,9.797490
1386925024,1,0,485.9,0,1,4,0,713,250,-0.0292,-2393.4404,6.8213,0.4212,54.894485,9.794018,108.3,5.845,1.85,335.95,54.895069,9.793790,54.895348,9.797490
1386925024,1,0,485.9,0,1,0,0,713,300,-0.0292,-2393.7070,6.8213,0.4212,54.894474,9.794043,108.3,5.845,1.85,335.95,54.895069,9.793790,54.895348,9.797490
1386925024,1,0,485.9,0,0,4,0,713,350,-0.0292,-2393.7070,6.8213,0.4212,54.894466,9.794068,108.3,5.845,1.85,335.95,54.895069,9.793790,54.895348,9.797490
1386925024,1,0,443.1,0,35,8,0,713,400,-0.0292,-2403.0403,6.8213,0.4212,54.894459,9.794096,108.3,5.845,1.85,335.95,54.895069,9.793790,54.895348,9.797490
1386925025,1,0,425.6,0,35,12,0,713,450,-0.0292,-2412.3735,6.8213,0.4212,54.894451,9.794126,108.3,5.845,1.85,335.95,54.895069,9.793790,54.895348,9.797490
1386925025,1,0,425.3,0,35,16,0,870,500,-0.0292,-2421.7068,6.8213,0.4212,54.894451,9.794157,108.3,5.845,1.85,335.95,54.895069,9.793790,54.895348,9.797490
1386925025,1,0,425.1,0,33,20,0,870,550,-0.0292,-2430.5068,6.8213,0.4212,54.894451,9.794188,108.3,5.845,1.85,335.95,54.895069,9.793790,54.895348,9.797490
1386925025,1,0,424.9,0,25,24,0,766,600,-0.0292,-2437.1736,6.8213,0.4212,54.894455,9.794219,108.3,5.845,1.85,335.95,54.895069,9.793790,54.895348,9.797490
1386925026,1,0,424.8,0,18,20,0,665,650,-0.0292,-2441.9736,6.8213,0.4212,54.894455,9.794250,108.3,5.845,1.85,335.95,54.895069,9.793790,54.895348,9.797490
1386925026,1,0,424.5,0,13,16,0,591,600,-0.0292,-2445.4402,6.8213,0.4212,54.894459,9.794280,108.3,5.845,1.85,335.95,54.895069,9.793790,54.895348,9.797490
1386925026,1,0,424.4,0,10,12,0,536,550,-0.0292,-2448.1069,6.8213,0.4212,54.894463,9.794310,108.3,5.845,1.85,335.95,54.895069,9.793790,54.895348,9.797490
1386925026,1,0,424.3,0,8,8,0,494,500,-0.0292,-2450.2402,6.8213,0.4212,54.894466,9.794338,108.3,5.845,1.85,335.95,54.895069,9.793790,54.895348,9.797490
1386925027,1,0,424.2,0,6,4,0,460,450,-0.0292,-2451.8403,6.8213,0.4212,54.894474,9.794368,108.3,5.845,1.85,335.95,54.895069,9.793790,54.895348,9.797490
1386925027,1,0,424.2,0,4,8,0,434,400,-0.0292,-2452.9070,6.8213,0.4212,54.894482,9.794396,108.3,5.845,1.85,335.95,54.895069,9.793790,54.895348,9.797490
1386925027,1,0,424.2,0,3,4,0,417,450,-0.0292,-2453.7070,6.8213,0.4212,54.894485,9.794425,108.3,5.845,1.85,335.95,54.895069,9.793790,54.895348,9.797490
1386925027,1,0,424.1,0,2,0,0,404,400,-0.0292,-2454.2405,6.8213,0.4212,54.894493,9.794454,108.3,5.845,1.85,335.95,54.895069,9.793790,54.895348,9.797490
1386925028,1,0,424.1,0,2,4,0,396,350,-0.0292,-2454.7739,6.8213,0.4212,54.894501,9.794482,108.3,5.845,1.85,335.95,54.895069,9.793790,54.895348,9.797490
1386925028,1,0,424.1,0,1,0,0,387,400,-0.0292,-2455.0405,6.8213,0.4212,54.894508,9.794510,108.3,5.845,1.85,335.95,54.895069,9.793790,54.895348,9.797490
1386925028,1,0,424.0,0,1,4,0,383,350,-0.0292,-2455.3071,6.8213,0.4212,54.894516,9.794538,108.3,5.845,1.85,335.95,54.895069,9.793790,54.895348,9.797490
1386925028,1,0,424.0,0,1,0,0,379,400,-0.0292,-2455.5737,6.8213,0.4212,54.894524,9.794567,108.3,5.845,1.85,335.95,54.895069,9.793790,54.895348,9.797490
1386925029,1,0,424.0,0,0,4,0,374,350,-0.0292,-2455.5737,6.8213,0.4212,54.894531,9.794595,108.3,5.845,1.85,335.95,54.895069,9.793790,54.895348,9.797490
1386925029,1,0,424.0,0,0,0,0,374,400,-0.0292,-2455.5737,6.8213,0.4212,54.894539,9.794623,108.3,5.845,1.85,335.95,54.895069,9.793790,54.895348,9.797490
1386925029,1,0,424.0,0,0,4,0,374,350,-0.0292,-2455.5737,6.8213,0.4212,54.894547,9.794651,108.3,5.845,1.85,335.95,54.895069,9.793790,54.895348,9.797490
1386925029,1,0,424.0,0,0,0,0,374,400,-0.0292,-2455.5737,6.8213,0.4212,54.894554,9.794679,108.3,5.845,1.85,335.95,54.895069,9.793790,54.895348,9.797490
1386925030,1,0,424.0,0,0,4,0,374,350,-0.0292,-2455.5737,6.8213,0.4212,54.894562,9.794707,108.3,5.845,1.85,335.95,54.895069,9.793790,54.895348,9.797490
1386925030,1,0,424.0,0,0,0,0,374,400,-0.0292,-2455.5737,6.8213,0.4212,54.894569,9.794735,108.3,5.845,1.85,335.95,54.895069,9.793790,54.895348,9.797490
1386925030,1,0,424.0,0,0,4,0,374,350,-0.0292,-2455.5737,6.8213,0.4212,54.894577,9.794763,108.3,5.845,1.85,335.95,54.895069,9.793790,54.895348,9.797490
1386925030,1,0,424.0,0,0,0,0,374,400,-0.0292,-2455.5737,6.8213,0.4212,54.894581,9.794791,108.3,5.845,1.85,335.95,54.895069,9.793790,54.895348,9.797490
1386925031,1,0,423.8,0,1,4,0,374,350,-0.0292,-2455.8403,6.8213,0.4212,54.894588,9.794819,108.3,5.845,1.85,335.95,54.895069,9.793790,54.895348,9.797490
1386925031,1,0,423.8,0,0,0,0,370,400,-0.0292,-2455.8403,6.8213,0.4212,54.894596,9.794847,108.3,5.845,1.85,335.95,54.895069,9.793790,54.895348,9.797490
1386925031,1,0,423.8,0,0,4,0,370,350,-0.0292,-2455.8403,6.8213,0.4212,54.894604,9.794875,108.3,5.845,1.85,335.95,54.895069,9.793790,54.895348,9.797490
1386925031,1,0,423.8,0,0,0,0,370,400,-0.0292,-2455.8403,6.8213,0.4212,54.894611,9.794903,108.3,5.845,1.85,335.95,54.895069,9.793790,54.895348,9.797490
1386925032,1,0,423.8,0,0,4,0,370,350,-0.0292,-2455.8403,6.8213,0.4212,54.894619,9.794931,108.3,5.845,1.85,335.95,54.895069,9.793790,54.895348,9.797490
1386925032,1,0,423.8,0,0,0,0,370,400,-0.0292,-2455.8403,6.8213,0.4212,54.894627,9.794960,108.3,5.845,1.85,335.95,54.895069,9.793790,54.895348,9.797490
1386925032,1,0,423.8,0,0,4,0,370,350,-0.0292,-2455.8403,6.8213,0.4212,54.894630,9.794988,108.3,5.845,1.85,335.95,54.895069,9.793790,54.895348,9.797490
1386925032,1,0,423.7,0,1,0,0,370,400,-0.0292,-2456.1069,6.8213,0.4212,54.894638,9.795016,108.3,5.845,1.85,335.95,54.895069,9.793790,54.895348,9.797490
1386925033,1,0,423.6,0,0,4,0,366,350,-0.0292,-2456.1069,6.8213,0.4212,54.894646,9.795045,108.3,5.845,1.85,335.95,54.895069,9.793790,54.895348,9.797490
1386925033,1,0,423.6,0,0,0,0,366,400,-0.0292,-2456.1069,6.8213,0.4212,54.894653,9.795073,108.3,5.845,1.85,335.95,54.895069,9.793790,54.895348,9.797490
1386925033,1,0,423.6,0,0,4,0,366,350,-0.0292,-2456.1069,6.8213,0.4212,54.894661,9.795101,108.3,5.845,1.85,335.95,54.895069,9.793790,54.895348,9.797490
1386925033,1,0,423.6,0,0,0,0,366,400,-0.0292,-2456.1069,6.8213,0.4212,54.894669,9.795130,108.3,5.845,1.85,335.95,54.895069,9.793790,54.895348,9.797490
1386925034,1,0,423.6,0,0,4,0,366,350,-0.0292,-2456.1069,6.8213,0.4212,54.894676,9.795157,108.3,5.845,1.85,335.95,54.895069,9.793790,54.895348,9.797490
1386925034,1,0,423.6,0,0,0,0,366,400,-0.0292,-2456.1069,6.8213,0.4212,54.894684,9.795186,108.3,5.845,1.85,335.95,54.895069,9.793790,54.895348,9.797490
1386925034,1,0,423.5,0,0,4,0,366,350,-0.0292,-2456.1069,6.8213,0.4212,54.894691,9.795214,108.3,5.845,1.85,335.95,54.895069,9.793790,54.895348,9.797490
1386925034,1,0,423.5,0,0,0,0,366,400,-0.0292,-2456.1069,6.8213,0.4212,54.894699,9.795241,108.3,5.845,1.85,335.95,54.895069,9.793790,54.895348,9.797490
1386925035,1,0,423.5,0,0,4,0,366,350,-0.0292,-2456.1069,6.8213,0.4212,54.894711,9.795270,108.3,5.845,1.85,335.95,54.895069,9.793790,54.895348,9.797490
1386925035,1,0,423.6,0,0,0,0,366,400,-0.0292,-2456.1069,6.8213,0.4212,54.894718,9.795298,108.3,5.845,1.85,335.95,54.895069,9.793790,54.895348,9.797490
1386925035,1,0,423.6,0,0,4,0,366,350,-0.0292,-2456.1069,6.8213,0.4212,54.894726,9.795325,108.3,5.845,1.85,335.95,54.895069,9.793790,54.895348,9.797490
1386925035,1,0,423.6,0,0,0,0,366,400,-0.0292,-2456.1069,6.8213,0.4212,54.894733,9.795354,108.3,5.845,1.85,335.95,54.895069,9.793790,54.895348,9.797490
1386925036,1,0,423.6,0,0,4,0,366,350,-0.0292,-2456.1069,6.8213,0.4212,54.894741,9.795382,108.3,5.845,1.85,335.95,54.895069,9.793790,54.895348,9.797490
1386925036,1,0,423.6,0,0,0,0,366,400,-0.0292,-2456.1069,6.8213,0.4212,54.894749,9.795409,108.3,5.845,1.85,335.95,54.895069,9.793790,54.895348,9.797490
1386925036,1,0,423.6,0,0,4,0,366,350,-0.0292,-2456.1069,6.8213,0.4212,54.894760,9.795438,108.3,5.845,1.85,335.95,54.895069,9.793790,54.895348,9.797490
1386925036,1,0,423.7,0,0,0,0,366,400,-0.0292,-2456.1069,6.8213,0.4212,54.894768,9.795465,108.3,5.845,1.85,335.95,54.895069,9.793790,54.895348,9.797490
1386925037,1,0,423.7,0,0,4,0,366,350,-0.0292,-2456.1069,6.8213,0.4212,54.894775,9.795493,108.3,5.845,1.85,335.95,54.895069,9.793790,54.895348,9.797490
1386925037,1,0,423.7,0,0,0,0,366,400,-0.0292,-2456.1069,6.8213,0.4212,54.894783,9.795522,108.3,5.845,1.85,335.95,54.895069,9.793790,54.895348,9.797490
1386925037,1,0,423.6,0,0,4,0,366,350,-0.0292,-2456.1069,6.8213,0.4212,54.894791,9.795549,108.3,5.845,1.85,335.95,54.895069,9.793790,54.895348,9.797490
1386925037,1,0,423.6,0,0,0,0,366,400,-0.0292,-2456.1069,6.8213,0.4212,54.894798,9.795577,108.3,5.845,1.85,335.95,54.895069,9.793790,54.895348,9.797490
1386925038,1,0,423.6,0,0,4,0,366,350,-0.0292,-2456.1069,6.8213,0.4212,54.894810,9.795606,108.3,5.845,1.85,335.95,54.895069,9.793790,54.895348,9.797490
1386925038,1,0,423.7,0,0,0,0,366,400,-0.0292,-2456.1069,6.8213,0.4212,54.894817,9.795633,108.3,5.845,1.85,335.95,54.895069,9.793790,54.895348,9.797490
1386925038,1,0,423.7,0,0,4,0,366,350,-0.0292,-2456.1069,6.8213,0.4212,54.894825,9.795661,108.3,5.845,1.85,335.95,54.895069,9.793790,54.895348,9.797490
1386925038,1,0,423.7,0,0,0,0,366,400,-0.0292,-2456.1069,6.8213,0.4212,54.894833,9.795690,108.3,5.845,1.85,335.95,54.895069,9.793790,54.895348,9.797490
1386925039,1,0,423.7,0,0,4,0,366,350,-0.0292,-2456.1069,6.8213,0.4212,54.894840,9.795717,108.3,5.845,1.85,335.95,54.895069,9.793790,54.895348,9.797490
1386925039,1,0,423.7,0,0,0,0,366,400,-0.0292,-2456.1069,6.8213,0.4212,54.894848,9.795746,108.3,5.845,1.85,335.95,54.895069,9.793790,54.895348,9.797490
1386925039,1,0,423.7,0,0,4,0,366,350,-0.0292,-2456.1069,6.8213,0.4212,54.894855,9.795774,108.3,5.845,1.85,335.95,54.895069,9.793790,54.895348,9.797490
1386925039,1,0,423.6,0,0,0,0,366,400,-0.0292,-2456.1069,6.8213,0.4212,54.894863,9.795802,108.3,5.845,1.85,335.95,54.895069,9.793790,54.895348,9.797490
1386925040,1,0,423.6,0,0,4,0,366,350,-0.0292,-2456.1069,6.8213,0.4212,54.894871,9.795831,108.3,5.845,1.85,335.95,54.895069,9.793790,54.895348,9.797490
1386925040,1,0,423.6,0,0,0,0,366,400,-0.0292,-2456.1069,6.8213,0.4212,54.894882,9.795859,108.3,5.845,1.85,335.95,54.895069,9.793790,54.895348,9.797490
1386925040,1,0,423.7,0,0,4,0,366,350,-0.0292,-2456.1069,6.8213,0.4212,54.894890,9.795887,108.3,5.845,1.85,335.95,54.895069,9.793790,54.895348,9.797490
1386925040,1,0,423.7,0,0,0,0,366,400,-0.0292,-2456.1069,6.8213,0.4212,54.894897,9.795916,108.3,5.845,1.85,335.95,54.895069,9.793790,54.895348,9.797490
1386925041,1,0,423.7,0,0,4,0,366,350,-0.0292,-2456.1069,6.8213,0.4212,54.894905,9.795944,108.3,5.845,1.85,335.95,54.895069,9.793790,54.895348,9.797490
1386925041,1,0,423.7,0,0,0,0,366,400,-0.0292,-2456.1069,6.8213,0.4212,54.894913,9.795972,108.3,5.845,1.85,335.95,54.895069,9.793790,54.895348,9.797490
1386925041,1,0,423.7,0,0,4,0,366,350,-0.0292,-2456.1069,6.8213,0.4212,54.894920,9.796000,108.3,5.845,1.85,335.95,54.895069,9.793790,54.895348,9.797490
1386925041,1,0,423.6,0,0,0,0,366,400,-0.0292,-2456.1069,6.8213,0.4212,54.894932,9.796028,108.3,5.845,1.85,335.95,54.895069,9.793790,54.895348,9.797490
1386925042,1,0,423.8,0,0,4,0,366,350,-0.0292,-2456.1069,6.8213,0.4212,54.894939,9.796056,108.3,5.845,1.85,335.95,54.895069,9.793790,54.895348,9.797490
1386925042,1,0,423.8,0,0,0,0,366,400,-0.0292,-2456.1069,6.8213,0.4212,54.894947,9.796084,108.3,5.845,1.85,335.95,54.895069,9.793790,54.895348,9.797490
1386925042,1,0,423.8,0,0,4,0,366,350,-0.0292,-2456.1069,6.8213,0.4212,54.894955,9.796112,108.3,5.845,1.85,335.95,54.895069,9.793790,54.895348,9.797490
1386925042,1,0,423.8,0,0,0,0,366,400,-0.0292,-2456.1069,6.8213,0.4212,54.894962,9.796140,108.3,5.845,1.85,335.95,54.895069,9.793790,54.895348,9.797490
1386925043,1,0,423.8,0,0,4,0,366,350,-0.0292,-2456.1069,6.8213,0.4212,54.894970,9.796168,108.3,5.845,1.85,335.95,54.895069,9.793790,54.895348,9.797490
1386925043,1,0,423.7,0,0,0,0,366,400,-0.0292,-2456.1069,6.8213,0.4212,54.894981,9.796196,108.3,5.845,1.85,335.95,54.895069,9.793790,54.895348,9.797490
1386925043,1,0,423.9,0,0,4,0,366,350,-0.0292,-2456.1069,6.8213,0.4212,54.894989,9.796224,108.3,5.845,1.85,335.95,54.895069,9.793790,54.895348,9.797490
1386925043,1,0,423.9,0,0,0,0,366,400,-0.0292,-2456.1069,6.8213,0.4212,54.894997,9.796252,108.3,5.845,1.85,335.95,54.895069,9.793790,54.895348,9.797490
1386925044,1,0,423.9,0,0,4,0,366,350,-0.0292,-2456.1069,6.8213,0.4212,54.895004,9.796280,108.3,5.845,1.85,335.95,54.895069,9.793790,54.895348,9.797490
1386925044,1,0,423.9,0,0,0,0,366,400,-0.0292,-2456.1069,6.8213,0.4212,54.895012,9.796308,108.3,5.845,1.85,335.95,54.895069,9.793790,54.895348,9.797490
1386925044,1,0,423.9,0,0,4,0,366,350,-0.0292,-2456.1069,6.8213,0.4212,54.895020,9.796336,108.3,5.845,1.85,335.95,54.895069,9.793790,54.895348,9.797490
1386925044,1,0,423.8,0,0,0,0,366,400,-0.0292,-2456.1069,6.8213,0.4212,54.895031,9.796364,108.3,5.845,1.85,335.95,54.895069,9.793790,54.895348,9.797490
1386925045,1,0,424.1,0,0,4,0,366,350,-0.0292,-2456.1069,6.8213,0.4212,54.895039,9.796391,108.3,5.845,1.85,335.95,54.895069,9.793790,54.895348,9.797490
1386925045,1,0,424.1,0,0,0,0,366,400,-0.0292,-2456.1069,6.8213,0.4212,54.895046,9.796420,108.3,5.845,1.85,335.95,54.895069,9.793790,54.895348,9.797490
1386925045,1,0,424.0,0,0,4,0,366,350,-0.0292,-2456.1069,6.8213,0.4212,54.895054,9.796448,108.3,5.845,1.85,335.95,54.895069,9.793790,54.895348,9.797490
1386925045,1,0,424.0,0,0,0,0,366,400,-0.0292,-2456.1069,6.8213,0.4212,54.895061,9.796475,108.3,5.845,1.85,335.95,54.895069,9.793790,54.895348,9.797490
1386925046,1,0,424.0,0,0,4,0,366,350,-0.0292,-2456.1069,6.8213,0.4212,54.895069,9.796504,108.3,5.845,1.85,335.95,54.895069,9.793790,54.895348,9.797490
1386925046,1,0,424.0,0,0,0,0,366,400,-0.0292,-2456.1069,6.8213,0.4212,54.895077,9.796532,108.3,5.845,1.85,335.95,54.895069,9.793790,54.895348,9.797490
1386925046,1,0,424.0,0,0,4,0,366,350,-0.0292,-2456.1069,6.8213,0.4212,54.895084,9.796560,108.3,5.845,1.85,335.95,54.895069,9.793790,54.895348,9.797490
1386925047,1,0,423.9,0,0,0,0,366,400,-0.0292,-2456.1069,6.8213,0.4212,54.895092,9.796589,108.3,5.845,1.85,335.95,54.895069,9.793790,54.895348,9.797490
1386925047,1,0,423.9,0,0,4,0,366,350,-0.0292,-2456.1069,6.8213,0.4212,54.895103,9.796617,108.3,5.845,1.85,335.95,54.895069,9.793790,54.895348,9.797490
1386925047,1,0,424.2,0,0,0,0,366,400,-0.0292,-2456.1069,6.8213,0.4212,54.895111,9.796645,108.3,5.845,1.85,335.95,54.895069,9.793790,54.895348,9.797490
1386925047,1,0,424.2,0,0,4,0,366,350,-0.0292,-2456.1069,6.8213,0.4212,54.895119,9.796674,108.3,5.845,1.85,335.95,54.895069,9.793790,54.895348,9.797490
1386925048,1,0,424.1,0,0,0,0,366,400,-0.0292,-2456.1069,6.8213,0.4212,54.895126,9.796701,108.3,5.845,1.85,335.95,54.895069,9.793790,54.895348,9.797490
1386925048,1,0,424.1,0,0,4,0,366,350,-0.0292,-2456.1069,6.8213,0.4212,54.895134,9.796730,108.3,5.845,1.85,335.95,54.895069,9.793790,54.895348,9.797490
1386925048,1,0,424.1,0,0,0,0,366,400,-0.0292,-2456.1069,6.8213,0.4212,54.895142,9.796759,108.3,5.845,1.85,335.95,54.895069,9.793790,54.895348,9.797490
1386925048,1,0,424.0,0,0,4,0,366,350,-0.0292,-2456.1069,6.8213,0.4212,54.895153,9.796786,108.3,5.845,1.85,335.95,54.895069,9.793790,54.895348,9.797490
1386925049,1,0,424.5,0,-1,0,0,366,400,-0.0292,-2455.8403,6.8213,0.4212,54.895161,9.796815,108.3,5.845,1.85,335.95,54.895069,9.793790,54.895348,9.797490
1386925049,1,0,424.4,0,0,4,0,370,350,-0.0292,-2455.8403,6.8213,0.4212,54.895168,9.796844,108.3,5.845,1.85,335.95,54.895069,9.793790,54.895348,9.797490
1386925049,1,0,424.4,0,0,0,0,370,400,-0.0292,-2455.8403,6.8213,0.4212,54.895176,9.796871,108.3,5.845,1.85,335.95,54.895069,9.793790,54.895348,9.797490
1386925049,1,0,424.4,0,0,4,0,370,350,-0.0292,-2455.8403,6.8213,0.4212,54.895184,9.796900,108.3,5.845,1.85,335.95,54.895069,9.793790,54.895348,9.797490
1386925050,1,0,424.3,0,0,0,0,370,400,-0.0292,-2455.8403,6.8213,0.4212,54.895191,9.796928,108.3,5.845,1.85,335.95,54.895069,9.793790,54.895348,9.797490
1386925050,1,0,424.3,0,0,4,0,370,350,-0.0292,-2455.8403,6.8213,0.4212,54.895203,9.796956,108.3,5.845,1.85,335.95,54.895069,9.793790,54.895348,9.797490
1386925050,1,0,424.9,0,-1,0,0,370,400,-0.0292,-2455.5737,6.8213,0.4212,54.895210,9.796985,108.3,5.845,1.85,335.95,54.895069,9.793790,54.895348,9.797490
1386925050,1,0,424.8,0,0,4,0,374,350,-0.0292,-2455.5737,6.8213,0.4212,54.895218,9.797013,108.3,5.845,1.85,335.95,54.895069,9.793790,54.895348,9.797490
1386925051,1,0,424.8,0,0,0,0,374,400,-0.0292,-2455.5737,6.8213,0.4212,54.895226,9.797041,108.3,5.845,1.85,335.95,54.895069,9.793790,54.895348,9.797490
1386925051,1,0,424.8,0,0,4,0,374,350,-0.0292,-2455.5737,6.8213,0.4212,54.895233,9.797070,108.3,5.845,1.85,335.95,54.895069,9.793790,54.895348,9.797490
1386925051,1,0,424.8,0,0,0,0,374,400,-0.0292,-2455.5737,6.8213,0.4212,54.895241,9.797098,108.3,5.845,1.85,335.95,54.895069,9.793790,54.895348,9.797490
1386925051,1,0,424.8,0,0,4,0,374,350,-0.0292,-2455.5737,6.8213,0.4212,54.895252,9.797126,108.3,5.845,1.85,335.95,54.895069,9.793790,54.895348,9.797490
1386925052,1,0,425.7,0,-1,0,0,374,400,-0.0292,-2455.3071,6.8213,0.4212,54.895260,9.797154,108.3,5.845,1.85,335.95,54.895069,9.793790,54.895348,9.797490
1386925052,1,0,425.7,0,-1,-4,0,379,350,-0.0292,-2455.0405,6.8213,0.4212,54.895267,9.797183,108.3,5.845,1.85,335.95,54.895069,9.793790,54.895348,9.797490
1386925052,1,0,425.7,0,-1,0,0,383,400,-0.0292,-2454.7739,6.8213,0.4212,54.895271,9.797211,108.3,5.845,1.85,335.95,54.895069,9.793790,54.895348,9.797490
1386925052,1,0,424.7,0,0,4,0,387,350,-0.0292,-2454.7739,6.8213,0.4212,54.895279,9.797239,108.3,5.845,1.85,335.95,54.895069,9.793790,54.895348,9.797490
1386925053,1,0,424.7,0,1,0,0,387,400,-0.0292,-2455.0405,6.8213,0.4212,54.895287,9.797268,108.3,5.845,1.85,335.95,54.895069,9.793790,54.895348,9.797490
1386925053,1,0,424.6,0,0,4,0,383,350,-0.0292,-2455.0405,6.8213,0.4212,54.895294,9.797296,108.3,5.845,1.85,335.95,54.895069,9.793790,54.895348,9.797490
1386925053,1,0,424.6,0,0,0,0,383,400,-0.0292,-2455.0405,6.8213,0.4212,54.895302,9.797324,108.3,5.845,1.85,335.95,54.895069,9.793790,54.895348,9.797490
1386925053,1,0,424.5,0,0,4,0,383,350,-0.0292,-2455.0405,6.8213,0.4212,54.895309,9.797353,108.3,5.845,1.85,335.95,54.895069,9.793790,54.895348,9.797490
1386925054,1,0,424.4,0,1,0,0,383,400,-0.0292,-2455.3071,6.8213,0.4212,54.895317,9.797380,108.3,5.845,1.85,335.95,54.895069,9.793790,54.895348,9.797490
1386925054,1,0,424.3,0,0,4,0,379,350,-0.0292,-2455.3071,6.8213,0.4212,54.895325,9.797409,108.3,5.845,1.85,335.95,54.895069,9.793790,54.895348,9.797490
1386925054,1,0,424.0,0,1,0,0,379,400,-0.0292,-2455.5737,6.8213,0.4212,54.895332,9.797437,108.3,5.845,1.85,335.95,54.895069,9.793790,54.895348,9.797490
1386925054,1,0,423.7,0,1,4,0,374,350,-0.0292,-2455.8403,6.8213,0.4212,54.895340,9.797464,108.3,5.845,1.85,335.95,54.895348,9.797490,54.894039,9.801540
1386925055,1,0,478.9,0,-35,0,0,370,400,-0.0292,-2446.5071,6.8213,0.4212,54.895344,9.797495,108.3,5.845,1.85,335.95,54.895348,9.797490,54.894039,9.801540
1386925055,1,0,479.1,0,-35,-4,0,519,450,-0.0292,-2437.1738,6.8213,0.4212,54.895344,9.797525,108.3,5.845,1.85,335.95,54.895348,9.797490,54.894039,9.801540
1386925055,1,0,479.3,0,-35,-8,0,665,500,-0.0292,-2427.8406,6.8213,0.4212,54.895340,9.797556,108.3,5.845,1.85,335.95,54.895348,9.797490,54.894039,9.801540
1386925055,1,0,479.4,0,-27,-12,0,805,550,-0.0292,-2420.6406,6.8213,0.4212,54.895336,9.797587,108.3,5.845,1.85,335.95,54.895348,9.797490,54.894039,9.801540
1386925056,1,0,479.6,0,-20,-16,0,870,600,-0.0292,-2415.3074,6.8213,0.4212,54.895332,9.797618,108.3,5.845,1.85,335.95,54.895348,9.797490,54.894039,9.801540
1386925056,1,0,479.7,0,-15,-12,0,870,650,-0.0292,-2411.3074,6.8213,0.4212,54.895329,9.797647,108.3,5.845,1.85,335.95,54.895348,9.797490,54.894039,9.801540
1386925056,1,0,479.8,0,-11,-8,0,870,700,-0.0292,-2408.3740,6.8213,0.4212,54.895321,9.797676,108.3,5.845,1.85,335.95,54.895348,9.797490,54.894039,9.801540
1386925056,1,0,479.8,0,-8,-4,0,713,750,-0.0292,-2406.2407,6.8213,0.4212,54.895313,9.797705,108.3,5.845,1.85,335.95,54.895348,9.797490,54.894039,9.801540
1386925057,1,0,479.9,0,-6,-8,0,713,700,-0.0292,-2404.6406,6.8213,0.4212,54.895306,9.797732,108.3,5.845,1.85,335.95,54.895348,9.797490,54.894039,9.801540
1386925057,1,0,479.9,0,-5,-4,0,713,750,-0.0292,-2403.3074,6.8213,0.4212,54.895298,9.797760,108.3,5.845,1.85,335.95,54.895348,9.797490,54.894039,9.801540
1386925057,1,0,479.9,0,-3,0,0,713,700,-0.0292,-2402.5073,6.8213,0.4212,54.895290,9.797788,108.3,5.845,1.85,335.95,54.895348,9.797490,54.894039,9.801540
1386925057,1,0,480.0,0,-2,-4,0,713,750,-0.0292,-2401.9739,6.8213,0.4212,54.895279,9.797815,108.3,5.845,1.85,335.95,54.895348,9.797490,54.894039,9.801540
1386925058,1,0,479.9,0,-2,0,0,713,700,-0.0292,-2401.4404,6.8213,0.4212,54.895271,9.797843,108.3,5.845,1.85,335.95,54.895348,9.797490,54.894039,9.801540
1386925058,1,0,479.9,0,-1,-4,0,713,750,-0.0292,-2401.1738,6.8213,0.4212,54.895260,9.797871,108.3,5.845,1.85,335.95,54.895348,9.797490,54.894039,9.801540
1386925058,1,0,479.9,0,-1,0,0,713,700,-0.0292,-2400.9072,6.8213,0.4212,54.895252,9.797897,108.3,5.845,1.85,335.95,54.895348,9.797490,54.894039,9.801540
1386925058,1,0,479.9,0,-1,-4,0,713,750,-0.0292,-2400.6406,6.8213,0.4212,54.895245,9.797925,108.3,5.845,1.85,335.95,54.895348,9.797490,54.894039,9.801540
1386925059,1,0,480.0,0,-1,0,0,713,700,-0.0292,-2400.3740,6.8213,0.4212,54.895233,9.797952,108.3,5.845,1.85,335.95,54.895348,9.797490,54.894039,9.801540
1386925059,1,0,479.9,0,0,4,0,713,750,-0.0292,-2400.3740,6.8213,0.4212,54.895226,9.797978,108.3,5.845,1.85,335.95,54.895348,9.797490,54.894039,9.801540
1386925059,1,0,479.9,0,0,0,0,713,700,-0.0292,-2400.3740,6.8213,0.4212,54.895218,9.798006,108.3,5.845,1.85,335.95,54.895348,9.797490,54.894039,9.801540
1386925059,1,0,480.0,0,0,4,0,713,750,-0.0292,-2400.3740,6.8213,0.4212,54.895206,9.798033,108.3,5.845,1.85,335.95,54.895348,9.797490,54.894039,9.801540
1386925060,1,0,479.9,0,0,0,0,713,700,-0.0292,-2400.3740,6.8213,0.4212,54.895199,9.798059,108.3,5.845,1.85,335.95,54.895348,9.797490,54.894039,9.801540
1386925060,1,0,479.9,0,0,4,0,713,750,-0.0292,-2400.3740,6.8213,0.4212,54.895187,9.798087,108.3,5.845,1.85,335.95,54.895348,9.797490,54.894039,9.801540
1386925060,1,0,479.9,0,0,0,0,713,700,-0.0292,-2400.3740,6.8213,0.4212,54.895180,9.798114,108.3,5.845,1.85,335.95,54.895348,9.797490,54.894039,9.801540
1386925060,1,0,479.9,0,0,4,0,713,750,-0.0292,-2400.3740,6.8213,0.4212,54.895172,9.798141,108.3,5.845,1.85,335.95,54.895348,9.797490,54.894039,9.801540
1386925061,1,0,479.9,0,0,0,0,713,700,-0.0292,-2400.3740,6.8213,0.4212,54.895161,9.798168,108.3,5.845,1.85,335.95,54.895348,9.797490,54.894039,9.801540
1386925061,1,0,479.9,0,0,4,0,713,750,-0.0292,-2400.3740,6.8213,0.4212,54.895153,9.798195,108.3,5.845,1.85,335.95,54.895348,9.797490,54.894039,9.801540
1386925061,1,0,479.9,0,0,0,0,713,700,-0.0292,-2400.3740,6.8213,0.4212,54.895145,9.798223,108.3,5.845,1.85,335.95,54.895348,9.797490,54.894039,9.801540
1386925061,1,0,480.0,0,0,4,0,713,750,-0.0292,-2400.3740,6.8213,0.4212,54.895134,9.798249,108.3,5.845,1.85,335.95,54.895348,9.797490,54.894039,9.801540
1386925062,1,0,479.9,0,0,0,0,713,700,-0.0292,-2400.3740,6.8213,0.4212,54.895126,9.798276,108.3,5.845,1.85,335.95,54.895348,9.797490,54.894039,9.801540
1386925062,1,0,479.9,0,0,4,0,713,750,-0.0292,-2400.3740,6.8213,0.4212,54.895115,9.798304,108.3,5.845,1.85,335.95,54.895348,9.797490,54.894039,9.801540
1386925062,1,0,479.9,0,0,0,0,713,700,-0.0292,-2400.3740,6.8213,0.4212,54.895107,9.798330,108.3,5.845,1.85,335.95,54.895348,9.797490,54.894039,9.801540
1386925062,1,0,479.9,0,0,4,0,713,750,-0.0292,-2400.3740,6.8213,0.4212,54.895100,9.798358,108.3,5.845,1.85,335.95,54.895348,9.797490,54.894039,9.801540
1386925063,1,0,479.9,0,0,0,0,713,700,-0.0292,-2400.3740,6.8213,0.4212,54.895088,9.798386,108.3,5.845,1.85,335.95,54.895348,9.797490,54.894039,9.801540
1386925063,1,0,479.9,0,0,4,0,713,750,-0.0292,-2400.3740,6.8213,0.4212,54.895081,9.798412,108.3,5.845,1.85,335.95,54.895348,9.797490,54.894039,9.801540
1386925063,1,0,479.9,0,0,0,0,713,700,-0.0292,-2400.3740,6.8213,0.4212,54.895073,9.798440,108.3,5.845,1.85,335.95,54.895348,9.797490,54.894039,9.801540
1386925063,1,0,480.0,0,0,4,0,713,750,-0.0292,-2400.3740,6.8213,0.4212,54.895061,9.798467,108.3,5.845,1.85,335.95,54.895348,9.797490,54.894039,9.801540
1386925064,1,0,479.9,0,0,0,0,713,700,-0.0292,-2400.3740,6.8213,0.4212,54.895054,9.798493,108.3,5.845,1.85,335.95,54.895348,9.797490,54.894039,9.801540
