MCU_timestamp,Navigation_System,Manual_Control,Guidance_Heading,Manual_Ctrl_Rudder,Rudder_Desired_Angle,Rudder_Feedback,Manual_Ctrl_Sail,Sail_Desired_Pos,Sail_Feedback,Rate,Heading,Pitch,Roll,Latitude,Longitude,COG,SOG,Wind_Speed,Wind_Angle,Point_Start_Lat,Point_Start_Lon,Point_End_Lat,Point_End_Lon
1386863461,0,0,0.0,0,0,24,0,0,0,-0.0292,19.0922,6.8213,0.4212,54.896976,9.795020,108.3,5.845,1.85,335.95,0.000000,0.000000,0.000000,0.000000
1386863462,0,0,0.0,0,0,24,0,0,0,-0.0292,19.0922,6.8213,0.4212,54.896976,9.795020,108.3,5.845,1.85,335.95,0.000000,0.000000,0.000000,0.000000
1386863462,0,0,0.0,0,0,24,0,0,0,-0.0292,19.0922,6.8213,0.4212,54.896976,9.795020,108.3,5.845,1.85,335.95,0.000000,0.000000,0.000000,0.000000
1386863462,0,0,0.0,0,0,24,0,0,0,-0.0292,19.0922,6.8213,0.4212,54.896976,9.795020,108.3,5.845,1.85,335.95,0.000000,0.000000,0.000000,0.000000
1386863462,0,0,0.0,0,0,24,0,0,0,-0.0292,19.0922,6.8213,0.4212,54.896976,9.795020,108.3,5.845,1.85,335.95,0.000000,0.000000,0.000000,0.000000
1386863463,0,0,0.0,0,0,24,0,0,0,-0.0292,19.0922,6.8213,0.4212,54.896976,9.795020,108.3,5.845,1.85,335.95,0.000000,0.000000,0.000000,0.000000
1386863463,0,0,0.0,0,0,24,0,0,0,-0.0292,19.0922,6.8213,0.4212,54.896976,9.795020,108.3,5.845,1.85,335.95,0.000000,0.000000,0.000000,0.000000
1386863463,0,0,0.0,0,0,24,0,0,0,-0.0292,19.0922,6.8213,0.4212,54.896976,9.795020,108.3,5.845,1.85,335.95,0.000000,0.000000,0.000000,0.000000
1386863463,0,0,0.0,0,0,24,0,0,0,-0.0292,19.0922,6.8213,0.4212,54.896976,9.795020,108.3,5.845,1.85,335.95,0.000000,0.000000,0.000000,0.000000
1386863464,0,0,0.0,0,0,24,0,0,0,-0.0292,19.0922,6.8213,0.4212,54.896976,9.795020,108.3,5.845,1.85,335.95,0.000000,0.000000,0.000000,0.000000
1386863464,0,0,0.0,0,0,24,0,0,0,-0.0292,19.0922,6.8213,0.4212,54.896976,9.795020,108.3,5.845,1.85,335.95,0.000000,0.000000,0.000000,0.000000
1386863464,0,0,0.0,0,0,24,0,0,0,-0.0292,19.0922,6.8213,0.4212,54.896976,9.795020,108.3,5.845,1.85,335.95,0.000000,0.000000,0.000000,0.000000
1386863464,0,0,0.0,0,0,24,0,0,0,-0.0292,19.0922,6.8213,0.4212,54.896976,9.795020,108.3,5.845,1.85,335.95,0.000000,0.000000,0.000000,0.000000
1386863465,0,0,0.0,0,0,24,0,0,0,-0.0292,19.0922,6.8213,0.4212,54.896976,9.795020,108.3,5.845,1.85,335.95,0.000000,0.000000,0.000000,0.000000
1386863465,0,0,0.0,0,0,24,0,0,0,-0.0292,19.0922,6.8213,0.4212,54.896976,9.795020,108.3,5.845,1.85,335.95,0.000000,0.000000,0.000000,0.000000
1386863465,0,0,0.0,0,0,24,0,0,0,-0.0292,19.0922,6.8213,0.4212,54.896976,9.795020,108.3,5.845,1.85,335.95,0.000000,0.000000,0.000000,0.000000
1386863465,0,0,0.0,0,0,24,0,0,0,-0.0292,19.0922,6.8213,0.4212,54.896976,9.795020,108.3,5.845,1.85,335.95,0.000000,0.000000,0.000000,0.000000
1386863466,0,0,0.0,0,0,24,0,0,0,-0.0292,19.0922,6.8213,0.4212,54.896976,9.795020,108.3,5.845,1.85,335.95,0.000000,0.000000,0.000000,0.000000
1386863466,0,0,0.0,0,0,24,0,0,0,-0.0292,19.0922,6.8213,0.4212,54.896976,9.795020,108.3,5.845,1.85,335.95,0.000000,0.000000,0.000000,0.000000
1386863466,0,0,0.0,0,0,24,0,0,0,-0.0292,19.0922,6.8213,0.4212,54.896976,9.795020,108.3,5.845,1.85,335.95,0.000000,0.000000,0.000000,0.000000
1386863466,0,0,0.0,0,0,24,0,0,0,-0.0292,19.0922,6.8213,0.4212,54.896976,9.795020,108.3,5.845,1.85,335.95,0.000000,0.000000,0.000000,0.000000
1386863467,0,0,0.0,0,0,24,0,0,0,-0.0292,19.0922,6.8213,0.4212,54.896976,9.795020,108.3,5.845,1.85,335.95,0.000000,0.000000,0.000000,0.000000
1386863467,0,0,0.0,0,0,24,0,0,0,-0.0292,19.0922,6.8213,0.4212,54.896976,9.795020,108.3,5.845,1.85,335.95,0.000000,0.000000,0.000000,0.000000
1386863467,0,0,0.0,0,0,24,0,0,0,-0.0292,19.0922,6.8213,0.4212,54.896976,9.795020,108.3,5.845,1.85,335.95,0.000000,0.000000,0.000000,0.000000
1386863467,0,0,0.0,0,0,24,0,0,0,-0.0292,19.0922,6.8213,0.4212,54.896976,9.795020,108.3,5.845,1.85,335.95,0.000000,0.000000,0.000000,0.000000
1386863468,4,0,0.0,0,0,24,0,0,0,-0.0292,19.0922,6.8213,0.4212,54.896976,9.795020,108.3,5.845,1.85,335.95,0.000000,0.000000,0.000000,0.000000
1386863468,1,0,485.9,0,-35,20,0,0,0,-0.0292,28.4255,6.8213,0.4212,54.896992,9.795035,108.3,5.845,1.85,335.95,54.896976,9.795020,54.895069,9.793790
1386863468,1,0,485.9,0,-35,16,0,0,25,-0.0292,37.7589,6.8213,0.4212,54.897003,9.795054,108.3,5.845,1.85,335.95,54.896976,9.795020,54.895069,9.793790
1386863468,1,0,485.9,0,-35,12,0,13,0,-0.0292,47.0922,6.8213,0.4212,54.897015,9.795077,108.3,5.845,1.85,335.95,54.896976,9.795020,54.895069,9.793790
1386863469,1,0,485.9,0,-35,8,0,67,25,-0.0292,56.4255,6.8213,0.4212,54.897022,9.795103,108.3,5.845,1.85,335.95,54.896976,9.795020,54.895069,9.793790
1386863469,1,0,485.9,0,-35,4,0,143,50,-0.0292,65.7589,6.8213,0.4212,54.897030,9.795132,108.3,5.845,1.85,335.95,54.896976,9.795020,54.895069,9.793790
1386863469,1,0,485.9,0,-35,0,0,227,75,-0.0292,75.0922,6.8213,0.4212,54.897034,9.795161,108.3,5.845,1.85,335.95,54.896976,9.795020,54.895069,9.793790
1386863469,1,0,485.9,0,-35,-4,0,313,100,-0.0292,84.4255,6.8213,0.4212,54.897038,9.795192,108.3,5.845,1.85,335.95,54.896976,9.795020,54.895069,9.793790
1386863470,1,0,485.9,0,-35,-8,0,396,125,-0.0292,93.7589,6.8213,0.4212,54.897034,9.795223,108.3,5.845,1.85,335.95,54.896976,9.795020,54.895069,9.793790
1386863470,1,0,485.9,0,-32,-12,0,475,150,-0.0292,102.2922,6.8213,0.4212,54.897030,9.795254,108.3,5.845,1.85,335.95,54.896976,9.795020,54.895069,9.793790
1386863470,1,0,485.9,0,-24,-16,0,543,175,-0.0292,108.6922,6.8213,0.4212,54.897026,9.795283,108.3,5.845,1.85,335.95,54.896976,9.795020,54.895069,9.793790
1386863470,1,0,485.9,0,-17,-20,0,578,200,-0.0292,113.2255,6.8213,0.4212,54.897018,9.795312,108.3,5.845,1.85,335.95,54.896976,9.795020,54.895069,9.793790
1386863471,1,0,485.9,0,-13,-16,0,409,225,-0.0292,116.6922,6.8213,0.4212,54.897011,9.795340,108.3,5.845,1.85,335.95,54.896976,9.795020,54.895069,9.793790
1386863471,1,0,485.9,0,-9,-12,0,409,250,-0.0292,119.0922,6.8213,0.4212,54.897003,9.795366,108.3,5.845,1.85,335.95,54.896976,9.795020,54.895069,9.793790
1386863471,1,0,485.9,0,-7,-8,0,409,275,-0.0292,120.9589,6.8213,0.4212,54.896996,9.795393,108.3,5.845,1.85,335.95,54.896976,9.795020,54.895069,9.793790
1386863472,1,0,485.9,0,-5,-4,0,409,300,-0.0292,122.2922,6.8213,0.4212,54.896984,9.795420,108.3,5.845,1.85,335.95,54.896976,9.795020,54.895069,9.793790
1386863472,1,0,485.9,0,-4,0,0,409,325,-0.0292,123.3589,6.8213,0.4212,54.896976,9.795445,108.3,5.845,1.85,335.95,54.896976,9.795020,54.895069,9.793790
1386863472,1,0,485.9,0,-3,-4,0,409,350,-0.0292,124.1589,6.8213,0.4212,54.896965,9.795471,108.3,5.845,1.85,335.95,54.896976,9.795020,54.895069,9.793790
1386863472,1,0,485.9,0,-2,0,0,409,375,-0.0292,124.6922,6.8213,0.4212,54.896954,9.795497,108.3,5.845,1.85,335.95,54.896976,9.795020,54.895069,9.793790
1386863473,1,0,485.9,0,-1,-4,0,409,400,-0.0292,124.9589,6.8213,0.4212,54.896942,9.795523,108.3,5.845,1.85,335.95,54.896976,9.795020,54.895069,9.793790
1386863473,1,0,485.9,0,-1,0,0,409,425,-0.0292,125.2256,6.8213,0.4212,54.896931,9.795548,108.3,5.845,1.85,335.95,54.896976,9.795020,54.895069,9.793790
1386863473,1,0,485.9,0,-1,-4,0,0,400,-0.0292,125.4922,6.8213,0.4212,54.896919,9.795573,108.3,5.845,1.85,335.95,54.896976,9.795020,54.895069,9.793790
1386863473,1,0,485.9,0,0,0,0,0,375,-0.0292,125.4922,6.8213,0.4212,54.896908,9.795599,108.3,5.845,1.85,335.95,54.896976,9.795020,54.895069,9.793790
1386863474,1,0,485.9,0,0,4,0,0,350,-0.0292,125.4922,6.8213,0.4212,54.896900,9.795624,108.3,5.845,1.85,335.95,54.896976,9.795020,54.895069,9.793790
1386863474,1,0,485.9,0,0,0,0,0,325,-0.0292,125.4922,6.8213,0.4212,54.896889,9.795650,108.3,5.845,1.85,335.95,54.896976,9.795020,54.895069,9.793790
1386863474,1,0,485.9,0,0,4,0,0,300,-0.0292,125.4922,6.8213,0.4212,54.896881,9.795675,108.3,5.845,1.85,335.95,54.896976,9.795020,54.895069,9.793790
1386863474,1,0,485.9,0,0,0,0,0,275,-0.0292,125.4922,6.8213,0.4212,54.896870,9.795700,108.3,5.845,1.85,335.95,54.896976,9.795020,54.895069,9.793790
1386863475,1,0,485.9,0,0,4,0,0,250,-0.0292,125.4922,6.8213,0.4212,54.896858,9.795726,108.3,5.845,1.85,335.95,54.896976,9.795020,54.895069,9.793790
1386863475,1,0,485.9,0,0,0,0,0,225,-0.0292,125.4922,6.8213,0.4212,54.896851,9.795751,108.3,5.845,1.85,335.95,54.896976,9.795020,54.895069,9.793790
1386863475,1,0,485.9,0,0,4,0,0,200,-0.0292,125.4922,6.8213,0.4212,54.896839,9.795776,108.3,5.845,1.85,335.95,54.896976,9.795020,54.895069,9.793790
1386863475,1,0,485.9,0,0,0,0,0,175,-0.0292,125.4922,6.8213,0.4212,54.896832,9.795802,108.3,5.845,1.85,335.95,54.896976,9.795020,54.895069,9.793790
1386863476,1,0,485.9,0,0,4,0,0,150,-0.0292,125.4922,6.8213,0.4212,54.896820,9.795828,108.3,5.845,1.85,335.95,54.896976,9.795020,54.895069,9.793790
1386863476,1,0,485.9,0,0,0,0,0,125,-0.0292,125.4922,6.8213,0.4212,54.896809,9.795854,108.3,5.845,1.85,335.95,54.896976,9.795020,54.895069,9.793790
1386863476,1,0,485.9,0,0,4,0,0,100,-0.0292,125.4922,6.8213,0.4212,54.896801,9.795878,108.3,5.845,1.85,335.95,54.896976,9.795020,54.895069,9.793790
1386863476,1,0,485.9,0,0,0,0,0,75,-0.0292,125.4922,6.8213,0.4212,54.896790,9.795904,108.3,5.845,1.85,335.95,54.896976,9.795020,54.895069,9.793790
1386863477,1,0,485.9,0,0,4,0,0,50,-0.0292,125.4922,6.8213,0.4212,54.896782,9.795929,108.3,5.845,1.85,335.95,54.896976,9.795020,54.895069,9.793790
1386863477,1,0,485.9,0,0,0,0,0,25,-0.0292,125.4922,6.8213,0.4212,54.896770,9.795955,108.3,5.845,1.85,335.95,54.896976,9.795020,54.895069,9.793790
1386863477,1,0,485.9,0,0,4,0,0,0,-0.0292,125.4922,6.8213,0.4212,54.896759,9.795980,108.3,5.845,1.85,335.95,54.896976,9.795020,54.895069,9.793790
1386863477,1,0,485.9,0,0,0,0,0,25,-0.0292,125.4922,6.8213,0.4212,54.896751,9.796005,108.3,5.845,1.85,335.95,54.896976,9.795020,54.895069,9.793790
1386863478,1,0,335.9,0,35,4,0,0,0,-0.0292,116.1589,6.8213,0.4212,54.896744,9.796034,108.3,5.845,1.85,335.95,54.896976,9.795020,54.895069,9.793790
1386863478,1,0,335.9,0,35,8,0,0,25,-0.0292,106.8256,6.8213,0.4212,54.896736,9.796063,108.3,5.845,1.85,335.95,54.896976,9.795020,54.895069,9.793790
1386863478,1,0,367.5,0,35,12,0,0,0,-0.0292,97.4922,6.8213,0.4212,54.896736,9.796094,108.3,5.845,1.85,335.95,54.896976,9.795020,54.895069,9.793790
1386863478,1,0,367.4,0,35,16,0,0,25,-0.0292,88.1589,6.8213,0.4212,54.896736,9.796125,108.3,5.845,1.85,335.95,54.896976,9.795020,54.895069,9.793790
1386863479,1,0,335.9,0,35,20,0,0,0,-0.0292,78.8255,6.8213,0.4212,54.896740,9.796156,108.3,5.845,1.85,335.95,54.896976,9.795020,54.895069,9.793790
1386863479,1,0,335.9,0,35,24,0,0,25,-0.0292,69.4922,6.8213,0.4212,54.896748,9.796185,108.3,5.845,1.85,335.95,54.896976,9.795020,54.895069,9.793790
1386863479,1,0,335.9,0,35,28,0,0,0,-0.0292,60.1589,6.8213,0.4212,54.896755,9.796212,108.3,5.845,1.85,335.95,54.896976,9.795020,54.895069,9.793790
1386863479,1,0,335.9,0,35,32,0,0,25,-0.0292,50.8255,6.8213,0.4212,54.896767,9.796236,108.3,5.845,1.85,335.95,54.896976,9.795020,54.895069,9.793790
1386863480,1,0,245.9,0,35,36,0,0,0,-0.0292,41.4922,6.8213,0.4212,54.896778,9.796256,108.3,5.845,1.85,335.95,54.896976,9.795020,54.895069,9.793790
1386863480,1,0,335.9,0,35,32,0,0,25,-0.0292,32.1589,6.8213,0.4212,54.896793,9.796272,108.3,5.845,1.85,335.95,54.896976,9.795020,54.895069,9.793790
1386863480,1,0,367.1,0,25,28,0,0,0,-0.0292,25.4922,6.8213,0.4212,54.896809,9.796287,108.3,5.845,1.85,335.95,54.896976,9.795020,54.895069,9.793790
1386863480,1,0,335.9,0,35,32,0,0,25,-0.0292,16.1589,6.8213,0.4212,54.896828,9.796295,108.3,5.845,1.85,335.95,54.896976,9.795020,54.895069,9.793790
1386863481,1,0,335.9,0,35,36,0,0,0,-0.0292,6.8255,6.8213,0.4212,54.896847,9.796299,108.3,5.845,1.85,335.95,54.896976,9.795020,54.895069,9.793790
1386863481,1,0,425.9,0,-35,32,0,0,25,-0.0292,16.1589,6.8213,0.4212,54.896862,9.796308,108.3,5.845,1.85,335.95,54.896976,9.795020,54.895069,9.793790
1386863481,1,0,367.0,0,9,28,0,0,0,-0.0292,13.7589,6.8213,0.4212,54.896881,9.796315,108.3,5.845,1.85,335.95,54.896976,9.795020,54.895069,9.793790
1386863481,1,0,335.9,0,35,32,0,0,25,-0.0292,4.4255,6.8213,0.4212,54.896900,9.796318,108.3,5.845,1.85,335.95,54.896976,9.795020,54.895069,9.793790
1386863482,1,0,304.9,0,35,36,0,0,0,-0.0292,-4.9078,6.8213,0.4212,54.896919,9.796315,108.3,5.845,1.85,335.95,54.896976,9.795020,54.895069,9.793790
1386863482,1,0,335.9,0,19,32,0,0,25,-0.0292,-9.9745,6.8213,0.4212,54.896935,9.796310,108.3,5.845,1.85,335.95,54.896976,9.795020,54.895069,9.793790
1386863482,1,0,335.9,0,14,28,0,0,0,-0.0292,-13.7078,6.8213,0.4212,54.896954,9.796304,108.3,5.845,1.85,335.95,54.896976,9.795020,54.895069,9.793790
1386863482,1,0,335.9,0,10,24,0,0,25,-0.0292,-16.3745,6.8213,0.4212,54.896973,9.796295,108.3,5.845,1.85,335.95,54.896976,9.795020,54.895069,9.793790
1386863483,1,0,335.9,0,8,20,0,0,0,-0.0292,-18.5078,6.8213,0.4212,54.896988,9.796286,108.3,5.845,1.85,335.95,54.896976,9.795020,54.895069,9.793790
1386863483,1,0,367.0,0,-26,16,0,0,25,-0.0292,-11.5745,6.8213,0.4212,54.897003,9.796279,108.3,5.845,1.85,335.95,54.896976,9.795020,54.895069,9.793790
1386863483,1,0,304.8,0,35,20,0,0,0,-0.0292,-20.9078,6.8213,0.4212,54.897022,9.796268,108.3,5.845,1.85,335.95,54.896976,9.795020,54.895069,9.793790
1386863483,1,0,335.9,0,3,16,0,0,25,-0.0292,-21.7078,6.8213,0.4212,54.897038,9.796256,108.3,5.845,1.85,335.95,54.896976,9.795020,54.895069,9.793790
1386863484,1,0,335.9,0,2,12,0,0,0,-0.0292,-22.2411,6.8213,0.4212,54.897053,9.796245,108.3,5.845,1.85,335.95,54.896976,9.795020,54.895069,9.793790
1386863484,1,0,335.9,0,2,8,0,0,25,-0.0292,-22.7744,6.8213,0.4212,54.897072,9.796232,108.3,5.845,1.85,335.95,54.896976,9.795020,54.895069,9.793790
1386863484,1,0,335.9,0,1,4,0,0,0,-0.0292,-23.0411,6.8213,0.4212,54.897087,9.796220,108.3,5.845,1.85,335.95,54.896976,9.795020,54.895069,9.793790
1386863484,1,0,335.9,0,1,0,0,0,25,-0.0292,-23.3078,6.8213,0.4212,54.897102,9.796207,108.3,5.845,1.85,335.95,54.896976,9.795020,54.895069,9.793790
1386863485,1,0,335.9,0,1,4,0,0,0,-0.0292,-23.5744,6.8213,0.4212,54.897121,9.796195,108.3,5.845,1.85,335.95,54.896976,9.795020,54.895069,9.793790
1386863485,1,0,335.9,0,0,0,0,0,25,-0.0292,-23.5744,6.8213,0.4212,54.897137,9.796183,108.3,5.845,1.85,335.95,54.896976,9.795020,54.895069,9.793790
1386863485,1,0,335.9,0,0,4,0,0,0,-0.0292,-23.5744,6.8213,0.4212,54.897152,9.796170,108.3,5.845,1.85,335.95,54.896976,9.795020,54.895069,9.793790
1386863485,1,0,335.9,0,0,0,0,0,25,-0.0292,-23.5744,6.8213,0.4212,54.897171,9.796158,108.3,5.845,1.85,335.95,54.896976,9.795020,54.895069,9.793790
1386863486,1,0,335.9,0,0,4,0,0,0,-0.0292,-23.5744,6.8213,0.4212,54.897186,9.796145,108.3,5.845,1.85,335.95,54.896976,9.795020,54.895069,9.793790
1386863486,1,0,335.9,0,0,0,0,0,25,-0.0292,-23.5744,6.8213,0.4212,54.897202,9.796133,108.3,5.845,1.85,335.95,54.896976,9.795020,54.895069,9.793790
1386863486,1,0,335.9,0,0,4,0,0,0,-0.0292,-23.5744,6.8213,0.4212,54.897221,9.796121,108.3,5.845,1.85,335.95,54.896976,9.795020,54.895069,9.793790
1386863486,1,0,335.9,0,0,0,0,0,25,-0.0292,-23.5744,6.8213,0.4212,54.897236,9.796108,108.3,5.845,1.85,335.95,54.896976,9.795020,54.895069,9.793790
1386863487,0,0,335.9,0,0,0,0,0,25,-0.0292,-23.5744,6.8213,0.4212,54.897236,9.796108,108.3,5.845,1.85,335.95,54.896976,9.795020,54.895069,9.793790
1386863487,0,0,335.9,0,0,0,0,0,25,-0.0292,-23.5744,6.8213,0.4212,54.897236,9.796108,108.3,5.845,1.85,335.95,54.896976,9.795020,54.895069,9.793790
1386863487,0,0,335.9,0,0,0,0,0,25,-0.0292,-23.5744,6.8213,0.4212,54.897236,9.796108,108.3,5.845,1.85,335.95,54.896976,9.795020,54.895069,9.793790
1386863487,0,0,335.9,0,0,0,0,0,25,-0.0292,-23.5744,6.8213,0.4212,54.897236,9.796108,108.3,5.845,1.85,335.95,54.896976,9.795020,54.895069,9.793790
1386863488,0,0,335.9,0,0,0,0,0,25,-0.0292,-23.5744,6.8213,0.4212,54.897236,9.796108,108.3,5.845,1.85,335.95,54.896976,9.795020,54.895069,9.793790
1386863488,0,0,335.9,0,0,0,0,0,25,-0.0292,-23.5744,6.8213,0.4212,54.897236,9.796108,108.3,5.845,1.85,335.95,54.896976,9.795020,54.895069,9.793790
1386863488,0,0,335.9,0,0,0,0,0,25,-0.0292,-23.5744,6.8213,0.4212,54.897236,9.796108,108.3,5.845,1.85,335.95,54.896976,9.795020,54.895069,9.793790
1386863488,0,0,335.9,0,0,0,0,0,25,-0.0292,-23.5744,6.8213,0.4212,54.897236,9.796108,108.3,5.845,1.85,335.95,54.896976,9.795020,54.895069,9.793790
1386863489,0,0,335.9,0,0,0,0,0,25,-0.0292,-23.5744,6.8213,0.4212,54.897236,9.796108,108.3,5.845,1.85,335.95,54.896976,9.795020,54.895069,9.793790
1386863489,0,0,335.9,0,0,0,0,0,25,-0.0292,-23.5744,6.8213,0.4212,54.897236,9.796108,108.3,5.845,1.85,335.95,54.896976,9.795020,54.895069,9.793790
1386863489,0,0,335.9,0,0,0,0,0,25,-0.0292,-23.5744,6.8213,0.4212,54.897236,9.796108,108.3,5.845,1.85,335.95,54.896976,9.795020,54.895069,9.793790
1386863489,0,0,335.9,0,0,0,0,0,25,-0.0292,-23.5744,6.8213,0.4212,54.897236,9.796108,108.3,5.845,1.85,335.95,54.896976,9.795020,54.895069,9.793790
1386863490,0,0,335.9,0,0,0,0,0,25,-0.0292,-23.5744,6.8213,0.4212,54.897236,9.796108,108.3,5.845,1.85,335.95,54.896976,9.795020,54.895069,9.793790
1386863490,0,0,335.9,0,0,0,0,0,25,-0.0292,-23.5744,6.8213,0.4212,54.897236,9.796108,108.3,5.845,1.85,335.95,54.896976,9.795020,54.895069,9.793790
1386863490,0,0,335.9,0,0,0,0,0,25,-0.0292,-23.5744,6.8213,0.4212,54.897236,9.796108,108.3,5.845,1.85,335.95,54.896976,9.795020,54.895069,9.793790
1386863490,0,0,335.9,0,0,0,0,0,25,-0.0292,-23.5744,6.8213,0.4212,54.897236,9.796108,108.3,5.845,1.85,335.95,54.896976,9.795020,54.895069,9.793790
1386863491,0,0,335.9,0,0,0,0,0,25,-0.0292,-23.5744,6.8213,0.4212,54.897236,9.796108,108.3,5.845,1.85,335.95,54.896976,9.795020,54.895069,9.793790
1386863491,0,0,335.9,0,0,0,0,0,25,-0.0292,-23.5744,6.8213,0.4212,54.897236,9.796108,108.3,5.845,1.85,335.95,54.896976,9.795020,54.895069,9.793790
1386863491,0,0,335.9,0,0,0,0,0,25,-0.0292,-23.5744,6.8213,0.4212,54.897236,9.796108,108.3,5.845,1.85,335.95,54.896976,9.795020,54.895069,9.793790
1386863491,0,0,335.9,0,0,0,0,0,25,-0.0292,-23.5744,6.8213,0.4212,54.897236,9.796108,108.3,5.845,1.85,335.95,54.896976,9.795020,54.895069,9.793790
1386863492,0,0,335.9,0,0,0,0,0,25,-0.0292,-23.5744,6.8213,0.4212,54.897236,9.796108,108.3,5.845,1.85,335.95,54.896976,9.795020,54.895069,9.793790
1386863492,0,0,335.9,0,0,0,0,0,25,-0.0292,-23.5744,6.8213,0.4212,54.897236,9.796108,108.3,5.845,1.85,335.95,54.896976,9.795020,54.895069,9.793790
1386863492,0,0,335.9,0,0,0,0,0,25,-0.0292,-23.5744,6.8213,0.4212,54.897236,9.796108,108.3,5.845,1.85,335.95,54.896976,9.795020,54.895069,9.793790
1386863492,0,0,335.9,0,0,0,0,0,25,-0.0292,-23.5744,6.8213,0.4212,54.897236,9.796108,108.3,5.845,1.85,335.95,54.896976,9.795020,54.895069,9.793790
1386863493,0,0,335.9,0,0,0,0,0,25,-0.0292,-23.5744,6.8213,0.4212,54.897236,9.796108,108.3,5.845,1.85,335.95,54.896976,9.795020,54.895069,9.793790
1386863493,0,0,335.9,0,0,0,0,0,25,-0.0292,-23.5744,6.8213,0.4212,54.897236,9.796108,108.3,5.845,1.85,335.95,54.896976,9.795020,54.895069,9.793790
1386863493,0,0,335.9,0,0,0,0,0,25,-0.0292,-23.5744,6.8213,0.4212,54.897236,9.796108,108.3,5.845,1.85,335.95,54.896976,9.795020,54.895069,9.793790
1386863493,0,0,335.9,0,0,0,0,0,25,-0.0292,-23.5744,6.8213,0.4212,54.897236,9.796108,108.3,5.845,1.85,335.95,54.896976,9.795020,54.895069,9.793790
1386863494,0,0,335.9,0,0,0,0,0,25,-0.0292,-23.5744,6.8213,0.4212,54.897236,9.796108,108.3,5.845,1.85,335.95,54.896976,9.795020,54.895069,9.793790
1386863494,0,0,335.9,0,0,0,0,0,25,-0.0292,-23.5744,6.8213,0.4212,54.897236,9.796108,108.3,5.845,1.85,335.95,54.896976,9.795020,54.895069,9.793790
1386863494,0,0,335.9,0,0,0,0,0,25,-0.0292,-23.5744,6.8213,0.4212,54.897236,9.796108,108.3,5.845,1.85,335.95,54.896976,9.795020,54.895069,9.793790
1386863494,0,0,335.9,0,0,0,0,0,25,-0.0292,-23.5744,6.8213,0.4212,54.897236,9.796108,108.3,5.845,1.85,335.95,54.896976,9.795020,54.895069,9.793790
1386863495,0,0,335.9,0,0,0,0,0,25,-0.0292,-23.5744,6.8213,0.4212,54.897236,9.796108,108.3,5.845,1.85,335.95,54.896976,9.795020,54.895069,9.793790
1386863495,0,0,335.9,0,0,0,0,0,25,-0.0292,-23.5744,6.8213,0.4212,54.897236,9.796108,108.3,5.845,1.85,335.95,54.896976,9.795020,54.895069,9.793790
1386863495,0,0,335.9,0,0,0,0,0,25,-0.0292,-23.5744,6.8213,0.4212,54.897236,9.796108,108.3,5.845,1.85,335.95,54.896976,9.795020,54.895069,9.793790
1386863495,0,0,335.9,0,0,0,0,0,25,-0.0292,-23.5744,6.8213,0.4212,54.897236,9.796108,108.3,5.845,1.85,335.95,54.896976,9.795020,54.895069,9.793790
1386863496,0,0,335.9,0,0,0,0,0,25,-0.0292,-23.5744,6.8213,0.4212,54.897236,9.796108,108.3,5.845,1.85,335.95,54.896976,9.795020,54.895069,9.793790
1386863496,0,0,335.9,0,0,0,0,0,25,-0.0292,-23.5744,6.8213,0.4212,54.897236,9.796108,108.3,5.845,1.85,335.95,54.896976,9.795020,54.895069,9.793790
1386863496,0,0,335.9,0,0,0,0,0,25,-0.0292,-23.5744,6.8213,0.4212,54.897236,9.796108,108.3,5.845,1.85,335.95,54.896976,9.795020,54.895069,9.793790
1386863496,0,0,335.9,0,0,0,0,0,25,-0.0292,-23.5744,6.8213,0.4212,54.897236,9.796108,108.3,5.845,1.85,335.95,54.896976,9.795020,54.895069,9.793790
1386863497,0,0,335.9,0,0,0,0,0,25,-0.0292,-23.5744,6.8213,0.4212,54.897236,9.796108,108.3,5.845,1.85,335.95,54.896976,9.795020,54.895069,9.793790
1386863497,0,0,335.9,0,0,0,0,0,25,-0.0292,-23.5744,6.8213,0.4212,54.897236,9.796108,108.3,5.845,1.85,335.95,54.896976,9.795020,54.895069,9.793790
1386863497,0,0,335.9,0,0,0,0,0,25,-0.0292,-23.5744,6.8213,0.4212,54.897236,9.796108,108.3,5.845,1.85,335.95,54.896976,9.795020,54.895069,9.793790
1386863497,0,0,335.9,0,0,0,0,0,25,-0.0292,-23.5744,6.8213,0.4212,54.897236,9.796108,108.3,5.845,1.85,335.95,54.896976,9.795020,54.895069,9.793790
1386863498,0,0,335.9,0,0,0,0,0,25,-0.0292,-23.5744,6.8213,0.4212,54.897236,9.796108,108.3,5.845,1.85,335.95,54.896976,9.795020,54.895069,9.793790
1386863498,0,0,335.9,0,0,0,0,0,25,-0.0292,-23.5744,6.8213,0.4212,54.897236,9.796108,108.3,5.845,1.85,335.95,54.896976,9.795020,54.895069,9.793790
1386863498,0,0,335.9,0,0,0,0,0,25,-0.0292,-23.5744,6.8213,0.4212,54.897236,9.796108,108.3,5.845,1.85,335.95,54.896976,9.795020,54.895069,9.793790
1386863498,0,0,335.9,0,0,0,0,0,25,-0.0292,-23.5744,6.8213,0.4212,54.897236,9.796108,108.3,5.845,1.85,335.95,54.896976,9.795020,54.895069,9.793790
1386863499,0,0,335.9,0,0,0,0,0,25,-0.0292,-23.5744,6.8213,0.4212,54.897236,9.796108,108.3,5.845,1.85,335.95,54.896976,9.795020,54.895069,9.793790
1386863499,0,0,335.9,0,0,0,0,0,25,-0.0292,-23.5744,6.8213,0.4212,54.897236,9.796108,108.3,5.845,1.85,335.95,54.896976,9.795020,54.895069,9.793790
1386863499,0,0,335.9,0,0,0,0,0,25,-0.0292,-23.5744,6.8213,0.4212,54.897236,9.796108,108.3,5.845,1.85,335.95,54.896976,9.795020,54.895069,9.793790
1386863499,0,0,335.9,0,0,0,0,0,25,-0.0292,-23.5744,6.8213,0.4212,54.897236,9.796108,108.3,5.845,1.85,335.95,54.896976,9.795020,54.895069,9.793790
1386863500,0,0,335.9,0,0,0,0,0,25,-0.0292,-23.5744,6.8213,0.4212,54.897236,9.796108,108.3,5.845,1.85,335.95,54.896976,9.795020,54.895069,9.793790
1386863500,0,0,335.9,0,0,0,0,0,25,-0.0292,-23.5744,6.8213,0.4212,54.897236,9.796108,108.3,5.845,1.85,335.95,54.896976,9.795020,54.895069,9.793790
1386863500,0,0,335.9,0,0,0,0,0,25,-0.0292,-23.5744,6.8213,0.4212,54.897236,9.796108,108.3,5.845,1.85,335.95,54.896976,9.795020,54.895069,9.793790
1386863500,0,0,335.9,0,0,0,0,0,25,-0.0292,-23.5744,6.8213,0.4212,54.897236,9.796108,108.3,5.845,1.85,335.95,54.896976,9.795020,54.895069,9.793790
1386863501,0,0,335.9,0,0,0,0,0,25,-0.0292,-23.5744,6.8213,0.4212,54.897236,9.796108,108.3,5.845,1.85,335.95,54.896976,9.795020,54.895069,9.793790
1386863501,0,0,335.9,0,0,0,0,0,25,-0.0292,-23.5744,6.8213,0.4212,54.897236,9.796108,108.3,5.845,1.85,335.95,54.896976,9.795020,54.895069,9.793790
1386863501,0,0,335.9,0,0,0,0,0,25,-0.0292,-23.5744,6.8213,0.4212,54.897236,9.796108,108.3,5.845,1.85,335.95,54.896976,9.795020,54.895069,9.793790
1386863501,0,0,335.9,0,0,0,0,0,25,-0.0292,-23.5744,6.8213,0.4212,54.897236,9.796108,108.3,5.845,1.85,335.95,54.896976,9.795020,54.895069,9.793790
1386863502,0,0,335.9,0,0,0,0,0,25,-0.0292,-23.5744,6.8213,0.4212,54.897236,9.796108,108.3,5.845,1.85,335.95,54.896976,9.795020,54.895069,9.793790
1386863502,0,0,335.9,0,0,0,0,0,25,-0.0292,-23.5744,6.8213,0.4212,54.897236,9.796108,108.3,5.845,1.85,335.95,54.896976,9.795020,54.895069,9.793790
1386863502,0,0,335.9,0,0,0,0,0,25,-0.0292,-23.5744,6.8213,0.4212,54.897236,9.796108,108.3,5.845,1.85,335.95,54.896976,9.795020,54.895069,9.793790
1386863502,0,0,335.9,0,0,0,0,0,25,-0.0292,-23.5744,6.8213,0.4212,54.897236,9.796108,108.3,5.845,1.85,335.95,54.896976,9.795020,54.895069,9.793790
1386863503,0,0,335.9,0,0,0,0,0,25,-0.0292,-23.5744,6.8213,0.4212,54.897236,9.796108,108.3,5.845,1.85,335.95,54.896976,9.795020,54.895069,9.793790
1386863503,0,0,335.9,0,0,0,0,0,25,-0.0292,-23.5744,6.8213,0.4212,54.897236,9.796108,108.3,5.845,1.85,335.95,54.896976,9.795020,54.895069,9.793790
1386863503,0,0,335.9,0,0,0,0,0,25,-0.0292,-23.5744,6.8213,0.4212,54.897236,9.796108,108.3,5.845,1.85,335.95,54.896976,9.795020,54.895069,9.793790
1386863503,0,0,335.9,0,0,0,0,0,25,-0.0292,-23.5744,6.8213,0.4212,54.897236,9.796108,108.3,5.845,1.85,335.95,54.896976,9.795020,54.895069,9.793790
1386863504,0,0,335.9,0,0,0,0,0,25,-0.0292,-23.5744,6.8213,0.4212,54.897236,9.796108,108.3,5.845,1.85,335.95,54.896976,9.795020,54.895069,9.793790
1386863504,0,0,335.9,0,0,0,0,0,25,-0.0292,-23.5744,6.8213,0.4212,54.897236,9.796108,108.3,5.845,1.85,335.95,54.896976,9.795020,54.895069,9.793790
1386863504,0,0,335.9,0,0,0,0,0,25,-0.0292,-23.5744,6.8213,0.4212,54.897236,9.796108,108.3,5.845,1.85,335.95,54.896976,9.795020,54.895069,9.793790
1386863504,0,0,335.9,0,0,0,0,0,25,-0.0292,-23.5744,6.8213,0.4212,54.897236,9.796108,108.3,5.845,1.85,335.95,54.896976,9.795020,54.895069,9.793790
1386863505,0,0,335.9,0,0,0,0,0,25,-0.0292,-23.5744,6.8213,0.4212,54.897236,9.796108,108.3,5.845,1.85,335.95,54.896976,9.795020,54.895069,9.793790
1386863505,0,0,335.9,0,0,0,0,0,25,-0.0292,-23.5744,6.8213,0.4212,54.897236,9.796108,108.3,5.845,1.85,335.95,54.896976,9.795020,54.895069,9.793790
1386863505,0,0,335.9,0,0,0,0,0,25,-0.0292,-23.5744,6.8213,0.4212,54.897236,9.796108,108.3,5.845,1.85,335.95,54.896976,9.795020,54.895069,9.793790
1386863505,0,0,335.9,0,0,0,0,0,25,-0.0292,-23.5744,6.8213,0.4212,54.897236,9.796108,108.3,5.845,1.85,335.95,54.896976,9.795020,54.895069,9.793790
1386863506,0,0,335.9,0,0,0,0,0,25,-0.0292,-23.5744,6.8213,0.4212,54.897236,9.796108,108.3,5.845,1.85,335.95,54.896976,9.795020,54.895069,9.793790
1386863506,0,0,335.9,0,0,0,0,0,25,-0.0292,-23.5744,6.8213,0.4212,54.897236,9.796108,108.3,5.845,1.85,335.95,54.896976,9.795020,54.895069,9.793790
1386863506,0,0,335.9,0,0,0,0,0,25,-0.0292,-23.5744,6.8213,0.4212,54.897236,9.796108,108.3,5.845,1.85,335.95,54.896976,9.795020,54.895069,9.793790
1386863506,0,0,335.9,0,0,0,0,0,25,-0.0292,-23.5744,6.8213,0.4212,54.897236,9.796108,108.3,5.845,1.85,335.95,54.896976,9.795020,54.895069,9.793790
1386863507,0,0,335.9,0,0,0,0,0,25,-0.0292,-23.5744,6.8213,0.4212,54.897236,9.796108,108.3,5.845,1.85,335.95,54.896976,9.795020,54.895069,9.793790
1386863507,0,0,335.9,0,0,0,0,0,25,-0.0292,-23.5744,6.8213,0.4212,54.897236,9.796108,108.3,5.845,1.85,335.95,54.896976,9.795020,54.895069,9.793790
1386863507,0,0,335.9,0,0,0,0,0,25,-0.0292,-23.5744,6.8213,0.4212,54.897236,9.796108,108.3,5.845,1.85,335.95,54.896976,9.795020,54.895069,9.793790
1386863507,0,0,335.9,0,0,0,0,0,25,-0.0292,-23.5744,6.8213,0.4212,54.897236,9.796108,108.3,5.845,1.85,335.95,54.896976,9.795020,54.895069,9.793790
1386863508,0,0,335.9,0,0,0,0,0,25,-0.0292,-23.5744,6.8213,0.4212,54.897236,9.796108,108.3,5.845,1.85,335.95,54.896976,9.795020,54.895069,9.793790
1386863508,0,0,335.9,0,0,0,0,0,25,-0.0292,-23.5744,6.8213,0.4212,54.897236,9.796108,108.3,5.845,1.85,335.95,54.896976,9.795020,54.895069,9.793790
1386863508,0,0,335.9,0,0,0,0,0,25,-0.0292,-23.5744,6.8213,0.4212,54.897236,9.796108,108.3,5.845,1.85,335.95,54.896976,9.795020,54.895069,9.793790
1386863508,0,0,335.9,0,0,0,0,0,25,-0.0292,-23.5744,6.8213,0.4212,54.897236,9.796108,108.3,5.845,1.85,335.95,54.896976,9.795020,54.895069,9.793790
1386863509,0,0,335.9,0,0,0,0,0,25,-0.0292,-23.5744,6.8213,0.4212,54.897236,9.796108,108.3,5.845,1.85,335.95,54.896976,9.795020,54.895069,9.793790
1386863509,0,0,335.9,0,0,0,0,0,25,-0.0292,-23.5744,6.8213,0.4212,54.897236,9.796108,108.3,5.845,1.85,335.95,54.896976,9.795020,54.895069,9.793790
1386863509,0,0,335.9,0,0,0,0,0,25,-0.0292,-23.5744,6.8213,0.4212,54.897236,9.796108,108.3,5.845,1.85,335.95,54.896976,9.795020,54.895069,9.793790
1386863509,0,0,335.9,0,0,0,0,0,25,-0.0292,-23.5744,6.8213,0.4212,54.897236,9.796108,108.3,5.845,1.85,335.95,54.896976,9.795020,54.895069,9.793790
1386863510,0,0,335.9,0,0,0,0,0,25,-0.0292,-23.5744,6.8213,0.4212,54.897236,9.796108,108.3,5.845,1.85,335.95,54.896976,9.795020,54.895069,9.793790
1386863510,0,0,335.9,0,0,0,0,0,25,-0.0292,-23.5744,6.8213,0.4212,54.897236,9.796108,108.3,5.845,1.85,335.95,54.896976,9.795020,54.895069,9.793790
1386863510,0,0,335.9,0,0,0,0,0,25,-0.0292,-23.5744,6.8213,0.4212,54.897236,9.796108,108.3,5.845,1.85,335.95,54.896976,9.795020,54.895069,9.793790
1386863510,0,0,335.9,0,0,0,0,0,25,-0.0292,-23.5744,6.8213,0.4212,54.897236,9.796108,108.3,5.845,1.85,335.95,54.896976,9.795020,54.895069,9.793790
1386863511,0,0,335.9,0,0,0,0,0,25,-0.0292,-23.5744,6.8213,0.4212,54.897236,9.796108,108.3,5.845,1.85,335.95,54.896976,9.795020,54.895069,9.793790
1386863511,0,0,335.9,0,0,0,0,0,25,-0.0292,-23.5744,6.8213,0.4212,54.897236,9.796108,108.3,5.845,1.85,335.95,54.896976,9.795020,54.895069,9.793790
1386863511,0,0,335.9,0,0,0,0,0,25,-0.0292,-23.5744,6.8213,0.4212,54.897236,9.796108,108.3,5.845,1.85,335.95,54.896976,9.795020,54.895069,9.793790
1386863511,0,0,335.9,0,0,0,0,0,25,-0.0292,-23.5744,6.8213,0.4212,54.897236,9.796108,108.3,5.845,1.85,335.95,54.896976,9.795020,54.895069,9.793790
1386863512,0,0,335.9,0,0,0,0,0,25,-0.0292,-23.5744,6.8213,0.4212,54.897236,9.796108,108.3,5.845,1.85,335.95,54.896976,9.795020,54.895069,9.793790
1386863512,0,0,335.9,0,0,0,0,0,25,-0.0292,-23.5744,6.8213,0.4212,54.897236,9.796108,108.3,5.845,1.85,335.95,54.896976,9.795020,54.895069,9.793790
1386863512,0,0,335.9,0,0,0,0,0,25,-0.0292,-23.5744,6.8213,0.4212,54.897236,9.796108,108.3,5.845,1.85,335.95,54.896976,9.795020,54.895069,9.793790
1386863512,0,0,335.9,0,0,0,0,0,25,-0.0292,-23.5744,6.8213,0.4212,54.897236,9.796108,108.3,5.845,1.85,335.95,54.896976,9.795020,54.895069,9.793790
1386863513,0,0,335.9,0,0,0,0,0,25,-0.0292,-23.5744,6.8213,0.4212,54.897236,9.796108,108.3,5.845,1.85,335.95,54.896976,9.795020,54.895069,9.793790
1386863513,0,0,335.9,0,0,0,0,0,25,-0.0292,-23.5744,6.8213,0.4212,54.897236,9.796108,108.3,5.845,1.85,335.95,54.896976,9.795020,54.895069,9.793790
1386863513,0,0,335.9,0,0,0,0,0,25,-0.0292,-23.5744,6.8213,0.4212,54.897236,9.796108,108.3,5.845,1.85,335.95,54.896976,9.795020,54.895069,9.793790
1386863513,0,0,335.9,0,0,0,0,0,25,-0.0292,-23.5744,6.8213,0.4212,54.897236,9.796108,108.3,5.845,1.85,335.95,54.896976,9.795020,54.895069,9.793790
1386863514,0,0,335.9,0,0,0,0,0,25,-0.0292,-23.5744,6.8213,0.4212,54.897236,9.796108,108.3,5.845,1.85,335.95,54.896976,9.795020,54.895069,9.793790
1386863514,0,0,335.9,0,0,0,0,0,25,-0.0292,-23.5744,6.8213,0.4212,54.897236,9.796108,108.3,5.845,1.85,335.95,54.896976,9.795020,54.895069,9.793790
1386863514,0,0,335.9,0,0,0,0,0,25,-0.0292,-23.5744,6.8213,0.4212,54.897236,9.796108,108.3,5.845,1.85,335.95,54.896976,9.795020,54.895069,9.793790
1386863514,0,0,335.9,0,0,0,0,0,25,-0.0292,-23.5744,6.8213,0.4212,54.897236,9.796108,108.3,5.845,1.85,335.95,54.896976,9.795020,54.895069,9.793790
1386863515,0,0,335.9,0,0,0,0,0,25,-0.0292,-23.5744,6.8213,0.4212,54.897236,9.796108,108.3,5.845,1.85,335.95,54.896976,9.795020,54.895069,9.793790
1386863515,0,0,335.9,0,0,0,0,0,25,-0.0292,-23.5744,6.8213,0.4212,54.897236,9.796108,108.3,5.845,1.85,335.95,54.896976,9.795020,54.895069,9.793790
1386863515,0,0,335.9,0,0,0,0,0,25,-0.0292,-23.5744,6.8213,0.4212,54.897236,9.796108,108.3,5.845,1.85,335.95,54.896976,9.795020,54.895069,9.793790
1386863515,0,0,335.9,0,0,0,0,0,25,-0.0292,-23.5744,6.8213,0.4212,54.897236,9.796108,108.3,5.845,1.85,335.95,54.896976,9.795020,54.895069,9.793790
1386863516,0,0,335.9,0,0,0,0,0,25,-0.0292,-23.5744,6.8213,0.4212,54.897236,9.796108,108.3,5.845,1.85,335.95,54.896976,9.795020,54.895069,9.793790
1386863516,0,0,335.9,0,0,0,0,0,25,-0.0292,-23.5744,6.8213,0.4212,54.897236,9.796108,108.3,5.845,1.85,335.95,54.896976,9.795020,54.895069,9.793790
1386863516,0,0,335.9,0,0,0,0,0,25,-0.0292,-23.5744,6.8213,0.4212,54.897236,9.796108,108.3,5.845,1.85,335.95,54.896976,9.795020,54.895069,9.793790
1386863516,0,0,335.9,0,0,0,0,0,25,-0.0292,-23.5744,6.8213,0.4212,54.897236,9.796108,108.3,5.845,1.85,335.95,54.896976,9.795020,54.895069,9.793790
1386863517,0,0,335.9,0,0,0,0,0,25,-0.0292,-23.5744,6.8213,0.4212,54.897236,9.796108,108.3,5.845,1.85,335.95,54.896976,9.795020,54.895069,9.793790
1386863517,0,0,335.9,0,0,0,0,0,25,-0.0292,-23.5744,6.8213,0.4212,54.897236,9.796108,108.3,5.845,1.85,335.95,54.896976,9.795020,54.895069,9.793790
1386863517,0,0,335.9,0,0,0,0,0,25,-0.0292,-23.5744,6.8213,0.4212,54.897236,9.796108,108.3,5.845,1.85,335.95,54.896976,9.795020,54.895069,9.793790
1386863517,0,0,335.9,0,0,0,0,0,25,-0.0292,-23.5744,6.8213,0.4212,54.897236,9.796108,108.3,5.845,1.85,335.95,54.896976,9.795020,54.895069,9.793790
1386863518,0,0,335.9,0,0,0,0,0,25,-0.0292,-23.5744,6.8213,0.4212,54.897236,9.796108,108.3,5.845,1.85,335.95,54.896976,9.795020,54.895069,9.793790
1386863518,0,0,335.9,0,0,0,0,0,25,-0.0292,-23.5744,6.8213,0.4212,54.897236,9.796108,108.3,5.845,1.85,335.95,54.896976,9.795020,54.895069,9.793790
1386863518,0,0,335.9,0,0,0,0,0,25,-0.0292,-23.5744,6.8213,0.4212,54.897236,9.796108,108.3,5.845,1.85,335.95,54.896976,9.795020,54.895069,9.793790
1386863518,0,0,335.9,0,0,0,0,0,25,-0.0292,-23.5744,6.8213,0.4212,54.897236,9.796108,108.3,5.845,1.85,335.95,54.896976,9.795020,54.895069,9.793790
1386863519,0,0,335.9,0,0,0,0,0,25,-0.0292,-23.5744,6.8213,0.4212,54.897236,9.796108,108.3,5.845,1.85,335.95,54.896976,9.795020,54.895069,9.793790
1386863519,0,0,335.9,0,0,0,0,0,25,-0.0292,-23.5744,6.8213,0.4212,54.897236,9.796108,108.3,5.845,1.85,335.95,54.896976,9.795020,54.895069,9.793790
1386863519,0,0,335.9,0,0,0,0,0,25,-0.0292,-23.5744,6.8213,0.4212,54.897236,9.796108,108.3,5.845,1.85,335.95,54.896976,9.795020,54.895069,9.793790
1386863519,0,0,335.9,0,0,0,0,0,25,-0.0292,-23.5744,6.8213,0.4212,54.897236,9.796108,108.3,5.845,1.85,335.95,54.896976,9.795020,54.895069,9.793790
1386863520,0,0,335.9,0,0,0,0,0,25,-0.0292,-23.5744,6.8213,0.4212,54.897236,9.796108,108.3,5.845,1.85,335.95,54.896976,9.795020,54.895069,9.793790
1386863520,0,0,335.9,0,0,0,0,0,25,-0.0292,-23.5744,6.8213,0.4212,54.897236,9.796108,108.3,5.845,1.85,335.95,54.896976,9.795020,54.895069,9.793790
1386863520,0,0,335.9,0,0,0,0,0,25,-0.0292,-23.5744,6.8213,0.4212,54.897236,9.796108,108.3,5.845,1.85,335.95,54.896976,9.795020,54.895069,9.793790
1386863520,0,0,335.9,0,0,0,0,0,25,-0.0292,-23.5744,6.8213,0.4212,54.897236,9.796108,108.3,5.845,1.85,335.95,54.896976,9.795020,54.895069,9.793790
1386863521,0,0,335.9,0,0,0,0,0,25,-0.0292,-23.5744,6.8213,0.4212,54.897236,9.796108,108.3,5.845,1.85,335.95,54.896976,9.795020,54.895069,9.793790
1386863521,0,0,335.9,0,0,0,0,0,25,-0.0292,-23.5744,6.8213,0.4212,54.897236,9.796108,108.3,5.845,1.85,335.95,54.896976,9.795020,54.895069,9.793790
1386863521,0,0,335.9,0,0,0,0,0,25,-0.0292,-23.5744,6.8213,0.4212,54.897236,9.796108,108.3,5.845,1.85,335.95,54.896976,9.795020,54.895069,9.793790
1386863521,0,0,335.9,0,0,0,0,0,25,-0.0292,-23.5744,6.8213,0.4212,54.897236,9.796108,108.3,5.845,1.85,335.95,54.896976,9.795020,54.895069,9.793790
1386863522,0,0,335.9,0,0,0,0,0,25,-0.0292,-23.5744,6.8213,0.4212,54.897236,9.796108,108.3,5.845,1.85,335.95,54.896976,9.795020,54.895069,9.793790
1386863522,0,0,335.9,0,0,0,0,0,25,-0.0292,-23.5744,6.8213,0.4212,54.897236,9.796108,108.3,5.845,1.85,335.95,54.896976,9.795020,54.895069,9.793790
1386863522,0,0,335.9,0,0,0,0,0,25,-0.0292,-23.5744,6.8213,0.4212,54.897236,9.796108,108.3,5.845,1.85,335.95,54.896976,9.795020,54.895069,9.793790
1386863523,0,0,335.9,0,0,0,0,0,25,-0.0292,-23.5744,6.8213,0.4212,54.897236,9.796108,108.3,5.845,1.85,335.95,54.896976,9.795020,54.895069,9.793790
1386863523,0,0,335.9,0,0,0,0,0,25,-0.0292,-23.5744,6.8213,0.4212,54.897236,9.796108,108.3,5.845,1.85,335.95,54.896976,9.795020,54.895069,9.793790
