MCU_timestamp,Navigation_System,Manual_Control,Guidance_Heading,Manual_Ctrl_Rudder,Rudder_Desired_Angle,Rudder_Feedback,Manual_Ctrl_Sail,Sail_Desired_Pos,Sail_Feedback,Rate,Heading,Pitch,Roll,Latitude,Longitude,COG,SOG,Wind_Speed,Wind_Angle,Point_Start_Lat,Point_Start_Lon,Point_End_Lat,Point_End_Lon
1389997790,0,0,0.0,0,0,8,0,0,0,-0.0292,194.2921,6.8213,0.4212,54.893291,9.783659,108.3,5.845,1.85,335.95,0.000000,0.000000,0.000000,0.000000
1389997790,0,0,0.0,0,0,8,0,0,0,-0.0292,194.2921,6.8213,0.4212,54.893291,9.783659,108.3,5.845,1.85,335.95,0.000000,0.000000,0.000000,0.000000
1389997791,0,0,0.0,0,0,8,0,0,0,-0.0292,194.2921,6.8213,0.4212,54.893291,9.783659,108.3,5.845,1.85,335.95,0.000000,0.000000,0.000000,0.000000
1389997791,0,0,0.0,0,0,8,0,0,0,-0.0292,194.2921,6.8213,0.4212,54.893291,9.783659,108.3,5.845,1.85,335.95,0.000000,0.000000,0.000000,0.000000
1389997791,0,0,0.0,0,0,8,0,0,0,-0.0292,194.2921,6.8213,0.4212,54.893291,9.783659,108.3,5.845,1.85,335.95,0.000000,0.000000,0.000000,0.000000
1389997791,0,0,0.0,0,0,8,0,0,0,-0.0292,194.2921,6.8213,0.4212,54.893291,9.783659,108.3,5.845,1.85,335.95,0.000000,0.000000,0.000000,0.000000
1389997792,0,0,0.0,0,0,8,0,0,0,-0.0292,194.2921,6.8213,0.4212,54.893291,9.783659,108.3,5.845,1.85,335.95,0.000000,0.000000,0.000000,0.000000
1389997792,0,0,0.0,0,0,8,0,0,0,-0.0292,194.2921,6.8213,0.4212,54.893291,9.783659,108.3,5.845,1.85,335.95,0.000000,0.000000,0.000000,0.000000
1389997792,0,0,0.0,0,0,8,0,0,0,-0.0292,194.2921,6.8213,0.4212,54.893291,9.783659,108.3,5.845,1.85,335.95,0.000000,0.000000,0.000000,0.000000
1389997792,0,0,0.0,0,0,8,0,0,0,-0.0292,194.2921,6.8213,0.4212,54.893291,9.783659,108.3,5.845,1.85,335.95,0.000000,0.000000,0.000000,0.000000
1389997793,0,0,0.0,0,0,8,0,0,0,-0.0292,194.2921,6.8213,0.4212,54.893291,9.783659,108.3,5.845,1.85,335.95,0.000000,0.000000,0.000000,0.000000
1389997793,0,0,0.0,0,0,8,0,0,0,-0.0292,194.2921,6.8213,0.4212,54.893291,9.783659,108.3,5.845,1.85,335.95,0.000000,0.000000,0.000000,0.000000
1389997793,0,0,0.0,0,0,8,0,0,0,-0.0292,194.2921,6.8213,0.4212,54.893291,9.783659,108.3,5.845,1.85,335.95,0.000000,0.000000,0.000000,0.000000
1389997793,0,0,0.0,0,0,8,0,0,0,-0.0292,194.2921,6.8213,0.4212,54.893291,9.783659,108.3,5.845,1.85,335.95,0.000000,0.000000,0.000000,0.000000
1389997794,0,0,0.0,0,0,8,0,0,0,-0.0292,194.2921,6.8213,0.4212,54.893291,9.783659,108.3,5.845,1.85,335.95,0.000000,0.000000,0.000000,0.000000
1389997794,0,0,0.0,0,0,8,0,0,0,-0.0292,194.2921,6.8213,0.4212,54.893291,9.783659,108.3,5.845,1.85,335.95,0.000000,0.000000,0.000000,0.000000
1389997794,0,0,0.0,0,0,8,0,0,0,-0.0292,194.2921,6.8213,0.4212,54.893291,9.783659,108.3,5.845,1.85,335.95,0.000000,0.000000,0.000000,0.000000
1389997794,0,0,0.0,0,0,8,0,0,0,-0.0292,194.2921,6.8213,0.4212,54.893291,9.783659,108.3,5.845,1.85,335.95,0.000000,0.000000,0.000000,0.000000
1389997795,0,0,0.0,0,0,8,0,0,0,-0.0292,194.2921,6.8213,0.4212,54.893291,9.783659,108.3,5.845,1.85,335.95,0.000000,0.000000,0.000000,0.000000
1389997795,0,0,0.0,0,0,8,0,0,0,-0.0292,194.2921,6.8213,0.4212,54.893291,9.783659,108.3,5.845,1.85,335.95,0.000000,0.000000,0.000000,0.000000
1389997795,0,0,0.0,0,0,8,0,0,0,-0.0292,194.2921,6.8213,0.4212,54.893291,9.783659,108.3,5.845,1.85,335.95,0.000000,0.000000,0.000000,0.000000
1389997795,0,0,0.0,0,0,8,0,0,0,-0.0292,194.2921,6.8213,0.4212,54.893291,9.783659,108.3,5.845,1.85,335.95,0.000000,0.000000,0.000000,0.000000
1389997796,0,0,0.0,0,0,8,0,0,0,-0.0292,194.2921,6.8213,0.4212,54.893291,9.783659,108.3,5.845,1.85,335.95,0.000000,0.000000,0.000000,0.000000
1389997796,0,0,0.0,0,0,8,0,0,0,-0.0292,194.2921,6.8213,0.4212,54.893291,9.783659,108.3,5.845,1.85,335.95,0.000000,0.000000,0.000000,0.000000
1389997796,0,0,0.0,0,0,8,0,0,0,-0.0292,194.2921,6.8213,0.4212,54.893291,9.783659,108.3,5.845,1.85,335.95,0.000000,0.000000,0.000000,0.000000
1389997796,0,0,0.0,0,0,8,0,0,0,-0.0292,194.2921,6.8213,0.4212,54.893291,9.783659,108.3,5.845,1.85,335.95,0.000000,0.000000,0.000000,0.000000
1389997797,0,0,0.0,0,0,8,0,0,0,-0.0292,194.2921,6.8213,0.4212,54.893291,9.783659,108.3,5.845,1.85,335.95,0.000000,0.000000,0.000000,0.000000
1389997797,0,0,0.0,0,0,8,0,0,0,-0.0292,194.2921,6.8213,0.4212,54.893291,9.783659,108.3,5.845,1.85,335.95,0.000000,0.000000,0.000000,0.000000
1389997797,0,0,0.0,0,0,8,0,0,0,-0.0292,194.2921,6.8213,0.4212,54.893291,9.783659,108.3,5.845,1.85,335.95,0.000000,0.000000,0.000000,0.000000
1389997797,0,0,0.0,0,0,8,0,0,0,-0.0292,194.2921,6.8213,0.4212,54.893291,9.783659,108.3,5.845,1.85,335.95,0.000000,0.000000,0.000000,0.000000
1389997798,0,0,0.0,0,0,8,0,0,0,-0.0292,194.2921,6.8213,0.4212,54.893291,9.783659,108.3,5.845,1.85,335.95,0.000000,0.000000,0.000000,0.000000
1389997798,0,0,0.0,0,0,8,0,0,0,-0.0292,194.2921,6.8213,0.4212,54.893291,9.783659,108.3,5.845,1.85,335.95,0.000000,0.000000,0.000000,0.000000
1389997798,0,0,0.0,0,0,8,0,0,0,-0.0292,194.2921,6.8213,0.4212,54.893291,9.783659,108.3,5.845,1.85,335.95,0.000000,0.000000,0.000000,0.000000
1389997798,0,0,0.0,0,0,8,0,0,0,-0.0292,194.2921,6.8213,0.4212,54.893291,9.783659,108.3,5.845,1.85,335.95,0.000000,0.000000,0.000000,0.000000
1389997799,0,0,0.0,0,0,8,0,0,0,-0.0292,194.2921,6.8213,0.4212,54.893291,9.783659,108.3,5.845,1.85,335.95,0.000000,0.000000,0.000000,0.000000
1389997799,0,0,0.0,0,0,8,0,0,0,-0.0292,194.2921,6.8213,0.4212,54.893291,9.783659,108.3,5.845,1.85,335.95,0.000000,0.000000,0.000000,0.000000
1389997799,0,0,0.0,0,0,8,0,0,0,-0.0292,194.2921,6.8213,0.4212,54.893291,9.783659,108.3,5.845,1.85,335.95,0.000000,0.000000,0.000000,0.000000
1389997799,0,0,0.0,0,0,8,0,0,0,-0.0292,194.2921,6.8213,0.4212,54.893291,9.783659,108.3,5.845,1.85,335.95,0.000000,0.000000,0.000000,0.000000
1389997800,0,0,0.0,0,0,8,0,0,0,-0.0292,194.2921,6.8213,0.4212,54.893291,9.783659,108.3,5.845,1.85,335.95,0.000000,0.000000,0.000000,0.000000
1389997800,4,0,0.0,0,0,8,0,0,0,-0.0292,194.2921,6.8213,0.4212,54.893291,9.783659,108.3,5.845,1.85,335.95,0.000000,0.000000,0.000000,0.000000
1389997800,1,0,0.0,0,14,12,0,713,700,-0.0292,189.6254,6.8213,0.4212,54.893276,9.783654,108.3,5.845,1.85,335.95,54.895069,9.793790,54.895348,9.797490
1389997800,1,0,0.0,0,20,16,0,713,750,-0.0292,182.9588,6.8213,0.4212,54.893257,9.783652,108.3,5.845,1.85,335.95,54.895348,9.797490,54.894039,9.801540
1389997801,1,0,0.0,0,13,12,0,713,700,-0.0292,178.6254,6.8213,0.4212,54.893238,9.783653,108.3,5.845,1.85,335.95,54.894039,9.801540,54.893795,9.802299
1389997801,1,0,0.0,0,9,8,0,713,750,-0.0292,175.6254,6.8213,0.4212,54.893219,9.783656,108.3,5.845,1.85,335.95,54.893795,9.802299,54.893364,9.803688
1389997801,1,0,0.0,0,6,4,0,713,700,-0.0292,173.6254,6.8213,0.4212,54.893204,9.783660,108.3,5.845,1.85,335.95,54.893364,9.803688,54.892704,9.801139
1389997801,1,0,0.0,0,4,8,0,713,750,-0.0292,172.2921,6.8213,0.4212,54.893185,9.783665,108.3,5.845,1.85,335.95,54.892704,9.801139,54.891663,9.800174
1389997802,1,0,0.0,0,2,4,0,713,700,-0.0292,171.6254,6.8213,0.4212,54.893166,9.783669,108.3,5.845,1.85,335.95,54.891663,9.800174,54.892929,9.805077
1389997802,1,0,0.0,0,2,0,0,713,750,-0.0292,170.9588,6.8213,0.4212,54.893147,9.783675,108.3,5.845,1.85,335.95,54.892929,9.805077,54.892498,9.806466
1389997802,1,0,0.0,0,1,4,0,713,700,-0.0292,170.6254,6.8213,0.4212,54.893131,9.783680,108.3,5.845,1.85,335.95,54.892498,9.806466,54.891232,9.801563
1389997802,1,0,0.0,0,1,0,0,713,750,-0.0292,170.2921,6.8213,0.4212,54.893112,9.783685,108.3,5.845,1.85,335.95,54.891232,9.801563,54.890800,9.802953
1389997803,1,0,0.0,0,0,4,0,713,700,-0.0292,170.2921,6.8213,0.4212,54.893093,9.783689,108.3,5.845,1.85,335.95,54.890800,9.802953,54.891651,9.806246
1389997803,1,0,0.0,0,0,0,0,713,750,-0.0292,170.2921,6.8213,0.4212,54.893078,9.783694,108.3,5.845,1.85,335.95,54.891651,9.806246,54.890560,9.805087
1389997803,1,0,0.0,0,0,4,0,713,700,-0.0292,170.2921,6.8213,0.4212,54.893059,9.783700,108.3,5.845,1.85,335.95,54.890560,9.805087,54.890366,9.804342
1389997803,1,0,0.0,0,0,0,0,713,750,-0.0292,170.2921,6.8213,0.4212,54.893040,9.783706,108.3,5.845,1.85,335.95,54.890366,9.804342,54.890846,9.801930
1389997804,1,0,0.0,0,0,4,0,713,700,-0.0292,170.2921,6.8213,0.4212,54.893021,9.783711,108.3,5.845,1.85,335.95,54.890846,9.801930,54.889477,9.798280
1389997804,1,0,0.0,0,0,0,0,713,750,-0.0292,170.2921,6.8213,0.4212,54.893005,9.783717,108.3,5.845,1.85,335.95,54.889477,9.798280,54.891819,9.794550
1389997804,1,0,0.0,0,0,4,0,713,700,-0.0292,170.2921,6.8213,0.4212,54.892986,9.783722,108.3,5.845,1.85,335.95,54.891819,9.794550,54.895348,9.797490
1389997804,1,0,0.0,0,0,0,0,713,750,-0.0292,170.2921,6.8213,0.4212,54.892967,9.783727,108.3,5.845,1.85,335.95,54.895348,9.797490,54.895069,9.793790
1389997805,1,0,0.0,0,0,4,0,713,700,-0.0292,170.2921,6.8213,0.4212,54.892948,9.783731,108.3,5.845,1.85,335.95,54.895348,9.797490,54.895069,9.793790
1389997805,3,0,0.0,0,0,0,0,713,750,-0.0292,170.2921,6.8213,0.4212,54.892933,9.783736,108.3,5.845,1.85,335.95,54.895348,9.797490,54.892948,9.783731
1389997805,3,0,0.0,0,0,4,0,713,700,-0.0292,170.2921,6.8213,0.4212,54.892914,9.783742,108.3,5.845,1.85,335.95,54.895348,9.797490,54.892948,9.783731
1389997805,3,0,0.0,0,10,8,0,713,750,-0.0292,166.9588,6.8213,0.4212,54.892895,9.783750,108.3,5.845,1.85,335.95,54.895348,9.797490,54.892948,9.783731
1389997806,3,0,0.0,0,7,4,0,713,700,-0.0292,164.6255,6.8213,0.4212,54.892879,9.783758,108.3,5.845,1.85,335.95,54.895348,9.797490,54.892948,9.783731
1389997806,3,0,0.0,0,5,8,0,0,650,-0.0292,162.9588,6.8213,0.4212,54.892864,9.783767,108.3,5.845,1.85,335.95,54.895348,9.797490,54.892948,9.783731
1389997806,3,0,0.0,0,3,4,0,0,600,-0.0292,161.9588,6.8213,0.4212,54.892845,9.783776,108.3,5.845,1.85,335.95,54.895348,9.797490,54.892948,9.783731
1389997806,3,0,0.0,0,2,0,0,0,550,-0.0292,161.2921,6.8213,0.4212,54.892830,9.783786,108.3,5.845,1.85,335.95,54.895348,9.797490,54.892948,9.783731
1389997807,3,0,0.0,0,1,4,0,0,500,-0.0292,160.9588,6.8213,0.4212,54.892815,9.783796,108.3,5.845,1.85,335.95,54.895348,9.797490,54.892948,9.783731
1389997807,3,0,0.0,0,1,0,0,0,450,-0.0292,160.6255,6.8213,0.4212,54.892796,9.783807,108.3,5.845,1.85,335.95,54.895348,9.797490,54.892948,9.783731
1389997807,3,0,0.0,0,1,4,0,0,400,-0.0292,160.2921,6.8213,0.4212,54.892780,9.783817,108.3,5.845,1.85,335.95,54.895348,9.797490,54.892948,9.783731
1389997807,3,0,0.0,0,0,0,0,0,350,-0.0292,160.2921,6.8213,0.4212,54.892765,9.783828,108.3,5.845,1.85,335.95,54.895348,9.797490,54.892948,9.783731
1389997808,3,0,0.0,0,0,4,0,0,300,-0.0292,160.2921,6.8213,0.4212,54.892746,9.783838,108.3,5.845,1.85,335.95,54.895348,9.797490,54.892948,9.783731
1389997808,3,0,0.0,0,0,0,0,0,250,-0.0292,160.2921,6.8213,0.4212,54.892731,9.783849,108.3,5.845,1.85,335.95,54.895348,9.797490,54.892948,9.783731
1389997808,3,0,0.0,0,0,4,0,0,200,-0.0292,160.2921,6.8213,0.4212,54.892715,9.783859,108.3,5.845,1.85,335.95,54.895348,9.797490,54.892948,9.783731
1389997808,3,0,0.0,0,0,0,0,0,150,-0.0292,160.2921,6.8213,0.4212,54.892696,9.783870,108.3,5.845,1.85,335.95,54.895348,9.797490,54.892948,9.783731
1389997809,3,0,0.0,0,0,4,0,0,100,-0.0292,160.2921,6.8213,0.4212,54.892681,9.783880,108.3,5.845,1.85,335.95,54.895348,9.797490,54.892948,9.783731
1389997809,3,0,0.0,0,0,0,0,0,50,-0.0292,160.2921,6.8213,0.4212,54.892666,9.783891,108.3,5.845,1.85,335.95,54.895348,9.797490,54.892948,9.783731
1389997809,3,0,0.0,0,0,4,0,0,0,-0.0292,160.2921,6.8213,0.4212,54.892647,9.783901,108.3,5.845,1.85,335.95,54.895348,9.797490,54.892948,9.783731
1389997810,3,0,0.0,0,0,0,0,0,0,-0.0292,160.2921,6.8213,0.4212,54.892632,9.783912,108.3,5.845,1.85,335.95,54.895348,9.797490,54.892948,9.783731
1389997810,3,0,0.0,0,0,4,0,0,0,-0.0292,160.2921,6.8213,0.4212,54.892616,9.783922,108.3,5.845,1.85,335.95,54.895348,9.797490,54.892948,9.783731
1389997810,3,0,0.0,0,0,0,0,0,0,-0.0292,160.2921,6.8213,0.4212,54.892597,9.783933,108.3,5.845,1.85,335.95,54.895348,9.797490,54.892948,9.783731
1389997810,3,0,0.0,0,0,4,0,0,0,-0.0292,160.2921,6.8213,0.4212,54.892582,9.783943,108.3,5.845,1.85,335.95,54.895348,9.797490,54.892948,9.783731
1389997811,3,0,0.0,0,10,8,0,0,0,-0.0292,156.9588,6.8213,0.4212,54.892567,9.783956,108.3,5.845,1.85,335.95,54.895348,9.797490,54.892948,9.783731
1389997811,3,0,0.0,0,7,4,0,0,0,-0.0292,154.6255,6.8213,0.4212,54.892548,9.783969,108.3,5.845,1.85,335.95,54.895348,9.797490,54.892948,9.783731
1389997811,3,0,0.0,0,5,8,0,0,0,-0.0292,152.9588,6.8213,0.4212,54.892532,9.783983,108.3,5.845,1.85,335.95,54.895348,9.797490,54.892948,9.783731
1389997811,3,0,0.0,0,3,4,0,0,0,-0.0292,151.9588,6.8213,0.4212,54.892517,9.783998,108.3,5.845,1.85,335.95,54.895348,9.797490,54.892948,9.783731
1389997812,3,0,0.0,0,2,0,0,0,0,-0.0292,151.2921,6.8213,0.4212,54.892502,9.784013,108.3,5.845,1.85,335.95,54.895348,9.797490,54.892948,9.783731
1389997812,3,0,0.0,0,1,4,0,0,0,-0.0292,150.9588,6.8213,0.4212,54.892487,9.784028,108.3,5.845,1.85,335.95,54.895348,9.797490,54.892948,9.783731
1389997812,3,0,0.0,0,1,0,0,0,0,-0.0292,150.6255,6.8213,0.4212,54.892467,9.784043,108.3,5.845,1.85,335.95,54.895348,9.797490,54.892948,9.783731
1389997812,3,0,0.0,0,1,4,0,0,0,-0.0292,150.2921,6.8213,0.4212,54.892452,9.784059,108.3,5.845,1.85,335.95,54.895348,9.797490,54.892948,9.783731
1389997813,3,0,0.0,0,0,0,0,0,0,-0.0292,150.2921,6.8213,0.4212,54.892437,9.784074,108.3,5.845,1.85,335.95,54.895348,9.797490,54.892948,9.783731
1389997813,3,0,0.0,0,0,4,0,0,0,-0.0292,150.2921,6.8213,0.4212,54.892422,9.784089,108.3,5.845,1.85,335.95,54.895348,9.797490,54.892948,9.783731
1389997813,3,0,0.0,0,0,0,0,0,0,-0.0292,150.2921,6.8213,0.4212,54.892406,9.784104,108.3,5.845,1.85,335.95,54.895348,9.797490,54.892948,9.783731
1389997813,3,0,0.0,0,0,4,0,0,0,-0.0292,150.2921,6.8213,0.4212,54.892391,9.784120,108.3,5.845,1.85,335.95,54.895348,9.797490,54.892948,9.783731
1389997814,3,0,0.0,0,0,0,0,0,0,-0.0292,150.2921,6.8213,0.4212,54.892372,9.784135,108.3,5.845,1.85,335.95,54.895348,9.797490,54.892948,9.783731
1389997814,3,0,0.0,0,0,4,0,0,0,-0.0292,150.2921,6.8213,0.4212,54.892357,9.784151,108.3,5.845,1.85,335.95,54.895348,9.797490,54.892948,9.783731
1389997814,3,0,0.0,0,0,0,0,0,0,-0.0292,150.2921,6.8213,0.4212,54.892342,9.784166,108.3,5.845,1.85,335.95,54.895348,9.797490,54.892948,9.783731
1389997814,3,0,0.0,0,0,4,0,0,0,-0.0292,150.2921,6.8213,0.4212,54.892323,9.784182,108.3,5.845,1.85,335.95,54.895348,9.797490,54.892948,9.783731
1389997815,3,0,0.0,0,0,0,0,0,0,-0.0292,150.2921,6.8213,0.4212,54.892307,9.784198,108.3,5.845,1.85,335.95,54.895348,9.797490,54.892948,9.783731
1389997815,3,0,0.0,0,0,4,0,0,0,-0.0292,150.2921,6.8213,0.4212,54.892292,9.784213,108.3,5.845,1.85,335.95,54.895348,9.797490,54.892948,9.783731
1389997815,3,0,0.0,0,0,0,0,0,0,-0.0292,150.2921,6.8213,0.4212,54.892273,9.784228,108.3,5.845,1.85,335.95,54.895348,9.797490,54.892948,9.783731
1389997815,3,0,0.0,0,0,4,0,0,0,-0.0292,150.2921,6.8213,0.4212,54.892258,9.784245,108.3,5.845,1.85,335.95,54.895348,9.797490,54.892948,9.783731
1389997816,3,0,0.0,0,-10,0,0,0,0,-0.0292,153.6255,6.8213,0.4212,54.892242,9.784258,108.3,5.845,1.85,335.95,54.895348,9.797490,54.892948,9.783731
1389997816,3,0,0.0,0,-6,-4,0,0,0,-0.0292,155.6255,6.8213,0.4212,54.892223,9.784271,108.3,5.845,1.85,335.95,54.895348,9.797490,54.892948,9.783731
1389997816,3,0,0.0,0,-4,0,0,0,0,-0.0292,156.9588,6.8213,0.4212,54.892204,9.784284,108.3,5.845,1.85,335.95,54.895348,9.797490,54.892948,9.783731
1389997816,3,0,0.0,0,-3,-4,0,0,0,-0.0292,157.9588,6.8213,0.4212,54.892189,9.784295,108.3,5.845,1.85,335.95,54.895348,9.797490,54.892948,9.783731
1389997817,3,0,0.0,0,-2,0,0,0,0,-0.0292,158.6255,6.8213,0.4212,54.892174,9.784307,108.3,5.845,1.85,335.95,54.895348,9.797490,54.892948,9.783731
1389997817,3,0,0.0,0,-1,-4,0,0,0,-0.0292,158.9588,6.8213,0.4212,54.892155,9.784318,108.3,5.845,1.85,335.95,54.895348,9.797490,54.892948,9.783731
1389997817,3,0,0.0,0,-1,0,0,0,0,-0.0292,159.2921,6.8213,0.4212,54.892139,9.784328,108.3,5.845,1.85,335.95,54.895348,9.797490,54.892948,9.783731
1389997817,3,0,0.0,0,-1,-4,0,0,0,-0.0292,159.6255,6.8213,0.4212,54.892124,9.784339,108.3,5.845,1.85,335.95,54.895348,9.797490,54.892948,9.783731
1389997818,3,0,0.0,0,0,0,0,0,0,-0.0292,159.6255,6.8213,0.4212,54.892105,9.784349,108.3,5.845,1.85,335.95,54.895348,9.797490,54.892948,9.783731
1389997818,3,0,0.0,0,0,4,0,0,0,-0.0292,159.6255,6.8213,0.4212,54.892090,9.784361,108.3,5.845,1.85,335.95,54.895348,9.797490,54.892948,9.783731
1389997818,3,0,0.0,0,0,0,0,0,0,-0.0292,159.6255,6.8213,0.4212,54.892075,9.784371,108.3,5.845,1.85,335.95,54.895348,9.797490,54.892948,9.783731
1389997818,3,0,0.0,0,0,4,0,0,0,-0.0292,159.6255,6.8213,0.4212,54.892056,9.784382,108.3,5.845,1.85,335.95,54.895348,9.797490,54.892948,9.783731
1389997819,3,0,0.0,0,0,0,0,0,0,-0.0292,159.6255,6.8213,0.4212,54.892040,9.784392,108.3,5.845,1.85,335.95,54.895348,9.797490,54.892948,9.783731
1389997819,3,0,0.0,0,0,4,0,0,0,-0.0292,159.6255,6.8213,0.4212,54.892025,9.784404,108.3,5.845,1.85,335.95,54.895348,9.797490,54.892948,9.783731
1389997819,3,0,0.0,0,0,0,0,0,0,-0.0292,159.6255,6.8213,0.4212,54.892006,9.784414,108.3,5.845,1.85,335.95,54.895348,9.797490,54.892948,9.783731
1389997819,3,0,0.0,0,0,4,0,0,0,-0.0292,159.6255,6.8213,0.4212,54.891991,9.784425,108.3,5.845,1.85,335.95,54.895348,9.797490,54.892948,9.783731
1389997820,3,0,0.0,0,0,0,0,0,0,-0.0292,159.6255,6.8213,0.4212,54.891975,9.784435,108.3,5.845,1.85,335.95,54.895348,9.797490,54.892948,9.783731
1389997820,3,0,0.0,0,0,4,0,0,0,-0.0292,159.6255,6.8213,0.4212,54.891956,9.784447,108.3,5.845,1.85,335.95,54.895348,9.797490,54.892948,9.783731
1389997820,3,0,0.0,0,0,0,0,0,0,-0.0292,159.6255,6.8213,0.4212,54.891937,9.784457,108.3,5.845,1.85,335.95,54.895348,9.797490,54.892948,9.783731
1389997820,3,0,0.0,0,0,4,0,0,0,-0.0292,159.6255,6.8213,0.4212,54.891922,9.784468,108.3,5.845,1.85,335.95,54.895348,9.797490,54.892948,9.783731
1389997821,3,0,0.0,0,-10,0,0,0,0,-0.0292,162.9588,6.8213,0.4212,54.891903,9.784477,108.3,5.845,1.85,335.95,54.895348,9.797490,54.892948,9.783731
1389997821,3,0,0.0,0,-7,-4,0,0,0,-0.0292,165.2921,6.8213,0.4212,54.891884,9.784486,108.3,5.845,1.85,335.95,54.895348,9.797490,54.892948,9.783731
1389997821,3,0,0.0,0,-5,-8,0,0,0,-0.0292,166.9588,6.8213,0.4212,54.891865,9.784493,108.3,5.845,1.85,335.95,54.895348,9.797490,54.892948,9.783731
1389997821,3,0,0.0,0,-3,-4,0,713,50,-0.0292,167.9588,6.8213,0.4212,54.891850,9.784499,108.3,5.845,1.85,335.95,54.895348,9.797490,54.892948,9.783731
1389997822,3,0,0.0,0,-2,0,0,713,100,-0.0292,168.6255,6.8213,0.4212,54.891830,9.784505,108.3,5.845,1.85,335.95,54.895348,9.797490,54.892948,9.783731
1389997822,3,0,0.0,0,-1,-4,0,713,150,-0.0292,168.9588,6.8213,0.4212,54.891811,9.784511,108.3,5.845,1.85,335.95,54.895348,9.797490,54.892948,9.783731
1389997822,3,0,0.0,0,-1,0,0,713,200,-0.0292,169.2921,6.8213,0.4212,54.891792,9.784516,108.3,5.845,1.85,335.95,54.895348,9.797490,54.892948,9.783731
1389997822,3,0,0.0,0,-1,-4,0,713,250,-0.0292,169.6254,6.8213,0.4212,54.891777,9.784522,108.3,5.845,1.85,335.95,54.895348,9.797490,54.892948,9.783731
1389997823,3,0,0.0,0,0,0,0,713,300,-0.0292,169.6254,6.8213,0.4212,54.891758,9.784528,108.3,5.845,1.85,335.95,54.895348,9.797490,54.892948,9.783731
1389997823,3,0,0.0,0,0,4,0,713,350,-0.0292,169.6254,6.8213,0.4212,54.891739,9.784534,108.3,5.845,1.85,335.95,54.895348,9.797490,54.892948,9.783731
1389997823,3,0,0.0,0,0,0,0,713,400,-0.0292,169.6254,6.8213,0.4212,54.891720,9.784538,108.3,5.845,1.85,335.95,54.895348,9.797490,54.892948,9.783731
1389997823,3,0,0.0,0,0,4,0,713,450,-0.0292,169.6254,6.8213,0.4212,54.891705,9.784544,108.3,5.845,1.85,335.95,54.895348,9.797490,54.892948,9.783731
1389997824,3,0,0.0,0,0,0,0,713,500,-0.0292,169.6254,6.8213,0.4212,54.891685,9.784550,108.3,5.845,1.85,335.95,54.895348,9.797490,54.892948,9.783731
1389997824,3,0,0.0,0,0,4,0,713,550,-0.0292,169.6254,6.8213,0.4212,54.891666,9.784555,108.3,5.845,1.85,335.95,54.895348,9.797490,54.892948,9.783731
1389997824,3,0,0.0,0,0,0,0,713,600,-0.0292,169.6254,6.8213,0.4212,54.891651,9.784561,108.3,5.845,1.85,335.95,54.895348,9.797490,54.892948,9.783731
1389997824,3,0,0.0,0,0,4,0,713,650,-0.0292,169.6254,6.8213,0.4212,54.891632,9.784567,108.3,5.845,1.85,335.95,54.895348,9.797490,54.892948,9.783731
1389997825,3,0,0.0,0,0,0,0,713,700,-0.0292,169.6254,6.8213,0.4212,54.891613,9.784573,108.3,5.845,1.85,335.95,54.895348,9.797490,54.892948,9.783731
1389997825,3,0,0.0,0,0,4,0,713,750,-0.0292,169.6254,6.8213,0.4212,54.891594,9.784577,108.3,5.845,1.85,335.95,54.895348,9.797490,54.892948,9.783731
1389997825,3,0,0.0,0,0,0,0,713,700,-0.0292,169.6254,6.8213,0.4212,54.891579,9.784583,108.3,5.845,1.85,335.95,54.895348,9.797490,54.892948,9.783731
1389997825,3,0,0.0,0,0,4,0,713,750,-0.0292,169.6254,6.8213,0.4212,54.891560,9.784589,108.3,5.845,1.85,335.95,54.895348,9.797490,54.892948,9.783731
1389997826,3,0,0.0,0,10,8,0,713,700,-0.0292,166.2921,6.8213,0.4212,54.891541,9.784596,108.3,5.845,1.85,335.95,54.895348,9.797490,54.892948,9.783731
1389997826,3,0,0.0,0,6,4,0,713,750,-0.0292,164.2921,6.8213,0.4212,54.891521,9.784605,108.3,5.845,1.85,335.95,54.895348,9.797490,54.892948,9.783731
1389997826,3,0,0.0,0,4,8,0,0,700,-0.0292,162.9588,6.8213,0.4212,54.891506,9.784615,108.3,5.845,1.85,335.95,54.895348,9.797490,54.892948,9.783731
1389997826,3,0,0.0,0,3,4,0,0,650,-0.0292,161.9588,6.8213,0.4212,54.891487,9.784625,108.3,5.845,1.85,335.95,54.895348,9.797490,54.892948,9.783731
1389997827,3,0,0.0,0,2,0,0,0,600,-0.0292,161.2921,6.8213,0.4212,54.891468,9.784635,108.3,5.845,1.85,335.95,54.895348,9.797490,54.892948,9.783731
1389997827,0,0,0.0,0,2,0,0,0,600,-0.0292,161.2921,6.8213,0.4212,54.891468,9.784635,108.3,5.845,1.85,335.95,54.895348,9.797490,54.892948,9.783731
1389997827,0,0,0.0,0,2,0,0,0,600,-0.0292,161.2921,6.8213,0.4212,54.891468,9.784635,108.3,5.845,1.85,335.95,54.895348,9.797490,54.892948,9.783731
1389997827,0,0,0.0,0,2,0,0,0,600,-0.0292,161.2921,6.8213,0.4212,54.891468,9.784635,108.3,5.845,1.85,335.95,54.895348,9.797490,54.892948,9.783731
1389997828,0,0,0.0,0,2,0,0,0,600,-0.0292,161.2921,6.8213,0.4212,54.891468,9.784635,108.3,5.845,1.85,335.95,54.895348,9.797490,54.892948,9.783731
1389997828,0,0,0.0,0,2,0,0,0,600,-0.0292,161.2921,6.8213,0.4212,54.891468,9.784635,108.3,5.845,1.85,335.95,54.895348,9.797490,54.892948,9.783731
1389997828,0,0,0.0,0,2,0,0,0,600,-0.0292,161.2921,6.8213,0.4212,54.891468,9.784635,108.3,5.845,1.85,335.95,54.895348,9.797490,54.892948,9.783731
1389997828,0,0,0.0,0,2,0,0,0,600,-0.0292,161.2921,6.8213,0.4212,54.891468,9.784635,108.3,5.845,1.85,335.95,54.895348,9.797490,54.892948,9.783731
1389997829,0,0,0.0,0,2,0,0,0,600,-0.0292,161.2921,6.8213,0.4212,54.891468,9.784635,108.3,5.845,1.85,335.95,54.895348,9.797490,54.892948,9.783731
1389997829,0,0,0.0,0,2,0,0,0,600,-0.0292,161.2921,6.8213,0.4212,54.891468,9.784635,108.3,5.845,1.85,335.95,54.895348,9.797490,54.892948,9.783731
1389997829,0,0,0.0,0,2,0,0,0,600,-0.0292,161.2921,6.8213,0.4212,54.891468,9.784635,108.3,5.845,1.85,335.95,54.895348,9.797490,54.892948,9.783731
1389997829,0,0,0.0,0,2,0,0,0,600,-0.0292,161.2921,6.8213,0.4212,54.891468,9.784635,108.3,5.845,1.85,335.95,54.895348,9.797490,54.892948,9.783731
1389997830,0,0,0.0,0,2,0,0,0,600,-0.0292,161.2921,6.8213,0.4212,54.891468,9.784635,108.3,5.845,1.85,335.95,54.895348,9.797490,54.892948,9.783731
1389997830,0,0,0.0,0,2,0,0,0,600,-0.0292,161.2921,6.8213,0.4212,54.891468,9.784635,108.3,5.845,1.85,335.95,54.895348,9.797490,54.892948,9.783731
1389997830,0,0,0.0,0,2,0,0,0,600,-0.0292,161.2921,6.8213,0.4212,54.891468,9.784635,108.3,5.845,1.85,335.95,54.895348,9.797490,54.892948,9.783731
1389997830,0,0,0.0,0,2,0,0,0,600,-0.0292,161.2921,6.8213,0.4212,54.891468,9.784635,108.3,5.845,1.85,335.95,54.895348,9.797490,54.892948,9.783731
1389997831,0,0,0.0,0,2,0,0,0,600,-0.0292,161.2921,6.8213,0.4212,54.891468,9.784635,108.3,5.845,1.85,335.95,54.895348,9.797490,54.892948,9.783731
1389997831,0,0,0.0,0,2,0,0,0,600,-0.0292,161.2921,6.8213,0.4212,54.891468,9.784635,108.3,5.845,1.85,335.95,54.895348,9.797490,54.892948,9.783731
1389997831,0,0,0.0,0,2,0,0,0,600,-0.0292,161.2921,6.8213,0.4212,54.891468,9.784635,108.3,5.845,1.85,335.95,54.895348,9.797490,54.892948,9.783731
1389997831,0,0,0.0,0,2,0,0,0,600,-0.0292,161.2921,6.8213,0.4212,54.891468,9.784635,108.3,5.845,1.85,335.95,54.895348,9.797490,54.892948,9.783731
1389997832,0,0,0.0,0,2,0,0,0,600,-0.0292,161.2921,6.8213,0.4212,54.891468,9.784635,108.3,5.845,1.85,335.95,54.895348,9.797490,54.892948,9.783731
1389997832,0,0,0.0,0,2,0,0,0,600,-0.0292,161.2921,6.8213,0.4212,54.891468,9.784635,108.3,5.845,1.85,335.95,54.895348,9.797490,54.892948,9.783731
1389997832,0,0,0.0,0,2,0,0,0,600,-0.0292,161.2921,6.8213,0.4212,54.891468,9.784635,108.3,5.845,1.85,335.95,54.895348,9.797490,54.892948,9.783731
1389997832,0,0,0.0,0,2,0,0,0,600,-0.0292,161.2921,6.8213,0.4212,54.891468,9.784635,108.3,5.845,1.85,335.95,54.895348,9.797490,54.892948,9.783731
1389997833,0,0,0.0,0,2,0,0,0,600,-0.0292,161.2921,6.8213,0.4212,54.891468,9.784635,108.3,5.845,1.85,335.95,54.895348,9.797490,54.892948,9.783731
1389997833,0,0,0.0,0,2,0,0,0,600,-0.0292,161.2921,6.8213,0.4212,54.891468,9.784635,108.3,5.845,1.85,335.95,54.895348,9.797490,54.892948,9.783731
1389997833,0,0,0.0,0,2,0,0,0,600,-0.0292,161.2921,6.8213,0.4212,54.891468,9.784635,108.3,5.845,1.85,335.95,54.895348,9.797490,54.892948,9.783731
1389997833,0,0,0.0,0,2,0,0,0,600,-0.0292,161.2921,6.8213,0.4212,54.891468,9.784635,108.3,5.845,1.85,335.95,54.895348,9.797490,54.892948,9.783731
1389997834,0,0,0.0,0,2,0,0,0,600,-0.0292,161.2921,6.8213,0.4212,54.891468,9.784635,108.3,5.845,1.85,335.95,54.895348,9.797490,54.892948,9.783731
1389997834,0,0,0.0,0,2,0,0,0,600,-0.0292,161.2921,6.8213,0.4212,54.891468,9.784635,108.3,5.845,1.85,335.95,54.895348,9.797490,54.892948,9.783731
1389997834,0,0,0.0,0,2,0,0,0,600,-0.0292,161.2921,6.8213,0.4212,54.891468,9.784635,108.3,5.845,1.85,335.95,54.895348,9.797490,54.892948,9.783731
1389997834,0,0,0.0,0,2,0,0,0,600,-0.0292,161.2921,6.8213,0.4212,54.891468,9.784635,108.3,5.845,1.85,335.95,54.895348,9.797490,54.892948,9.783731
1389997835,0,0,0.0,0,2,0,0,0,600,-0.0292,161.2921,6.8213,0.4212,54.891468,9.784635,108.3,5.845,1.85,335.95,54.895348,9.797490,54.892948,9.783731
1389997835,0,0,0.0,0,2,0,0,0,600,-0.0292,161.2921,6.8213,0.4212,54.891468,9.784635,108.3,5.845,1.85,335.95,54.895348,9.797490,54.892948,9.783731
1389997835,0,0,0.0,0,2,0,0,0,600,-0.0292,161.2921,6.8213,0.4212,54.891468,9.784635,108.3,5.845,1.85,335.95,54.895348,9.797490,54.892948,9.783731
1389997835,0,0,0.0,0,2,0,0,0,600,-0.0292,161.2921,6.8213,0.4212,54.891468,9.784635,108.3,5.845,1.85,335.95,54.895348,9.797490,54.892948,9.783731
1389997836,0,0,0.0,0,2,0,0,0,600,-0.0292,161.2921,6.8213,0.4212,54.891468,9.784635,108.3,5.845,1.85,335.95,54.895348,9.797490,54.892948,9.783731
1389997836,0,0,0.0,0,2,0,0,0,600,-0.0292,161.2921,6.8213,0.4212,54.891468,9.784635,108.3,5.845,1.85,335.95,54.895348,9.797490,54.892948,9.783731
1389997836,0,0,0.0,0,2,0,0,0,600,-0.0292,161.2921,6.8213,0.4212,54.891468,9.784635,108.3,5.845,1.85,335.95,54.895348,9.797490,54.892948,9.783731
1389997836,0,0,0.0,0,2,0,0,0,600,-0.0292,161.2921,6.8213,0.4212,54.891468,9.784635,108.3,5.845,1.85,335.95,54.895348,9.797490,54.892948,9.783731
1389997837,0,0,0.0,0,2,0,0,0,600,-0.0292,161.2921,6.8213,0.4212,54.891468,9.784635,108.3,5.845,1.85,335.95,54.895348,9.797490,54.892948,9.783731
1389997837,0,0,0.0,0,2,0,0,0,600,-0.0292,161.2921,6.8213,0.4212,54.891468,9.784635,108.3,5.845,1.85,335.95,54.895348,9.797490,54.892948,9.783731
1389997837,0,0,0.0,0,2,0,0,0,600,-0.0292,161.2921,6.8213,0.4212,54.891468,9.784635,108.3,5.845,1.85,335.95,54.895348,9.797490,54.892948,9.783731
1389997837,0,0,0.0,0,2,0,0,0,600,-0.0292,161.2921,6.8213,0.4212,54.891468,9.784635,108.3,5.845,1.85,335.95,54.895348,9.797490,54.892948,9.783731
1389997838,0,0,0.0,0,2,0,0,0,600,-0.0292,161.2921,6.8213,0.4212,54.891468,9.784635,108.3,5.845,1.85,335.95,54.895348,9.797490,54.892948,9.783731
1389997838,0,0,0.0,0,2,0,0,0,600,-0.0292,161.2921,6.8213,0.4212,54.891468,9.784635,108.3,5.845,1.85,335.95,54.895348,9.797490,54.892948,9.783731
1389997838,0,0,0.0,0,2,0,0,0,600,-0.0292,161.2921,6.8213,0.4212,54.891468,9.784635,108.3,5.845,1.85,335.95,54.895348,9.797490,54.892948,9.783731
1389997838,0,0,0.0,0,2,0,0,0,600,-0.0292,161.2921,6.8213,0.4212,54.891468,9.784635,108.3,5.845,1.85,335.95,54.895348,9.797490,54.892948,9.783731
1389997839,0,0,0.0,0,2,0,0,0,600,-0.0292,161.2921,6.8213,0.4212,54.891468,9.784635,108.3,5.845,1.85,335.95,54.895348,9.797490,54.892948,9.783731
1389997839,0,0,0.0,0,2,0,0,0,600,-0.0292,161.2921,6.8213,0.4212,54.891468,9.784635,108.3,5.845,1.85,335.95,54.895348,9.797490,54.892948,9.783731
1389997839,0,0,0.0,0,2,0,0,0,600,-0.0292,161.2921,6.8213,0.4212,54.891468,9.784635,108.3,5.845,1.85,335.95,54.895348,9.797490,54.892948,9.783731
1389997839,0,0,0.0,0,2,0,0,0,600,-0.0292,161.2921,6.8213,0.4212,54.891468,9.784635,108.3,5.845,1.85,335.95,54.895348,9.797490,54.892948,9.783731
1389997840,0,0,0.0,0,2,0,0,0,600,-0.0292,161.2921,6.8213,0.4212,54.891468,9.784635,108.3,5.845,1.85,335.95,54.895348,9.797490,54.892948,9.783731
1389997840,0,0,0.0,0,2,0,0,0,600,-0.0292,161.2921,6.8213,0.4212,54.891468,9.784635,108.3,5.845,1.85,335.95,54.895348,9.797490,54.892948,9.783731
1389997840,0,0,0.0,0,2,0,0,0,600,-0.0292,161.2921,6.8213,0.4212,54.891468,9.784635,108.3,5.845,1.85,335.95,54.895348,9.797490,54.892948,9.783731
1389997840,0,0,0.0,0,2,0,0,0,600,-0.0292,161.2921,6.8213,0.4212,54.891468,9.784635,108.3,5.845,1.85,335.95,54.895348,9.797490,54.892948,9.783731
1389997841,0,0,0.0,0,2,0,0,0,600,-0.0292,161.2921,6.8213,0.4212,54.891468,9.784635,108.3,5.845,1.85,335.95,54.895348,9.797490,54.892948,9.783731
1389997841,0,0,0.0,0,2,0,0,0,600,-0.0292,161.2921,6.8213,0.4212,54.891468,9.784635,108.3,5.845,1.85,335.95,54.895348,9.797490,54.892948,9.783731
1389997841,0,0,0.0,0,2,0,0,0,600,-0.0292,161.2921,6.8213,0.4212,54.891468,9.784635,108.3,5.845,1.85,335.95,54.895348,9.797490,54.892948,9.783731
1389997841,0,0,0.0,0,2,0,0,0,600,-0.0292,161.2921,6.8213,0.4212,54.891468,9.784635,108.3,5.845,1.85,335.95,54.895348,9.797490,54.892948,9.783731
1389997842,0,0,0.0,0,2,0,0,0,600,-0.0292,161.2921,6.8213,0.4212,54.891468,9.784635,108.3,5.845,1.85,335.95,54.895348,9.797490,54.892948,9.783731
1389997842,0,0,0.0,0,2,0,0,0,600,-0.0292,161.2921,6.8213,0.4212,54.891468,9.784635,108.3,5.845,1.85,335.95,54.895348,9.797490,54.892948,9.783731
1389997842,0,0,0.0,0,2,0,0,0,600,-0.0292,161.2921,6.8213,0.4212,54.891468,9.784635,108.3,5.845,1.85,335.95,54.895348,9.797490,54.892948,9.783731
1389997842,0,0,0.0,0,2,0,0,0,600,-0.0292,161.2921,6.8213,0.4212,54.891468,9.784635,108.3,5.845,1.85,335.95,54.895348,9.797490,54.892948,9.783731
1389997843,0,0,0.0,0,2,0,0,0,600,-0.0292,161.2921,6.8213,0.4212,54.891468,9.784635,108.3,5.845,1.85,335.95,54.895348,9.797490,54.892948,9.783731
1389997843,0,0,0.0,0,2,0,0,0,600,-0.0292,161.2921,6.8213,0.4212,54.891468,9.784635,108.3,5.845,1.85,335.95,54.895348,9.797490,54.892948,9.783731
1389997843,0,0,0.0,0,2,0,0,0,600,-0.0292,161.2921,6.8213,0.4212,54.891468,9.784635,108.3,5.845,1.85,335.95,54.895348,9.797490,54.892948,9.783731
1389997843,0,0,0.0,0,2,0,0,0,600,-0.0292,161.2921,6.8213,0.4212,54.891468,9.784635,108.3,5.845,1.85,335.95,54.895348,9.797490,54.892948,9.783731
1389997844,0,0,0.0,0,2,0,0,0,600,-0.0292,161.2921,6.8213,0.4212,54.891468,9.784635,108.3,5.845,1.85,335.95,54.895348,9.797490,54.892948,9.783731
1389997844,0,0,0.0,0,2,0,0,0,600,-0.0292,161.2921,6.8213,0.4212,54.891468,9.784635,108.3,5.845,1.85,335.95,54.895348,9.797490,54.892948,9.783731
1389997844,0,0,0.0,0,2,0,0,0,600,-0.0292,161.2921,6.8213,0.4212,54.891468,9.784635,108.3,5.845,1.85,335.95,54.895348,9.797490,54.892948,9.783731
1389997844,0,0,0.0,0,2,0,0,0,600,-0.0292,161.2921,6.8213,0.4212,54.891468,9.784635,108.3,5.845,1.85,335.95,54.895348,9.797490,54.892948,9.783731
1389997845,0,0,0.0,0,2,0,0,0,600,-0.0292,161.2921,6.8213,0.4212,54.891468,9.784635,108.3,5.845,1.85,335.95,54.895348,9.797490,54.892948,9.783731
1389997845,0,0,0.0,0,2,0,0,0,600,-0.0292,161.2921,6.8213,0.4212,54.891468,9.784635,108.3,5.845,1.85,335.95,54.895348,9.797490,54.892948,9.783731
1389997845,0,0,0.0,0,2,0,0,0,600,-0.0292,161.2921,6.8213,0.4212,54.891468,9.784635,108.3,5.845,1.85,335.95,54.895348,9.797490,54.892948,9.783731
1389997845,0,0,0.0,0,2,0,0,0,600,-0.0292,161.2921,6.8213,0.4212,54.891468,9.784635,108.3,5.845,1.85,335.95,54.895348,9.797490,54.892948,9.783731
1389997846,0,0,0.0,0,2,0,0,0,600,-0.0292,161.2921,6.8213,0.4212,54.891468,9.784635,108.3,5.845,1.85,335.95,54.895348,9.797490,54.892948,9.783731
1389997846,0,0,0.0,0,2,0,0,0,600,-0.0292,161.2921,6.8213,0.4212,54.891468,9.784635,108.3,5.845,1.85,335.95,54.895348,9.797490,54.892948,9.783731
1389997846,0,0,0.0,0,2,0,0,0,600,-0.0292,161.2921,6.8213,0.4212,54.891468,9.784635,108.3,5.845,1.85,335.95,54.895348,9.797490,54.892948,9.783731
1389997846,0,0,0.0,0,2,0,0,0,600,-0.0292,161.2921,6.8213,0.4212,54.891468,9.784635,108.3,5.845,1.85,335.95,54.895348,9.797490,54.892948,9.783731
1389997847,0,0,0.0,0,2,0,0,0,600,-0.0292,161.2921,6.8213,0.4212,54.891468,9.784635,108.3,5.845,1.85,335.95,54.895348,9.797490,54.892948,9.783731
1389997847,0,0,0.0,0,2,0,0,0,600,-0.0292,161.2921,6.8213,0.4212,54.891468,9.784635,108.3,5.845,1.85,335.95,54.895348,9.797490,54.892948,9.783731
1389997847,0,0,0.0,0,2,0,0,0,600,-0.0292,161.2921,6.8213,0.4212,54.891468,9.784635,108.3,5.845,1.85,335.95,54.895348,9.797490,54.892948,9.783731
1389997847,0,0,0.0,0,2,0,0,0,600,-0.0292,161.2921,6.8213,0.4212,54.891468,9.784635,108.3,5.845,1.85,335.95,54.895348,9.797490,54.892948,9.783731
1389997848,0,0,0.0,0,2,0,0,0,600,-0.0292,161.2921,6.8213,0.4212,54.891468,9.784635,108.3,5.845,1.85,335.95,54.895348,9.797490,54.892948,9.783731
1389997848,0,0,0.0,0,2,0,0,0,600,-0.0292,161.2921,6.8213,0.4212,54.891468,9.784635,108.3,5.845,1.85,335.95,54.895348,9.797490,54.892948,9.783731
1389997848,0,0,0.0,0,2,0,0,0,600,-0.0292,161.2921,6.8213,0.4212,54.891468,9.784635,108.3,5.845,1.85,335.95,54.895348,9.797490,54.892948,9.783731
1389997848,0,0,0.0,0,2,0,0,0,600,-0.0292,161.2921,6.8213,0.4212,54.891468,9.784635,108.3,5.845,1.85,335.95,54.895348,9.797490,54.892948,9.783731
1389997849,0,0,0.0,0,2,0,0,0,600,-0.0292,161.2921,6.8213,0.4212,54.891468,9.784635,108.3,5.845,1.85,335.95,54.895348,9.797490,54.892948,9.783731
1389997849,0,0,0.0,0,2,0,0,0,600,-0.0292,161.2921,6.8213,0.4212,54.891468,9.784635,108.3,5.845,1.85,335.95,54.895348,9.797490,54.892948,9.783731
1389997849,0,0,0.0,0,2,0,0,0,600,-0.0292,161.2921,6.8213,0.4212,54.891468,9.784635,108.3,5.845,1.85,335.95,54.895348,9.797490,54.892948,9.783731
1389997849,0,0,0.0,0,2,0,0,0,600,-0.0292,161.2921,6.8213,0.4212,54.891468,9.784635,108.3,5.845,1.85,335.95,54.895348,9.797490,54.892948,9.783731
1389997850,0,0,0.0,0,2,0,0,0,600,-0.0292,161.2921,6.8213,0.4212,54.891468,9.784635,108.3,5.845,1.85,335.95,54.895348,9.797490,54.892948,9.783731
1389997850,0,0,0.0,0,2,0,0,0,600,-0.0292,161.2921,6.8213,0.4212,54.891468,9.784635,108.3,5.845,1.85,335.95,54.895348,9.797490,54.892948,9.783731
1389997850,0,0,0.0,0,2,0,0,0,600,-0.0292,161.2921,6.8213,0.4212,54.891468,9.784635,108.3,5.845,1.85,335.95,54.895348,9.797490,54.892948,9.783731
1389997850,0,0,0.0,0,2,0,0,0,600,-0.0292,161.2921,6.8213,0.4212,54.891468,9.784635,108.3,5.845,1.85,335.95,54.895348,9.797490,54.892948,9.783731
1389997851,0,0,0.0,0,2,0,0,0,600,-0.0292,161.2921,6.8213,0.4212,54.891468,9.784635,108.3,5.845,1.85,335.95,54.895348,9.797490,54.892948,9.783731
1389997851,0,0,0.0,0,2,0,0,0,600,-0.0292,161.2921,6.8213,0.4212,54.891468,9.784635,108.3,5.845,1.85,335.95,54.895348,9.797490,54.892948,9.783731
1389997851,0,0,0.0,0,2,0,0,0,600,-0.0292,161.2921,6.8213,0.4212,54.891468,9.784635,108.3,5.845,1.85,335.95,54.895348,9.797490,54.892948,9.783731
1389997851,0,0,0.0,0,2,0,0,0,600,-0.0292,161.2921,6.8213,0.4212,54.891468,9.784635,108.3,5.845,1.85,335.95,54.895348,9.797490,54.892948,9.783731
1389997852,0,0,0.0,0,2,0,0,0,600,-0.0292,161.2921,6.8213,0.4212,54.891468,9.784635,108.3,5.845,1.85,335.95,54.895348,9.797490,54.892948,9.783731
1389997852,0,0,0.0,0,2,0,0,0,600,-0.0292,161.2921,6.8213,0.4212,54.891468,9.784635,108.3,5.845,1.85,335.95,54.895348,9.797490,54.892948,9.783731
1389997852,0,0,0.0,0,2,0,0,0,600,-0.0292,161.2921,6.8213,0.4212,54.891468,9.784635,108.3,5.845,1.85,335.95,54.895348,9.797490,54.892948,9.783731
1389997852,0,0,0.0,0,2,0,0,0,600,-0.0292,161.2921,6.8213,0.4212,54.891468,9.784635,108.3,5.845,1.85,335.95,54.895348,9.797490,54.892948,9.783731
1389997853,0,0,0.0,0,2,0,0,0,600,-0.0292,161.2921,6.8213,0.4212,54.891468,9.784635,108.3,5.845,1.85,335.95,54.895348,9.797490,54.892948,9.783731
1389997853,0,0,0.0,0,2,0,0,0,600,-0.0292,161.2921,6.8213,0.4212,54.891468,9.784635,108.3,5.845,1.85,335.95,54.895348,9.797490,54.892948,9.783731
1389997853,0,0,0.0,0,2,0,0,0,600,-0.0292,161.2921,6.8213,0.4212,54.891468,9.784635,108.3,5.845,1.85,335.95,54.895348,9.797490,54.892948,9.783731
1389997853,0,0,0.0,0,2,0,0,0,600,-0.0292,161.2921,6.8213,0.4212,54.891468,9.784635,108.3,5.845,1.85,335.95,54.895348,9.797490,54.892948,9.783731
1389997854,0,0,0.0,0,2,0,0,0,600,-0.0292,161.2921,6.8213,0.4212,54.891468,9.784635,108.3,5.845,1.85,335.95,54.895348,9.797490,54.892948,9.783731
1389997854,0,0,0.0,0,2,0,0,0,600,-0.0292,161.2921,6.8213,0.4212,54.891468,9.784635,108.3,5.845,1.85,335.95,54.895348,9.797490,54.892948,9.783731
1389997854,0,0,0.0,0,2,0,0,0,600,-0.0292,161.2921,6.8213,0.4212,54.891468,9.784635,108.3,5.845,1.85,335.95,54.895348,9.797490,54.892948,9.783731
1389997854,0,0,0.0,0,2,0,0,0,600,-0.0292,161.2921,6.8213,0.4212,54.891468,9.784635,108.3,5.845,1.85,335.95,54.895348,9.797490,54.892948,9.783731
1389997855,0,0,0.0,0,2,0,0,0,600,-0.0292,161.2921,6.8213,0.4212,54.891468,9.784635,108.3,5.845,1.85,335.95,54.895348,9.797490,54.892948,9.783731
1389997855,0,0,0.0,0,2,0,0,0,600,-0.0292,161.2921,6.8213,0.4212,54.891468,9.784635,108.3,5.845,1.85,335.95,54.895348,9.797490,54.892948,9.783731
1389997855,0,0,0.0,0,2,0,0,0,600,-0.0292,161.2921,6.8213,0.4212,54.891468,9.784635,108.3,5.845,1.85,335.95,54.895348,9.797490,54.892948,9.783731
1389997855,0,0,0.0,0,2,0,0,0,600,-0.0292,161.2921,6.8213,0.4212,54.891468,9.784635,108.3,5.845,1.85,335.95,54.895348,9.797490,54.892948,9.783731
1389997856,0,0,0.0,0,2,0,0,0,600,-0.0292,161.2921,6.8213,0.4212,54.891468,9.784635,108.3,5.845,1.85,335.95,54.895348,9.797490,54.892948,9.783731
1389997856,0,0,0.0,0,2,0,0,0,600,-0.0292,161.2921,6.8213,0.4212,54.891468,9.784635,108.3,5.845,1.85,335.95,54.895348,9.797490,54.892948,9.783731
1389997856,0,0,0.0,0,2,0,0,0,600,-0.0292,161.2921,6.8213,0.4212,54.891468,9.784635,108.3,5.845,1.85,335.95,54.895348,9.797490,54.892948,9.783731
1389997856,0,0,0.0,0,2,0,0,0,600,-0.0292,161.2921,6.8213,0.4212,54.891468,9.784635,108.3,5.845,1.85,335.95,54.895348,9.797490,54.892948,9.783731
1389997857,0,0,0.0,0,2,0,0,0,600,-0.0292,161.2921,6.8213,0.4212,54.891468,9.784635,108.3,5.845,1.85,335.95,54.895348,9.797490,54.892948,9.783731
1389997857,0,0,0.0,0,2,0,0,0,600,-0.0292,161.2921,6.8213,0.4212,54.891468,9.784635,108.3,5.845,1.85,335.95,54.895348,9.797490,54.892948,9.783731
1389997857,0,0,0.0,0,2,0,0,0,600,-0.0292,161.2921,6.8213,0.4212,54.891468,9.784635,108.3,5.845,1.85,335.95,54.895348,9.797490,54.892948,9.783731
1389997857,0,0,0.0,0,2,0,0,0,600,-0.0292,161.2921,6.8213,0.4212,54.891468,9.784635,108.3,5.845,1.85,335.95,54.895348,9.797490,54.892948,9.783731
1389997858,0,0,0.0,0,2,0,0,0,600,-0.0292,161.2921,6.8213,0.4212,54.891468,9.784635,108.3,5.845,1.85,335.95,54.895348,9.797490,54.892948,9.783731
1389997858,0,0,0.0,0,2,0,0,0,600,-0.0292,161.2921,6.8213,0.4212,54.891468,9.784635,108.3,5.845,1.85,335.95,54.895348,9.797490,54.892948,9.783731
1389997858,0,0,0.0,0,2,0,0,0,600,-0.0292,161.2921,6.8213,0.4212,54.891468,9.784635,108.3,5.845,1.85,335.95,54.895348,9.797490,54.892948,9.783731
1389997858,0,0,0.0,0,2,0,0,0,600,-0.0292,161.2921,6.8213,0.4212,54.891468,9.784635,108.3,5.845,1.85,335.95,54.895348,9.797490,54.892948,9.783731
1389997859,0,0,0.0,0,2,0,0,0,600,-0.0292,161.2921,6.8213,0.4212,54.891468,9.784635,108.3,5.845,1.85,335.95,54.895348,9.797490,54.892948,9.783731
1389997859,0,0,0.0,0,2,0,0,0,600,-0.0292,161.2921,6.8213,0.4212,54.891468,9.784635,108.3,5.845,1.85,335.95,54.895348,9.797490,54.892948,9.783731
1389997859,0,0,0.0,0,2,0,0,0,600,-0.0292,161.2921,6.8213,0.4212,54.891468,9.784635,108.3,5.845,1.85,335.95,54.895348,9.797490,54.892948,9.783731
1389997859,0,0,0.0,0,2,0,0,0,600,-0.0292,161.2921,6.8213,0.4212,54.891468,9.784635,108.3,5.845,1.85,335.95,54.895348,9.797490,54.892948,9.783731
1389997860,0,0,0.0,0,2,0,0,0,600,-0.0292,161.2921,6.8213,0.4212,54.891468,9.784635,108.3,5.845,1.85,335.95,54.895348,9.797490,54.892948,9.783731
1389997860,0,0,0.0,0,2,0,0,0,600,-0.0292,161.2921,6.8213,0.4212,54.891468,9.784635,108.3,5.845,1.85,335.95,54.895348,9.797490,54.892948,9.783731
1389997860,0,0,0.0,0,2,0,0,0,600,-0.0292,161.2921,6.8213,0.4212,54.891468,9.784635,108.3,5.845,1.85,335.95,54.895348,9.797490,54.892948,9.783731
1389997860,0,0,0.0,0,2,0,0,0,600,-0.0292,161.2921,6.8213,0.4212,54.891468,9.784635,108.3,5.845,1.85,335.95,54.895348,9.797490,54.892948,9.783731
1389997861,0,0,0.0,0,2,0,0,0,600,-0.0292,161.2921,6.8213,0.4212,54.891468,9.784635,108.3,5.845,1.85,335.95,54.895348,9.797490,54.892948,9.783731
1389997861,0,0,0.0,0,2,0,0,0,600,-0.0292,161.2921,6.8213,0.4212,54.891468,9.784635,108.3,5.845,1.85,335.95,54.895348,9.797490,54.892948,9.783731
1389997861,0,0,0.0,0,2,0,0,0,600,-0.0292,161.2921,6.8213,0.4212,54.891468,9.784635,108.3,5.845,1.85,335.95,54.895348,9.797490,54.892948,9.783731
1389997861,0,0,0.0,0,2,0,0,0,600,-0.0292,161.2921,6.8213,0.4212,54.891468,9.784635,108.3,5.845,1.85,335.95,54.895348,9.797490,54.892948,9.783731
1389997862,0,0,0.0,0,2,0,0,0,600,-0.0292,161.2921,6.8213,0.4212,54.891468,9.784635,108.3,5.845,1.85,335.95,54.895348,9.797490,54.892948,9.783731
1389997862,0,0,0.0,0,2,0,0,0,600,-0.0292,161.2921,6.8213,0.4212,54.891468,9.784635,108.3,5.845,1.85,335.95,54.895348,9.797490,54.892948,9.783731
1389997862,0,0,0.0,0,2,0,0,0,600,-0.0292,161.2921,6.8213,0.4212,54.891468,9.784635,108.3,5.845,1.85,335.95,54.895348,9.797490,54.892948,9.783731
1389997863,0,0,0.0,0,2,0,0,0,600,-0.0292,161.2921,6.8213,0.4212,54.891468,9.784635,108.3,5.845,1.85,335.95,54.895348,9.797490,54.892948,9.783731
1389997863,0,0,0.0,0,2,0,0,0,600,-0.0292,161.2921,6.8213,0.4212,54.891468,9.784635,108.3,5.845,1.85,335.95,54.895348,9.797490,54.892948,9.783731
1389997863,0,0,0.0,0,2,0,0,0,600,-0.0292,161.2921,6.8213,0.4212,54.891468,9.784635,108.3,5.845,1.85,335.95,54.895348,9.797490,54.892948,9.783731
1389997863,0,0,0.0,0,2,0,0,0,600,-0.0292,161.2921,6.8213,0.4212,54.891468,9.784635,108.3,5.845,1.85,335.95,54.895348,9.797490,54.892948,9.783731
1389997864,0,0,0.0,0,2,0,0,0,600,-0.0292,161.2921,6.8213,0.4212,54.891468,9.784635,108.3,5.845,1.85,335.95,54.895348,9.797490,54.892948,9.783731
1389997864,0,0,0.0,0,2,0,0,0,600,-0.0292,161.2921,6.8213,0.4212,54.891468,9.784635,108.3,5.845,1.85,335.95,54.895348,9.797490,54.892948,9.783731
1389997864,0,0,0.0,0,2,0,0,0,600,-0.0292,161.2921,6.8213,0.4212,54.891468,9.784635,108.3,5.845,1.85,335.95,54.895348,9.797490,54.892948,9.783731
1389997864,0,0,0.0,0,2,0,0,0,600,-0.0292,161.2921,6.8213,0.4212,54.891468,9.784635,108.3,5.845,1.85,335.95,54.895348,9.797490,54.892948,9.783731
1389997865,0,0,0.0,0,2,0,0,0,600,-0.0292,161.2921,6.8213,0.4212,54.891468,9.784635,108.3,5.845,1.85,335.95,54.895348,9.797490,54.892948,9.783731
1389997865,0,0,0.0,0,2,0,0,0,600,-0.0292,161.2921,6.8213,0.4212,54.891468,9.784635,108.3,5.845,1.85,335.95,54.895348,9.797490,54.892948,9.783731
1389997865,0,0,0.0,0,2,0,0,0,600,-0.0292,161.2921,6.8213,0.4212,54.891468,9.784635,108.3,5.845,1.85,335.95,54.895348,9.797490,54.892948,9.783731
1389997865,0,0,0.0,0,2,0,0,0,600,-0.0292,161.2921,6.8213,0.4212,54.891468,9.784635,108.3,5.845,1.85,335.95,54.895348,9.797490,54.892948,9.783731
1389997866,0,0,0.0,0,2,0,0,0,600,-0.0292,161.2921,6.8213,0.4212,54.891468,9.784635,108.3,5.845,1.85,335.95,54.895348,9.797490,54.892948,9.783731
1389997866,0,0,0.0,0,2,0,0,0,600,-0.0292,161.2921,6.8213,0.4212,54.891468,9.784635,108.3,5.845,1.85,335.95,54.895348,9.797490,54.892948,9.783731
1389997866,0,0,0.0,0,2,0,0,0,600,-0.0292,161.2921,6.8213,0.4212,54.891468,9.784635,108.3,5.845,1.85,335.95,54.895348,9.797490,54.892948,9.783731
1389997866,0,0,0.0,0,2,0,0,0,600,-0.0292,161.2921,6.8213,0.4212,54.891468,9.784635,108.3,5.845,1.85,335.95,54.895348,9.797490,54.892948,9.783731
1389997867,0,0,0.0,0,2,0,0,0,600,-0.0292,161.2921,6.8213,0.4212,54.891468,9.784635,108.3,5.845,1.85,335.95,54.895348,9.797490,54.892948,9.783731
1389997867,0,0,0.0,0,2,0,0,0,600,-0.0292,161.2921,6.8213,0.4212,54.891468,9.784635,108.3,5.845,1.85,335.95,54.895348,9.797490,54.892948,9.783731
1389997867,0,0,0.0,0,2,0,0,0,600,-0.0292,161.2921,6.8213,0.4212,54.891468,9.784635,108.3,5.845,1.85,335.95,54.895348,9.797490,54.892948,9.783731
1389997867,0,0,0.0,0,2,0,0,0,600,-0.0292,161.2921,6.8213,0.4212,54.891468,9.784635,108.3,5.845,1.85,335.95,54.895348,9.797490,54.892948,9.783731
1389997868,0,0,0.0,0,2,0,0,0,600,-0.0292,161.2921,6.8213,0.4212,54.891468,9.784635,108.3,5.845,1.85,335.95,54.895348,9.797490,54.892948,9.783731
1389997868,0,0,0.0,0,2,0,0,0,600,-0.0292,161.2921,6.8213,0.4212,54.891468,9.784635,108.3,5.845,1.85,335.95,54.895348,9.797490,54.892948,9.783731
1389997868,0,0,0.0,0,2,0,0,0,600,-0.0292,161.2921,6.8213,0.4212,54.891468,9.784635,108.3,5.845,1.85,335.95,54.895348,9.797490,54.892948,9.783731
1389997868,0,0,0.0,0,2,0,0,0,600,-0.0292,161.2921,6.8213,0.4212,54.891468,9.784635,108.3,5.845,1.85,335.95,54.895348,9.797490,54.892948,9.783731
1389997869,0,0,0.0,0,2,0,0,0,600,-0.0292,161.2921,6.8213,0.4212,54.891468,9.784635,108.3,5.845,1.85,335.95,54.895348,9.797490,54.892948,9.783731
1389997869,0,0,0.0,0,2,0,0,0,600,-0.0292,161.2921,6.8213,0.4212,54.891468,9.784635,108.3,5.845,1.85,335.95,54.895348,9.797490,54.892948,9.783731
1389997869,0,0,0.0,0,2,0,0,0,600,-0.0292,161.2921,6.8213,0.4212,54.891468,9.784635,108.3,5.845,1.85,335.95,54.895348,9.797490,54.892948,9.783731
