MCU_timestamp,Navigation_System,Manual_Control,Guidance_Heading,Manual_Ctrl_Rudder,Rudder_Desired_Angle,Rudder_Feedback,Manual_Ctrl_Sail,Sail_Desired_Pos,Sail_Feedback,Rate,Heading,Pitch,Roll,Latitude,Longitude,COG,SOG,Wind_Speed,Wind_Angle,Point_Start_Lat,Point_Start_Lon,Point_End_Lat,Point_End_Lon
1390060222,0,0,0.0,0,0,0,0,0,0,-0.0292,-229.7077,6.8213,0.4212,54.881687,9.787314,108.3,5.845,1.85,335.95,0.000000,0.000000,0.000000,0.000000
1390060222,0,0,0.0,0,0,0,0,0,0,-0.0292,-229.7077,6.8213,0.4212,54.881687,9.787314,108.3,5.845,1.85,335.95,0.000000,0.000000,0.000000,0.000000
1390060223,0,0,0.0,0,0,0,0,0,0,-0.0292,-229.7077,6.8213,0.4212,54.881687,9.787314,108.3,5.845,1.85,335.95,0.000000,0.000000,0.000000,0.000000
1390060223,0,0,0.0,0,0,0,0,0,0,-0.0292,-229.7077,6.8213,0.4212,54.881687,9.787314,108.3,5.845,1.85,335.95,0.000000,0.000000,0.000000,0.000000
1390060223,0,0,0.0,0,0,0,0,0,0,-0.0292,-229.7077,6.8213,0.4212,54.881687,9.787314,108.3,5.845,1.85,335.95,0.000000,0.000000,0.000000,0.000000
1390060223,0,0,0.0,0,0,0,0,0,0,-0.0292,-229.7077,6.8213,0.4212,54.881687,9.787314,108.3,5.845,1.85,335.95,0.000000,0.000000,0.000000,0.000000
1390060224,0,0,0.0,0,0,0,0,0,0,-0.0292,-229.7077,6.8213,0.4212,54.881687,9.787314,108.3,5.845,1.85,335.95,0.000000,0.000000,0.000000,0.000000
1390060224,0,0,0.0,0,0,0,0,0,0,-0.0292,-229.7077,6.8213,0.4212,54.881687,9.787314,108.3,5.845,1.85,335.95,0.000000,0.000000,0.000000,0.000000
1390060224,0,0,0.0,0,0,0,0,0,0,-0.0292,-229.7077,6.8213,0.4212,54.881687,9.787314,108.3,5.845,1.85,335.95,0.000000,0.000000,0.000000,0.000000
1390060224,0,0,0.0,0,0,0,0,0,0,-0.0292,-229.7077,6.8213,0.4212,54.881687,9.787314,108.3,5.845,1.85,335.95,0.000000,0.000000,0.000000,0.000000
1390060225,0,0,0.0,0,0,0,0,0,0,-0.0292,-229.7077,6.8213,0.4212,54.881687,9.787314,108.3,5.845,1.85,335.95,0.000000,0.000000,0.000000,0.000000
1390060225,0,0,0.0,0,0,0,0,0,0,-0.0292,-229.7077,6.8213,0.4212,54.881687,9.787314,108.3,5.845,1.85,335.95,0.000000,0.000000,0.000000,0.000000
1390060225,0,0,0.0,0,0,0,0,0,0,-0.0292,-229.7077,6.8213,0.4212,54.881687,9.787314,108.3,5.845,1.85,335.95,0.000000,0.000000,0.000000,0.000000
1390060225,0,0,0.0,0,0,0,0,0,0,-0.0292,-229.7077,6.8213,0.4212,54.881687,9.787314,108.3,5.845,1.85,335.95,0.000000,0.000000,0.000000,0.000000
1390060226,0,0,0.0,0,0,0,0,0,0,-0.0292,-229.7077,6.8213,0.4212,54.881687,9.787314,108.3,5.845,1.85,335.95,0.000000,0.000000,0.000000,0.000000
1390060226,0,0,0.0,0,0,0,0,0,0,-0.0292,-229.7077,6.8213,0.4212,54.881687,9.787314,108.3,5.845,1.85,335.95,0.000000,0.000000,0.000000,0.000000
1390060226,0,0,0.0,0,0,0,0,0,0,-0.0292,-229.7077,6.8213,0.4212,54.881687,9.787314,108.3,5.845,1.85,335.95,0.000000,0.000000,0.000000,0.000000
1390060226,0,0,0.0,0,0,0,0,0,0,-0.0292,-229.7077,6.8213,0.4212,54.881687,9.787314,108.3,5.845,1.85,335.95,0.000000,0.000000,0.000000,0.000000
1390060227,0,0,0.0,0,0,0,0,0,0,-0.0292,-229.7077,6.8213,0.4212,54.881687,9.787314,108.3,5.845,1.85,335.95,0.000000,0.000000,0.000000,0.000000
1390060227,0,0,0.0,0,0,0,0,0,0,-0.0292,-229.7077,6.8213,0.4212,54.881687,9.787314,108.3,5.845,1.85,335.95,0.000000,0.000000,0.000000,0.000000
1390060227,0,0,0.0,0,0,0,0,0,0,-0.0292,-229.7077,6.8213,0.4212,54.881687,9.787314,108.3,5.845,1.85,335.95,0.000000,0.000000,0.000000,0.000000
1390060227,0,0,0.0,0,0,0,0,0,0,-0.0292,-229.7077,6.8213,0.4212,54.881687,9.787314,108.3,5.845,1.85,335.95,0.000000,0.000000,0.000000,0.000000
1390060228,0,0,0.0,0,0,0,0,0,0,-0.0292,-229.7077,6.8213,0.4212,54.881687,9.787314,108.3,5.845,1.85,335.95,0.000000,0.000000,0.000000,0.000000
1390060228,0,0,0.0,0,0,0,0,0,0,-0.0292,-229.7077,6.8213,0.4212,54.881687,9.787314,108.3,5.845,1.85,335.95,0.000000,0.000000,0.000000,0.000000
1390060228,0,0,0.0,0,0,0,0,0,0,-0.0292,-229.7077,6.8213,0.4212,54.881687,9.787314,108.3,5.845,1.85,335.95,0.000000,0.000000,0.000000,0.000000
1390060228,0,0,0.0,0,0,0,0,0,0,-0.0292,-229.7077,6.8213,0.4212,54.881687,9.787314,108.3,5.845,1.85,335.95,0.000000,0.000000,0.000000,0.000000
1390060229,0,0,0.0,0,0,0,0,0,0,-0.0292,-229.7077,6.8213,0.4212,54.881687,9.787314,108.3,5.845,1.85,335.95,0.000000,0.000000,0.000000,0.000000
1390060229,0,0,0.0,0,0,0,0,0,0,-0.0292,-229.7077,6.8213,0.4212,54.881687,9.787314,108.3,5.845,1.85,335.95,0.000000,0.000000,0.000000,0.000000
1390060229,0,0,0.0,0,0,0,0,0,0,-0.0292,-229.7077,6.8213,0.4212,54.881687,9.787314,108.3,5.845,1.85,335.95,0.000000,0.000000,0.000000,0.000000
1390060229,0,0,0.0,0,0,0,0,0,0,-0.0292,-229.7077,6.8213,0.4212,54.881687,9.787314,108.3,5.845,1.85,335.95,0.000000,0.000000,0.000000,0.000000
1390060230,0,0,0.0,0,0,0,0,0,0,-0.0292,-229.7077,6.8213,0.4212,54.881687,9.787314,108.3,5.845,1.85,335.95,0.000000,0.000000,0.000000,0.000000
1390060230,0,0,0.0,0,0,0,0,0,0,-0.0292,-229.7077,6.8213,0.4212,54.881687,9.787314,108.3,5.845,1.85,335.95,0.000000,0.000000,0.000000,0.000000
1390060230,0,0,0.0,0,0,0,0,0,0,-0.0292,-229.7077,6.8213,0.4212,54.881687,9.787314,108.3,5.845,1.85,335.95,0.000000,0.000000,0.000000,0.000000
1390060230,0,0,0.0,0,0,0,0,0,0,-0.0292,-229.7077,6.8213,0.4212,54.881687,9.787314,108.3,5.845,1.85,335.95,0.000000,0.000000,0.000000,0.000000
1390060231,0,0,0.0,0,0,0,0,0,0,-0.0292,-229.7077,6.8213,0.4212,54.881687,9.787314,108.3,5.845,1.85,335.95,0.000000,0.000000,0.000000,0.000000
1390060231,0,0,0.0,0,0,0,0,0,0,-0.0292,-229.7077,6.8213,0.4212,54.881687,9.787314,108.3,5.845,1.85,335.95,0.000000,0.000000,0.000000,0.000000
1390060231,0,0,0.0,0,0,0,0,0,0,-0.0292,-229.7077,6.8213,0.4212,54.881687,9.787314,108.3,5.845,1.85,335.95,0.000000,0.000000,0.000000,0.000000
1390060231,0,0,0.0,0,0,0,0,0,0,-0.0292,-229.7077,6.8213,0.4212,54.881687,9.787314,108.3,5.845,1.85,335.95,0.000000,0.000000,0.000000,0.000000
1390060232,0,0,0.0,0,0,0,0,0,0,-0.0292,-229.7077,6.8213,0.4212,54.881687,9.787314,108.3,5.845,1.85,335.95,0.000000,0.000000,0.000000,0.000000
1390060232,0,0,0.0,0,0,0,0,0,0,-0.0292,-229.7077,6.8213,0.4212,54.881687,9.787314,108.3,5.845,1.85,335.95,0.000000,0.000000,0.000000,0.000000
1390060232,0,0,0.0,0,0,0,0,0,0,-0.0292,-229.7077,6.8213,0.4212,54.881687,9.787314,108.3,5.845,1.85,335.95,0.000000,0.000000,0.000000,0.000000
1390060232,0,0,0.0,0,0,0,0,0,0,-0.0292,-229.7077,6.8213,0.4212,54.881687,9.787314,108.3,5.845,1.85,335.95,0.000000,0.000000,0.000000,0.000000
1390060233,0,0,0.0,0,0,0,0,0,0,-0.0292,-229.7077,6.8213,0.4212,54.881687,9.787314,108.3,5.845,1.85,335.95,0.000000,0.000000,0.000000,0.000000
1390060233,0,0,0.0,0,0,0,0,0,0,-0.0292,-229.7077,6.8213,0.4212,54.881687,9.787314,108.3,5.845,1.85,335.95,0.000000,0.000000,0.000000,0.000000
1390060233,0,0,0.0,0,0,0,0,0,0,-0.0292,-229.7077,6.8213,0.4212,54.881687,9.787314,108.3,5.845,1.85,335.95,0.000000,0.000000,0.000000,0.000000
1390060233,0,0,0.0,0,0,0,0,0,0,-0.0292,-229.7077,6.8213,0.4212,54.881687,9.787314,108.3,5.845,1.85,335.95,0.000000,0.000000,0.000000,0.000000
1390060234,0,0,0.0,0,0,0,0,0,0,-0.0292,-229.7077,6.8213,0.4212,54.881687,9.787314,108.3,5.845,1.85,335.95,0.000000,0.000000,0.000000,0.000000
1390060234,0,0,0.0,0,0,0,0,0,0,-0.0292,-229.7077,6.8213,0.4212,54.881687,9.787314,108.3,5.845,1.85,335.95,0.000000,0.000000,0.000000,0.000000
1390060234,0,0,0.0,0,0,0,0,0,0,-0.0292,-229.7077,6.8213,0.4212,54.881687,9.787314,108.3,5.845,1.85,335.95,0.000000,0.000000,0.000000,0.000000
1390060234,0,0,0.0,0,0,0,0,0,0,-0.0292,-229.7077,6.8213,0.4212,54.881687,9.787314,108.3,5.845,1.85,335.95,0.000000,0.000000,0.000000,0.000000
1390060235,0,0,0.0,0,0,0,0,0,0,-0.0292,-229.7077,6.8213,0.4212,54.881687,9.787314,108.3,5.845,1.85,335.95,0.000000,0.000000,0.000000,0.000000
1390060235,0,0,0.0,0,0,0,0,0,0,-0.0292,-229.7077,6.8213,0.4212,54.881687,9.787314,108.3,5.845,1.85,335.95,0.000000,0.000000,0.000000,0.000000
1390060235,4,0,0.0,0,0,0,0,0,0,-0.0292,-229.7077,6.8213,0.4212,54.881687,9.787314,108.3,5.845,1.85,335.95,0.000000,0.000000,0.000000,0.000000
1390060235,1,0,0.0,0,-35,-4,0,713,750,-0.0292,-218.0410,6.8213,0.4212,54.881744,9.787241,108.3,5.845,1.85,335.95,54.895069,9.793790,54.895348,9.797490
1390060236,1,0,0.0,0,-28,-8,0,713,700,-0.0292,-208.7077,6.8213,0.4212,54.881802,9.787187,108.3,5.845,1.85,335.95,54.895348,9.797490,54.894039,9.801540
1390060236,1,0,0.0,0,-19,-12,0,0,650,-0.0292,-202.3744,6.8213,0.4212,54.881859,9.787146,108.3,5.845,1.85,335.95,54.894039,9.801540,54.893795,9.802299
1390060236,1,0,0.0,0,-12,-8,0,0,600,-0.0292,-198.3744,6.8213,0.4212,54.881920,9.787112,108.3,5.845,1.85,335.95,54.893795,9.802299,54.893364,9.803688
1390060236,1,0,0.0,0,-8,-4,0,0,550,-0.0292,-195.7077,6.8213,0.4212,54.881977,9.787084,108.3,5.845,1.85,335.95,54.893364,9.803688,54.892704,9.801139
1390060237,1,0,0.0,0,-6,-8,0,0,500,-0.0292,-193.7077,6.8213,0.4212,54.882034,9.787060,108.3,5.845,1.85,335.95,54.892704,9.801139,54.891663,9.800174
1390060237,1,0,0.0,0,-4,-4,0,713,550,-0.0292,-192.3744,6.8213,0.4212,54.882088,9.787038,108.3,5.845,1.85,335.95,54.891663,9.800174,54.892929,9.805077
1390060237,1,0,0.0,0,-2,0,0,713,600,-0.0292,-191.7077,6.8213,0.4212,54.882145,9.787018,108.3,5.845,1.85,335.95,54.892929,9.805077,54.892498,9.806466
1390060237,1,0,0.0,0,-2,-4,0,713,650,-0.0292,-191.0410,6.8213,0.4212,54.882202,9.786998,108.3,5.845,1.85,335.95,54.892498,9.806466,54.891232,9.801563
1390060238,1,0,0.0,0,-1,0,0,713,700,-0.0292,-190.7077,6.8213,0.4212,54.882259,9.786980,108.3,5.845,1.85,335.95,54.891232,9.801563,54.890800,9.802953
1390060238,1,0,0.0,0,-1,-4,0,713,750,-0.0292,-190.3744,6.8213,0.4212,54.882313,9.786962,108.3,5.845,1.85,335.95,54.890800,9.802953,54.891651,9.806246
1390060238,1,0,0.0,0,0,0,0,713,700,-0.0292,-190.3744,6.8213,0.4212,54.882370,9.786943,108.3,5.845,1.85,335.95,54.891651,9.806246,54.890560,9.805087
1390060238,1,0,0.0,0,0,4,0,713,750,-0.0292,-190.3744,6.8213,0.4212,54.882427,9.786925,108.3,5.845,1.85,335.95,54.890560,9.805087,54.890366,9.804342
1390060239,1,0,0.0,0,0,0,0,713,700,-0.0292,-190.3744,6.8213,0.4212,54.882484,9.786908,108.3,5.845,1.85,335.95,54.890366,9.804342,54.890846,9.801930
1390060239,1,0,0.0,0,0,4,0,713,750,-0.0292,-190.3744,6.8213,0.4212,54.882542,9.786890,108.3,5.845,1.85,335.95,54.890846,9.801930,54.889477,9.798280
1390060239,1,0,0.0,0,0,0,0,713,700,-0.0292,-190.3744,6.8213,0.4212,54.882599,9.786872,108.3,5.845,1.85,335.95,54.889477,9.798280,54.891819,9.794550
1390060239,1,0,0.0,0,0,4,0,713,750,-0.0292,-190.3744,6.8213,0.4212,54.882656,9.786854,108.3,5.845,1.85,335.95,54.891819,9.794550,54.895348,9.797490
1390060240,1,0,0.0,0,0,0,0,713,700,-0.0292,-190.3744,6.8213,0.4212,54.882713,9.786836,108.3,5.845,1.85,335.95,54.895348,9.797490,54.895069,9.793790
1390060240,1,0,0.0,0,0,4,0,713,750,-0.0292,-190.3744,6.8213,0.4212,54.882771,9.786818,108.3,5.845,1.85,335.95,54.895348,9.797490,54.895069,9.793790
1390060240,3,0,0.0,0,0,0,0,713,700,-0.0292,-190.3744,6.8213,0.4212,54.882828,9.786799,108.3,5.845,1.85,335.95,54.895348,9.797490,54.882771,9.786818
1390060240,3,0,0.0,0,0,4,0,713,750,-0.0292,-190.3744,6.8213,0.4212,54.882885,9.786782,108.3,5.845,1.85,335.95,54.895348,9.797490,54.882771,9.786818
1390060241,3,0,0.0,0,10,8,0,713,700,-0.0292,-193.7077,6.8213,0.4212,54.882942,9.786758,108.3,5.845,1.85,335.95,54.895348,9.797490,54.882771,9.786818
1390060241,3,0,0.0,0,6,4,0,713,750,-0.0292,-195.7077,6.8213,0.4212,54.883003,9.786730,108.3,5.845,1.85,335.95,54.895348,9.797490,54.882771,9.786818
1390060241,3,0,0.0,0,4,8,0,0,700,-0.0292,-197.0410,6.8213,0.4212,54.883060,9.786699,108.3,5.845,1.85,335.95,54.895348,9.797490,54.882771,9.786818
1390060241,3,0,0.0,0,3,4,0,0,650,-0.0292,-198.0410,6.8213,0.4212,54.883118,9.786667,108.3,5.845,1.85,335.95,54.895348,9.797490,54.882771,9.786818
1390060242,3,0,0.0,0,2,0,0,0,600,-0.0292,-198.7077,6.8213,0.4212,54.883175,9.786633,108.3,5.845,1.85,335.95,54.895348,9.797490,54.882771,9.786818
1390060242,3,0,0.0,0,1,4,0,0,550,-0.0292,-199.0410,6.8213,0.4212,54.883232,9.786598,108.3,5.845,1.85,335.95,54.895348,9.797490,54.882771,9.786818
1390060242,3,0,0.0,0,1,0,0,0,500,-0.0292,-199.3744,6.8213,0.4212,54.883289,9.786563,108.3,5.845,1.85,335.95,54.895348,9.797490,54.882771,9.786818
1390060242,3,0,0.0,0,1,4,0,0,450,-0.0292,-199.7077,6.8213,0.4212,54.883347,9.786527,108.3,5.845,1.85,335.95,54.895348,9.797490,54.882771,9.786818
1390060243,3,0,0.0,0,0,0,0,0,400,-0.0292,-199.7077,6.8213,0.4212,54.883404,9.786490,108.3,5.845,1.85,335.95,54.895348,9.797490,54.882771,9.786818
1390060243,3,0,0.0,0,0,4,0,0,350,-0.0292,-199.7077,6.8213,0.4212,54.883461,9.786455,108.3,5.845,1.85,335.95,54.895348,9.797490,54.882771,9.786818
1390060243,3,0,0.0,0,0,0,0,0,300,-0.0292,-199.7077,6.8213,0.4212,54.883518,9.786420,108.3,5.845,1.85,335.95,54.895348,9.797490,54.882771,9.786818
1390060243,3,0,0.0,0,0,4,0,0,250,-0.0292,-199.7077,6.8213,0.4212,54.883575,9.786384,108.3,5.845,1.85,335.95,54.895348,9.797490,54.882771,9.786818
1390060244,3,0,0.0,0,0,0,0,0,200,-0.0292,-199.7077,6.8213,0.4212,54.883633,9.786347,108.3,5.845,1.85,335.95,54.895348,9.797490,54.882771,9.786818
1390060244,3,0,0.0,0,0,4,0,0,150,-0.0292,-199.7077,6.8213,0.4212,54.883690,9.786311,108.3,5.845,1.85,335.95,54.895348,9.797490,54.882771,9.786818
1390060244,3,0,0.0,0,0,0,0,0,100,-0.0292,-199.7077,6.8213,0.4212,54.883747,9.786275,108.3,5.845,1.85,335.95,54.895348,9.797490,54.882771,9.786818
1390060244,3,0,0.0,0,0,4,0,0,50,-0.0292,-199.7077,6.8213,0.4212,54.883804,9.786240,108.3,5.845,1.85,335.95,54.895348,9.797490,54.882771,9.786818
1390060245,3,0,0.0,0,0,0,0,0,0,-0.0292,-199.7077,6.8213,0.4212,54.883865,9.786204,108.3,5.845,1.85,335.95,54.895348,9.797490,54.882771,9.786818
1390060245,3,0,0.0,0,0,4,0,0,0,-0.0292,-199.7077,6.8213,0.4212,54.883923,9.786168,108.3,5.845,1.85,335.95,54.895348,9.797490,54.882771,9.786818
1390060245,3,0,0.0,0,0,0,0,0,0,-0.0292,-199.7077,6.8213,0.4212,54.883984,9.786132,108.3,5.845,1.85,335.95,54.895348,9.797490,54.882771,9.786818
1390060245,3,0,0.0,0,0,4,0,0,0,-0.0292,-199.7077,6.8213,0.4212,54.884041,9.786096,108.3,5.845,1.85,335.95,54.895348,9.797490,54.882771,9.786818
1390060246,3,0,0.0,0,10,8,0,0,0,-0.0292,-203.0410,6.8213,0.4212,54.884098,9.786053,108.3,5.845,1.85,335.95,54.895348,9.797490,54.882771,9.786818
1390060246,3,0,0.0,0,7,4,0,0,0,-0.0292,-205.3744,6.8213,0.4212,54.884159,9.786005,108.3,5.845,1.85,335.95,54.895348,9.797490,54.882771,9.786818
1390060246,3,0,0.0,0,5,8,0,0,0,-0.0292,-207.0410,6.8213,0.4212,54.884216,9.785954,108.3,5.845,1.85,335.95,54.895348,9.797490,54.882771,9.786818
1390060246,3,0,0.0,0,3,4,0,0,0,-0.0292,-208.0410,6.8213,0.4212,54.884274,9.785901,108.3,5.845,1.85,335.95,54.895348,9.797490,54.882771,9.786818
1390060247,3,0,0.0,0,2,0,0,0,0,-0.0292,-208.7077,6.8213,0.4212,54.884331,9.785847,108.3,5.845,1.85,335.95,54.895348,9.797490,54.882771,9.786818
1390060247,3,0,0.0,0,1,4,0,0,0,-0.0292,-209.0410,6.8213,0.4212,54.884388,9.785792,108.3,5.845,1.85,335.95,54.895348,9.797490,54.882771,9.786818
1390060247,3,0,0.0,0,1,0,0,0,0,-0.0292,-209.3744,6.8213,0.4212,54.884445,9.785737,108.3,5.845,1.85,335.95,54.895348,9.797490,54.882771,9.786818
1390060247,3,0,0.0,0,1,4,0,0,0,-0.0292,-209.7077,6.8213,0.4212,54.884499,9.785681,108.3,5.845,1.85,335.95,54.895348,9.797490,54.882771,9.786818
1390060248,3,0,0.0,0,0,0,0,0,0,-0.0292,-209.7077,6.8213,0.4212,54.884556,9.785625,108.3,5.845,1.85,335.95,54.895348,9.797490,54.882771,9.786818
1390060248,3,0,0.0,0,0,4,0,0,0,-0.0292,-209.7077,6.8213,0.4212,54.884613,9.785568,108.3,5.845,1.85,335.95,54.895348,9.797490,54.882771,9.786818
1390060248,3,0,0.0,0,0,0,0,0,0,-0.0292,-209.7077,6.8213,0.4212,54.884670,9.785512,108.3,5.845,1.85,335.95,54.895348,9.797490,54.882771,9.786818
1390060248,3,0,0.0,0,0,4,0,0,0,-0.0292,-209.7077,6.8213,0.4212,54.884727,9.785456,108.3,5.845,1.85,335.95,54.895348,9.797490,54.882771,9.786818
1390060249,3,0,0.0,0,0,0,0,0,0,-0.0292,-209.7077,6.8213,0.4212,54.884785,9.785399,108.3,5.845,1.85,335.95,54.895348,9.797490,54.882771,9.786818
1390060249,3,0,0.0,0,0,4,0,0,0,-0.0292,-209.7077,6.8213,0.4212,54.884842,9.785343,108.3,5.845,1.85,335.95,54.895348,9.797490,54.882771,9.786818
1390060249,3,0,0.0,0,0,0,0,0,0,-0.0292,-209.7077,6.8213,0.4212,54.884899,9.785287,108.3,5.845,1.85,335.95,54.895348,9.797490,54.882771,9.786818
1390060249,3,0,0.0,0,0,4,0,0,0,-0.0292,-209.7077,6.8213,0.4212,54.884956,9.785231,108.3,5.845,1.85,335.95,54.895348,9.797490,54.882771,9.786818
1390060250,3,0,0.0,0,0,0,0,0,0,-0.0292,-209.7077,6.8213,0.4212,54.885014,9.785174,108.3,5.845,1.85,335.95,54.895348,9.797490,54.882771,9.786818
1390060250,3,0,0.0,0,0,4,0,0,0,-0.0292,-209.7077,6.8213,0.4212,54.885071,9.785117,108.3,5.845,1.85,335.95,54.895348,9.797490,54.882771,9.786818
1390060250,3,0,0.0,0,0,0,0,0,0,-0.0292,-209.7077,6.8213,0.4212,54.885128,9.785061,108.3,5.845,1.85,335.95,54.895348,9.797490,54.882771,9.786818
1390060250,3,0,0.0,0,0,4,0,0,0,-0.0292,-209.7077,6.8213,0.4212,54.885185,9.785005,108.3,5.845,1.85,335.95,54.895348,9.797490,54.882771,9.786818
1390060251,3,0,0.0,0,10,8,0,0,0,-0.0292,-213.0410,6.8213,0.4212,54.885239,9.784941,108.3,5.845,1.85,335.95,54.895348,9.797490,54.882771,9.786818
1390060251,3,0,0.0,0,7,4,0,0,0,-0.0292,-215.3743,6.8213,0.4212,54.885292,9.784873,108.3,5.845,1.85,335.95,54.895348,9.797490,54.882771,9.786818
1390060251,3,0,0.0,0,5,8,0,713,50,-0.0292,-217.0410,6.8213,0.4212,54.885345,9.784801,108.3,5.845,1.85,335.95,54.895348,9.797490,54.882771,9.786818
1390060251,3,0,0.0,0,3,4,0,713,100,-0.0292,-218.0410,6.8213,0.4212,54.885399,9.784726,108.3,5.845,1.85,335.95,54.895348,9.797490,54.882771,9.786818
1390060252,3,0,0.0,0,2,0,0,713,150,-0.0292,-218.7077,6.8213,0.4212,54.885456,9.784651,108.3,5.845,1.85,335.95,54.895348,9.797490,54.882771,9.786818
1390060252,3,0,0.0,0,1,4,0,713,200,-0.0292,-219.0410,6.8213,0.4212,54.885509,9.784575,108.3,5.845,1.85,335.95,54.895348,9.797490,54.882771,9.786818
1390060252,3,0,0.0,0,1,0,0,713,250,-0.0292,-219.3743,6.8213,0.4212,54.885563,9.784498,108.3,5.845,1.85,335.95,54.895348,9.797490,54.882771,9.786818
1390060252,3,0,0.0,0,1,4,0,713,300,-0.0292,-219.7077,6.8213,0.4212,54.885616,9.784421,108.3,5.845,1.85,335.95,54.895348,9.797490,54.882771,9.786818
1390060253,3,0,0.0,0,0,0,0,713,350,-0.0292,-219.7077,6.8213,0.4212,54.885670,9.784344,108.3,5.845,1.85,335.95,54.895348,9.797490,54.882771,9.786818
1390060253,3,0,0.0,0,0,4,0,713,400,-0.0292,-219.7077,6.8213,0.4212,54.885727,9.784266,108.3,5.845,1.85,335.95,54.895348,9.797490,54.882771,9.786818
1390060253,3,0,0.0,0,0,0,0,713,450,-0.0292,-219.7077,6.8213,0.4212,54.885780,9.784189,108.3,5.845,1.85,335.95,54.895348,9.797490,54.882771,9.786818
1390060253,3,0,0.0,0,0,4,0,713,500,-0.0292,-219.7077,6.8213,0.4212,54.885834,9.784111,108.3,5.845,1.85,335.95,54.895348,9.797490,54.882771,9.786818
1390060254,3,0,0.0,0,0,0,0,713,550,-0.0292,-219.7077,6.8213,0.4212,54.885887,9.784034,108.3,5.845,1.85,335.95,54.895348,9.797490,54.882771,9.786818
1390060254,3,0,0.0,0,0,4,0,713,600,-0.0292,-219.7077,6.8213,0.4212,54.885941,9.783957,108.3,5.845,1.85,335.95,54.895348,9.797490,54.882771,9.786818
1390060254,3,0,0.0,0,0,0,0,713,650,-0.0292,-219.7077,6.8213,0.4212,54.885998,9.783879,108.3,5.845,1.85,335.95,54.895348,9.797490,54.882771,9.786818
1390060254,3,0,0.0,0,0,4,0,713,700,-0.0292,-219.7077,6.8213,0.4212,54.886051,9.783802,108.3,5.845,1.85,335.95,54.895348,9.797490,54.882771,9.786818
1390060255,3,0,0.0,0,0,0,0,713,750,-0.0292,-219.7077,6.8213,0.4212,54.886105,9.783724,108.3,5.845,1.85,335.95,54.895348,9.797490,54.882771,9.786818
1390060255,3,0,0.0,0,0,4,0,713,700,-0.0292,-219.7077,6.8213,0.4212,54.886158,9.783647,108.3,5.845,1.85,335.95,54.895348,9.797490,54.882771,9.786818
1390060255,3,0,0.0,0,0,0,0,713,750,-0.0292,-219.7077,6.8213,0.4212,54.886211,9.783569,108.3,5.845,1.85,335.95,54.895348,9.797490,54.882771,9.786818
1390060255,3,0,0.0,0,0,4,0,713,700,-0.0292,-219.7077,6.8213,0.4212,54.886269,9.783492,108.3,5.845,1.85,335.95,54.895348,9.797490,54.882771,9.786818
1390060256,3,0,0.0,0,10,8,0,713,750,-0.0292,-223.0410,6.8213,0.4212,54.886318,9.783408,108.3,5.845,1.85,335.95,54.895348,9.797490,54.882771,9.786818
1390060256,3,0,0.0,0,7,4,0,713,700,-0.0292,-225.3743,6.8213,0.4212,54.886368,9.783319,108.3,5.845,1.85,335.95,54.895348,9.797490,54.882771,9.786818
1390060256,3,0,0.0,0,5,8,0,713,750,-0.0292,-227.0410,6.8213,0.4212,54.886417,9.783227,108.3,5.845,1.85,335.95,54.895348,9.797490,54.882771,9.786818
1390060256,3,0,0.0,0,3,4,0,713,700,-0.0292,-228.0410,6.8213,0.4212,54.886467,9.783133,108.3,5.845,1.85,335.95,54.895348,9.797490,54.882771,9.786818
1390060257,3,0,0.0,0,2,0,0,713,750,-0.0292,-228.7077,6.8213,0.4212,54.886517,9.783036,108.3,5.845,1.85,335.95,54.895348,9.797490,54.882771,9.786818
1390060257,3,0,0.0,0,1,4,0,713,700,-0.0292,-229.0410,6.8213,0.4212,54.886562,9.782939,108.3,5.845,1.85,335.95,54.895348,9.797490,54.882771,9.786818
1390060257,3,0,0.0,0,1,0,0,713,750,-0.0292,-229.3743,6.8213,0.4212,54.886608,9.782842,108.3,5.845,1.85,335.95,54.895348,9.797490,54.882771,9.786818
1390060257,3,0,0.0,0,1,4,0,713,700,-0.0292,-229.7077,6.8213,0.4212,54.886658,9.782743,108.3,5.845,1.85,335.95,54.895348,9.797490,54.882771,9.786818
1390060258,3,0,0.0,0,0,0,0,713,750,-0.0292,-229.7077,6.8213,0.4212,54.886703,9.782645,108.3,5.845,1.85,335.95,54.895348,9.797490,54.882771,9.786818
1390060258,3,0,0.0,0,0,4,0,713,700,-0.0292,-229.7077,6.8213,0.4212,54.886753,9.782547,108.3,5.845,1.85,335.95,54.895348,9.797490,54.882771,9.786818
1390060258,3,0,0.0,0,0,0,0,713,750,-0.0292,-229.7077,6.8213,0.4212,54.886803,9.782449,108.3,5.845,1.85,335.95,54.895348,9.797490,54.882771,9.786818
1390060258,3,0,0.0,0,0,4,0,713,700,-0.0292,-229.7077,6.8213,0.4212,54.886852,9.782351,108.3,5.845,1.85,335.95,54.895348,9.797490,54.882771,9.786818
1390060259,3,0,0.0,0,0,0,0,713,750,-0.0292,-229.7077,6.8213,0.4212,54.886902,9.782252,108.3,5.845,1.85,335.95,54.895348,9.797490,54.882771,9.786818
1390060259,3,0,0.0,0,0,4,0,713,700,-0.0292,-229.7077,6.8213,0.4212,54.886951,9.782154,108.3,5.845,1.85,335.95,54.895348,9.797490,54.882771,9.786818
1390060259,3,0,0.0,0,0,0,0,713,750,-0.0292,-229.7077,6.8213,0.4212,54.887001,9.782056,108.3,5.845,1.85,335.95,54.895348,9.797490,54.882771,9.786818
1390060260,3,0,0.0,0,0,4,0,713,700,-0.0292,-229.7077,6.8213,0.4212,54.887051,9.781958,108.3,5.845,1.85,335.95,54.895348,9.797490,54.882771,9.786818
1390060260,3,0,0.0,0,0,0,0,713,750,-0.0292,-229.7077,6.8213,0.4212,54.887100,9.781858,108.3,5.845,1.85,335.95,54.895348,9.797490,54.882771,9.786818
1390060260,3,0,0.0,0,0,4,0,713,700,-0.0292,-229.7077,6.8213,0.4212,54.887150,9.781760,108.3,5.845,1.85,335.95,54.895348,9.797490,54.882771,9.786818
1390060260,3,0,0.0,0,0,0,0,713,750,-0.0292,-229.7077,6.8213,0.4212,54.887196,9.781662,108.3,5.845,1.85,335.95,54.895348,9.797490,54.882771,9.786818
1390060261,3,0,0.0,0,0,4,0,713,700,-0.0292,-229.7077,6.8213,0.4212,54.887245,9.781564,108.3,5.845,1.85,335.95,54.895348,9.797490,54.882771,9.786818
1390060261,3,0,0.0,0,10,8,0,713,750,-0.0292,-233.0410,6.8213,0.4212,54.887291,9.781459,108.3,5.845,1.85,335.95,54.895348,9.797490,54.882771,9.786818
1390060261,3,0,0.0,0,7,4,0,713,700,-0.0292,-235.3743,6.8213,0.4212,54.887337,9.781349,108.3,5.845,1.85,335.95,54.895348,9.797490,54.882771,9.786818
1390060261,3,0,0.0,0,5,8,0,713,750,-0.0292,-237.0410,6.8213,0.4212,54.887379,9.781237,108.3,5.845,1.85,335.95,54.895348,9.797490,54.882771,9.786818
1390060262,3,0,0.0,0,3,4,0,713,700,-0.0292,-238.0410,6.8213,0.4212,54.887421,9.781121,108.3,5.845,1.85,335.95,54.895348,9.797490,54.882771,9.786818
1390060262,3,0,0.0,0,2,0,0,713,750,-0.0292,-238.7077,6.8213,0.4212,54.887459,9.781005,108.3,5.845,1.85,335.95,54.895348,9.797490,54.882771,9.786818
1390060262,3,0,0.0,0,1,4,0,713,700,-0.0292,-239.0410,6.8213,0.4212,54.887501,9.780889,108.3,5.845,1.85,335.95,54.895348,9.797490,54.882771,9.786818
1390060262,3,0,0.0,0,1,0,0,713,750,-0.0292,-239.3743,6.8213,0.4212,54.887539,9.780770,108.3,5.845,1.85,335.95,54.895348,9.797490,54.882771,9.786818
1390060263,3,0,0.0,0,1,4,0,713,700,-0.0292,-239.7076,6.8213,0.4212,54.887581,9.780652,108.3,5.845,1.85,335.95,54.895348,9.797490,54.882771,9.786818
1390060263,3,0,0.0,0,0,0,0,713,750,-0.0292,-239.7076,6.8213,0.4212,54.887623,9.780534,108.3,5.845,1.85,335.95,54.895348,9.797490,54.882771,9.786818
1390060263,3,0,0.0,0,0,4,0,713,700,-0.0292,-239.7076,6.8213,0.4212,54.887661,9.780416,108.3,5.845,1.85,335.95,54.895348,9.797490,54.882771,9.786818
1390060263,3,0,0.0,0,0,0,0,713,750,-0.0292,-239.7076,6.8213,0.4212,54.887703,9.780298,108.3,5.845,1.85,335.95,54.895348,9.797490,54.882771,9.786818
1390060264,3,0,0.0,0,0,4,0,713,700,-0.0292,-239.7076,6.8213,0.4212,54.887741,9.780180,108.3,5.845,1.85,335.95,54.895348,9.797490,54.882771,9.786818
1390060264,3,0,0.0,0,0,0,0,713,750,-0.0292,-239.7076,6.8213,0.4212,54.887779,9.780062,108.3,5.845,1.85,335.95,54.895348,9.797490,54.882771,9.786818
1390060264,3,0,0.0,0,0,4,0,713,700,-0.0292,-239.7076,6.8213,0.4212,54.887821,9.779944,108.3,5.845,1.85,335.95,54.895348,9.797490,54.882771,9.786818
1390060264,3,0,0.0,0,0,0,0,713,750,-0.0292,-239.7076,6.8213,0.4212,54.887859,9.779826,108.3,5.845,1.85,335.95,54.895348,9.797490,54.882771,9.786818
1390060265,3,0,0.0,0,0,4,0,713,700,-0.0292,-239.7076,6.8213,0.4212,54.887901,9.779708,108.3,5.845,1.85,335.95,54.895348,9.797490,54.882771,9.786818
1390060265,3,0,0.0,0,0,0,0,713,750,-0.0292,-239.7076,6.8213,0.4212,54.887943,9.779590,108.3,5.845,1.85,335.95,54.895348,9.797490,54.882771,9.786818
1390060265,3,0,0.0,0,0,4,0,713,700,-0.0292,-239.7076,6.8213,0.4212,54.887981,9.779472,108.3,5.845,1.85,335.95,54.895348,9.797490,54.882771,9.786818
1390060265,3,0,0.0,0,0,0,0,713,750,-0.0292,-239.7076,6.8213,0.4212,54.888023,9.779354,108.3,5.845,1.85,335.95,54.895348,9.797490,54.882771,9.786818
1390060266,3,0,0.0,0,0,4,0,713,700,-0.0292,-239.7076,6.8213,0.4212,54.888062,9.779236,108.3,5.845,1.85,335.95,54.895348,9.797490,54.882771,9.786818
1390060266,3,0,0.0,0,10,8,0,713,750,-0.0292,-243.0410,6.8213,0.4212,54.888096,9.779112,108.3,5.845,1.85,335.95,54.895348,9.797490,54.882771,9.786818
1390060266,3,0,0.0,0,7,4,0,713,700,-0.0292,-245.3743,6.8213,0.4212,54.888130,9.778984,108.3,5.845,1.85,335.95,54.895348,9.797490,54.882771,9.786818
1390060266,3,0,0.0,0,5,8,0,713,750,-0.0292,-247.0410,6.8213,0.4212,54.888165,9.778852,108.3,5.845,1.85,335.95,54.895348,9.797490,54.882771,9.786818
1390060267,3,0,0.0,0,3,4,0,713,700,-0.0292,-248.0410,6.8213,0.4212,54.888195,9.778720,108.3,5.845,1.85,335.95,54.895348,9.797490,54.882771,9.786818
1390060267,3,0,0.0,0,2,0,0,713,750,-0.0292,-248.7076,6.8213,0.4212,54.888226,9.778585,108.3,5.845,1.85,335.95,54.895348,9.797490,54.882771,9.786818
1390060267,3,0,0.0,0,1,4,0,713,700,-0.0292,-249.0410,6.8213,0.4212,54.888256,9.778451,108.3,5.845,1.85,335.95,54.895348,9.797490,54.882771,9.786818
1390060267,3,0,0.0,0,1,0,0,713,750,-0.0292,-249.3743,6.8213,0.4212,54.888287,9.778316,108.3,5.845,1.85,335.95,54.895348,9.797490,54.882771,9.786818
1390060268,3,0,0.0,0,1,4,0,870,800,-0.0292,-249.7076,6.8213,0.4212,54.888313,9.778179,108.3,5.845,1.85,335.95,54.895348,9.797490,54.882771,9.786818
1390060268,3,0,0.0,0,0,0,0,870,850,-0.0292,-249.7076,6.8213,0.4212,54.888340,9.778044,108.3,5.845,1.85,335.95,54.895348,9.797490,54.882771,9.786818
1390060268,3,0,0.0,0,0,4,0,870,900,-0.0292,-249.7076,6.8213,0.4212,54.888371,9.777908,108.3,5.845,1.85,335.95,54.895348,9.797490,54.882771,9.786818
1390060268,3,0,0.0,0,0,0,0,870,850,-0.0292,-249.7076,6.8213,0.4212,54.888401,9.777773,108.3,5.845,1.85,335.95,54.895348,9.797490,54.882771,9.786818
1390060269,3,0,0.0,0,0,4,0,870,900,-0.0292,-249.7076,6.8213,0.4212,54.888432,9.777637,108.3,5.845,1.85,335.95,54.895348,9.797490,54.882771,9.786818
1390060269,3,0,0.0,0,0,0,0,870,850,-0.0292,-249.7076,6.8213,0.4212,54.888458,9.777501,108.3,5.845,1.85,335.95,54.895348,9.797490,54.882771,9.786818
1390060269,3,0,0.0,0,0,4,0,870,900,-0.0292,-249.7076,6.8213,0.4212,54.888485,9.777365,108.3,5.845,1.85,335.95,54.895348,9.797490,54.882771,9.786818
1390060269,3,0,0.0,0,0,0,0,870,850,-0.0292,-249.7076,6.8213,0.4212,54.888512,9.777229,108.3,5.845,1.85,335.95,54.895348,9.797490,54.882771,9.786818
1390060270,3,0,0.0,0,0,4,0,870,900,-0.0292,-249.7076,6.8213,0.4212,54.888538,9.777094,108.3,5.845,1.85,335.95,54.895348,9.797490,54.882771,9.786818
1390060270,3,0,0.0,0,0,0,0,870,850,-0.0292,-249.7076,6.8213,0.4212,54.888569,9.776958,108.3,5.845,1.85,335.95,54.895348,9.797490,54.882771,9.786818
1390060270,3,0,0.0,0,0,4,0,870,900,-0.0292,-249.7076,6.8213,0.4212,54.888599,9.776823,108.3,5.845,1.85,335.95,54.895348,9.797490,54.882771,9.786818
1390060270,3,0,0.0,0,0,0,0,870,850,-0.0292,-249.7076,6.8213,0.4212,54.888630,9.776687,108.3,5.845,1.85,335.95,54.895348,9.797490,54.882771,9.786818
1390060271,3,0,0.0,0,0,4,0,870,900,-0.0292,-249.7076,6.8213,0.4212,54.888657,9.776550,108.3,5.845,1.85,335.95,54.895348,9.797490,54.882771,9.786818
1390060271,3,0,0.0,0,10,8,0,870,850,-0.0292,-253.0410,6.8213,0.4212,54.888680,9.776409,108.3,5.845,1.85,335.95,54.895348,9.797490,54.882771,9.786818
1390060271,3,0,0.0,0,7,4,0,870,900,-0.0292,-255.3743,6.8213,0.4212,54.888699,9.776265,108.3,5.845,1.85,335.95,54.895348,9.797490,54.882771,9.786818
1390060271,3,0,0.0,0,5,8,0,870,850,-0.0292,-257.0410,6.8213,0.4212,54.888721,9.776118,108.3,5.845,1.85,335.95,54.895348,9.797490,54.882771,9.786818
1390060272,3,0,0.0,0,3,4,0,870,900,-0.0292,-258.0410,6.8213,0.4212,54.888741,9.775970,108.3,5.845,1.85,335.95,54.895348,9.797490,54.882771,9.786818
1390060272,3,0,0.0,0,2,0,0,870,850,-0.0292,-258.7076,6.8213,0.4212,54.888760,9.775821,108.3,5.845,1.85,335.95,54.895348,9.797490,54.882771,9.786818
1390060272,3,0,0.0,0,1,4,0,870,900,-0.0292,-259.0410,6.8213,0.4212,54.888775,9.775671,108.3,5.845,1.85,335.95,54.895348,9.797490,54.882771,9.786818
1390060272,3,0,0.0,0,1,0,0,870,850,-0.0292,-259.3743,6.8213,0.4212,54.888790,9.775520,108.3,5.845,1.85,335.95,54.895348,9.797490,54.882771,9.786818
1390060273,3,0,0.0,0,1,4,0,870,900,-0.0292,-259.7076,6.8213,0.4212,54.888805,9.775371,108.3,5.845,1.85,335.95,54.895348,9.797490,54.882771,9.786818
1390060273,3,0,0.0,0,0,0,0,870,850,-0.0292,-259.7076,6.8213,0.4212,54.888821,9.775220,108.3,5.845,1.85,335.95,54.895348,9.797490,54.882771,9.786818
1390060273,3,0,0.0,0,0,4,0,870,900,-0.0292,-259.7076,6.8213,0.4212,54.888840,9.775070,108.3,5.845,1.85,335.95,54.895348,9.797490,54.882771,9.786818
1390060273,3,0,0.0,0,0,0,0,870,850,-0.0292,-259.7076,6.8213,0.4212,54.888855,9.774920,108.3,5.845,1.85,335.95,54.895348,9.797490,54.882771,9.786818
1390060274,3,0,0.0,0,0,4,0,870,900,-0.0292,-259.7076,6.8213,0.4212,54.888870,9.774769,108.3,5.845,1.85,335.95,54.895348,9.797490,54.882771,9.786818
1390060274,3,0,0.0,0,0,0,0,870,850,-0.0292,-259.7076,6.8213,0.4212,54.888889,9.774618,108.3,5.845,1.85,335.95,54.895348,9.797490,54.882771,9.786818
1390060274,3,0,0.0,0,0,4,0,870,900,-0.0292,-259.7076,6.8213,0.4212,54.888905,9.774467,108.3,5.845,1.85,335.95,54.895348,9.797490,54.882771,9.786818
1390060274,3,0,0.0,0,0,0,0,870,850,-0.0292,-259.7076,6.8213,0.4212,54.888920,9.774317,108.3,5.845,1.85,335.95,54.895348,9.797490,54.882771,9.786818
1390060275,3,0,0.0,0,0,4,0,870,900,-0.0292,-259.7076,6.8213,0.4212,54.888939,9.774166,108.3,5.845,1.85,335.95,54.895348,9.797490,54.882771,9.786818
1390060275,3,0,0.0,0,0,0,0,870,850,-0.0292,-259.7076,6.8213,0.4212,54.888954,9.774015,108.3,5.845,1.85,335.95,54.895348,9.797490,54.882771,9.786818
1390060275,3,0,0.0,0,0,4,0,870,900,-0.0292,-259.7076,6.8213,0.4212,54.888969,9.773865,108.3,5.845,1.85,335.95,54.895348,9.797490,54.882771,9.786818
1390060275,3,0,0.0,0,0,0,0,870,850,-0.0292,-259.7076,6.8213,0.4212,54.888988,9.773714,108.3,5.845,1.85,335.95,54.895348,9.797490,54.882771,9.786818
1390060276,3,0,0.0,0,0,4,0,870,900,-0.0292,-259.7076,6.8213,0.4212,54.889004,9.773563,108.3,5.845,1.85,335.95,54.895348,9.797490,54.882771,9.786818
1390060276,3,0,0.0,0,10,8,0,870,850,-0.0292,-263.0410,6.8213,0.4212,54.889015,9.773409,108.3,5.845,1.85,335.95,54.895348,9.797490,54.882771,9.786818
1390060276,3,0,0.0,0,7,4,0,870,900,-0.0292,-265.3743,6.8213,0.4212,54.889023,9.773252,108.3,5.845,1.85,335.95,54.895348,9.797490,54.882771,9.786818
1390060276,3,0,0.0,0,5,8,0,840,850,-0.0292,-267.0410,6.8213,0.4212,54.889027,9.773093,108.3,5.845,1.85,335.95,54.895348,9.797490,54.882771,9.786818
1390060277,3,0,0.0,0,3,4,0,817,800,-0.0292,-268.0410,6.8213,0.4212,54.889030,9.772933,108.3,5.845,1.85,335.95,54.895348,9.797490,54.882771,9.786818
1390060277,3,0,0.0,0,2,0,0,802,850,-0.0292,-268.7076,6.8213,0.4212,54.889034,9.772773,108.3,5.845,1.85,335.95,54.895348,9.797490,54.882771,9.786818
1390060277,3,0,0.0,0,1,4,0,793,800,-0.0292,-269.0410,6.8213,0.4212,54.889038,9.772613,108.3,5.845,1.85,335.95,54.895348,9.797490,54.882771,9.786818
1390060277,3,0,0.0,0,1,0,0,788,750,-0.0292,-269.3743,6.8213,0.4212,54.889042,9.772451,108.3,5.845,1.85,335.95,54.895348,9.797490,54.882771,9.786818
1390060278,3,0,0.0,0,1,4,0,783,800,-0.0292,-269.7077,6.8213,0.4212,54.889046,9.772289,108.3,5.845,1.85,335.95,54.895348,9.797490,54.882771,9.786818
1390060278,3,0,0.0,0,0,0,0,778,750,-0.0292,-269.7077,6.8213,0.4212,54.889046,9.772128,108.3,5.845,1.85,335.95,54.895348,9.797490,54.882771,9.786818
1390060278,3,0,0.0,0,0,4,0,778,800,-0.0292,-269.7077,6.8213,0.4212,54.889046,9.771967,108.3,5.845,1.85,335.95,54.895348,9.797490,54.882771,9.786818
1390060278,3,0,0.0,0,0,0,0,778,750,-0.0292,-269.7077,6.8213,0.4212,54.889046,9.771806,108.3,5.845,1.85,335.95,54.895348,9.797490,54.882771,9.786818
1390060279,3,0,0.0,0,0,4,0,778,800,-0.0292,-269.7077,6.8213,0.4212,54.889046,9.771644,108.3,5.845,1.85,335.95,54.895348,9.797490,54.882771,9.786818
1390060279,3,0,0.0,0,0,0,0,778,750,-0.0292,-269.7077,6.8213,0.4212,54.889046,9.771482,108.3,5.845,1.85,335.95,54.895348,9.797490,54.882771,9.786818
1390060279,3,0,0.0,0,0,4,0,778,800,-0.0292,-269.7077,6.8213,0.4212,54.889046,9.771321,108.3,5.845,1.85,335.95,54.895348,9.797490,54.882771,9.786818
1390060279,3,0,0.0,0,0,0,0,778,750,-0.0292,-269.7077,6.8213,0.4212,54.889046,9.771160,108.3,5.845,1.85,335.95,54.895348,9.797490,54.882771,9.786818
1390060280,3,0,0.0,0,0,4,0,778,800,-0.0292,-269.7077,6.8213,0.4212,54.889046,9.770998,108.3,5.845,1.85,335.95,54.895348,9.797490,54.882771,9.786818
1390060280,3,0,0.0,0,0,0,0,778,750,-0.0292,-269.7077,6.8213,0.4212,54.889046,9.770837,108.3,5.845,1.85,335.95,54.895348,9.797490,54.882771,9.786818
1390060280,3,0,0.0,0,0,4,0,778,800,-0.0292,-269.7077,6.8213,0.4212,54.889046,9.770676,108.3,5.845,1.85,335.95,54.895348,9.797490,54.882771,9.786818
1390060280,3,0,0.0,0,0,0,0,778,750,-0.0292,-269.7077,6.8213,0.4212,54.889046,9.770514,108.3,5.845,1.85,335.95,54.895348,9.797490,54.882771,9.786818
1390060281,3,0,0.0,0,0,4,0,778,800,-0.0292,-269.7077,6.8213,0.4212,54.889046,9.770352,108.3,5.845,1.85,335.95,54.895348,9.797490,54.882771,9.786818
1390060281,3,0,0.0,0,10,8,0,778,750,-0.0292,-273.0410,6.8213,0.4212,54.889038,9.770188,108.3,5.845,1.85,335.95,54.895348,9.797490,54.882771,9.786818
1390060281,3,0,0.0,0,7,4,0,729,700,-0.0292,-275.3744,6.8213,0.4212,54.889030,9.770022,108.3,5.845,1.85,335.95,54.895348,9.797490,54.882771,9.786818
1390060281,3,0,0.0,0,5,8,0,693,650,-0.0292,-277.0410,6.8213,0.4212,54.889019,9.769856,108.3,5.845,1.85,335.95,54.895348,9.797490,54.882771,9.786818
1390060282,3,0,0.0,0,3,4,0,668,700,-0.0292,-278.0410,6.8213,0.4212,54.889004,9.769690,108.3,5.845,1.85,335.95,54.895348,9.797490,54.882771,9.786818
1390060282,3,0,0.0,0,2,0,0,652,650,-0.0292,-278.7077,6.8213,0.4212,54.888988,9.769523,108.3,5.845,1.85,335.95,54.895348,9.797490,54.882771,9.786818
1390060282,3,0,0.0,0,1,4,0,642,600,-0.0292,-279.0410,6.8213,0.4212,54.888973,9.769356,108.3,5.845,1.85,335.95,54.895348,9.797490,54.882771,9.786818
1390060282,3,0,0.0,0,1,0,0,637,650,-0.0292,-279.3744,6.8213,0.4212,54.888954,9.769188,108.3,5.845,1.85,335.95,54.895348,9.797490,54.882771,9.786818
1390060283,3,0,0.0,0,1,4,0,632,600,-0.0292,-279.7077,6.8213,0.4212,54.888939,9.769020,108.3,5.845,1.85,335.95,54.895348,9.797490,54.882771,9.786818
1390060283,3,0,0.0,0,0,0,0,627,650,-0.0292,-279.7077,6.8213,0.4212,54.888924,9.768852,108.3,5.845,1.85,335.95,54.895348,9.797490,54.882771,9.786818
1390060283,3,0,0.0,0,0,4,0,627,600,-0.0292,-279.7077,6.8213,0.4212,54.888905,9.768684,108.3,5.845,1.85,335.95,54.895348,9.797490,54.882771,9.786818
1390060283,3,0,0.0,0,0,0,0,627,650,-0.0292,-279.7077,6.8213,0.4212,54.888885,9.768517,108.3,5.845,1.85,335.95,54.895348,9.797490,54.882771,9.786818
1390060284,3,0,0.0,0,0,4,0,627,600,-0.0292,-279.7077,6.8213,0.4212,54.888870,9.768349,108.3,5.845,1.85,335.95,54.895348,9.797490,54.882771,9.786818
1390060284,3,0,0.0,0,0,0,0,627,650,-0.0292,-279.7077,6.8213,0.4212,54.888855,9.768181,108.3,5.845,1.85,335.95,54.895348,9.797490,54.882771,9.786818
1390060284,3,0,0.0,0,0,4,0,627,600,-0.0292,-279.7077,6.8213,0.4212,54.888836,9.768013,108.3,5.845,1.85,335.95,54.895348,9.797490,54.882771,9.786818
1390060284,3,0,0.0,0,0,0,0,627,650,-0.0292,-279.7077,6.8213,0.4212,54.888821,9.767845,108.3,5.845,1.85,335.95,54.895348,9.797490,54.882771,9.786818
1390060285,3,0,0.0,0,0,4,0,627,600,-0.0292,-279.7077,6.8213,0.4212,54.888805,9.767678,108.3,5.845,1.85,335.95,54.895348,9.797490,54.882771,9.786818
1390060285,3,0,0.0,0,0,0,0,627,650,-0.0292,-279.7077,6.8213,0.4212,54.888786,9.767511,108.3,5.845,1.85,335.95,54.895348,9.797490,54.882771,9.786818
1390060285,3,0,0.0,0,0,4,0,627,600,-0.0292,-279.7077,6.8213,0.4212,54.888771,9.767344,108.3,5.845,1.85,335.95,54.895348,9.797490,54.882771,9.786818
1390060285,3,0,0.0,0,0,0,0,627,650,-0.0292,-279.7077,6.8213,0.4212,54.888756,9.767176,108.3,5.845,1.85,335.95,54.895348,9.797490,54.882771,9.786818
1390060286,3,0,0.0,0,0,4,0,627,600,-0.0292,-279.7077,6.8213,0.4212,54.888737,9.767008,108.3,5.845,1.85,335.95,54.895348,9.797490,54.882771,9.786818
1390060286,3,0,0.0,0,10,8,0,627,650,-0.0292,-283.0410,6.8213,0.4212,54.888714,9.766839,108.3,5.845,1.85,335.95,54.895348,9.797490,54.882771,9.786818
1390060286,3,0,0.0,0,7,4,0,574,600,-0.0292,-285.3744,6.8213,0.4212,54.888687,9.766670,108.3,5.845,1.85,335.95,54.895348,9.797490,54.882771,9.786818
1390060286,3,0,0.0,0,5,8,0,538,550,-0.0292,-287.0410,6.8213,0.4212,54.888657,9.766501,108.3,5.845,1.85,335.95,54.895348,9.797490,54.882771,9.786818
1390060287,3,0,0.0,0,3,4,0,511,500,-0.0292,-288.0410,6.8213,0.4212,54.888622,9.766333,108.3,5.845,1.85,335.95,54.895348,9.797490,54.882771,9.786818
1390060287,3,0,0.0,0,2,0,0,495,450,-0.0292,-288.7077,6.8213,0.4212,54.888592,9.766164,108.3,5.845,1.85,335.95,54.895348,9.797490,54.882771,9.786818
1390060287,3,0,0.0,0,1,4,0,485,500,-0.0292,-289.0410,6.8213,0.4212,54.888557,9.765995,108.3,5.845,1.85,335.95,54.895348,9.797490,54.882771,9.786818
1390060287,3,0,0.0,0,1,0,0,479,450,-0.0292,-289.3744,6.8213,0.4212,54.888523,9.765827,108.3,5.845,1.85,335.95,54.895348,9.797490,54.882771,9.786818
1390060288,3,0,0.0,0,1,4,0,474,500,-0.0292,-289.7077,6.8213,0.4212,54.888489,9.765659,108.3,5.845,1.85,335.95,54.895348,9.797490,54.882771,9.786818
1390060288,3,0,0.0,0,0,0,0,469,450,-0.0292,-289.7077,6.8213,0.4212,54.888454,9.765491,108.3,5.845,1.85,335.95,54.895348,9.797490,54.882771,9.786818
1390060288,3,0,0.0,0,0,4,0,469,500,-0.0292,-289.7077,6.8213,0.4212,54.888416,9.765324,108.3,5.845,1.85,335.95,54.895348,9.797490,54.882771,9.786818
1390060288,3,0,0.0,0,0,0,0,469,450,-0.0292,-289.7077,6.8213,0.4212,54.888382,9.765156,108.3,5.845,1.85,335.95,54.895348,9.797490,54.882771,9.786818
1390060289,3,0,0.0,0,0,4,0,469,500,-0.0292,-289.7077,6.8213,0.4212,54.888344,9.764987,108.3,5.845,1.85,335.95,54.895348,9.797490,54.882771,9.786818
1390060289,3,0,0.0,0,0,0,0,469,450,-0.0292,-289.7077,6.8213,0.4212,54.888309,9.764818,108.3,5.845,1.85,335.95,54.895348,9.797490,54.882771,9.786818
1390060289,3,0,0.0,0,0,4,0,469,500,-0.0292,-289.7077,6.8213,0.4212,54.888271,9.764649,108.3,5.845,1.85,335.95,54.895348,9.797490,54.882771,9.786818
1390060289,3,0,0.0,0,0,0,0,469,450,-0.0292,-289.7077,6.8213,0.4212,54.888237,9.764481,108.3,5.845,1.85,335.95,54.895348,9.797490,54.882771,9.786818
1390060290,3,0,0.0,0,0,4,0,469,500,-0.0292,-289.7077,6.8213,0.4212,54.888203,9.764312,108.3,5.845,1.85,335.95,54.895348,9.797490,54.882771,9.786818
1390060290,3,0,0.0,0,0,0,0,469,450,-0.0292,-289.7077,6.8213,0.4212,54.888168,9.764143,108.3,5.845,1.85,335.95,54.895348,9.797490,54.882771,9.786818
1390060290,3,0,0.0,0,0,4,0,469,500,-0.0292,-289.7077,6.8213,0.4212,54.888134,9.763974,108.3,5.845,1.85,335.95,54.895348,9.797490,54.882771,9.786818
1390060290,3,0,0.0,0,0,0,0,469,450,-0.0292,-289.7077,6.8213,0.4212,54.888096,9.763805,108.3,5.845,1.85,335.95,54.895348,9.797490,54.882771,9.786818
1390060291,3,0,0.0,0,0,4,0,469,500,-0.0292,-289.7077,6.8213,0.4212,54.888062,9.763638,108.3,5.845,1.85,335.95,54.895348,9.797490,54.882771,9.786818
1390060291,3,0,0.0,0,10,8,0,469,450,-0.0292,-293.0411,6.8213,0.4212,54.888020,9.763471,108.3,5.845,1.85,335.95,54.895348,9.797490,54.882771,9.786818
1390060291,3,0,0.0,0,7,4,0,415,400,-0.0292,-295.3744,6.8213,0.4212,54.887974,9.763305,108.3,5.845,1.85,335.95,54.895348,9.797490,54.882771,9.786818
1390060291,3,0,0.0,0,5,8,0,378,350,-0.0292,-297.0411,6.8213,0.4212,54.887924,9.763140,108.3,5.845,1.85,335.95,54.895348,9.797490,54.882771,9.786818
1390060292,3,0,0.0,0,3,4,0,352,400,-0.0292,-298.0411,6.8213,0.4212,54.887875,9.762975,108.3,5.845,1.85,335.95,54.895348,9.797490,54.882771,9.786818
1390060292,3,0,0.0,0,2,0,0,336,350,-0.0292,-298.7077,6.8213,0.4212,54.887821,9.762811,108.3,5.845,1.85,335.95,54.895348,9.797490,54.882771,9.786818
1390060292,3,0,0.0,0,1,4,0,325,300,-0.0292,-299.0411,6.8213,0.4212,54.887768,9.762647,108.3,5.845,1.85,335.95,54.895348,9.797490,54.882771,9.786818
1390060292,3,0,0.0,0,1,0,0,320,350,-0.0292,-299.3744,6.8213,0.4212,54.887714,9.762484,108.3,5.845,1.85,335.95,54.895348,9.797490,54.882771,9.786818
1390060293,3,0,0.0,0,1,4,0,315,300,-0.0292,-299.7078,6.8213,0.4212,54.887661,9.762321,108.3,5.845,1.85,335.95,54.895348,9.797490,54.882771,9.786818
1390060293,3,0,0.0,0,0,0,0,310,350,-0.0292,-299.7078,6.8213,0.4212,54.887608,9.762157,108.3,5.845,1.85,335.95,54.895348,9.797490,54.882771,9.786818
1390060293,3,0,0.0,0,0,4,0,310,300,-0.0292,-299.7078,6.8213,0.4212,54.887554,9.761994,108.3,5.845,1.85,335.95,54.895348,9.797490,54.882771,9.786818
1390060293,3,0,0.0,0,0,0,0,310,350,-0.0292,-299.7078,6.8213,0.4212,54.887501,9.761831,108.3,5.845,1.85,335.95,54.895348,9.797490,54.882771,9.786818
1390060294,3,0,0.0,0,0,4,0,310,300,-0.0292,-299.7078,6.8213,0.4212,54.887447,9.761668,108.3,5.845,1.85,335.95,54.895348,9.797490,54.882771,9.786818
1390060294,3,0,0.0,0,0,0,0,310,350,-0.0292,-299.7078,6.8213,0.4212,54.887390,9.761505,108.3,5.845,1.85,335.95,54.895348,9.797490,54.882771,9.786818
1390060294,3,0,0.0,0,0,4,0,310,300,-0.0292,-299.7078,6.8213,0.4212,54.887337,9.761342,108.3,5.845,1.85,335.95,54.895348,9.797490,54.882771,9.786818
1390060294,3,0,0.0,0,0,0,0,310,350,-0.0292,-299.7078,6.8213,0.4212,54.887283,9.761178,108.3,5.845,1.85,335.95,54.895348,9.797490,54.882771,9.786818
1390060295,3,0,0.0,0,0,4,0,310,300,-0.0292,-299.7078,6.8213,0.4212,54.887230,9.761015,108.3,5.845,1.85,335.95,54.895348,9.797490,54.882771,9.786818
1390060295,3,0,0.0,0,0,0,0,310,350,-0.0292,-299.7078,6.8213,0.4212,54.887177,9.760852,108.3,5.845,1.85,335.95,54.895348,9.797490,54.882771,9.786818
1390060295,3,0,0.0,0,0,4,0,310,300,-0.0292,-299.7078,6.8213,0.4212,54.887119,9.760689,108.3,5.845,1.85,335.95,54.895348,9.797490,54.882771,9.786818
1390060295,3,0,0.0,0,0,0,0,310,350,-0.0292,-299.7078,6.8213,0.4212,54.887066,9.760526,108.3,5.845,1.85,335.95,54.895348,9.797490,54.882771,9.786818
1390060296,3,0,0.0,0,0,4,0,310,300,-0.0292,-299.7078,6.8213,0.4212,54.887012,9.760362,108.3,5.845,1.85,335.95,54.895348,9.797490,54.882771,9.786818
1390060296,3,0,0.0,0,10,8,0,310,350,-0.0292,-303.0411,6.8213,0.4212,54.886951,9.760201,108.3,5.845,1.85,335.95,54.895348,9.797490,54.882771,9.786818
1390060296,3,0,0.0,0,7,4,0,258,300,-0.0292,-305.3745,6.8213,0.4212,54.886890,9.760044,108.3,5.845,1.85,335.95,54.895348,9.797490,54.882771,9.786818
1390060296,3,0,0.0,0,5,8,0,223,250,-0.0292,-307.0411,6.8213,0.4212,54.886822,9.759889,108.3,5.845,1.85,335.95,54.895348,9.797490,54.882771,9.786818
1390060297,3,0,0.0,0,3,4,0,198,200,-0.0292,-308.0411,6.8213,0.4212,54.886753,9.759734,108.3,5.845,1.85,335.95,54.895348,9.797490,54.882771,9.786818
1390060297,3,0,0.0,0,2,0,0,184,150,-0.0292,-308.7078,6.8213,0.4212,54.886684,9.759582,108.3,5.845,1.85,335.95,54.895348,9.797490,54.882771,9.786818
1390060297,3,0,0.0,0,1,4,0,174,200,-0.0292,-309.0411,6.8213,0.4212,54.886612,9.759429,108.3,5.845,1.85,335.95,54.895348,9.797490,54.882771,9.786818
1390060297,3,0,0.0,0,1,0,0,170,150,-0.0292,-309.3745,6.8213,0.4212,54.886539,9.759276,108.3,5.845,1.85,335.95,54.895348,9.797490,54.882771,9.786818
1390060298,3,0,0.0,0,1,4,0,165,200,-0.0292,-309.7078,6.8213,0.4212,54.886467,9.759125,108.3,5.845,1.85,335.95,54.895348,9.797490,54.882771,9.786818
1390060298,3,0,0.0,0,0,0,0,160,150,-0.0292,-309.7078,6.8213,0.4212,54.886395,9.758973,108.3,5.845,1.85,335.95,54.895348,9.797490,54.882771,9.786818
1390060298,3,0,0.0,0,0,4,0,160,200,-0.0292,-309.7078,6.8213,0.4212,54.886322,9.758821,108.3,5.845,1.85,335.95,54.895348,9.797490,54.882771,9.786818
1390060299,3,0,0.0,0,0,0,0,160,150,-0.0292,-309.7078,6.8213,0.4212,54.886250,9.758670,108.3,5.845,1.85,335.95,54.895348,9.797490,54.882771,9.786818
1390060299,3,0,0.0,0,0,4,0,160,200,-0.0292,-309.7078,6.8213,0.4212,54.886177,9.758518,108.3,5.845,1.85,335.95,54.895348,9.797490,54.882771,9.786818
1390060299,3,0,0.0,0,0,0,0,160,150,-0.0292,-309.7078,6.8213,0.4212,54.886105,9.758367,108.3,5.845,1.85,335.95,54.895348,9.797490,54.882771,9.786818
1390060299,3,0,0.0,0,0,4,0,160,200,-0.0292,-309.7078,6.8213,0.4212,54.886032,9.758215,108.3,5.845,1.85,335.95,54.895348,9.797490,54.882771,9.786818
1390060300,3,0,0.0,0,0,0,0,160,150,-0.0292,-309.7078,6.8213,0.4212,54.885960,9.758063,108.3,5.845,1.85,335.95,54.895348,9.797490,54.882771,9.786818
1390060300,3,0,0.0,0,0,4,0,160,200,-0.0292,-309.7078,6.8213,0.4212,54.885887,9.757912,108.3,5.845,1.85,335.95,54.895348,9.797490,54.882771,9.786818
1390060300,3,0,0.0,0,0,0,0,160,150,-0.0292,-309.7078,6.8213,0.4212,54.885815,9.757760,108.3,5.845,1.85,335.95,54.895348,9.797490,54.882771,9.786818
1390060300,3,0,0.0,0,0,4,0,160,200,-0.0292,-309.7078,6.8213,0.4212,54.885742,9.757608,108.3,5.845,1.85,335.95,54.895348,9.797490,54.882771,9.786818
1390060301,3,0,0.0,0,0,0,0,160,150,-0.0292,-309.7078,6.8213,0.4212,54.885670,9.757458,108.3,5.845,1.85,335.95,54.895348,9.797490,54.882771,9.786818
1390060301,3,0,0.0,0,0,4,0,160,200,-0.0292,-309.7078,6.8213,0.4212,54.885597,9.757306,108.3,5.845,1.85,335.95,54.895348,9.797490,54.882771,9.786818
1390060301,3,0,0.0,0,10,8,0,160,150,-0.0292,-313.0411,6.8213,0.4212,54.885521,9.757160,108.3,5.845,1.85,335.95,54.895348,9.797490,54.882771,9.786818
1390060301,3,0,0.0,0,7,4,0,116,100,-0.0292,-315.3745,6.8213,0.4212,54.885437,9.757018,108.3,5.845,1.85,335.95,54.895348,9.797490,54.882771,9.786818
1390060302,3,0,0.0,0,5,8,0,88,50,-0.0292,-317.0411,6.8213,0.4212,54.885349,9.756879,108.3,5.845,1.85,335.95,54.895348,9.797490,54.882771,9.786818
1390060302,3,0,0.0,0,3,4,0,70,100,-0.0292,-318.0411,6.8213,0.4212,54.885262,9.756742,108.3,5.845,1.85,335.95,54.895348,9.797490,54.882771,9.786818
1390060302,3,0,0.0,0,2,0,0,59,50,-0.0292,-318.7078,6.8213,0.4212,54.885170,9.756607,108.3,5.845,1.85,335.95,54.895348,9.797490,54.882771,9.786818
1390060302,3,0,0.0,0,1,4,0,53,100,-0.0292,-319.0411,6.8213,0.4212,54.885078,9.756473,108.3,5.845,1.85,335.95,54.895348,9.797490,54.882771,9.786818
1390060303,3,0,0.0,0,1,0,0,50,50,-0.0292,-319.3745,6.8213,0.4212,54.884991,9.756338,108.3,5.845,1.85,335.95,54.895348,9.797490,54.882771,9.786818
1390060303,3,0,0.0,0,1,4,0,47,0,-0.0292,-319.7078,6.8213,0.4212,54.884899,9.756205,108.3,5.845,1.85,335.95,54.895348,9.797490,54.882771,9.786818
1390060303,3,0,0.0,0,0,0,0,44,50,-0.0292,-319.7078,6.8213,0.4212,54.884808,9.756071,108.3,5.845,1.85,335.95,54.895348,9.797490,54.882771,9.786818
1390060303,3,0,0.0,0,0,4,0,44,0,-0.0292,-319.7078,6.8213,0.4212,54.884716,9.755938,108.3,5.845,1.85,335.95,54.895348,9.797490,54.882771,9.786818
1390060304,3,0,0.0,0,0,0,0,44,50,-0.0292,-319.7078,6.8213,0.4212,54.884624,9.755804,108.3,5.845,1.85,335.95,54.895348,9.797490,54.882771,9.786818
1390060304,3,0,0.0,0,0,4,0,44,0,-0.0292,-319.7078,6.8213,0.4212,54.884533,9.755671,108.3,5.845,1.85,335.95,54.895348,9.797490,54.882771,9.786818
1390060304,3,0,0.0,0,0,0,0,44,50,-0.0292,-319.7078,6.8213,0.4212,54.884441,9.755537,108.3,5.845,1.85,335.95,54.895348,9.797490,54.882771,9.786818
1390060304,3,0,0.0,0,0,4,0,44,0,-0.0292,-319.7078,6.8213,0.4212,54.884354,9.755404,108.3,5.845,1.85,335.95,54.895348,9.797490,54.882771,9.786818
1390060305,3,0,0.0,0,0,0,0,44,50,-0.0292,-319.7078,6.8213,0.4212,54.884262,9.755270,108.3,5.845,1.85,335.95,54.895348,9.797490,54.882771,9.786818
1390060305,3,0,0.0,0,0,4,0,44,0,-0.0292,-319.7078,6.8213,0.4212,54.884171,9.755136,108.3,5.845,1.85,335.95,54.895348,9.797490,54.882771,9.786818
1390060305,3,0,0.0,0,0,0,0,44,50,-0.0292,-319.7078,6.8213,0.4212,54.884083,9.755003,108.3,5.845,1.85,335.95,54.895348,9.797490,54.882771,9.786818
1390060305,3,0,0.0,0,0,4,0,44,0,-0.0292,-319.7078,6.8213,0.4212,54.883991,9.754869,108.3,5.845,1.85,335.95,54.895348,9.797490,54.882771,9.786818
1390060306,3,0,0.0,0,0,0,0,44,50,-0.0292,-319.7078,6.8213,0.4212,54.883900,9.754736,108.3,5.845,1.85,335.95,54.895348,9.797490,54.882771,9.786818
1390060306,3,0,0.0,0,0,4,0,44,0,-0.0292,-319.7078,6.8213,0.4212,54.883812,9.754603,108.3,5.845,1.85,335.95,54.895348,9.797490,54.882771,9.786818
1390060306,3,0,0.0,0,10,8,0,44,50,-0.0292,-323.0412,6.8213,0.4212,54.883713,9.754478,108.3,5.845,1.85,335.95,54.895348,9.797490,54.882771,9.786818
1390060306,3,0,0.0,0,7,4,0,19,0,-0.0292,-325.3745,6.8213,0.4212,54.883610,9.754357,108.3,5.845,1.85,335.95,54.895348,9.797490,54.882771,9.786818
1390060307,3,0,0.0,0,5,8,0,7,50,-0.0292,-327.0412,6.8213,0.4212,54.883503,9.754241,108.3,5.845,1.85,335.95,54.895348,9.797490,54.882771,9.786818
1390060307,3,0,0.0,0,3,4,0,2,0,-0.0292,-328.0412,6.8213,0.4212,54.883400,9.754128,108.3,5.845,1.85,335.95,54.895348,9.797490,54.882771,9.786818
1390060307,3,0,0.0,0,2,0,0,1,50,-0.0292,-328.7078,6.8213,0.4212,54.883293,9.754016,108.3,5.845,1.85,335.95,54.895348,9.797490,54.882771,9.786818
1390060307,3,0,0.0,0,1,4,0,0,0,-0.0292,-329.0412,6.8213,0.4212,54.883186,9.753905,108.3,5.845,1.85,335.95,54.895348,9.797490,54.882771,9.786818
1390060308,3,0,0.0,0,1,0,0,0,0,-0.0292,-329.3745,6.8213,0.4212,54.883080,9.753796,108.3,5.845,1.85,335.95,54.895348,9.797490,54.882771,9.786818
1390060308,3,0,0.0,0,1,4,0,0,0,-0.0292,-329.7079,6.8213,0.4212,54.882973,9.753686,108.3,5.845,1.85,335.95,54.895348,9.797490,54.882771,9.786818
1390060308,3,0,0.0,0,0,0,0,0,0,-0.0292,-329.7079,6.8213,0.4212,54.882862,9.753577,108.3,5.845,1.85,335.95,54.895348,9.797490,54.882771,9.786818
1390060308,3,0,0.0,0,0,4,0,0,0,-0.0292,-329.7079,6.8213,0.4212,54.882755,9.753469,108.3,5.845,1.85,335.95,54.895348,9.797490,54.882771,9.786818
1390060309,3,0,0.0,0,0,0,0,0,0,-0.0292,-329.7079,6.8213,0.4212,54.882648,9.753360,108.3,5.845,1.85,335.95,54.895348,9.797490,54.882771,9.786818
1390060309,3,0,0.0,0,0,4,0,0,0,-0.0292,-329.7079,6.8213,0.4212,54.882542,9.753251,108.3,5.845,1.85,335.95,54.895348,9.797490,54.882771,9.786818
1390060309,3,0,0.0,0,0,0,0,0,0,-0.0292,-329.7079,6.8213,0.4212,54.882435,9.753142,108.3,5.845,1.85,335.95,54.895348,9.797490,54.882771,9.786818
1390060309,3,0,0.0,0,0,4,0,0,0,-0.0292,-329.7079,6.8213,0.4212,54.882324,9.753034,108.3,5.845,1.85,335.95,54.895348,9.797490,54.882771,9.786818
1390060310,3,0,0.0,0,0,0,0,0,0,-0.0292,-329.7079,6.8213,0.4212,54.882217,9.752925,108.3,5.845,1.85,335.95,54.895348,9.797490,54.882771,9.786818
1390060310,3,0,0.0,0,0,4,0,0,0,-0.0292,-329.7079,6.8213,0.4212,54.882111,9.752816,108.3,5.845,1.85,335.95,54.895348,9.797490,54.882771,9.786818
1390060310,3,0,0.0,0,0,0,0,0,0,-0.0292,-329.7079,6.8213,0.4212,54.882000,9.752707,108.3,5.845,1.85,335.95,54.895348,9.797490,54.882771,9.786818
1390060310,3,0,0.0,0,0,4,0,0,0,-0.0292,-329.7079,6.8213,0.4212,54.881893,9.752598,108.3,5.845,1.85,335.95,54.895348,9.797490,54.882771,9.786818
1390060311,3,0,0.0,0,0,0,0,0,0,-0.0292,-329.7079,6.8213,0.4212,54.881783,9.752488,108.3,5.845,1.85,335.95,54.895348,9.797490,54.882771,9.786818
1390060311,3,0,0.0,0,0,4,0,0,0,-0.0292,-329.7079,6.8213,0.4212,54.881676,9.752379,108.3,5.845,1.85,335.95,54.895348,9.797490,54.882771,9.786818
1390060311,3,0,0.0,0,10,8,0,0,0,-0.0292,-333.0412,6.8213,0.4212,54.881561,9.752279,108.3,5.845,1.85,335.95,54.895348,9.797490,54.882771,9.786818
1390060311,3,0,0.0,0,7,4,0,0,0,-0.0292,-335.3745,6.8213,0.4212,54.881447,9.752187,108.3,5.845,1.85,335.95,54.895348,9.797490,54.882771,9.786818
1390060312,3,0,0.0,0,5,8,0,0,0,-0.0292,-337.0412,6.8213,0.4212,54.881325,9.752100,108.3,5.845,1.85,335.95,54.895348,9.797490,54.882771,9.786818
1390060312,3,0,0.0,0,3,4,0,0,0,-0.0292,-338.0412,6.8213,0.4212,54.881203,9.752016,108.3,5.845,1.85,335.95,54.895348,9.797490,54.882771,9.786818
1390060312,3,0,0.0,0,2,0,0,0,0,-0.0292,-338.7079,6.8213,0.4212,54.881081,9.751934,108.3,5.845,1.85,335.95,54.895348,9.797490,54.882771,9.786818
1390060312,3,0,0.0,0,1,4,0,0,0,-0.0292,-339.0412,6.8213,0.4212,54.880959,9.751854,108.3,5.845,1.85,335.95,54.895348,9.797490,54.882771,9.786818
1390060313,3,0,0.0,0,1,0,0,0,0,-0.0292,-339.3745,6.8213,0.4212,54.880836,9.751775,108.3,5.845,1.85,335.95,54.895348,9.797490,54.882771,9.786818
1390060313,3,0,0.0,0,1,4,0,0,0,-0.0292,-339.7079,6.8213,0.4212,54.880714,9.751697,108.3,5.845,1.85,335.95,54.895348,9.797490,54.882771,9.786818
1390060313,3,0,0.0,0,0,0,0,0,0,-0.0292,-339.7079,6.8213,0.4212,54.880592,9.751617,108.3,5.845,1.85,335.95,54.895348,9.797490,54.882771,9.786818
1390060313,3,0,0.0,0,0,4,0,0,0,-0.0292,-339.7079,6.8213,0.4212,54.880470,9.751539,108.3,5.845,1.85,335.95,54.895348,9.797490,54.882771,9.786818
1390060314,3,0,0.0,0,0,0,0,0,0,-0.0292,-339.7079,6.8213,0.4212,54.880348,9.751461,108.3,5.845,1.85,335.95,54.895348,9.797490,54.882771,9.786818
1390060314,3,0,0.0,0,0,4,0,0,0,-0.0292,-339.7079,6.8213,0.4212,54.880226,9.751383,108.3,5.845,1.85,335.95,54.895348,9.797490,54.882771,9.786818
1390060314,3,0,0.0,0,0,0,0,0,0,-0.0292,-339.7079,6.8213,0.4212,54.880104,9.751305,108.3,5.845,1.85,335.95,54.895348,9.797490,54.882771,9.786818
1390060314,3,0,0.0,0,0,4,0,0,0,-0.0292,-339.7079,6.8213,0.4212,54.879982,9.751226,108.3,5.845,1.85,335.95,54.895348,9.797490,54.882771,9.786818
1390060315,3,0,0.0,0,0,0,0,0,0,-0.0292,-339.7079,6.8213,0.4212,54.879860,9.751148,108.3,5.845,1.85,335.95,54.895348,9.797490,54.882771,9.786818
1390060315,3,0,0.0,0,0,4,0,0,0,-0.0292,-339.7079,6.8213,0.4212,54.879738,9.751070,108.3,5.845,1.85,335.95,54.895348,9.797490,54.882771,9.786818
1390060315,3,0,0.0,0,0,0,0,0,0,-0.0292,-339.7079,6.8213,0.4212,54.879616,9.750992,108.3,5.845,1.85,335.95,54.895348,9.797490,54.882771,9.786818
1390060315,3,0,0.0,0,0,4,0,0,0,-0.0292,-339.7079,6.8213,0.4212,54.879494,9.750914,108.3,5.845,1.85,335.95,54.895348,9.797490,54.882771,9.786818
1390060316,3,0,0.0,0,0,0,0,0,0,-0.0292,-339.7079,6.8213,0.4212,54.879372,9.750835,108.3,5.845,1.85,335.95,54.895348,9.797490,54.882771,9.786818
1390060316,3,0,0.0,0,0,4,0,0,0,-0.0292,-339.7079,6.8213,0.4212,54.879250,9.750757,108.3,5.845,1.85,335.95,54.895348,9.797490,54.882771,9.786818
1390060316,3,0,0.0,0,10,8,0,0,0,-0.0292,-343.0412,6.8213,0.4212,54.879124,9.750690,108.3,5.845,1.85,335.95,54.895348,9.797490,54.882771,9.786818
1390060316,3,0,0.0,0,7,4,0,0,0,-0.0292,-345.3746,6.8213,0.4212,54.878994,9.750632,108.3,5.845,1.85,335.95,54.895348,9.797490,54.882771,9.786818
1390060317,3,0,0.0,0,5,8,0,0,0,-0.0292,-347.0412,6.8213,0.4212,54.878860,9.750580,108.3,5.845,1.85,335.95,54.895348,9.797490,54.882771,9.786818
1390060317,3,0,0.0,0,3,4,0,0,0,-0.0292,-348.0412,6.8213,0.4212,54.878731,9.750531,108.3,5.845,1.85,335.95,54.895348,9.797490,54.882771,9.786818
1390060317,3,0,0.0,0,2,0,0,0,0,-0.0292,-348.7079,6.8213,0.4212,54.878597,9.750485,108.3,5.845,1.85,335.95,54.895348,9.797490,54.882771,9.786818
1390060317,3,0,0.0,0,1,4,0,0,0,-0.0292,-349.0412,6.8213,0.4212,54.878464,9.750441,108.3,5.845,1.85,335.95,54.895348,9.797490,54.882771,9.786818
1390060318,3,0,0.0,0,1,0,0,0,0,-0.0292,-349.3746,6.8213,0.4212,54.878330,9.750398,108.3,5.845,1.85,335.95,54.895348,9.797490,54.882771,9.786818
1390060318,3,0,0.0,0,1,4,0,0,0,-0.0292,-349.7079,6.8213,0.4212,54.878197,9.750356,108.3,5.845,1.85,335.95,54.895348,9.797490,54.882771,9.786818
1390060318,3,0,0.0,0,0,0,0,0,0,-0.0292,-349.7079,6.8213,0.4212,54.878063,9.750314,108.3,5.845,1.85,335.95,54.895348,9.797490,54.882771,9.786818
1390060318,3,0,0.0,0,0,4,0,0,0,-0.0292,-349.7079,6.8213,0.4212,54.877930,9.750272,108.3,5.845,1.85,335.95,54.895348,9.797490,54.882771,9.786818
1390060319,3,0,0.0,0,0,0,0,0,0,-0.0292,-349.7079,6.8213,0.4212,54.877792,9.750230,108.3,5.845,1.85,335.95,54.895348,9.797490,54.882771,9.786818
1390060319,3,0,0.0,0,0,4,0,0,0,-0.0292,-349.7079,6.8213,0.4212,54.877659,9.750188,108.3,5.845,1.85,335.95,54.895348,9.797490,54.882771,9.786818
1390060319,3,0,0.0,0,0,0,0,0,0,-0.0292,-349.7079,6.8213,0.4212,54.877522,9.750146,108.3,5.845,1.85,335.95,54.895348,9.797490,54.882771,9.786818
1390060319,3,0,0.0,0,0,4,0,0,0,-0.0292,-349.7079,6.8213,0.4212,54.877388,9.750104,108.3,5.845,1.85,335.95,54.895348,9.797490,54.882771,9.786818
1390060320,3,0,0.0,0,0,0,0,0,0,-0.0292,-349.7079,6.8213,0.4212,54.877251,9.750062,108.3,5.845,1.85,335.95,54.895348,9.797490,54.882771,9.786818
1390060320,3,0,0.0,0,0,4,0,0,0,-0.0292,-349.7079,6.8213,0.4212,54.877117,9.750020,108.3,5.845,1.85,335.95,54.895348,9.797490,54.882771,9.786818
1390060320,3,0,0.0,0,0,0,0,0,0,-0.0292,-349.7079,6.8213,0.4212,54.876980,9.749978,108.3,5.845,1.85,335.95,54.895348,9.797490,54.882771,9.786818
1390060320,3,0,0.0,0,0,4,0,0,0,-0.0292,-349.7079,6.8213,0.4212,54.876846,9.749936,108.3,5.845,1.85,335.95,54.895348,9.797490,54.882771,9.786818
1390060321,3,0,0.0,0,0,0,0,0,0,-0.0292,-349.7079,6.8213,0.4212,54.876709,9.749893,108.3,5.845,1.85,335.95,54.895348,9.797490,54.882771,9.786818
1390060321,3,0,0.0,0,0,4,0,0,0,-0.0292,-349.7079,6.8213,0.4212,54.876575,9.749850,108.3,5.845,1.85,335.95,54.895348,9.797490,54.882771,9.786818
1390060321,3,0,0.0,0,10,8,0,0,0,-0.0292,-353.0413,6.8213,0.4212,54.876434,9.749821,108.3,5.845,1.85,335.95,54.895348,9.797490,54.882771,9.786818
1390060321,3,0,0.0,0,7,4,0,0,0,-0.0292,-355.3746,6.8213,0.4212,54.876293,9.749801,108.3,5.845,1.85,335.95,54.895348,9.797490,54.882771,9.786818
1390060322,3,0,0.0,0,5,8,0,0,0,-0.0292,-357.0413,6.8213,0.4212,54.876152,9.749788,108.3,5.845,1.85,335.95,54.895348,9.797490,54.882771,9.786818
1390060322,3,0,0.0,0,3,4,0,0,0,-0.0292,-358.0413,6.8213,0.4212,54.876011,9.749780,108.3,5.845,1.85,335.95,54.895348,9.797490,54.882771,9.786818
1390060322,3,0,0.0,0,2,0,0,0,0,-0.0292,-358.7079,6.8213,0.4212,54.875866,9.749774,108.3,5.845,1.85,335.95,54.895348,9.797490,54.882771,9.786818
1390060322,3,0,0.0,0,1,4,0,0,0,-0.0292,-359.0413,6.8213,0.4212,54.875721,9.749769,108.3,5.845,1.85,335.95,54.895348,9.797490,54.882771,9.786818
1390060323,3,0,0.0,0,1,0,0,0,0,-0.0292,-359.3746,6.8213,0.4212,54.875580,9.749766,108.3,5.845,1.85,335.95,54.895348,9.797490,54.882771,9.786818
1390060323,3,0,0.0,0,1,4,0,0,0,-0.0292,-359.7079,6.8213,0.4212,54.875439,9.749764,108.3,5.845,1.85,335.95,54.895348,9.797490,54.882771,9.786818
1390060323,3,0,0.0,0,0,0,0,0,0,-0.0292,-359.7079,6.8213,0.4212,54.875298,9.749763,108.3,5.845,1.85,335.95,54.895348,9.797490,54.882771,9.786818
1390060323,3,0,0.0,0,0,4,0,0,0,-0.0292,-359.7079,6.8213,0.4212,54.875153,9.749762,108.3,5.845,1.85,335.95,54.895348,9.797490,54.882771,9.786818
1390060324,3,0,0.0,0,0,0,0,0,0,-0.0292,-359.7079,6.8213,0.4212,54.875008,9.749761,108.3,5.845,1.85,335.95,54.895348,9.797490,54.882771,9.786818
1390060324,3,0,0.0,0,0,4,0,0,0,-0.0292,-359.7079,6.8213,0.4212,54.874863,9.749760,108.3,5.845,1.85,335.95,54.895348,9.797490,54.882771,9.786818
1390060324,3,0,0.0,0,0,0,0,0,0,-0.0292,-359.7079,6.8213,0.4212,54.874722,9.749759,108.3,5.845,1.85,335.95,54.895348,9.797490,54.882771,9.786818
1390060324,3,0,0.0,0,0,4,0,0,0,-0.0292,-359.7079,6.8213,0.4212,54.874580,9.749758,108.3,5.845,1.85,335.95,54.895348,9.797490,54.882771,9.786818
