MCU_timestamp,Navigation_System,Manual_Control,Guidance_Heading,Manual_Ctrl_Rudder,Rudder_Desired_Angle,Rudder_Feedback,Manual_Ctrl_Sail,Sail_Desired_Pos,Sail_Feedback,Rate,Heading,Pitch,Roll,Latitude,Longitude,COG,SOG,Wind_Speed,Wind_Angle,Point_Start_Lat,Point_Start_Lon,Point_End_Lat,Point_End_Lon
1390063297,0,0,0.0,0,0,20,0,0,0,-0.0292,95.6255,6.8213,0.4212,54.896885,9.784269,108.3,5.845,1.85,335.95,0.000000,0.000000,0.000000,0.000000
1390063297,0,0,0.0,0,0,20,0,0,0,-0.0292,95.6255,6.8213,0.4212,54.896885,9.784269,108.3,5.845,1.85,335.95,0.000000,0.000000,0.000000,0.000000
1390063298,0,0,0.0,0,0,20,0,0,0,-0.0292,95.6255,6.8213,0.4212,54.896885,9.784269,108.3,5.845,1.85,335.95,0.000000,0.000000,0.000000,0.000000
1390063298,0,0,0.0,0,0,20,0,0,0,-0.0292,95.6255,6.8213,0.4212,54.896885,9.784269,108.3,5.845,1.85,335.95,0.000000,0.000000,0.000000,0.000000
1390063298,0,0,0.0,0,0,20,0,0,0,-0.0292,95.6255,6.8213,0.4212,54.896885,9.784269,108.3,5.845,1.85,335.95,0.000000,0.000000,0.000000,0.000000
1390063298,0,0,0.0,0,0,20,0,0,0,-0.0292,95.6255,6.8213,0.4212,54.896885,9.784269,108.3,5.845,1.85,335.95,0.000000,0.000000,0.000000,0.000000
1390063299,0,0,0.0,0,0,20,0,0,0,-0.0292,95.6255,6.8213,0.4212,54.896885,9.784269,108.3,5.845,1.85,335.95,0.000000,0.000000,0.000000,0.000000
1390063299,0,0,0.0,0,0,20,0,0,0,-0.0292,95.6255,6.8213,0.4212,54.896885,9.784269,108.3,5.845,1.85,335.95,0.000000,0.000000,0.000000,0.000000
1390063299,0,0,0.0,0,0,20,0,0,0,-0.0292,95.6255,6.8213,0.4212,54.896885,9.784269,108.3,5.845,1.85,335.95,0.000000,0.000000,0.000000,0.000000
1390063299,0,0,0.0,0,0,20,0,0,0,-0.0292,95.6255,6.8213,0.4212,54.896885,9.784269,108.3,5.845,1.85,335.95,0.000000,0.000000,0.000000,0.000000
1390063300,0,0,0.0,0,0,20,0,0,0,-0.0292,95.6255,6.8213,0.4212,54.896885,9.784269,108.3,5.845,1.85,335.95,0.000000,0.000000,0.000000,0.000000
1390063300,0,0,0.0,0,0,20,0,0,0,-0.0292,95.6255,6.8213,0.4212,54.896885,9.784269,108.3,5.845,1.85,335.95,0.000000,0.000000,0.000000,0.000000
1390063300,0,0,0.0,0,0,20,0,0,0,-0.0292,95.6255,6.8213,0.4212,54.896885,9.784269,108.3,5.845,1.85,335.95,0.000000,0.000000,0.000000,0.000000
1390063300,0,0,0.0,0,0,20,0,0,0,-0.0292,95.6255,6.8213,0.4212,54.896885,9.784269,108.3,5.845,1.85,335.95,0.000000,0.000000,0.000000,0.000000
1390063301,0,0,0.0,0,0,20,0,0,0,-0.0292,95.6255,6.8213,0.4212,54.896885,9.784269,108.3,5.845,1.85,335.95,0.000000,0.000000,0.000000,0.000000
1390063301,0,0,0.0,0,0,20,0,0,0,-0.0292,95.6255,6.8213,0.4212,54.896885,9.784269,108.3,5.845,1.85,335.95,0.000000,0.000000,0.000000,0.000000
1390063301,0,0,0.0,0,0,20,0,0,0,-0.0292,95.6255,6.8213,0.4212,54.896885,9.784269,108.3,5.845,1.85,335.95,0.000000,0.000000,0.000000,0.000000
1390063301,0,0,0.0,0,0,20,0,0,0,-0.0292,95.6255,6.8213,0.4212,54.896885,9.784269,108.3,5.845,1.85,335.95,0.000000,0.000000,0.000000,0.000000
1390063302,0,0,0.0,0,0,20,0,0,0,-0.0292,95.6255,6.8213,0.4212,54.896885,9.784269,108.3,5.845,1.85,335.95,0.000000,0.000000,0.000000,0.000000
1390063302,0,0,0.0,0,0,20,0,0,0,-0.0292,95.6255,6.8213,0.4212,54.896885,9.784269,108.3,5.845,1.85,335.95,0.000000,0.000000,0.000000,0.000000
1390063302,0,0,0.0,0,0,20,0,0,0,-0.0292,95.6255,6.8213,0.4212,54.896885,9.784269,108.3,5.845,1.85,335.95,0.000000,0.000000,0.000000,0.000000
1390063302,0,0,0.0,0,0,20,0,0,0,-0.0292,95.6255,6.8213,0.4212,54.896885,9.784269,108.3,5.845,1.85,335.95,0.000000,0.000000,0.000000,0.000000
1390063303,0,0,0.0,0,0,20,0,0,0,-0.0292,95.6255,6.8213,0.4212,54.896885,9.784269,108.3,5.845,1.85,335.95,0.000000,0.000000,0.000000,0.000000
1390063303,0,0,0.0,0,0,20,0,0,0,-0.0292,95.6255,6.8213,0.4212,54.896885,9.784269,108.3,5.845,1.85,335.95,0.000000,0.000000,0.000000,0.000000
1390063303,0,0,0.0,0,0,20,0,0,0,-0.0292,95.6255,6.8213,0.4212,54.896885,9.784269,108.3,5.845,1.85,335.95,0.000000,0.000000,0.000000,0.000000
1390063303,0,0,0.0,0,0,20,0,0,0,-0.0292,95.6255,6.8213,0.4212,54.896885,9.784269,108.3,5.845,1.85,335.95,0.000000,0.000000,0.000000,0.000000
1390063304,0,0,0.0,0,0,20,0,0,0,-0.0292,95.6255,6.8213,0.4212,54.896885,9.784269,108.3,5.845,1.85,335.95,0.000000,0.000000,0.000000,0.000000
1390063304,0,0,0.0,0,0,20,0,0,0,-0.0292,95.6255,6.8213,0.4212,54.896885,9.784269,108.3,5.845,1.85,335.95,0.000000,0.000000,0.000000,0.000000
1390063304,0,0,0.0,0,0,20,0,0,0,-0.0292,95.6255,6.8213,0.4212,54.896885,9.784269,108.3,5.845,1.85,335.95,0.000000,0.000000,0.000000,0.000000
1390063304,0,0,0.0,0,0,20,0,0,0,-0.0292,95.6255,6.8213,0.4212,54.896885,9.784269,108.3,5.845,1.85,335.95,0.000000,0.000000,0.000000,0.000000
1390063305,0,0,0.0,0,0,20,0,0,0,-0.0292,95.6255,6.8213,0.4212,54.896885,9.784269,108.3,5.845,1.85,335.95,0.000000,0.000000,0.000000,0.000000
1390063305,0,0,0.0,0,0,20,0,0,0,-0.0292,95.6255,6.8213,0.4212,54.896885,9.784269,108.3,5.845,1.85,335.95,0.000000,0.000000,0.000000,0.000000
1390063305,0,0,0.0,0,0,20,0,0,0,-0.0292,95.6255,6.8213,0.4212,54.896885,9.784269,108.3,5.845,1.85,335.95,0.000000,0.000000,0.000000,0.000000
1390063305,0,0,0.0,0,0,20,0,0,0,-0.0292,95.6255,6.8213,0.4212,54.896885,9.784269,108.3,5.845,1.85,335.95,0.000000,0.000000,0.000000,0.000000
1390063306,0,0,0.0,0,0,20,0,0,0,-0.0292,95.6255,6.8213,0.4212,54.896885,9.784269,108.3,5.845,1.85,335.95,0.000000,0.000000,0.000000,0.000000
1390063306,0,0,0.0,0,0,20,0,0,0,-0.0292,95.6255,6.8213,0.4212,54.896885,9.784269,108.3,5.845,1.85,335.95,0.000000,0.000000,0.000000,0.000000
1390063306,0,0,0.0,0,0,20,0,0,0,-0.0292,95.6255,6.8213,0.4212,54.896885,9.784269,108.3,5.845,1.85,335.95,0.000000,0.000000,0.000000,0.000000
1390063306,0,0,0.0,0,0,20,0,0,0,-0.0292,95.6255,6.8213,0.4212,54.896885,9.784269,108.3,5.845,1.85,335.95,0.000000,0.000000,0.000000,0.000000
1390063307,0,0,0.0,0,0,20,0,0,0,-0.0292,95.6255,6.8213,0.4212,54.896885,9.784269,108.3,5.845,1.85,335.95,0.000000,0.000000,0.000000,0.000000
1390063307,0,0,0.0,0,0,20,0,0,0,-0.0292,95.6255,6.8213,0.4212,54.896885,9.784269,108.3,5.845,1.85,335.95,0.000000,0.000000,0.000000,0.000000
1390063307,0,0,0.0,0,0,20,0,0,0,-0.0292,95.6255,6.8213,0.4212,54.896885,9.784269,108.3,5.845,1.85,335.95,0.000000,0.000000,0.000000,0.000000
1390063307,0,0,0.0,0,0,20,0,0,0,-0.0292,95.6255,6.8213,0.4212,54.896885,9.784269,108.3,5.845,1.85,335.95,0.000000,0.000000,0.000000,0.000000
1390063308,0,0,0.0,0,0,20,0,0,0,-0.0292,95.6255,6.8213,0.4212,54.896885,9.784269,108.3,5.845,1.85,335.95,0.000000,0.000000,0.000000,0.000000
1390063308,0,0,0.0,0,0,20,0,0,0,-0.0292,95.6255,6.8213,0.4212,54.896885,9.784269,108.3,5.845,1.85,335.95,0.000000,0.000000,0.000000,0.000000
1390063308,0,0,0.0,0,0,20,0,0,0,-0.0292,95.6255,6.8213,0.4212,54.896885,9.784269,108.3,5.845,1.85,335.95,0.000000,0.000000,0.000000,0.000000
1390063308,0,0,0.0,0,0,20,0,0,0,-0.0292,95.6255,6.8213,0.4212,54.896885,9.784269,108.3,5.845,1.85,335.95,0.000000,0.000000,0.000000,0.000000
1390063309,0,0,0.0,0,0,20,0,0,0,-0.0292,95.6255,6.8213,0.4212,54.896885,9.784269,108.3,5.845,1.85,335.95,0.000000,0.000000,0.000000,0.000000
1390063309,0,0,0.0,0,0,20,0,0,0,-0.0292,95.6255,6.8213,0.4212,54.896885,9.784269,108.3,5.845,1.85,335.95,0.000000,0.000000,0.000000,0.000000
1390063309,0,0,0.0,0,0,20,0,0,0,-0.0292,95.6255,6.8213,0.4212,54.896885,9.784269,108.3,5.845,1.85,335.95,0.000000,0.000000,0.000000,0.000000
1390063309,0,0,0.0,0,0,20,0,0,0,-0.0292,95.6255,6.8213,0.4212,54.896885,9.784269,108.3,5.845,1.85,335.95,0.000000,0.000000,0.000000,0.000000
1390063310,0,0,0.0,0,0,20,0,0,0,-0.0292,95.6255,6.8213,0.4212,54.896885,9.784269,108.3,5.845,1.85,335.95,0.000000,0.000000,0.000000,0.000000
1390063310,0,0,0.0,0,0,20,0,0,0,-0.0292,95.6255,6.8213,0.4212,54.896885,9.784269,108.3,5.845,1.85,335.95,0.000000,0.000000,0.000000,0.000000
1390063310,0,0,0.0,0,0,20,0,0,0,-0.0292,95.6255,6.8213,0.4212,54.896885,9.784269,108.3,5.845,1.85,335.95,0.000000,0.000000,0.000000,0.000000
1390063310,0,0,0.0,0,0,20,0,0,0,-0.0292,95.6255,6.8213,0.4212,54.896885,9.784269,108.3,5.845,1.85,335.95,0.000000,0.000000,0.000000,0.000000
1390063311,0,0,0.0,0,0,20,0,0,0,-0.0292,95.6255,6.8213,0.4212,54.896885,9.784269,108.3,5.845,1.85,335.95,0.000000,0.000000,0.000000,0.000000
1390063311,0,0,0.0,0,0,20,0,0,0,-0.0292,95.6255,6.8213,0.4212,54.896885,9.784269,108.3,5.845,1.85,335.95,0.000000,0.000000,0.000000,0.000000
1390063311,0,0,0.0,0,0,20,0,0,0,-0.0292,95.6255,6.8213,0.4212,54.896885,9.784269,108.3,5.845,1.85,335.95,0.000000,0.000000,0.000000,0.000000
1390063311,0,0,0.0,0,0,20,0,0,0,-0.0292,95.6255,6.8213,0.4212,54.896885,9.784269,108.3,5.845,1.85,335.95,0.000000,0.000000,0.000000,0.000000
1390063312,0,0,0.0,0,0,20,0,0,0,-0.0292,95.6255,6.8213,0.4212,54.896885,9.784269,108.3,5.845,1.85,335.95,0.000000,0.000000,0.000000,0.000000
1390063312,0,0,0.0,0,0,20,0,0,0,-0.0292,95.6255,6.8213,0.4212,54.896885,9.784269,108.3,5.845,1.85,335.95,0.000000,0.000000,0.000000,0.000000
1390063312,0,0,0.0,0,0,20,0,0,0,-0.0292,95.6255,6.8213,0.4212,54.896885,9.784269,108.3,5.845,1.85,335.95,0.000000,0.000000,0.000000,0.000000
1390063312,0,0,0.0,0,0,20,0,0,0,-0.0292,95.6255,6.8213,0.4212,54.896885,9.784269,108.3,5.845,1.85,335.95,0.000000,0.000000,0.000000,0.000000
1390063313,0,0,0.0,0,0,20,0,0,0,-0.0292,95.6255,6.8213,0.4212,54.896885,9.784269,108.3,5.845,1.85,335.95,0.000000,0.000000,0.000000,0.000000
1390063313,0,0,0.0,0,0,20,0,0,0,-0.0292,95.6255,6.8213,0.4212,54.896885,9.784269,108.3,5.845,1.85,335.95,0.000000,0.000000,0.000000,0.000000
1390063313,0,0,0.0,0,0,20,0,0,0,-0.0292,95.6255,6.8213,0.4212,54.896885,9.784269,108.3,5.845,1.85,335.95,0.000000,0.000000,0.000000,0.000000
1390063313,0,0,0.0,0,0,20,0,0,0,-0.0292,95.6255,6.8213,0.4212,54.896885,9.784269,108.3,5.845,1.85,335.95,0.000000,0.000000,0.000000,0.000000
1390063314,0,0,0.0,0,0,20,0,0,0,-0.0292,95.6255,6.8213,0.4212,54.896885,9.784269,108.3,5.845,1.85,335.95,0.000000,0.000000,0.000000,0.000000
1390063314,0,0,0.0,0,0,20,0,0,0,-0.0292,95.6255,6.8213,0.4212,54.896885,9.784269,108.3,5.845,1.85,335.95,0.000000,0.000000,0.000000,0.000000
1390063314,0,0,0.0,0,0,20,0,0,0,-0.0292,95.6255,6.8213,0.4212,54.896885,9.784269,108.3,5.845,1.85,335.95,0.000000,0.000000,0.000000,0.000000
1390063314,0,0,0.0,0,0,20,0,0,0,-0.0292,95.6255,6.8213,0.4212,54.896885,9.784269,108.3,5.845,1.85,335.95,0.000000,0.000000,0.000000,0.000000
1390063315,0,0,0.0,0,0,20,0,0,0,-0.0292,95.6255,6.8213,0.4212,54.896885,9.784269,108.3,5.845,1.85,335.95,0.000000,0.000000,0.000000,0.000000
1390063315,0,0,0.0,0,0,20,0,0,0,-0.0292,95.6255,6.8213,0.4212,54.896885,9.784269,108.3,5.845,1.85,335.95,0.000000,0.000000,0.000000,0.000000
1390063315,0,0,0.0,0,0,20,0,0,0,-0.0292,95.6255,6.8213,0.4212,54.896885,9.784269,108.3,5.845,1.85,335.95,0.000000,0.000000,0.000000,0.000000
1390063315,0,0,0.0,0,0,20,0,0,0,-0.0292,95.6255,6.8213,0.4212,54.896885,9.784269,108.3,5.845,1.85,335.95,0.000000,0.000000,0.000000,0.000000
1390063316,0,0,0.0,0,0,20,0,0,0,-0.0292,95.6255,6.8213,0.4212,54.896885,9.784269,108.3,5.845,1.85,335.95,0.000000,0.000000,0.000000,0.000000
1390063316,0,0,0.0,0,0,20,0,0,0,-0.0292,95.6255,6.8213,0.4212,54.896885,9.784269,108.3,5.845,1.85,335.95,0.000000,0.000000,0.000000,0.000000
1390063316,0,0,0.0,0,0,20,0,0,0,-0.0292,95.6255,6.8213,0.4212,54.896885,9.784269,108.3,5.845,1.85,335.95,0.000000,0.000000,0.000000,0.000000
1390063316,0,0,0.0,0,0,20,0,0,0,-0.0292,95.6255,6.8213,0.4212,54.896885,9.784269,108.3,5.845,1.85,335.95,0.000000,0.000000,0.000000,0.000000
1390063317,0,0,0.0,0,0,20,0,0,0,-0.0292,95.6255,6.8213,0.4212,54.896885,9.784269,108.3,5.845,1.85,335.95,0.000000,0.000000,0.000000,0.000000
1390063317,0,0,0.0,0,0,20,0,0,0,-0.0292,95.6255,6.8213,0.4212,54.896885,9.784269,108.3,5.845,1.85,335.95,0.000000,0.000000,0.000000,0.000000
1390063317,0,0,0.0,0,0,20,0,0,0,-0.0292,95.6255,6.8213,0.4212,54.896885,9.784269,108.3,5.845,1.85,335.95,0.000000,0.000000,0.000000,0.000000
1390063317,0,0,0.0,0,0,20,0,0,0,-0.0292,95.6255,6.8213,0.4212,54.896885,9.784269,108.3,5.845,1.85,335.95,0.000000,0.000000,0.000000,0.000000
1390063318,0,0,0.0,0,0,20,0,0,0,-0.0292,95.6255,6.8213,0.4212,54.896885,9.784269,108.3,5.845,1.85,335.95,0.000000,0.000000,0.000000,0.000000
1390063318,0,0,0.0,0,0,20,0,0,0,-0.0292,95.6255,6.8213,0.4212,54.896885,9.784269,108.3,5.845,1.85,335.95,0.000000,0.000000,0.000000,0.000000
1390063318,0,0,0.0,0,0,20,0,0,0,-0.0292,95.6255,6.8213,0.4212,54.896885,9.784269,108.3,5.845,1.85,335.95,0.000000,0.000000,0.000000,0.000000
1390063318,0,0,0.0,0,0,20,0,0,0,-0.0292,95.6255,6.8213,0.4212,54.896885,9.784269,108.3,5.845,1.85,335.95,0.000000,0.000000,0.000000,0.000000
1390063319,0,0,0.0,0,0,20,0,0,0,-0.0292,95.6255,6.8213,0.4212,54.896885,9.784269,108.3,5.845,1.85,335.95,0.000000,0.000000,0.000000,0.000000
1390063319,0,0,0.0,0,0,20,0,0,0,-0.0292,95.6255,6.8213,0.4212,54.896885,9.784269,108.3,5.845,1.85,335.95,0.000000,0.000000,0.000000,0.000000
1390063319,0,0,0.0,0,0,20,0,0,0,-0.0292,95.6255,6.8213,0.4212,54.896885,9.784269,108.3,5.845,1.85,335.95,0.000000,0.000000,0.000000,0.000000
1390063319,0,0,0.0,0,0,20,0,0,0,-0.0292,95.6255,6.8213,0.4212,54.896885,9.784269,108.3,5.845,1.85,335.95,0.000000,0.000000,0.000000,0.000000
1390063320,0,0,0.0,0,0,20,0,0,0,-0.0292,95.6255,6.8213,0.4212,54.896885,9.784269,108.3,5.845,1.85,335.95,0.000000,0.000000,0.000000,0.000000
1390063320,0,0,0.0,0,0,20,0,0,0,-0.0292,95.6255,6.8213,0.4212,54.896885,9.784269,108.3,5.845,1.85,335.95,0.000000,0.000000,0.000000,0.000000
1390063320,0,0,0.0,0,0,20,0,0,0,-0.0292,95.6255,6.8213,0.4212,54.896885,9.784269,108.3,5.845,1.85,335.95,0.000000,0.000000,0.000000,0.000000
1390063320,0,0,0.0,0,0,20,0,0,0,-0.0292,95.6255,6.8213,0.4212,54.896885,9.784269,108.3,5.845,1.85,335.95,0.000000,0.000000,0.000000,0.000000
1390063321,0,0,0.0,0,0,20,0,0,0,-0.0292,95.6255,6.8213,0.4212,54.896885,9.784269,108.3,5.845,1.85,335.95,0.000000,0.000000,0.000000,0.000000
1390063321,0,0,0.0,0,0,20,0,0,0,-0.0292,95.6255,6.8213,0.4212,54.896885,9.784269,108.3,5.845,1.85,335.95,0.000000,0.000000,0.000000,0.000000
1390063321,0,0,0.0,0,0,20,0,0,0,-0.0292,95.6255,6.8213,0.4212,54.896885,9.784269,108.3,5.845,1.85,335.95,0.000000,0.000000,0.000000,0.000000
1390063321,0,0,0.0,0,0,20,0,0,0,-0.0292,95.6255,6.8213,0.4212,54.896885,9.784269,108.3,5.845,1.85,335.95,0.000000,0.000000,0.000000,0.000000
1390063322,0,0,0.0,0,0,20,0,0,0,-0.0292,95.6255,6.8213,0.4212,54.896885,9.784269,108.3,5.845,1.85,335.95,0.000000,0.000000,0.000000,0.000000
1390063322,0,0,0.0,0,0,20,0,0,0,-0.0292,95.6255,6.8213,0.4212,54.896885,9.784269,108.3,5.845,1.85,335.95,0.000000,0.000000,0.000000,0.000000
1390063322,0,0,0.0,0,0,20,0,0,0,-0.0292,95.6255,6.8213,0.4212,54.896885,9.784269,108.3,5.845,1.85,335.95,0.000000,0.000000,0.000000,0.000000
1390063322,4,0,0.0,0,0,20,0,0,0,-0.0292,95.6255,6.8213,0.4212,54.896885,9.784269,108.3,5.845,1.85,335.95,0.000000,0.000000,0.000000,0.000000
1390063323,1,0,0.0,0,-35,16,0,855,50,-0.0292,107.2922,6.8213,0.4212,54.896881,9.784294,108.3,5.845,1.85,335.95,54.895069,9.793790,54.895348,9.797490
1390063323,1,0,0.0,0,-35,12,0,870,100,-0.0292,118.9588,6.8213,0.4212,54.896873,9.784318,108.3,5.845,1.85,335.95,54.895348,9.797490,54.894039,9.801540
1390063323,1,0,0.0,0,-35,8,0,713,150,-0.0292,130.6255,6.8213,0.4212,54.896862,9.784339,108.3,5.845,1.85,335.95,54.894039,9.801540,54.893795,9.802299
1390063323,1,0,0.0,0,-35,4,0,713,200,-0.0292,142.2922,6.8213,0.4212,54.896851,9.784357,108.3,5.845,1.85,335.95,54.893795,9.802299,54.893364,9.803688
1390063324,1,0,0.0,0,-28,0,0,713,250,-0.0292,151.6255,6.8213,0.4212,54.896835,9.784372,108.3,5.845,1.85,335.95,54.893364,9.803688,54.892704,9.801139
1390063324,1,0,0.0,0,-18,-4,0,0,200,-0.0292,157.6255,6.8213,0.4212,54.896820,9.784384,108.3,5.845,1.85,335.95,54.892704,9.801139,54.891663,9.800174
1390063324,1,0,0.0,0,-12,-8,0,0,150,-0.0292,161.6255,6.8213,0.4212,54.896801,9.784393,108.3,5.845,1.85,335.95,54.891663,9.800174,54.892929,9.805077
1390063324,1,0,0.0,0,-8,-4,0,0,100,-0.0292,164.2922,6.8213,0.4212,54.896782,9.784402,108.3,5.845,1.85,335.95,54.892929,9.805077,54.892498,9.806466
1390063325,1,0,0.0,0,-6,-8,0,0,50,-0.0292,166.2922,6.8213,0.4212,54.896767,9.784409,108.3,5.845,1.85,335.95,54.892498,9.806466,54.891232,9.801563
1390063325,1,0,0.0,0,-4,-4,0,713,100,-0.0292,167.6255,6.8213,0.4212,54.896748,9.784415,108.3,5.845,1.85,335.95,54.891232,9.801563,54.890800,9.802953
1390063325,1,0,0.0,0,-2,0,0,713,150,-0.0292,168.2922,6.8213,0.4212,54.896729,9.784421,108.3,5.845,1.85,335.95,54.890800,9.802953,54.891651,9.806246
1390063325,1,0,0.0,0,-2,-4,0,713,200,-0.0292,168.9588,6.8213,0.4212,54.896709,9.784427,108.3,5.845,1.85,335.95,54.891651,9.806246,54.890560,9.805087
1390063326,1,0,0.0,0,-1,0,0,713,250,-0.0292,169.2922,6.8213,0.4212,54.896694,9.784432,108.3,5.845,1.85,335.95,54.890560,9.805087,54.890366,9.804342
1390063326,1,0,0.0,0,-1,-4,0,713,300,-0.0292,169.6255,6.8213,0.4212,54.896675,9.784438,108.3,5.845,1.85,335.95,54.890366,9.804342,54.890846,9.801930
1390063326,1,0,0.0,0,0,0,0,713,350,-0.0292,169.6255,6.8213,0.4212,54.896656,9.784444,108.3,5.845,1.85,335.95,54.890846,9.801930,54.889477,9.798280
1390063326,1,0,0.0,0,0,4,0,713,400,-0.0292,169.6255,6.8213,0.4212,54.896637,9.784449,108.3,5.845,1.85,335.95,54.889477,9.798280,54.891819,9.794550
1390063327,1,0,0.0,0,0,0,0,713,450,-0.0292,169.6255,6.8213,0.4212,54.896622,9.784453,108.3,5.845,1.85,335.95,54.891819,9.794550,54.895348,9.797490
1390063327,1,0,0.0,0,0,4,0,713,500,-0.0292,169.6255,6.8213,0.4212,54.896603,9.784459,108.3,5.845,1.85,335.95,54.895348,9.797490,54.895069,9.793790
1390063327,1,0,0.0,0,0,0,0,713,550,-0.0292,169.6255,6.8213,0.4212,54.896584,9.784465,108.3,5.845,1.85,335.95,54.895348,9.797490,54.895069,9.793790
1390063327,3,0,0.0,0,0,4,0,713,600,-0.0292,169.6255,6.8213,0.4212,54.896564,9.784471,108.3,5.845,1.85,335.95,54.895348,9.797490,54.896584,9.784465
1390063328,3,0,0.0,0,0,0,0,713,650,-0.0292,169.6255,6.8213,0.4212,54.896549,9.784476,108.3,5.845,1.85,335.95,54.895348,9.797490,54.896584,9.784465
1390063328,3,0,0.0,0,-10,-4,0,713,700,-0.0292,172.9588,6.8213,0.4212,54.896530,9.784480,108.3,5.845,1.85,335.95,54.895348,9.797490,54.896584,9.784465
1390063328,3,0,0.0,0,-7,-8,0,713,750,-0.0292,175.2921,6.8213,0.4212,54.896511,9.784483,108.3,5.845,1.85,335.95,54.895348,9.797490,54.896584,9.784465
1390063328,3,0,0.0,0,-5,-4,0,713,700,-0.0292,176.9588,6.8213,0.4212,54.896492,9.784485,108.3,5.845,1.85,335.95,54.895348,9.797490,54.896584,9.784465
1390063329,3,0,0.0,0,-3,0,0,713,750,-0.0292,177.9588,6.8213,0.4212,54.896477,9.784487,108.3,5.845,1.85,335.95,54.895348,9.797490,54.896584,9.784465
1390063329,3,0,0.0,0,-2,-4,0,713,700,-0.0292,178.6255,6.8213,0.4212,54.896458,9.784487,108.3,5.845,1.85,335.95,54.895348,9.797490,54.896584,9.784465
1390063329,3,0,0.0,0,-1,0,0,713,750,-0.0292,178.9588,6.8213,0.4212,54.896439,9.784487,108.3,5.845,1.85,335.95,54.895348,9.797490,54.896584,9.784465
1390063329,3,0,0.0,0,-1,-4,0,713,700,-0.0292,179.2921,6.8213,0.4212,54.896420,9.784487,108.3,5.845,1.85,335.95,54.895348,9.797490,54.896584,9.784465
1390063330,3,0,0.0,0,-1,0,0,713,750,-0.0292,179.6255,6.8213,0.4212,54.896404,9.784487,108.3,5.845,1.85,335.95,54.895348,9.797490,54.896584,9.784465
1390063330,3,0,0.0,0,0,4,0,713,700,-0.0292,179.6255,6.8213,0.4212,54.896385,9.784487,108.3,5.845,1.85,335.95,54.895348,9.797490,54.896584,9.784465
1390063330,3,0,0.0,0,0,0,0,713,750,-0.0292,179.6255,6.8213,0.4212,54.896366,9.784487,108.3,5.845,1.85,335.95,54.895348,9.797490,54.896584,9.784465
1390063330,3,0,0.0,0,0,4,0,713,700,-0.0292,179.6255,6.8213,0.4212,54.896351,9.784487,108.3,5.845,1.85,335.95,54.895348,9.797490,54.896584,9.784465
1390063331,3,0,0.0,0,0,0,0,713,750,-0.0292,179.6255,6.8213,0.4212,54.896332,9.784487,108.3,5.845,1.85,335.95,54.895348,9.797490,54.896584,9.784465
1390063331,3,0,0.0,0,0,4,0,713,700,-0.0292,179.6255,6.8213,0.4212,54.896313,9.784487,108.3,5.845,1.85,335.95,54.895348,9.797490,54.896584,9.784465
1390063331,3,0,0.0,0,0,0,0,713,750,-0.0292,179.6255,6.8213,0.4212,54.896294,9.784487,108.3,5.845,1.85,335.95,54.895348,9.797490,54.896584,9.784465
1390063332,3,0,0.0,0,0,4,0,713,700,-0.0292,179.6255,6.8213,0.4212,54.896278,9.784487,108.3,5.845,1.85,335.95,54.895348,9.797490,54.896584,9.784465
1390063332,3,0,0.0,0,0,0,0,713,750,-0.0292,179.6255,6.8213,0.4212,54.896259,9.784487,108.3,5.845,1.85,335.95,54.895348,9.797490,54.896584,9.784465
1390063332,3,0,0.0,0,0,4,0,713,700,-0.0292,179.6255,6.8213,0.4212,54.896240,9.784487,108.3,5.845,1.85,335.95,54.895348,9.797490,54.896584,9.784465
1390063332,3,0,0.0,0,0,0,0,713,750,-0.0292,179.6255,6.8213,0.4212,54.896221,9.784487,108.3,5.845,1.85,335.95,54.895348,9.797490,54.896584,9.784465
1390063333,3,0,0.0,0,0,4,0,713,700,-0.0292,179.6255,6.8213,0.4212,54.896206,9.784487,108.3,5.845,1.85,335.95,54.895348,9.797490,54.896584,9.784465
1390063333,3,0,0.0,0,0,0,0,713,750,-0.0292,179.6255,6.8213,0.4212,54.896187,9.784487,108.3,5.845,1.85,335.95,54.895348,9.797490,54.896584,9.784465
1390063333,3,0,0.0,0,10,4,0,713,700,-0.0292,176.2921,6.8213,0.4212,54.896168,9.784489,108.3,5.845,1.85,335.95,54.895348,9.797490,54.896584,9.784465
1390063333,3,0,0.0,0,6,8,0,713,750,-0.0292,174.2921,6.8213,0.4212,54.896152,9.784492,108.3,5.845,1.85,335.95,54.895348,9.797490,54.896584,9.784465
1390063334,3,0,0.0,0,4,4,0,713,700,-0.0292,172.9588,6.8213,0.4212,54.896133,9.784495,108.3,5.845,1.85,335.95,54.895348,9.797490,54.896584,9.784465
1390063334,3,0,0.0,0,3,0,0,713,750,-0.0292,171.9588,6.8213,0.4212,54.896114,9.784499,108.3,5.845,1.85,335.95,54.895348,9.797490,54.896584,9.784465
1390063334,3,0,0.0,0,2,4,0,713,700,-0.0292,171.2921,6.8213,0.4212,54.896095,9.784504,108.3,5.845,1.85,335.95,54.895348,9.797490,54.896584,9.784465
1390063334,3,0,0.0,0,1,0,0,713,750,-0.0292,170.9588,6.8213,0.4212,54.896080,9.784509,108.3,5.845,1.85,335.95,54.895348,9.797490,54.896584,9.784465
1390063335,3,0,0.0,0,1,4,0,713,700,-0.0292,170.6255,6.8213,0.4212,54.896061,9.784513,108.3,5.845,1.85,335.95,54.895348,9.797490,54.896584,9.784465
1390063335,3,0,0.0,0,1,0,0,713,750,-0.0292,170.2922,6.8213,0.4212,54.896042,9.784519,108.3,5.845,1.85,335.95,54.895348,9.797490,54.896584,9.784465
1390063335,3,0,0.0,0,0,4,0,713,700,-0.0292,170.2922,6.8213,0.4212,54.896023,9.784525,108.3,5.845,1.85,335.95,54.895348,9.797490,54.896584,9.784465
1390063335,3,0,0.0,0,0,0,0,713,750,-0.0292,170.2922,6.8213,0.4212,54.896008,9.784531,108.3,5.845,1.85,335.95,54.895348,9.797490,54.896584,9.784465
1390063336,3,0,0.0,0,0,4,0,713,700,-0.0292,170.2922,6.8213,0.4212,54.895988,9.784535,108.3,5.845,1.85,335.95,54.895348,9.797490,54.896584,9.784465
1390063336,3,0,0.0,0,0,0,0,713,750,-0.0292,170.2922,6.8213,0.4212,54.895969,9.784540,108.3,5.845,1.85,335.95,54.895348,9.797490,54.896584,9.784465
1390063336,3,0,0.0,0,0,4,0,713,700,-0.0292,170.2922,6.8213,0.4212,54.895950,9.784545,108.3,5.845,1.85,335.95,54.895348,9.797490,54.896584,9.784465
1390063336,3,0,0.0,0,0,0,0,713,750,-0.0292,170.2922,6.8213,0.4212,54.895935,9.784550,108.3,5.845,1.85,335.95,54.895348,9.797490,54.896584,9.784465
1390063337,3,0,0.0,0,0,4,0,713,700,-0.0292,170.2922,6.8213,0.4212,54.895916,9.784554,108.3,5.845,1.85,335.95,54.895348,9.797490,54.896584,9.784465
1390063337,3,0,0.0,0,0,0,0,713,750,-0.0292,170.2922,6.8213,0.4212,54.895897,9.784560,108.3,5.845,1.85,335.95,54.895348,9.797490,54.896584,9.784465
1390063337,3,0,0.0,0,0,4,0,713,700,-0.0292,170.2922,6.8213,0.4212,54.895882,9.784566,108.3,5.845,1.85,335.95,54.895348,9.797490,54.896584,9.784465
1390063337,3,0,0.0,0,0,0,0,713,750,-0.0292,170.2922,6.8213,0.4212,54.895863,9.784572,108.3,5.845,1.85,335.95,54.895348,9.797490,54.896584,9.784465
1390063338,3,0,0.0,0,0,4,0,713,700,-0.0292,170.2922,6.8213,0.4212,54.895844,9.784577,108.3,5.845,1.85,335.95,54.895348,9.797490,54.896584,9.784465
1390063338,3,0,0.0,0,0,0,0,713,750,-0.0292,170.2922,6.8213,0.4212,54.895824,9.784582,108.3,5.845,1.85,335.95,54.895348,9.797490,54.896584,9.784465
1390063338,3,0,0.0,0,10,4,0,713,700,-0.0292,166.9588,6.8213,0.4212,54.895809,9.784589,108.3,5.845,1.85,335.95,54.895348,9.797490,54.896584,9.784465
1390063338,3,0,0.0,0,7,8,0,713,750,-0.0292,164.6255,6.8213,0.4212,54.895790,9.784596,108.3,5.845,1.85,335.95,54.895348,9.797490,54.896584,9.784465
1390063339,3,0,0.0,0,5,4,0,0,700,-0.0292,162.9588,6.8213,0.4212,54.895771,9.784606,108.3,5.845,1.85,335.95,54.895348,9.797490,54.896584,9.784465
1390063339,3,0,0.0,0,3,0,0,0,650,-0.0292,161.9588,6.8213,0.4212,54.895756,9.784616,108.3,5.845,1.85,335.95,54.895348,9.797490,54.896584,9.784465
1390063339,3,0,0.0,0,2,4,0,0,600,-0.0292,161.2922,6.8213,0.4212,54.895741,9.784625,108.3,5.845,1.85,335.95,54.895348,9.797490,54.896584,9.784465
1390063339,3,0,0.0,0,1,0,0,0,550,-0.0292,160.9588,6.8213,0.4212,54.895721,9.784635,108.3,5.845,1.85,335.95,54.895348,9.797490,54.896584,9.784465
1390063340,3,0,0.0,0,1,4,0,0,500,-0.0292,160.6255,6.8213,0.4212,54.895706,9.784645,108.3,5.845,1.85,335.95,54.895348,9.797490,54.896584,9.784465
1390063340,3,0,0.0,0,1,0,0,0,450,-0.0292,160.2922,6.8213,0.4212,54.895691,9.784656,108.3,5.845,1.85,335.95,54.895348,9.797490,54.896584,9.784465
1390063340,3,0,0.0,0,0,4,0,0,400,-0.0292,160.2922,6.8213,0.4212,54.895672,9.784666,108.3,5.845,1.85,335.95,54.895348,9.797490,54.896584,9.784465
1390063340,3,0,0.0,0,0,0,0,0,350,-0.0292,160.2922,6.8213,0.4212,54.895657,9.784677,108.3,5.845,1.85,335.95,54.895348,9.797490,54.896584,9.784465
1390063341,3,0,0.0,0,0,4,0,0,300,-0.0292,160.2922,6.8213,0.4212,54.895641,9.784687,108.3,5.845,1.85,335.95,54.895348,9.797490,54.896584,9.784465
1390063341,3,0,0.0,0,0,0,0,0,250,-0.0292,160.2922,6.8213,0.4212,54.895622,9.784698,108.3,5.845,1.85,335.95,54.895348,9.797490,54.896584,9.784465
1390063341,3,0,0.0,0,0,4,0,0,200,-0.0292,160.2922,6.8213,0.4212,54.895607,9.784708,108.3,5.845,1.85,335.95,54.895348,9.797490,54.896584,9.784465
1390063341,3,0,0.0,0,0,0,0,0,150,-0.0292,160.2922,6.8213,0.4212,54.895592,9.784719,108.3,5.845,1.85,335.95,54.895348,9.797490,54.896584,9.784465
1390063342,3,0,0.0,0,0,4,0,0,100,-0.0292,160.2922,6.8213,0.4212,54.895573,9.784729,108.3,5.845,1.85,335.95,54.895348,9.797490,54.896584,9.784465
1390063342,3,0,0.0,0,0,0,0,0,50,-0.0292,160.2922,6.8213,0.4212,54.895557,9.784739,108.3,5.845,1.85,335.95,54.895348,9.797490,54.896584,9.784465
1390063342,3,0,0.0,0,0,4,0,0,0,-0.0292,160.2922,6.8213,0.4212,54.895542,9.784750,108.3,5.845,1.85,335.95,54.895348,9.797490,54.896584,9.784465
1390063342,3,0,0.0,0,0,0,0,0,0,-0.0292,160.2922,6.8213,0.4212,54.895523,9.784760,108.3,5.845,1.85,335.95,54.895348,9.797490,54.896584,9.784465
1390063343,3,0,0.0,0,0,4,0,0,0,-0.0292,160.2922,6.8213,0.4212,54.895508,9.784771,108.3,5.845,1.85,335.95,54.895348,9.797490,54.896584,9.784465
1390063343,3,0,0.0,0,0,0,0,0,0,-0.0292,160.2922,6.8213,0.4212,54.895493,9.784781,108.3,5.845,1.85,335.95,54.895348,9.797490,54.896584,9.784465
1390063343,3,0,0.0,0,10,4,0,0,0,-0.0292,156.9588,6.8213,0.4212,54.895473,9.784794,108.3,5.845,1.85,335.95,54.895348,9.797490,54.896584,9.784465
1390063343,3,0,0.0,0,7,8,0,0,0,-0.0292,154.6255,6.8213,0.4212,54.895458,9.784806,108.3,5.845,1.85,335.95,54.895348,9.797490,54.896584,9.784465
1390063344,3,0,0.0,0,5,4,0,0,0,-0.0292,152.9588,6.8213,0.4212,54.895443,9.784820,108.3,5.845,1.85,335.95,54.895348,9.797490,54.896584,9.784465
1390063344,3,0,0.0,0,3,0,0,0,0,-0.0292,151.9588,6.8213,0.4212,54.895428,9.784834,108.3,5.845,1.85,335.95,54.895348,9.797490,54.896584,9.784465
1390063344,3,0,0.0,0,2,4,0,0,0,-0.0292,151.2922,6.8213,0.4212,54.895412,9.784848,108.3,5.845,1.85,335.95,54.895348,9.797490,54.896584,9.784465
1390063344,3,0,0.0,0,1,0,0,0,0,-0.0292,150.9588,6.8213,0.4212,54.895401,9.784863,108.3,5.845,1.85,335.95,54.895348,9.797490,54.896584,9.784465
1390063345,3,0,0.0,0,1,4,0,0,0,-0.0292,150.6255,6.8213,0.4212,54.895386,9.784878,108.3,5.845,1.85,335.95,54.895348,9.797490,54.896584,9.784465
1390063345,3,0,0.0,0,1,0,0,0,0,-0.0292,150.2922,6.8213,0.4212,54.895370,9.784892,108.3,5.845,1.85,335.95,54.895348,9.797490,54.896584,9.784465
1390063345,3,0,0.0,0,0,4,0,0,0,-0.0292,150.2922,6.8213,0.4212,54.895355,9.784907,108.3,5.845,1.85,335.95,54.895348,9.797490,54.896584,9.784465
1390063345,3,0,0.0,0,0,0,0,0,0,-0.0292,150.2922,6.8213,0.4212,54.895340,9.784923,108.3,5.845,1.85,335.95,54.895348,9.797490,54.896584,9.784465
1390063346,3,0,0.0,0,0,4,0,0,0,-0.0292,150.2922,6.8213,0.4212,54.895321,9.784937,108.3,5.845,1.85,335.95,54.895348,9.797490,54.896584,9.784465
1390063346,3,0,0.0,0,0,0,0,0,0,-0.0292,150.2922,6.8213,0.4212,54.895306,9.784952,108.3,5.845,1.85,335.95,54.895348,9.797490,54.896584,9.784465
1390063346,3,0,0.0,0,0,4,0,0,0,-0.0292,150.2922,6.8213,0.4212,54.895290,9.784967,108.3,5.845,1.85,335.95,54.895348,9.797490,54.896584,9.784465
1390063346,3,0,0.0,0,0,0,0,0,0,-0.0292,150.2922,6.8213,0.4212,54.895271,9.784982,108.3,5.845,1.85,335.95,54.895348,9.797490,54.896584,9.784465
1390063347,3,0,0.0,0,0,4,0,0,0,-0.0292,150.2922,6.8213,0.4212,54.895256,9.784997,108.3,5.845,1.85,335.95,54.895348,9.797490,54.896584,9.784465
1390063347,3,0,0.0,0,0,0,0,0,0,-0.0292,150.2922,6.8213,0.4212,54.895241,9.785012,108.3,5.845,1.85,335.95,54.895348,9.797490,54.896584,9.784465
1390063347,3,0,0.0,0,0,4,0,0,0,-0.0292,150.2922,6.8213,0.4212,54.895229,9.785027,108.3,5.845,1.85,335.95,54.895348,9.797490,54.896584,9.784465
1390063347,3,0,0.0,0,0,0,0,0,0,-0.0292,150.2922,6.8213,0.4212,54.895214,9.785042,108.3,5.845,1.85,335.95,54.895348,9.797490,54.896584,9.784465
1390063348,3,0,0.0,0,0,4,0,0,0,-0.0292,150.2922,6.8213,0.4212,54.895199,9.785057,108.3,5.845,1.85,335.95,54.895348,9.797490,54.896584,9.784465
1390063348,3,0,0.0,0,0,0,0,0,0,-0.0292,150.2922,6.8213,0.4212,54.895184,9.785072,108.3,5.845,1.85,335.95,54.895348,9.797490,54.896584,9.784465
1390063348,3,0,0.0,0,10,4,0,0,0,-0.0292,146.9589,6.8213,0.4212,54.895168,9.785089,108.3,5.845,1.85,335.95,54.895348,9.797490,54.896584,9.784465
1390063348,3,0,0.0,0,7,8,0,0,0,-0.0292,144.6255,6.8213,0.4212,54.895153,9.785106,108.3,5.845,1.85,335.95,54.895348,9.797490,54.896584,9.784465
1390063349,3,0,0.0,0,5,4,0,713,50,-0.0292,142.9589,6.8213,0.4212,54.895138,9.785124,108.3,5.845,1.85,335.95,54.895348,9.797490,54.896584,9.784465
1390063349,3,0,0.0,0,3,0,0,713,100,-0.0292,141.9589,6.8213,0.4212,54.895126,9.785143,108.3,5.845,1.85,335.95,54.895348,9.797490,54.896584,9.784465
1390063349,3,0,0.0,0,2,4,0,713,150,-0.0292,141.2922,6.8213,0.4212,54.895111,9.785161,108.3,5.845,1.85,335.95,54.895348,9.797490,54.896584,9.784465
1390063349,3,0,0.0,0,1,0,0,713,200,-0.0292,140.9589,6.8213,0.4212,54.895100,9.785180,108.3,5.845,1.85,335.95,54.895348,9.797490,54.896584,9.784465
1390063350,3,0,0.0,0,1,4,0,713,250,-0.0292,140.6255,6.8213,0.4212,54.895084,9.785198,108.3,5.845,1.85,335.95,54.895348,9.797490,54.896584,9.784465
1390063350,3,0,0.0,0,1,0,0,713,300,-0.0292,140.2922,6.8213,0.4212,54.895073,9.785217,108.3,5.845,1.85,335.95,54.895348,9.797490,54.896584,9.784465
1390063350,3,0,0.0,0,0,4,0,713,350,-0.0292,140.2922,6.8213,0.4212,54.895058,9.785235,108.3,5.845,1.85,335.95,54.895348,9.797490,54.896584,9.784465
1390063350,3,0,0.0,0,0,0,0,713,400,-0.0292,140.2922,6.8213,0.4212,54.895046,9.785254,108.3,5.845,1.85,335.95,54.895348,9.797490,54.896584,9.784465
1390063351,3,0,0.0,0,0,4,0,713,450,-0.0292,140.2922,6.8213,0.4212,54.895031,9.785274,108.3,5.845,1.85,335.95,54.895348,9.797490,54.896584,9.784465
1390063351,3,0,0.0,0,0,0,0,713,500,-0.0292,140.2922,6.8213,0.4212,54.895020,9.785293,108.3,5.845,1.85,335.95,54.895348,9.797490,54.896584,9.784465
1390063351,3,0,0.0,0,0,4,0,713,550,-0.0292,140.2922,6.8213,0.4212,54.895008,9.785312,108.3,5.845,1.85,335.95,54.895348,9.797490,54.896584,9.784465
1390063351,3,0,0.0,0,0,0,0,713,600,-0.0292,140.2922,6.8213,0.4212,54.894997,9.785331,108.3,5.845,1.85,335.95,54.895348,9.797490,54.896584,9.784465
1390063352,3,0,0.0,0,0,4,0,713,650,-0.0292,140.2922,6.8213,0.4212,54.894981,9.785350,108.3,5.845,1.85,335.95,54.895348,9.797490,54.896584,9.784465
1390063352,3,0,0.0,0,0,0,0,713,700,-0.0292,140.2922,6.8213,0.4212,54.894966,9.785368,108.3,5.845,1.85,335.95,54.895348,9.797490,54.896584,9.784465
1390063352,3,0,0.0,0,0,4,0,713,750,-0.0292,140.2922,6.8213,0.4212,54.894955,9.785387,108.3,5.845,1.85,335.95,54.895348,9.797490,54.896584,9.784465
1390063352,3,0,0.0,0,0,0,0,713,700,-0.0292,140.2922,6.8213,0.4212,54.894939,9.785405,108.3,5.845,1.85,335.95,54.895348,9.797490,54.896584,9.784465
1390063353,3,0,0.0,0,0,4,0,713,750,-0.0292,140.2922,6.8213,0.4212,54.894928,9.785424,108.3,5.845,1.85,335.95,54.895348,9.797490,54.896584,9.784465
1390063353,3,0,0.0,0,0,0,0,713,700,-0.0292,140.2922,6.8213,0.4212,54.894913,9.785443,108.3,5.845,1.85,335.95,54.895348,9.797490,54.896584,9.784465
1390063353,3,0,0.0,0,10,4,0,713,750,-0.0292,136.9589,6.8213,0.4212,54.894901,9.785463,108.3,5.845,1.85,335.95,54.895348,9.797490,54.896584,9.784465
1390063353,3,0,0.0,0,7,8,0,713,700,-0.0292,134.6255,6.8213,0.4212,54.894890,9.785484,108.3,5.845,1.85,335.95,54.895348,9.797490,54.896584,9.784465
1390063354,3,0,0.0,0,5,4,0,713,750,-0.0292,132.9589,6.8213,0.4212,54.894878,9.785505,108.3,5.845,1.85,335.95,54.895348,9.797490,54.896584,9.784465
1390063354,3,0,0.0,0,3,0,0,713,700,-0.0292,131.9589,6.8213,0.4212,54.894867,9.785527,108.3,5.845,1.85,335.95,54.895348,9.797490,54.896584,9.784465
1390063354,3,0,0.0,0,2,4,0,713,750,-0.0292,131.2922,6.8213,0.4212,54.894855,9.785548,108.3,5.845,1.85,335.95,54.895348,9.797490,54.896584,9.784465
1390063354,3,0,0.0,0,1,0,0,713,700,-0.0292,130.9589,6.8213,0.4212,54.894844,9.785570,108.3,5.845,1.85,335.95,54.895348,9.797490,54.896584,9.784465
1390063355,3,0,0.0,0,1,4,0,713,750,-0.0292,130.6255,6.8213,0.4212,54.894836,9.785592,108.3,5.845,1.85,335.95,54.895348,9.797490,54.896584,9.784465
1390063355,3,0,0.0,0,1,0,0,713,700,-0.0292,130.2922,6.8213,0.4212,54.894825,9.785614,108.3,5.845,1.85,335.95,54.895348,9.797490,54.896584,9.784465
1390063355,3,0,0.0,0,0,4,0,713,750,-0.0292,130.2922,6.8213,0.4212,54.894814,9.785636,108.3,5.845,1.85,335.95,54.895348,9.797490,54.896584,9.784465
1390063355,3,0,0.0,0,0,0,0,713,700,-0.0292,130.2922,6.8213,0.4212,54.894802,9.785658,108.3,5.845,1.85,335.95,54.895348,9.797490,54.896584,9.784465
1390063356,3,0,0.0,0,0,4,0,713,750,-0.0292,130.2922,6.8213,0.4212,54.894791,9.785680,108.3,5.845,1.85,335.95,54.895348,9.797490,54.896584,9.784465
1390063356,3,0,0.0,0,0,0,0,713,700,-0.0292,130.2922,6.8213,0.4212,54.894779,9.785702,108.3,5.845,1.85,335.95,54.895348,9.797490,54.896584,9.784465
1390063356,3,0,0.0,0,0,4,0,713,750,-0.0292,130.2922,6.8213,0.4212,54.894768,9.785724,108.3,5.845,1.85,335.95,54.895348,9.797490,54.896584,9.784465
1390063356,3,0,0.0,0,0,0,0,713,700,-0.0292,130.2922,6.8213,0.4212,54.894756,9.785746,108.3,5.845,1.85,335.95,54.895348,9.797490,54.896584,9.784465
1390063357,3,0,0.0,0,0,4,0,713,750,-0.0292,130.2922,6.8213,0.4212,54.894745,9.785768,108.3,5.845,1.85,335.95,54.895348,9.797490,54.896584,9.784465
1390063357,3,0,0.0,0,0,0,0,713,700,-0.0292,130.2922,6.8213,0.4212,54.894737,9.785789,108.3,5.845,1.85,335.95,54.895348,9.797490,54.896584,9.784465
1390063357,3,0,0.0,0,0,4,0,713,750,-0.0292,130.2922,6.8213,0.4212,54.894726,9.785811,108.3,5.845,1.85,335.95,54.895348,9.797490,54.896584,9.784465
1390063357,3,0,0.0,0,0,0,0,713,700,-0.0292,130.2922,6.8213,0.4212,54.894714,9.785833,108.3,5.845,1.85,335.95,54.895348,9.797490,54.896584,9.784465
1390063358,3,0,0.0,0,0,4,0,713,750,-0.0292,130.2922,6.8213,0.4212,54.894703,9.785855,108.3,5.845,1.85,335.95,54.895348,9.797490,54.896584,9.784465
1390063358,3,0,0.0,0,0,0,0,713,700,-0.0292,130.2922,6.8213,0.4212,54.894691,9.785877,108.3,5.845,1.85,335.95,54.895348,9.797490,54.896584,9.784465
1390063358,3,0,0.0,0,10,4,0,713,750,-0.0292,126.9589,6.8213,0.4212,54.894684,9.785900,108.3,5.845,1.85,335.95,54.895348,9.797490,54.896584,9.784465
1390063358,3,0,0.0,0,7,8,0,713,700,-0.0292,124.6255,6.8213,0.4212,54.894672,9.785924,108.3,5.845,1.85,335.95,54.895348,9.797490,54.896584,9.784465
1390063359,3,0,0.0,0,5,4,0,713,750,-0.0292,122.9589,6.8213,0.4212,54.894665,9.785948,108.3,5.845,1.85,335.95,54.895348,9.797490,54.896584,9.784465
1390063359,3,0,0.0,0,3,0,0,713,700,-0.0292,121.9589,6.8213,0.4212,54.894657,9.785971,108.3,5.845,1.85,335.95,54.895348,9.797490,54.896584,9.784465
1390063359,3,0,0.0,0,2,4,0,713,750,-0.0292,121.2922,6.8213,0.4212,54.894650,9.785995,108.3,5.845,1.85,335.95,54.895348,9.797490,54.896584,9.784465
1390063359,3,0,0.0,0,1,0,0,713,700,-0.0292,120.9589,6.8213,0.4212,54.894642,9.786018,108.3,5.845,1.85,335.95,54.895348,9.797490,54.896584,9.784465
1390063360,3,0,0.0,0,1,4,0,713,750,-0.0292,120.6255,6.8213,0.4212,54.894634,9.786042,108.3,5.845,1.85,335.95,54.895348,9.797490,54.896584,9.784465
1390063360,3,0,0.0,0,1,0,0,713,700,-0.0292,120.2922,6.8213,0.4212,54.894627,9.786066,108.3,5.845,1.85,335.95,54.895348,9.797490,54.896584,9.784465
1390063360,3,0,0.0,0,0,4,0,713,750,-0.0292,120.2922,6.8213,0.4212,54.894615,9.786090,108.3,5.845,1.85,335.95,54.895348,9.797490,54.896584,9.784465
1390063360,3,0,0.0,0,0,0,0,713,700,-0.0292,120.2922,6.8213,0.4212,54.894608,9.786114,108.3,5.845,1.85,335.95,54.895348,9.797490,54.896584,9.784465
1390063361,3,0,0.0,0,0,4,0,713,750,-0.0292,120.2922,6.8213,0.4212,54.894600,9.786138,108.3,5.845,1.85,335.95,54.895348,9.797490,54.896584,9.784465
1390063361,3,0,0.0,0,0,0,0,713,700,-0.0292,120.2922,6.8213,0.4212,54.894592,9.786161,108.3,5.845,1.85,335.95,54.895348,9.797490,54.896584,9.784465
1390063361,3,0,0.0,0,0,4,0,713,750,-0.0292,120.2922,6.8213,0.4212,54.894585,9.786185,108.3,5.845,1.85,335.95,54.895348,9.797490,54.896584,9.784465
1390063361,3,0,0.0,0,0,0,0,713,700,-0.0292,120.2922,6.8213,0.4212,54.894577,9.786209,108.3,5.845,1.85,335.95,54.895348,9.797490,54.896584,9.784465
1390063362,3,0,0.0,0,0,4,0,713,750,-0.0292,120.2922,6.8213,0.4212,54.894566,9.786233,108.3,5.845,1.85,335.95,54.895348,9.797490,54.896584,9.784465
1390063362,3,0,0.0,0,0,0,0,713,700,-0.0292,120.2922,6.8213,0.4212,54.894558,9.786257,108.3,5.845,1.85,335.95,54.895348,9.797490,54.896584,9.784465
1390063362,3,0,0.0,0,0,4,0,713,750,-0.0292,120.2922,6.8213,0.4212,54.894550,9.786281,108.3,5.845,1.85,335.95,54.895348,9.797490,54.896584,9.784465
1390063362,3,0,0.0,0,0,0,0,713,700,-0.0292,120.2922,6.8213,0.4212,54.894543,9.786304,108.3,5.845,1.85,335.95,54.895348,9.797490,54.896584,9.784465
1390063363,3,0,0.0,0,0,4,0,713,750,-0.0292,120.2922,6.8213,0.4212,54.894535,9.786328,108.3,5.845,1.85,335.95,54.895348,9.797490,54.896584,9.784465
1390063363,3,0,0.0,0,0,0,0,713,700,-0.0292,120.2922,6.8213,0.4212,54.894527,9.786352,108.3,5.845,1.85,335.95,54.895348,9.797490,54.896584,9.784465
1390063363,3,0,0.0,0,10,4,0,713,750,-0.0292,116.9589,6.8213,0.4212,54.894524,9.786376,108.3,5.845,1.85,335.95,54.895348,9.797490,54.896584,9.784465
1390063363,3,0,0.0,0,7,8,0,713,700,-0.0292,114.6255,6.8213,0.4212,54.894520,9.786400,108.3,5.845,1.85,335.95,54.895348,9.797490,54.896584,9.784465
1390063364,3,0,0.0,0,5,4,0,713,750,-0.0292,112.9589,6.8213,0.4212,54.894516,9.786425,108.3,5.845,1.85,335.95,54.895348,9.797490,54.896584,9.784465
1390063364,3,0,0.0,0,3,0,0,713,700,-0.0292,111.9589,6.8213,0.4212,54.894512,9.786449,108.3,5.845,1.85,335.95,54.895348,9.797490,54.896584,9.784465
1390063364,3,0,0.0,0,2,4,0,713,750,-0.0292,111.2922,6.8213,0.4212,54.894505,9.786474,108.3,5.845,1.85,335.95,54.895348,9.797490,54.896584,9.784465
1390063364,3,0,0.0,0,1,0,0,713,700,-0.0292,110.9589,6.8213,0.4212,54.894497,9.786499,108.3,5.845,1.85,335.95,54.895348,9.797490,54.896584,9.784465
1390063365,3,0,0.0,0,1,4,0,713,750,-0.0292,110.6255,6.8213,0.4212,54.894493,9.786524,108.3,5.845,1.85,335.95,54.895348,9.797490,54.896584,9.784465
1390063365,3,0,0.0,0,1,0,0,870,800,-0.0292,110.2922,6.8213,0.4212,54.894489,9.786549,108.3,5.845,1.85,335.95,54.895348,9.797490,54.896584,9.784465
1390063365,3,0,0.0,0,0,4,0,870,850,-0.0292,110.2922,6.8213,0.4212,54.894485,9.786573,108.3,5.845,1.85,335.95,54.895348,9.797490,54.896584,9.784465
1390063366,3,0,0.0,0,0,0,0,870,900,-0.0292,110.2922,6.8213,0.4212,54.894478,9.786598,108.3,5.845,1.85,335.95,54.895348,9.797490,54.896584,9.784465
1390063366,3,0,0.0,0,0,4,0,870,850,-0.0292,110.2922,6.8213,0.4212,54.894474,9.786623,108.3,5.845,1.85,335.95,54.895348,9.797490,54.896584,9.784465
1390063366,3,0,0.0,0,0,0,0,870,900,-0.0292,110.2922,6.8213,0.4212,54.894470,9.786648,108.3,5.845,1.85,335.95,54.895348,9.797490,54.896584,9.784465
1390063366,3,0,0.0,0,0,4,0,870,850,-0.0292,110.2922,6.8213,0.4212,54.894466,9.786673,108.3,5.845,1.85,335.95,54.895348,9.797490,54.896584,9.784465
1390063367,3,0,0.0,0,0,0,0,870,900,-0.0292,110.2922,6.8213,0.4212,54.894463,9.786697,108.3,5.845,1.85,335.95,54.895348,9.797490,54.896584,9.784465
1390063367,3,0,0.0,0,0,4,0,870,850,-0.0292,110.2922,6.8213,0.4212,54.894455,9.786722,108.3,5.845,1.85,335.95,54.895348,9.797490,54.896584,9.784465
1390063367,3,0,0.0,0,0,0,0,870,900,-0.0292,110.2922,6.8213,0.4212,54.894447,9.786747,108.3,5.845,1.85,335.95,54.895348,9.797490,54.896584,9.784465
1390063367,3,0,0.0,0,0,4,0,870,850,-0.0292,110.2922,6.8213,0.4212,54.894444,9.786772,108.3,5.845,1.85,335.95,54.895348,9.797490,54.896584,9.784465
1390063368,3,0,0.0,0,0,0,0,870,900,-0.0292,110.2922,6.8213,0.4212,54.894440,9.786797,108.3,5.845,1.85,335.95,54.895348,9.797490,54.896584,9.784465
1390063368,3,0,0.0,0,0,4,0,870,850,-0.0292,110.2922,6.8213,0.4212,54.894436,9.786821,108.3,5.845,1.85,335.95,54.895348,9.797490,54.896584,9.784465
1390063368,3,0,0.0,0,0,0,0,870,900,-0.0292,110.2922,6.8213,0.4212,54.894428,9.786846,108.3,5.845,1.85,335.95,54.895348,9.797490,54.896584,9.784465
1390063368,3,0,0.0,0,10,4,0,870,850,-0.0292,106.9589,6.8213,0.4212,54.894424,9.786871,108.3,5.845,1.85,335.95,54.895348,9.797490,54.896584,9.784465
1390063369,3,0,0.0,0,7,8,0,870,900,-0.0292,104.6255,6.8213,0.4212,54.894421,9.786896,108.3,5.845,1.85,335.95,54.895348,9.797490,54.896584,9.784465
1390063369,3,0,0.0,0,5,4,0,870,850,-0.0292,102.9589,6.8213,0.4212,54.894417,9.786921,108.3,5.845,1.85,335.95,54.895348,9.797490,54.896584,9.784465
1390063369,3,0,0.0,0,3,0,0,870,900,-0.0292,101.9589,6.8213,0.4212,54.894413,9.786945,108.3,5.845,1.85,335.95,54.895348,9.797490,54.896584,9.784465
1390063369,3,0,0.0,0,2,4,0,870,850,-0.0292,101.2922,6.8213,0.4212,54.894409,9.786970,108.3,5.845,1.85,335.95,54.895348,9.797490,54.896584,9.784465
1390063370,3,0,0.0,0,1,0,0,870,900,-0.0292,100.9589,6.8213,0.4212,54.894405,9.786995,108.3,5.845,1.85,335.95,54.895348,9.797490,54.896584,9.784465
1390063370,3,0,0.0,0,1,4,0,870,850,-0.0292,100.6255,6.8213,0.4212,54.894402,9.787020,108.3,5.845,1.85,335.95,54.895348,9.797490,54.896584,9.784465
1390063370,3,0,0.0,0,1,0,0,870,900,-0.0292,100.2922,6.8213,0.4212,54.894402,9.787044,108.3,5.845,1.85,335.95,54.895348,9.797490,54.896584,9.784465
1390063370,3,0,0.0,0,0,4,0,870,850,-0.0292,100.2922,6.8213,0.4212,54.894402,9.787068,108.3,5.845,1.85,335.95,54.895348,9.797490,54.896584,9.784465
1390063371,3,0,0.0,0,0,0,0,870,900,-0.0292,100.2922,6.8213,0.4212,54.894402,9.787092,108.3,5.845,1.85,335.95,54.895348,9.797490,54.896584,9.784465
1390063371,3,0,0.0,0,0,4,0,870,850,-0.0292,100.2922,6.8213,0.4212,54.894402,9.787117,108.3,5.845,1.85,335.95,54.895348,9.797490,54.896584,9.784465
1390063371,3,0,0.0,0,0,0,0,870,900,-0.0292,100.2922,6.8213,0.4212,54.894402,9.787142,108.3,5.845,1.85,335.95,54.895348,9.797490,54.896584,9.784465
1390063371,3,0,0.0,0,0,4,0,870,850,-0.0292,100.2922,6.8213,0.4212,54.894402,9.787167,108.3,5.845,1.85,335.95,54.895348,9.797490,54.896584,9.784465
1390063372,3,0,0.0,0,0,0,0,870,900,-0.0292,100.2922,6.8213,0.4212,54.894402,9.787191,108.3,5.845,1.85,335.95,54.895348,9.797490,54.896584,9.784465
1390063372,3,0,0.0,0,0,4,0,870,850,-0.0292,100.2922,6.8213,0.4212,54.894402,9.787215,108.3,5.845,1.85,335.95,54.895348,9.797490,54.896584,9.784465
1390063372,3,0,0.0,0,0,0,0,870,900,-0.0292,100.2922,6.8213,0.4212,54.894402,9.787240,108.3,5.845,1.85,335.95,54.895348,9.797490,54.896584,9.784465
1390063372,3,0,0.0,0,0,4,0,870,850,-0.0292,100.2922,6.8213,0.4212,54.894402,9.787264,108.3,5.845,1.85,335.95,54.895348,9.797490,54.896584,9.784465
1390063373,3,0,0.0,0,0,0,0,870,900,-0.0292,100.2922,6.8213,0.4212,54.894402,9.787289,108.3,5.845,1.85,335.95,54.895348,9.797490,54.896584,9.784465
1390063373,3,0,0.0,0,0,4,0,870,850,-0.0292,100.2922,6.8213,0.4212,54.894402,9.787313,108.3,5.845,1.85,335.95,54.895348,9.797490,54.896584,9.784465
1390063373,3,0,0.0,0,0,0,0,870,900,-0.0292,100.2922,6.8213,0.4212,54.894402,9.787338,108.3,5.845,1.85,335.95,54.895348,9.797490,54.896584,9.784465
1390063373,3,0,0.0,0,10,4,0,870,850,-0.0292,96.9589,6.8213,0.4212,54.894402,9.787362,108.3,5.845,1.85,335.95,54.895348,9.797490,54.896584,9.784465
1390063374,3,0,0.0,0,7,8,0,870,900,-0.0292,94.6255,6.8213,0.4212,54.894402,9.787386,108.3,5.845,1.85,335.95,54.895348,9.797490,54.896584,9.784465
1390063374,3,0,0.0,0,5,4,0,840,850,-0.0292,92.9589,6.8213,0.4212,54.894402,9.787410,108.3,5.845,1.85,335.95,54.895348,9.797490,54.896584,9.784465
1390063374,3,0,0.0,0,3,0,0,817,800,-0.0292,91.9589,6.8213,0.4212,54.894402,9.787433,108.3,5.845,1.85,335.95,54.895348,9.797490,54.896584,9.784465
1390063374,3,0,0.0,0,2,4,0,802,850,-0.0292,91.2922,6.8213,0.4212,54.894402,9.787457,108.3,5.845,1.85,335.95,54.895348,9.797490,54.896584,9.784465
1390063375,3,0,0.0,0,1,0,0,793,800,-0.0292,90.9589,6.8213,0.4212,54.894402,9.787479,108.3,5.845,1.85,335.95,54.895348,9.797490,54.896584,9.784465
1390063375,3,0,0.0,0,1,4,0,788,750,-0.0292,90.6255,6.8213,0.4212,54.894402,9.787503,108.3,5.845,1.85,335.95,54.895348,9.797490,54.896584,9.784465
1390063375,3,0,0.0,0,1,0,0,783,800,-0.0292,90.2922,6.8213,0.4212,54.894402,9.787526,108.3,5.845,1.85,335.95,54.895348,9.797490,54.896584,9.784465
1390063375,3,0,0.0,0,0,4,0,778,750,-0.0292,90.2922,6.8213,0.4212,54.894402,9.787550,108.3,5.845,1.85,335.95,54.895348,9.797490,54.896584,9.784465
1390063376,3,0,0.0,0,0,0,0,778,800,-0.0292,90.2922,6.8213,0.4212,54.894402,9.787573,108.3,5.845,1.85,335.95,54.895348,9.797490,54.896584,9.784465
1390063376,3,0,0.0,0,0,4,0,778,750,-0.0292,90.2922,6.8213,0.4212,54.894402,9.787597,108.3,5.845,1.85,335.95,54.895348,9.797490,54.896584,9.784465
1390063376,3,0,0.0,0,0,0,0,778,800,-0.0292,90.2922,6.8213,0.4212,54.894402,9.787620,108.3,5.845,1.85,335.95,54.895348,9.797490,54.896584,9.784465
1390063376,3,0,0.0,0,0,4,0,778,750,-0.0292,90.2922,6.8213,0.4212,54.894402,9.787642,108.3,5.845,1.85,335.95,54.895348,9.797490,54.896584,9.784465
1390063377,3,0,0.0,0,0,0,0,778,800,-0.0292,90.2922,6.8213,0.4212,54.894402,9.787666,108.3,5.845,1.85,335.95,54.895348,9.797490,54.896584,9.784465
1390063377,3,0,0.0,0,0,4,0,778,750,-0.0292,90.2922,6.8213,0.4212,54.894402,9.787689,108.3,5.845,1.85,335.95,54.895348,9.797490,54.896584,9.784465
1390063377,3,0,0.0,0,0,0,0,778,800,-0.0292,90.2922,6.8213,0.4212,54.894402,9.787713,108.3,5.845,1.85,335.95,54.895348,9.797490,54.896584,9.784465
1390063377,3,0,0.0,0,0,4,0,778,750,-0.0292,90.2922,6.8213,0.4212,54.894402,9.787736,108.3,5.845,1.85,335.95,54.895348,9.797490,54.896584,9.784465
1390063378,3,0,0.0,0,0,0,0,778,800,-0.0292,90.2922,6.8213,0.4212,54.894402,9.787760,108.3,5.845,1.85,335.95,54.895348,9.797490,54.896584,9.784465
1390063378,3,0,0.0,0,0,4,0,778,750,-0.0292,90.2922,6.8213,0.4212,54.894402,9.787783,108.3,5.845,1.85,335.95,54.895348,9.797490,54.896584,9.784465
1390063378,3,0,0.0,0,0,0,0,778,800,-0.0292,90.2922,6.8213,0.4212,54.894402,9.787807,108.3,5.845,1.85,335.95,54.895348,9.797490,54.896584,9.784465
1390063378,3,0,0.0,0,10,4,0,778,750,-0.0292,86.9589,6.8213,0.4212,54.894405,9.787829,108.3,5.845,1.85,335.95,54.895348,9.797490,54.896584,9.784465
1390063379,3,0,0.0,0,7,8,0,729,700,-0.0292,84.6255,6.8213,0.4212,54.894405,9.787852,108.3,5.845,1.85,335.95,54.895348,9.797490,54.896584,9.784465
1390063379,3,0,0.0,0,5,4,0,693,650,-0.0292,82.9589,6.8213,0.4212,54.894405,9.787874,108.3,5.845,1.85,335.95,54.895348,9.797490,54.896584,9.784465
1390063379,3,0,0.0,0,3,0,0,668,700,-0.0292,81.9589,6.8213,0.4212,54.894405,9.787895,108.3,5.845,1.85,335.95,54.895348,9.797490,54.896584,9.784465
1390063379,3,0,0.0,0,2,4,0,652,650,-0.0292,81.2922,6.8213,0.4212,54.894405,9.787916,108.3,5.845,1.85,335.95,54.895348,9.797490,54.896584,9.784465
1390063380,3,0,0.0,0,1,0,0,642,600,-0.0292,80.9589,6.8213,0.4212,54.894405,9.787937,108.3,5.845,1.85,335.95,54.895348,9.797490,54.896584,9.784465
1390063380,3,0,0.0,0,1,4,0,637,650,-0.0292,80.6255,6.8213,0.4212,54.894405,9.787958,108.3,5.845,1.85,335.95,54.895348,9.797490,54.896584,9.784465
1390063380,3,0,0.0,0,1,0,0,632,600,-0.0292,80.2922,6.8213,0.4212,54.894405,9.787980,108.3,5.845,1.85,335.95,54.895348,9.797490,54.896584,9.784465
1390063380,3,0,0.0,0,0,4,0,627,650,-0.0292,80.2922,6.8213,0.4212,54.894405,9.788001,108.3,5.845,1.85,335.95,54.895348,9.797490,54.896584,9.784465
1390063381,3,0,0.0,0,0,0,0,627,600,-0.0292,80.2922,6.8213,0.4212,54.894405,9.788023,108.3,5.845,1.85,335.95,54.895348,9.797490,54.896584,9.784465
1390063381,3,0,0.0,0,0,4,0,627,650,-0.0292,80.2922,6.8213,0.4212,54.894405,9.788044,108.3,5.845,1.85,335.95,54.895348,9.797490,54.896584,9.784465
1390063381,3,0,0.0,0,0,0,0,627,600,-0.0292,80.2922,6.8213,0.4212,54.894405,9.788066,108.3,5.845,1.85,335.95,54.895348,9.797490,54.896584,9.784465
1390063381,3,0,0.0,0,0,4,0,627,650,-0.0292,80.2922,6.8213,0.4212,54.894405,9.788087,108.3,5.845,1.85,335.95,54.895348,9.797490,54.896584,9.784465
1390063382,3,0,0.0,0,0,0,0,627,600,-0.0292,80.2922,6.8213,0.4212,54.894405,9.788109,108.3,5.845,1.85,335.95,54.895348,9.797490,54.896584,9.784465
1390063382,3,0,0.0,0,0,4,0,627,650,-0.0292,80.2922,6.8213,0.4212,54.894405,9.788130,108.3,5.845,1.85,335.95,54.895348,9.797490,54.896584,9.784465
1390063382,3,0,0.0,0,0,0,0,627,600,-0.0292,80.2922,6.8213,0.4212,54.894405,9.788152,108.3,5.845,1.85,335.95,54.895348,9.797490,54.896584,9.784465
1390063382,3,0,0.0,0,0,4,0,627,650,-0.0292,80.2922,6.8213,0.4212,54.894405,9.788173,108.3,5.845,1.85,335.95,54.895348,9.797490,54.896584,9.784465
1390063383,3,0,0.0,0,0,0,0,627,600,-0.0292,80.2922,6.8213,0.4212,54.894405,9.788195,108.3,5.845,1.85,335.95,54.895348,9.797490,54.896584,9.784465
1390063383,3,0,0.0,0,0,4,0,627,650,-0.0292,80.2922,6.8213,0.4212,54.894405,9.788216,108.3,5.845,1.85,335.95,54.895348,9.797490,54.896584,9.784465
1390063383,3,0,0.0,0,0,0,0,627,600,-0.0292,80.2922,6.8213,0.4212,54.894405,9.788238,108.3,5.845,1.85,335.95,54.895348,9.797490,54.896584,9.784465
1390063383,3,0,0.0,0,10,4,0,627,650,-0.0292,76.9588,6.8213,0.4212,54.894405,9.788258,108.3,5.845,1.85,335.95,54.895348,9.797490,54.896584,9.784465
1390063384,3,0,0.0,0,7,8,0,574,600,-0.0292,74.6255,6.8213,0.4212,54.894405,9.788278,108.3,5.845,1.85,335.95,54.895348,9.797490,54.896584,9.784465
1390063384,3,0,0.0,0,5,4,0,538,550,-0.0292,72.9588,6.8213,0.4212,54.894405,9.788297,108.3,5.845,1.85,335.95,54.895348,9.797490,54.896584,9.784465
1390063384,3,0,0.0,0,3,0,0,511,500,-0.0292,71.9588,6.8213,0.4212,54.894405,9.788316,108.3,5.845,1.85,335.95,54.895348,9.797490,54.896584,9.784465
1390063384,3,0,0.0,0,2,4,0,495,450,-0.0292,71.2922,6.8213,0.4212,54.894405,9.788334,108.3,5.845,1.85,335.95,54.895348,9.797490,54.896584,9.784465
1390063385,3,0,0.0,0,1,0,0,485,500,-0.0292,70.9588,6.8213,0.4212,54.894405,9.788353,108.3,5.845,1.85,335.95,54.895348,9.797490,54.896584,9.784465
1390063385,3,0,0.0,0,1,4,0,479,450,-0.0292,70.6255,6.8213,0.4212,54.894405,9.788371,108.3,5.845,1.85,335.95,54.895348,9.797490,54.896584,9.784465
1390063385,3,0,0.0,0,1,0,0,474,500,-0.0292,70.2922,6.8213,0.4212,54.894405,9.788389,108.3,5.845,1.85,335.95,54.895348,9.797490,54.896584,9.784465
1390063385,3,0,0.0,0,0,4,0,469,450,-0.0292,70.2922,6.8213,0.4212,54.894405,9.788407,108.3,5.845,1.85,335.95,54.895348,9.797490,54.896584,9.784465
1390063386,3,0,0.0,0,0,0,0,469,500,-0.0292,70.2922,6.8213,0.4212,54.894405,9.788425,108.3,5.845,1.85,335.95,54.895348,9.797490,54.896584,9.784465
1390063386,3,0,0.0,0,0,4,0,469,450,-0.0292,70.2922,6.8213,0.4212,54.894405,9.788445,108.3,5.845,1.85,335.95,54.895348,9.797490,54.896584,9.784465
1390063386,3,0,0.0,0,0,0,0,469,500,-0.0292,70.2922,6.8213,0.4212,54.894405,9.788463,108.3,5.845,1.85,335.95,54.895348,9.797490,54.896584,9.784465
1390063386,3,0,0.0,0,0,4,0,469,450,-0.0292,70.2922,6.8213,0.4212,54.894405,9.788481,108.3,5.845,1.85,335.95,54.895348,9.797490,54.896584,9.784465
1390063387,3,0,0.0,0,0,0,0,469,500,-0.0292,70.2922,6.8213,0.4212,54.894405,9.788499,108.3,5.845,1.85,335.95,54.895348,9.797490,54.896584,9.784465
1390063387,3,0,0.0,0,0,4,0,469,450,-0.0292,70.2922,6.8213,0.4212,54.894405,9.788517,108.3,5.845,1.85,335.95,54.895348,9.797490,54.896584,9.784465
1390063387,3,0,0.0,0,0,0,0,469,500,-0.0292,70.2922,6.8213,0.4212,54.894405,9.788535,108.3,5.845,1.85,335.95,54.895348,9.797490,54.896584,9.784465
1390063387,3,0,0.0,0,0,4,0,469,450,-0.0292,70.2922,6.8213,0.4212,54.894405,9.788553,108.3,5.845,1.85,335.95,54.895348,9.797490,54.896584,9.784465
1390063388,3,0,0.0,0,0,0,0,469,500,-0.0292,70.2922,6.8213,0.4212,54.894405,9.788572,108.3,5.845,1.85,335.95,54.895348,9.797490,54.896584,9.784465
1390063388,3,0,0.0,0,0,4,0,469,450,-0.0292,70.2922,6.8213,0.4212,54.894405,9.788590,108.3,5.845,1.85,335.95,54.895348,9.797490,54.896584,9.784465
1390063388,3,0,0.0,0,0,0,0,469,500,-0.0292,70.2922,6.8213,0.4212,54.894405,9.788609,108.3,5.845,1.85,335.95,54.895348,9.797490,54.896584,9.784465
1390063388,3,0,0.0,0,10,4,0,469,450,-0.0292,66.9588,6.8213,0.4212,54.894409,9.788626,108.3,5.845,1.85,335.95,54.895348,9.797490,54.896584,9.784465
1390063389,3,0,0.0,0,7,8,0,415,400,-0.0292,64.6255,6.8213,0.4212,54.894413,9.788642,108.3,5.845,1.85,335.95,54.895348,9.797490,54.896584,9.784465
1390063389,3,0,0.0,0,5,4,0,378,350,-0.0292,62.9588,6.8213,0.4212,54.894417,9.788658,108.3,5.845,1.85,335.95,54.895348,9.797490,54.896584,9.784465
1390063389,3,0,0.0,0,3,0,0,352,400,-0.0292,61.9588,6.8213,0.4212,54.894421,9.788673,108.3,5.845,1.85,335.95,54.895348,9.797490,54.896584,9.784465
1390063389,3,0,0.0,0,2,4,0,336,350,-0.0292,61.2922,6.8213,0.4212,54.894424,9.788689,108.3,5.845,1.85,335.95,54.895348,9.797490,54.896584,9.784465
1390063390,3,0,0.0,0,1,0,0,325,300,-0.0292,60.9588,6.8213,0.4212,54.894432,9.788703,108.3,5.845,1.85,335.95,54.895348,9.797490,54.896584,9.784465
1390063390,3,0,0.0,0,1,4,0,320,350,-0.0292,60.6255,6.8213,0.4212,54.894436,9.788718,108.3,5.845,1.85,335.95,54.895348,9.797490,54.896584,9.784465
1390063390,3,0,0.0,0,1,0,0,315,300,-0.0292,60.2922,6.8213,0.4212,54.894440,9.788733,108.3,5.845,1.85,335.95,54.895348,9.797490,54.896584,9.784465
1390063390,3,0,0.0,0,0,4,0,310,350,-0.0292,60.2922,6.8213,0.4212,54.894444,9.788748,108.3,5.845,1.85,335.95,54.895348,9.797490,54.896584,9.784465
1390063391,3,0,0.0,0,0,0,0,310,300,-0.0292,60.2922,6.8213,0.4212,54.894447,9.788763,108.3,5.845,1.85,335.95,54.895348,9.797490,54.896584,9.784465
1390063391,3,0,0.0,0,0,4,0,310,350,-0.0292,60.2922,6.8213,0.4212,54.894455,9.788778,108.3,5.845,1.85,335.95,54.895348,9.797490,54.896584,9.784465
1390063391,3,0,0.0,0,0,0,0,310,300,-0.0292,60.2922,6.8213,0.4212,54.894459,9.788793,108.3,5.845,1.85,335.95,54.895348,9.797490,54.896584,9.784465
1390063391,3,0,0.0,0,0,4,0,310,350,-0.0292,60.2922,6.8213,0.4212,54.894463,9.788808,108.3,5.845,1.85,335.95,54.895348,9.797490,54.896584,9.784465
1390063392,3,0,0.0,0,0,0,0,310,300,-0.0292,60.2922,6.8213,0.4212,54.894466,9.788823,108.3,5.845,1.85,335.95,54.895348,9.797490,54.896584,9.784465
1390063392,3,0,0.0,0,0,4,0,310,350,-0.0292,60.2922,6.8213,0.4212,54.894470,9.788837,108.3,5.845,1.85,335.95,54.895348,9.797490,54.896584,9.784465
1390063392,3,0,0.0,0,0,0,0,310,300,-0.0292,60.2922,6.8213,0.4212,54.894474,9.788853,108.3,5.845,1.85,335.95,54.895348,9.797490,54.896584,9.784465
1390063392,3,0,0.0,0,0,4,0,310,350,-0.0292,60.2922,6.8213,0.4212,54.894482,9.788868,108.3,5.845,1.85,335.95,54.895348,9.797490,54.896584,9.784465
1390063393,3,0,0.0,0,0,0,0,310,300,-0.0292,60.2922,6.8213,0.4212,54.894485,9.788882,108.3,5.845,1.85,335.95,54.895348,9.797490,54.896584,9.784465
1390063393,3,0,0.0,0,0,4,0,310,350,-0.0292,60.2922,6.8213,0.4212,54.894489,9.788898,108.3,5.845,1.85,335.95,54.895348,9.797490,54.896584,9.784465
1390063393,3,0,0.0,0,0,0,0,310,300,-0.0292,60.2922,6.8213,0.4212,54.894493,9.788913,108.3,5.845,1.85,335.95,54.895348,9.797490,54.896584,9.784465
1390063393,3,0,0.0,0,10,4,0,310,350,-0.0292,56.9588,6.8213,0.4212,54.894497,9.788926,108.3,5.845,1.85,335.95,54.895348,9.797490,54.896584,9.784465
1390063394,3,0,0.0,0,7,8,0,258,300,-0.0292,54.6255,6.8213,0.4212,54.894505,9.788939,108.3,5.845,1.85,335.95,54.895348,9.797490,54.896584,9.784465
1390063394,3,0,0.0,0,5,4,0,223,250,-0.0292,52.9588,6.8213,0.4212,54.894508,9.788952,108.3,5.845,1.85,335.95,54.895348,9.797490,54.896584,9.784465
1390063394,3,0,0.0,0,3,0,0,198,200,-0.0292,51.9588,6.8213,0.4212,54.894512,9.788963,108.3,5.845,1.85,335.95,54.895348,9.797490,54.896584,9.784465
1390063394,3,0,0.0,0,2,4,0,184,150,-0.0292,51.2922,6.8213,0.4212,54.894516,9.788975,108.3,5.845,1.85,335.95,54.895348,9.797490,54.896584,9.784465
1390063395,3,0,0.0,0,1,0,0,174,200,-0.0292,50.9588,6.8213,0.4212,54.894520,9.788986,108.3,5.845,1.85,335.95,54.895348,9.797490,54.896584,9.784465
1390063395,3,0,0.0,0,1,4,0,170,150,-0.0292,50.6255,6.8213,0.4212,54.894527,9.788999,108.3,5.845,1.85,335.95,54.895348,9.797490,54.896584,9.784465
1390063395,3,0,0.0,0,1,0,0,165,200,-0.0292,50.2922,6.8213,0.4212,54.894535,9.789010,108.3,5.845,1.85,335.95,54.895348,9.797490,54.896584,9.784465
1390063395,3,0,0.0,0,0,4,0,160,150,-0.0292,50.2922,6.8213,0.4212,54.894539,9.789021,108.3,5.845,1.85,335.95,54.895348,9.797490,54.896584,9.784465
1390063396,3,0,0.0,0,0,0,0,160,200,-0.0292,50.2922,6.8213,0.4212,54.894543,9.789033,108.3,5.845,1.85,335.95,54.895348,9.797490,54.896584,9.784465
1390063396,3,0,0.0,0,0,4,0,160,150,-0.0292,50.2922,6.8213,0.4212,54.894550,9.789044,108.3,5.845,1.85,335.95,54.895348,9.797490,54.896584,9.784465
1390063396,3,0,0.0,0,0,0,0,160,200,-0.0292,50.2922,6.8213,0.4212,54.894558,9.789056,108.3,5.845,1.85,335.95,54.895348,9.797490,54.896584,9.784465
1390063396,3,0,0.0,0,0,4,0,160,150,-0.0292,50.2922,6.8213,0.4212,54.894562,9.789067,108.3,5.845,1.85,335.95,54.895348,9.797490,54.896584,9.784465
1390063397,3,0,0.0,0,0,0,0,160,200,-0.0292,50.2922,6.8213,0.4212,54.894566,9.789079,108.3,5.845,1.85,335.95,54.895348,9.797490,54.896584,9.784465
1390063397,3,0,0.0,0,0,4,0,160,150,-0.0292,50.2922,6.8213,0.4212,54.894569,9.789090,108.3,5.845,1.85,335.95,54.895348,9.797490,54.896584,9.784465
1390063397,3,0,0.0,0,0,0,0,160,200,-0.0292,50.2922,6.8213,0.4212,54.894577,9.789102,108.3,5.845,1.85,335.95,54.895348,9.797490,54.896584,9.784465
1390063397,3,0,0.0,0,0,4,0,160,150,-0.0292,50.2922,6.8213,0.4212,54.894581,9.789113,108.3,5.845,1.85,335.95,54.895348,9.797490,54.896584,9.784465
1390063398,3,0,0.0,0,0,0,0,160,200,-0.0292,50.2922,6.8213,0.4212,54.894585,9.789124,108.3,5.845,1.85,335.95,54.895348,9.797490,54.896584,9.784465
1390063398,3,0,0.0,0,0,4,0,160,150,-0.0292,50.2922,6.8213,0.4212,54.894588,9.789136,108.3,5.845,1.85,335.95,54.895348,9.797490,54.896584,9.784465
1390063398,3,0,0.0,0,0,0,0,160,200,-0.0292,50.2922,6.8213,0.4212,54.894592,9.789147,108.3,5.845,1.85,335.95,54.895348,9.797490,54.896584,9.784465
1390063398,3,0,0.0,0,10,4,0,160,150,-0.0292,46.9588,6.8213,0.4212,54.894600,9.789158,108.3,5.845,1.85,335.95,54.895348,9.797490,54.896584,9.784465
1390063399,3,0,0.0,0,7,8,0,116,100,-0.0292,44.6255,6.8213,0.4212,54.894608,9.789167,108.3,5.845,1.85,335.95,54.895348,9.797490,54.896584,9.784465
1390063399,3,0,0.0,0,5,4,0,88,50,-0.0292,42.9588,6.8213,0.4212,54.894611,9.789176,108.3,5.845,1.85,335.95,54.895348,9.797490,54.896584,9.784465
1390063399,3,0,0.0,0,3,0,0,70,100,-0.0292,41.9588,6.8213,0.4212,54.894615,9.789185,108.3,5.845,1.85,335.95,54.895348,9.797490,54.896584,9.784465
1390063399,3,0,0.0,0,2,4,0,59,50,-0.0292,41.2922,6.8213,0.4212,54.894619,9.789193,108.3,5.845,1.85,335.95,54.895348,9.797490,54.896584,9.784465
1390063400,3,0,0.0,0,1,0,0,53,100,-0.0292,40.9588,6.8213,0.4212,54.894627,9.789202,108.3,5.845,1.85,335.95,54.895348,9.797490,54.896584,9.784465
1390063400,3,0,0.0,0,1,4,0,50,50,-0.0292,40.6255,6.8213,0.4212,54.894630,9.789210,108.3,5.845,1.85,335.95,54.895348,9.797490,54.896584,9.784465
1390063400,3,0,0.0,0,1,0,0,47,0,-0.0292,40.2922,6.8213,0.4212,54.894634,9.789218,108.3,5.845,1.85,335.95,54.895348,9.797490,54.896584,9.784465
