MCU_timestamp,Navigation_System,Manual_Control,Guidance_Heading,Manual_Ctrl_Rudder,Rudder_Desired_Angle,Rudder_Feedback,Manual_Ctrl_Sail,Sail_Desired_Pos,Sail_Feedback,Rate,Heading,Pitch,Roll,Latitude,Longitude,COG,SOG,Wind_Speed,Wind_Angle,Point_Start_Lat,Point_Start_Lon,Point_End_Lat,Point_End_Lon
1390059686,0,0,0.0,0,0,4,0,0,0,-0.0292,170.2922,6.8213,0.4212,54.876034,9.787897,108.3,5.845,1.85,335.95,0.000000,0.000000,0.000000,0.000000
1390059687,0,0,0.0,0,0,4,0,0,0,-0.0292,170.2922,6.8213,0.4212,54.876034,9.787897,108.3,5.845,1.85,335.95,0.000000,0.000000,0.000000,0.000000
1390059687,0,0,0.0,0,0,4,0,0,0,-0.0292,170.2922,6.8213,0.4212,54.876034,9.787897,108.3,5.845,1.85,335.95,0.000000,0.000000,0.000000,0.000000
1390059687,0,0,0.0,0,0,4,0,0,0,-0.0292,170.2922,6.8213,0.4212,54.876034,9.787897,108.3,5.845,1.85,335.95,0.000000,0.000000,0.000000,0.000000
1390059687,0,0,0.0,0,0,4,0,0,0,-0.0292,170.2922,6.8213,0.4212,54.876034,9.787897,108.3,5.845,1.85,335.95,0.000000,0.000000,0.000000,0.000000
1390059688,0,0,0.0,0,0,4,0,0,0,-0.0292,170.2922,6.8213,0.4212,54.876034,9.787897,108.3,5.845,1.85,335.95,0.000000,0.000000,0.000000,0.000000
1390059688,0,0,0.0,0,0,4,0,0,0,-0.0292,170.2922,6.8213,0.4212,54.876034,9.787897,108.3,5.845,1.85,335.95,0.000000,0.000000,0.000000,0.000000
1390059688,0,0,0.0,0,0,4,0,0,0,-0.0292,170.2922,6.8213,0.4212,54.876034,9.787897,108.3,5.845,1.85,335.95,0.000000,0.000000,0.000000,0.000000
1390059688,0,0,0.0,0,0,4,0,0,0,-0.0292,170.2922,6.8213,0.4212,54.876034,9.787897,108.3,5.845,1.85,335.95,0.000000,0.000000,0.000000,0.000000
1390059689,0,0,0.0,0,0,4,0,0,0,-0.0292,170.2922,6.8213,0.4212,54.876034,9.787897,108.3,5.845,1.85,335.95,0.000000,0.000000,0.000000,0.000000
1390059689,0,0,0.0,0,0,4,0,0,0,-0.0292,170.2922,6.8213,0.4212,54.876034,9.787897,108.3,5.845,1.85,335.95,0.000000,0.000000,0.000000,0.000000
1390059689,0,0,0.0,0,0,4,0,0,0,-0.0292,170.2922,6.8213,0.4212,54.876034,9.787897,108.3,5.845,1.85,335.95,0.000000,0.000000,0.000000,0.000000
1390059689,0,0,0.0,0,0,4,0,0,0,-0.0292,170.2922,6.8213,0.4212,54.876034,9.787897,108.3,5.845,1.85,335.95,0.000000,0.000000,0.000000,0.000000
1390059690,0,0,0.0,0,0,4,0,0,0,-0.0292,170.2922,6.8213,0.4212,54.876034,9.787897,108.3,5.845,1.85,335.95,0.000000,0.000000,0.000000,0.000000
1390059690,4,0,0.0,0,0,4,0,0,0,-0.0292,170.2922,6.8213,0.4212,54.876034,9.787897,108.3,5.845,1.85,335.95,0.000000,0.000000,0.000000,0.000000
1390059690,1,0,0.0,0,-10,0,0,713,700,-0.0292,173.6255,6.8213,0.4212,54.876015,9.787901,108.3,5.845,1.85,335.95,54.895069,9.793790,54.895348,9.797490
1390059690,1,0,0.0,0,4,4,0,713,750,-0.0292,172.2922,6.8213,0.4212,54.875996,9.787906,108.3,5.845,1.85,335.95,54.895348,9.797490,54.894039,9.801540
1390059691,1,0,0.0,0,2,0,0,713,700,-0.0292,171.6255,6.8213,0.4212,54.875977,9.787910,108.3,5.845,1.85,335.95,54.894039,9.801540,54.893795,9.802299
1390059691,1,0,0.0,0,2,4,0,713,750,-0.0292,170.9589,6.8213,0.4212,54.875961,9.787916,108.3,5.845,1.85,335.95,54.893795,9.802299,54.893364,9.803688
1390059691,1,0,0.0,0,1,0,0,713,700,-0.0292,170.6255,6.8213,0.4212,54.875942,9.787921,108.3,5.845,1.85,335.95,54.893364,9.803688,54.892704,9.801139
1390059691,1,0,0.0,0,1,4,0,713,750,-0.0292,170.2922,6.8213,0.4212,54.875923,9.787926,108.3,5.845,1.85,335.95,54.892704,9.801139,54.891663,9.800174
1390059692,1,0,0.0,0,0,0,0,713,700,-0.0292,170.2922,6.8213,0.4212,54.875904,9.787930,108.3,5.845,1.85,335.95,54.891663,9.800174,54.892929,9.805077
1390059692,1,0,0.0,0,0,4,0,713,750,-0.0292,170.2922,6.8213,0.4212,54.875889,9.787935,108.3,5.845,1.85,335.95,54.892929,9.805077,54.892498,9.806466
1390059692,1,0,0.0,0,0,0,0,713,700,-0.0292,170.2922,6.8213,0.4212,54.875870,9.787940,108.3,5.845,1.85,335.95,54.892498,9.806466,54.891232,9.801563
1390059692,1,0,0.0,0,0,4,0,713,750,-0.0292,170.2922,6.8213,0.4212,54.875851,9.787946,108.3,5.845,1.85,335.95,54.891232,9.801563,54.890800,9.802953
1390059693,1,0,0.0,0,0,0,0,713,700,-0.0292,170.2922,6.8213,0.4212,54.875832,9.787951,108.3,5.845,1.85,335.95,54.890800,9.802953,54.891651,9.806246
1390059693,1,0,0.0,0,0,4,0,713,750,-0.0292,170.2922,6.8213,0.4212,54.875816,9.787957,108.3,5.845,1.85,335.95,54.891651,9.806246,54.890560,9.805087
1390059693,1,0,0.0,0,0,0,0,713,700,-0.0292,170.2922,6.8213,0.4212,54.875797,9.787963,108.3,5.845,1.85,335.95,54.890560,9.805087,54.890366,9.804342
1390059693,1,0,0.0,0,0,4,0,713,750,-0.0292,170.2922,6.8213,0.4212,54.875778,9.787968,108.3,5.845,1.85,335.95,54.890366,9.804342,54.890846,9.801930
1390059694,1,0,0.0,0,0,0,0,713,700,-0.0292,170.2922,6.8213,0.4212,54.875763,9.787972,108.3,5.845,1.85,335.95,54.890846,9.801930,54.889477,9.798280
1390059694,1,0,0.0,0,0,4,0,713,750,-0.0292,170.2922,6.8213,0.4212,54.875744,9.787977,108.3,5.845,1.85,335.95,54.889477,9.798280,54.891819,9.794550
1390059694,1,0,0.0,0,0,0,0,713,700,-0.0292,170.2922,6.8213,0.4212,54.875725,9.787982,108.3,5.845,1.85,335.95,54.891819,9.794550,54.895348,9.797490
1390059694,1,0,0.0,0,0,4,0,713,750,-0.0292,170.2922,6.8213,0.4212,54.875706,9.787988,108.3,5.845,1.85,335.95,54.895348,9.797490,54.895069,9.793790
1390059695,1,0,0.0,0,0,0,0,713,700,-0.0292,170.2922,6.8213,0.4212,54.875690,9.787993,108.3,5.845,1.85,335.95,54.895348,9.797490,54.895069,9.793790
1390059695,3,0,0.0,0,0,4,0,713,750,-0.0292,170.2922,6.8213,0.4212,54.875671,9.787999,108.3,5.845,1.85,335.95,54.895348,9.797490,54.875690,9.787993
1390059695,3,0,0.0,0,0,0,0,713,700,-0.0292,170.2922,6.8213,0.4212,54.875652,9.788005,108.3,5.845,1.85,335.95,54.895348,9.797490,54.875690,9.787993
1390059695,3,0,0.0,0,-10,-4,0,713,750,-0.0292,173.6255,6.8213,0.4212,54.875633,9.788008,108.3,5.845,1.85,335.95,54.895348,9.797490,54.875690,9.787993
1390059696,3,0,0.0,0,-6,-8,0,713,700,-0.0292,175.6255,6.8213,0.4212,54.875618,9.788010,108.3,5.845,1.85,335.95,54.895348,9.797490,54.875690,9.787993
1390059696,3,0,0.0,0,-4,-4,0,713,750,-0.0292,176.9589,6.8213,0.4212,54.875599,9.788011,108.3,5.845,1.85,335.95,54.895348,9.797490,54.875690,9.787993
1390059696,3,0,0.0,0,-3,0,0,713,700,-0.0292,177.9589,6.8213,0.4212,54.875580,9.788012,108.3,5.845,1.85,335.95,54.895348,9.797490,54.875690,9.787993
1390059696,3,0,0.0,0,-2,-4,0,713,750,-0.0292,178.6255,6.8213,0.4212,54.875561,9.788013,108.3,5.845,1.85,335.95,54.895348,9.797490,54.875690,9.787993
1390059697,3,0,0.0,0,-1,0,0,713,700,-0.0292,178.9589,6.8213,0.4212,54.875546,9.788013,108.3,5.845,1.85,335.95,54.895348,9.797490,54.875690,9.787993
1390059697,3,0,0.0,0,-1,-4,0,713,750,-0.0292,179.2922,6.8213,0.4212,54.875526,9.788013,108.3,5.845,1.85,335.95,54.895348,9.797490,54.875690,9.787993
1390059697,3,0,0.0,0,-1,0,0,713,700,-0.0292,179.6255,6.8213,0.4212,54.875507,9.788013,108.3,5.845,1.85,335.95,54.895348,9.797490,54.875690,9.787993
1390059697,3,0,0.0,0,0,4,0,713,750,-0.0292,179.6255,6.8213,0.4212,54.875488,9.788013,108.3,5.845,1.85,335.95,54.895348,9.797490,54.875690,9.787993
1390059698,3,0,0.0,0,0,0,0,713,700,-0.0292,179.6255,6.8213,0.4212,54.875473,9.788013,108.3,5.845,1.85,335.95,54.895348,9.797490,54.875690,9.787993
1390059698,3,0,0.0,0,0,4,0,713,750,-0.0292,179.6255,6.8213,0.4212,54.875454,9.788013,108.3,5.845,1.85,335.95,54.895348,9.797490,54.875690,9.787993
1390059698,3,0,0.0,0,0,0,0,713,700,-0.0292,179.6255,6.8213,0.4212,54.875435,9.788013,108.3,5.845,1.85,335.95,54.895348,9.797490,54.875690,9.787993
1390059698,3,0,0.0,0,0,4,0,713,750,-0.0292,179.6255,6.8213,0.4212,54.875416,9.788013,108.3,5.845,1.85,335.95,54.895348,9.797490,54.875690,9.787993
1390059699,3,0,0.0,0,0,0,0,713,700,-0.0292,179.6255,6.8213,0.4212,54.875401,9.788013,108.3,5.845,1.85,335.95,54.895348,9.797490,54.875690,9.787993
1390059699,3,0,0.0,0,0,4,0,713,750,-0.0292,179.6255,6.8213,0.4212,54.875381,9.788013,108.3,5.845,1.85,335.95,54.895348,9.797490,54.875690,9.787993
1390059699,3,0,0.0,0,0,0,0,713,700,-0.0292,179.6255,6.8213,0.4212,54.875362,9.788013,108.3,5.845,1.85,335.95,54.895348,9.797490,54.875690,9.787993
1390059699,3,0,0.0,0,0,4,0,713,750,-0.0292,179.6255,6.8213,0.4212,54.875347,9.788013,108.3,5.845,1.85,335.95,54.895348,9.797490,54.875690,9.787993
1390059700,3,0,0.0,0,0,0,0,713,700,-0.0292,179.6255,6.8213,0.4212,54.875328,9.788013,108.3,5.845,1.85,335.95,54.895348,9.797490,54.875690,9.787993
1390059700,3,0,0.0,0,0,4,0,713,750,-0.0292,179.6255,6.8213,0.4212,54.875309,9.788013,108.3,5.845,1.85,335.95,54.895348,9.797490,54.875690,9.787993
1390059700,3,0,0.0,0,0,0,0,713,700,-0.0292,179.6255,6.8213,0.4212,54.875290,9.788013,108.3,5.845,1.85,335.95,54.895348,9.797490,54.875690,9.787993
1390059700,3,0,0.0,0,10,4,0,713,750,-0.0292,176.2922,6.8213,0.4212,54.875275,9.788014,108.3,5.845,1.85,335.95,54.895348,9.797490,54.875690,9.787993
1390059701,3,0,0.0,0,6,8,0,713,700,-0.0292,174.2922,6.8213,0.4212,54.875256,9.788017,108.3,5.845,1.85,335.95,54.895348,9.797490,54.875690,9.787993
1390059701,3,0,0.0,0,4,4,0,713,750,-0.0292,172.9589,6.8213,0.4212,54.875237,9.788021,108.3,5.845,1.85,335.95,54.895348,9.797490,54.875690,9.787993
1390059701,3,0,0.0,0,3,0,0,713,700,-0.0292,171.9589,6.8213,0.4212,54.875217,9.788026,108.3,5.845,1.85,335.95,54.895348,9.797490,54.875690,9.787993
1390059701,3,0,0.0,0,2,4,0,713,750,-0.0292,171.2922,6.8213,0.4212,54.875202,9.788031,108.3,5.845,1.85,335.95,54.895348,9.797490,54.875690,9.787993
1390059702,3,0,0.0,0,1,0,0,713,700,-0.0292,170.9589,6.8213,0.4212,54.875183,9.788035,108.3,5.845,1.85,335.95,54.895348,9.797490,54.875690,9.787993
1390059702,3,0,0.0,0,1,4,0,713,750,-0.0292,170.6255,6.8213,0.4212,54.875164,9.788041,108.3,5.845,1.85,335.95,54.895348,9.797490,54.875690,9.787993
1390059702,3,0,0.0,0,1,0,0,713,700,-0.0292,170.2922,6.8213,0.4212,54.875149,9.788047,108.3,5.845,1.85,335.95,54.895348,9.797490,54.875690,9.787993
1390059703,3,0,0.0,0,0,4,0,713,750,-0.0292,170.2922,6.8213,0.4212,54.875130,9.788052,108.3,5.845,1.85,335.95,54.895348,9.797490,54.875690,9.787993
1390059703,3,0,0.0,0,0,0,0,713,700,-0.0292,170.2922,6.8213,0.4212,54.875111,9.788056,108.3,5.845,1.85,335.95,54.895348,9.797490,54.875690,9.787993
1390059703,3,0,0.0,0,0,4,0,713,750,-0.0292,170.2922,6.8213,0.4212,54.875092,9.788061,108.3,5.845,1.85,335.95,54.895348,9.797490,54.875690,9.787993
1390059703,3,0,0.0,0,0,0,0,713,700,-0.0292,170.2922,6.8213,0.4212,54.875076,9.788066,108.3,5.845,1.85,335.95,54.895348,9.797490,54.875690,9.787993
1390059704,3,0,0.0,0,0,4,0,713,750,-0.0292,170.2922,6.8213,0.4212,54.875057,9.788071,108.3,5.845,1.85,335.95,54.895348,9.797490,54.875690,9.787993
1390059704,3,0,0.0,0,0,0,0,713,700,-0.0292,170.2922,6.8213,0.4212,54.875038,9.788076,108.3,5.845,1.85,335.95,54.895348,9.797490,54.875690,9.787993
1390059704,3,0,0.0,0,0,4,0,713,750,-0.0292,170.2922,6.8213,0.4212,54.875019,9.788082,108.3,5.845,1.85,335.95,54.895348,9.797490,54.875690,9.787993
1390059704,3,0,0.0,0,0,0,0,713,700,-0.0292,170.2922,6.8213,0.4212,54.875004,9.788088,108.3,5.845,1.85,335.95,54.895348,9.797490,54.875690,9.787993
1390059705,3,0,0.0,0,0,4,0,713,750,-0.0292,170.2922,6.8213,0.4212,54.874985,9.788093,108.3,5.845,1.85,335.95,54.895348,9.797490,54.875690,9.787993
1390059705,3,0,0.0,0,0,0,0,713,700,-0.0292,170.2922,6.8213,0.4212,54.874966,9.788097,108.3,5.845,1.85,335.95,54.895348,9.797490,54.875690,9.787993
1390059705,3,0,0.0,0,0,4,0,713,750,-0.0292,170.2922,6.8213,0.4212,54.874947,9.788102,108.3,5.845,1.85,335.95,54.895348,9.797490,54.875690,9.787993
1390059705,3,0,0.0,0,0,0,0,713,700,-0.0292,170.2922,6.8213,0.4212,54.874931,9.788107,108.3,5.845,1.85,335.95,54.895348,9.797490,54.875690,9.787993
1390059706,3,0,0.0,0,10,4,0,713,750,-0.0292,166.9589,6.8213,0.4212,54.874912,9.788114,108.3,5.845,1.85,335.95,54.895348,9.797490,54.875690,9.787993
1390059706,3,0,0.0,0,7,8,0,713,700,-0.0292,164.6255,6.8213,0.4212,54.874893,9.788122,108.3,5.845,1.85,335.95,54.895348,9.797490,54.875690,9.787993
1390059706,3,0,0.0,0,5,4,0,0,650,-0.0292,162.9589,6.8213,0.4212,54.874878,9.788132,108.3,5.845,1.85,335.95,54.895348,9.797490,54.875690,9.787993
1390059706,3,0,0.0,0,3,0,0,0,600,-0.0292,161.9589,6.8213,0.4212,54.874859,9.788141,108.3,5.845,1.85,335.95,54.895348,9.797490,54.875690,9.787993
1390059707,3,0,0.0,0,2,4,0,0,550,-0.0292,161.2922,6.8213,0.4212,54.874840,9.788151,108.3,5.845,1.85,335.95,54.895348,9.797490,54.875690,9.787993
1390059707,3,0,0.0,0,1,0,0,0,500,-0.0292,160.9589,6.8213,0.4212,54.874825,9.788161,108.3,5.845,1.85,335.95,54.895348,9.797490,54.875690,9.787993
1390059707,3,0,0.0,0,1,4,0,0,450,-0.0292,160.6255,6.8213,0.4212,54.874809,9.788172,108.3,5.845,1.85,335.95,54.895348,9.797490,54.875690,9.787993
1390059707,3,0,0.0,0,1,0,0,0,400,-0.0292,160.2922,6.8213,0.4212,54.874790,9.788182,108.3,5.845,1.85,335.95,54.895348,9.797490,54.875690,9.787993
1390059708,3,0,0.0,0,0,4,0,0,350,-0.0292,160.2922,6.8213,0.4212,54.874775,9.788193,108.3,5.845,1.85,335.95,54.895348,9.797490,54.875690,9.787993
1390059708,3,0,0.0,0,0,0,0,0,300,-0.0292,160.2922,6.8213,0.4212,54.874760,9.788203,108.3,5.845,1.85,335.95,54.895348,9.797490,54.875690,9.787993
1390059708,3,0,0.0,0,0,4,0,0,250,-0.0292,160.2922,6.8213,0.4212,54.874741,9.788214,108.3,5.845,1.85,335.95,54.895348,9.797490,54.875690,9.787993
1390059708,3,0,0.0,0,0,0,0,0,200,-0.0292,160.2922,6.8213,0.4212,54.874725,9.788224,108.3,5.845,1.85,335.95,54.895348,9.797490,54.875690,9.787993
1390059709,3,0,0.0,0,0,4,0,0,150,-0.0292,160.2922,6.8213,0.4212,54.874710,9.788235,108.3,5.845,1.85,335.95,54.895348,9.797490,54.875690,9.787993
1390059709,3,0,0.0,0,0,0,0,0,100,-0.0292,160.2922,6.8213,0.4212,54.874691,9.788245,108.3,5.845,1.85,335.95,54.895348,9.797490,54.875690,9.787993
1390059709,3,0,0.0,0,0,4,0,0,50,-0.0292,160.2922,6.8213,0.4212,54.874676,9.788256,108.3,5.845,1.85,335.95,54.895348,9.797490,54.875690,9.787993
1390059709,3,0,0.0,0,0,0,0,0,0,-0.0292,160.2922,6.8213,0.4212,54.874660,9.788266,108.3,5.845,1.85,335.95,54.895348,9.797490,54.875690,9.787993
1390059710,3,0,0.0,0,0,4,0,0,0,-0.0292,160.2922,6.8213,0.4212,54.874641,9.788277,108.3,5.845,1.85,335.95,54.895348,9.797490,54.875690,9.787993
1390059710,3,0,0.0,0,0,0,0,0,0,-0.0292,160.2922,6.8213,0.4212,54.874626,9.788287,108.3,5.845,1.85,335.95,54.895348,9.797490,54.875690,9.787993
1390059710,3,0,0.0,0,0,4,0,0,0,-0.0292,160.2922,6.8213,0.4212,54.874611,9.788298,108.3,5.845,1.85,335.95,54.895348,9.797490,54.875690,9.787993
1390059710,3,0,0.0,0,0,0,0,0,0,-0.0292,160.2922,6.8213,0.4212,54.874592,9.788308,108.3,5.845,1.85,335.95,54.895348,9.797490,54.875690,9.787993
1390059711,3,0,0.0,0,10,4,0,0,0,-0.0292,156.9589,6.8213,0.4212,54.874577,9.788320,108.3,5.845,1.85,335.95,54.895348,9.797490,54.875690,9.787993
1390059711,3,0,0.0,0,7,8,0,0,0,-0.0292,154.6256,6.8213,0.4212,54.874561,9.788333,108.3,5.845,1.85,335.95,54.895348,9.797490,54.875690,9.787993
1390059711,3,0,0.0,0,5,4,0,0,0,-0.0292,152.9589,6.8213,0.4212,54.874542,9.788347,108.3,5.845,1.85,335.95,54.895348,9.797490,54.875690,9.787993
1390059711,3,0,0.0,0,3,0,0,0,0,-0.0292,151.9589,6.8213,0.4212,54.874527,9.788362,108.3,5.845,1.85,335.95,54.895348,9.797490,54.875690,9.787993
1390059712,3,0,0.0,0,2,4,0,0,0,-0.0292,151.2922,6.8213,0.4212,54.874512,9.788376,108.3,5.845,1.85,335.95,54.895348,9.797490,54.875690,9.787993
1390059712,3,0,0.0,0,1,0,0,0,0,-0.0292,150.9589,6.8213,0.4212,54.874496,9.788391,108.3,5.845,1.85,335.95,54.895348,9.797490,54.875690,9.787993
1390059712,3,0,0.0,0,1,4,0,0,0,-0.0292,150.6256,6.8213,0.4212,54.874481,9.788405,108.3,5.845,1.85,335.95,54.895348,9.797490,54.875690,9.787993
1390059712,3,0,0.0,0,1,0,0,0,0,-0.0292,150.2922,6.8213,0.4212,54.874466,9.788421,108.3,5.845,1.85,335.95,54.895348,9.797490,54.875690,9.787993
1390059713,3,0,0.0,0,0,4,0,0,0,-0.0292,150.2922,6.8213,0.4212,54.874451,9.788436,108.3,5.845,1.85,335.95,54.895348,9.797490,54.875690,9.787993
1390059713,3,0,0.0,0,0,0,0,0,0,-0.0292,150.2922,6.8213,0.4212,54.874435,9.788450,108.3,5.845,1.85,335.95,54.895348,9.797490,54.875690,9.787993
1390059713,3,0,0.0,0,0,4,0,0,0,-0.0292,150.2922,6.8213,0.4212,54.874416,9.788465,108.3,5.845,1.85,335.95,54.895348,9.797490,54.875690,9.787993
1390059713,3,0,0.0,0,0,0,0,0,0,-0.0292,150.2922,6.8213,0.4212,54.874401,9.788481,108.3,5.845,1.85,335.95,54.895348,9.797490,54.875690,9.787993
1390059714,3,0,0.0,0,0,4,0,0,0,-0.0292,150.2922,6.8213,0.4212,54.874386,9.788495,108.3,5.845,1.85,335.95,54.895348,9.797490,54.875690,9.787993
1390059714,3,0,0.0,0,0,0,0,0,0,-0.0292,150.2922,6.8213,0.4212,54.874367,9.788510,108.3,5.845,1.85,335.95,54.895348,9.797490,54.875690,9.787993
1390059714,3,0,0.0,0,0,4,0,0,0,-0.0292,150.2922,6.8213,0.4212,54.874352,9.788526,108.3,5.845,1.85,335.95,54.895348,9.797490,54.875690,9.787993
1390059714,3,0,0.0,0,0,0,0,0,0,-0.0292,150.2922,6.8213,0.4212,54.874336,9.788540,108.3,5.845,1.85,335.95,54.895348,9.797490,54.875690,9.787993
1390059715,3,0,0.0,0,0,4,0,0,0,-0.0292,150.2922,6.8213,0.4212,54.874317,9.788555,108.3,5.845,1.85,335.95,54.895348,9.797490,54.875690,9.787993
1390059715,3,0,0.0,0,0,0,0,0,0,-0.0292,150.2922,6.8213,0.4212,54.874302,9.788570,108.3,5.845,1.85,335.95,54.895348,9.797490,54.875690,9.787993
1390059715,3,0,0.0,0,0,4,0,0,0,-0.0292,150.2922,6.8213,0.4212,54.874287,9.788585,108.3,5.845,1.85,335.95,54.895348,9.797490,54.875690,9.787993
1390059715,3,0,0.0,0,0,0,0,0,0,-0.0292,150.2922,6.8213,0.4212,54.874275,9.788600,108.3,5.845,1.85,335.95,54.895348,9.797490,54.875690,9.787993
1390059716,3,0,0.0,0,10,4,0,0,0,-0.0292,146.9589,6.8213,0.4212,54.874260,9.788617,108.3,5.845,1.85,335.95,54.895348,9.797490,54.875690,9.787993
1390059716,3,0,0.0,0,7,8,0,0,0,-0.0292,144.6256,6.8213,0.4212,54.874249,9.788634,108.3,5.845,1.85,335.95,54.895348,9.797490,54.875690,9.787993
1390059716,3,0,0.0,0,5,4,0,713,50,-0.0292,142.9589,6.8213,0.4212,54.874233,9.788652,108.3,5.845,1.85,335.95,54.895348,9.797490,54.875690,9.787993
1390059716,3,0,0.0,0,3,0,0,713,100,-0.0292,141.9589,6.8213,0.4212,54.874222,9.788671,108.3,5.845,1.85,335.95,54.895348,9.797490,54.875690,9.787993
1390059717,3,0,0.0,0,2,4,0,713,150,-0.0292,141.2922,6.8213,0.4212,54.874207,9.788690,108.3,5.845,1.85,335.95,54.895348,9.797490,54.875690,9.787993
1390059717,3,0,0.0,0,1,0,0,713,200,-0.0292,140.9589,6.8213,0.4212,54.874195,9.788708,108.3,5.845,1.85,335.95,54.895348,9.797490,54.875690,9.787993
1390059717,3,0,0.0,0,1,4,0,713,250,-0.0292,140.6256,6.8213,0.4212,54.874180,9.788727,108.3,5.845,1.85,335.95,54.895348,9.797490,54.875690,9.787993
1390059717,3,0,0.0,0,1,0,0,713,300,-0.0292,140.2923,6.8213,0.4212,54.874168,9.788746,108.3,5.845,1.85,335.95,54.895348,9.797490,54.875690,9.787993
1390059718,3,0,0.0,0,0,4,0,713,350,-0.0292,140.2923,6.8213,0.4212,54.874153,9.788765,108.3,5.845,1.85,335.95,54.895348,9.797490,54.875690,9.787993
1390059718,3,0,0.0,0,0,0,0,713,400,-0.0292,140.2923,6.8213,0.4212,54.874142,9.788784,108.3,5.845,1.85,335.95,54.895348,9.797490,54.875690,9.787993
1390059718,3,0,0.0,0,0,4,0,713,450,-0.0292,140.2923,6.8213,0.4212,54.874126,9.788803,108.3,5.845,1.85,335.95,54.895348,9.797490,54.875690,9.787993
1390059718,3,0,0.0,0,0,0,0,713,500,-0.0292,140.2923,6.8213,0.4212,54.874115,9.788822,108.3,5.845,1.85,335.95,54.895348,9.797490,54.875690,9.787993
1390059719,3,0,0.0,0,0,4,0,713,550,-0.0292,140.2923,6.8213,0.4212,54.874100,9.788840,108.3,5.845,1.85,335.95,54.895348,9.797490,54.875690,9.787993
1390059719,3,0,0.0,0,0,0,0,713,600,-0.0292,140.2923,6.8213,0.4212,54.874084,9.788859,108.3,5.845,1.85,335.95,54.895348,9.797490,54.875690,9.787993
1390059719,3,0,0.0,0,0,4,0,713,650,-0.0292,140.2923,6.8213,0.4212,54.874073,9.788877,108.3,5.845,1.85,335.95,54.895348,9.797490,54.875690,9.787993
1390059719,3,0,0.0,0,0,0,0,713,700,-0.0292,140.2923,6.8213,0.4212,54.874058,9.788897,108.3,5.845,1.85,335.95,54.895348,9.797490,54.875690,9.787993
1390059720,3,0,0.0,0,0,4,0,713,750,-0.0292,140.2923,6.8213,0.4212,54.874046,9.788916,108.3,5.845,1.85,335.95,54.895348,9.797490,54.875690,9.787993
1390059720,3,0,0.0,0,0,0,0,713,700,-0.0292,140.2923,6.8213,0.4212,54.874031,9.788935,108.3,5.845,1.85,335.95,54.895348,9.797490,54.875690,9.787993
1390059720,3,0,0.0,0,0,4,0,713,750,-0.0292,140.2923,6.8213,0.4212,54.874020,9.788954,108.3,5.845,1.85,335.95,54.895348,9.797490,54.875690,9.787993
1390059720,3,0,0.0,0,0,0,0,713,700,-0.0292,140.2923,6.8213,0.4212,54.874004,9.788973,108.3,5.845,1.85,335.95,54.895348,9.797490,54.875690,9.787993
1390059721,3,0,0.0,0,10,4,0,713,750,-0.0292,136.9589,6.8213,0.4212,54.873993,9.788993,108.3,5.845,1.85,335.95,54.895348,9.797490,54.875690,9.787993
1390059721,3,0,0.0,0,7,8,0,713,700,-0.0292,134.6256,6.8213,0.4212,54.873978,9.789013,108.3,5.845,1.85,335.95,54.895348,9.797490,54.875690,9.787993
1390059721,3,0,0.0,0,5,4,0,713,750,-0.0292,132.9589,6.8213,0.4212,54.873966,9.789034,108.3,5.845,1.85,335.95,54.895348,9.797490,54.875690,9.787993
1390059721,3,0,0.0,0,3,0,0,713,700,-0.0292,131.9589,6.8213,0.4212,54.873959,9.789055,108.3,5.845,1.85,335.95,54.895348,9.797490,54.875690,9.787993
1390059722,3,0,0.0,0,2,4,0,713,750,-0.0292,131.2923,6.8213,0.4212,54.873947,9.789077,108.3,5.845,1.85,335.95,54.895348,9.797490,54.875690,9.787993
1390059722,3,0,0.0,0,1,0,0,713,700,-0.0292,130.9589,6.8213,0.4212,54.873936,9.789098,108.3,5.845,1.85,335.95,54.895348,9.797490,54.875690,9.787993
1390059722,3,0,0.0,0,1,4,0,713,750,-0.0292,130.6256,6.8213,0.4212,54.873924,9.789120,108.3,5.845,1.85,335.95,54.895348,9.797490,54.875690,9.787993
1390059722,3,0,0.0,0,1,0,0,713,700,-0.0292,130.2923,6.8213,0.4212,54.873913,9.789142,108.3,5.845,1.85,335.95,54.895348,9.797490,54.875690,9.787993
1390059723,3,0,0.0,0,0,4,0,713,750,-0.0292,130.2923,6.8213,0.4212,54.873905,9.789164,108.3,5.845,1.85,335.95,54.895348,9.797490,54.875690,9.787993
1390059723,3,0,0.0,0,0,0,0,713,700,-0.0292,130.2923,6.8213,0.4212,54.873894,9.789186,108.3,5.845,1.85,335.95,54.895348,9.797490,54.875690,9.787993
1390059723,3,0,0.0,0,0,4,0,713,750,-0.0292,130.2923,6.8213,0.4212,54.873882,9.789207,108.3,5.845,1.85,335.95,54.895348,9.797490,54.875690,9.787993
1390059723,3,0,0.0,0,0,0,0,713,700,-0.0292,130.2923,6.8213,0.4212,54.873871,9.789229,108.3,5.845,1.85,335.95,54.895348,9.797490,54.875690,9.787993
1390059724,3,0,0.0,0,0,4,0,713,750,-0.0292,130.2923,6.8213,0.4212,54.873859,9.789251,108.3,5.845,1.85,335.95,54.895348,9.797490,54.875690,9.787993
1390059724,3,0,0.0,0,0,0,0,713,700,-0.0292,130.2923,6.8213,0.4212,54.873848,9.789273,108.3,5.845,1.85,335.95,54.895348,9.797490,54.875690,9.787993
1390059724,3,0,0.0,0,0,4,0,713,750,-0.0292,130.2923,6.8213,0.4212,54.873837,9.789295,108.3,5.845,1.85,335.95,54.895348,9.797490,54.875690,9.787993
1390059724,3,0,0.0,0,0,0,0,713,700,-0.0292,130.2923,6.8213,0.4212,54.873825,9.789317,108.3,5.845,1.85,335.95,54.895348,9.797490,54.875690,9.787993
1390059725,3,0,0.0,0,0,4,0,713,750,-0.0292,130.2923,6.8213,0.4212,54.873814,9.789339,108.3,5.845,1.85,335.95,54.895348,9.797490,54.875690,9.787993
1390059725,3,0,0.0,0,0,0,0,713,700,-0.0292,130.2923,6.8213,0.4212,54.873802,9.789361,108.3,5.845,1.85,335.95,54.895348,9.797490,54.875690,9.787993
1390059725,3,0,0.0,0,0,4,0,713,750,-0.0292,130.2923,6.8213,0.4212,54.873791,9.789383,108.3,5.845,1.85,335.95,54.895348,9.797490,54.875690,9.787993
1390059725,3,0,0.0,0,0,0,0,713,700,-0.0292,130.2923,6.8213,0.4212,54.873783,9.789405,108.3,5.845,1.85,335.95,54.895348,9.797490,54.875690,9.787993
1390059726,3,0,0.0,0,10,4,0,713,750,-0.0292,126.9589,6.8213,0.4212,54.873772,9.789428,108.3,5.845,1.85,335.95,54.895348,9.797490,54.875690,9.787993
1390059726,3,0,0.0,0,7,8,0,713,700,-0.0292,124.6256,6.8213,0.4212,54.873760,9.789451,108.3,5.845,1.85,335.95,54.895348,9.797490,54.875690,9.787993
1390059726,3,0,0.0,0,5,4,0,713,750,-0.0292,122.9589,6.8213,0.4212,54.873753,9.789474,108.3,5.845,1.85,335.95,54.895348,9.797490,54.875690,9.787993
1390059726,3,0,0.0,0,3,0,0,713,700,-0.0292,121.9589,6.8213,0.4212,54.873745,9.789498,108.3,5.845,1.85,335.95,54.895348,9.797490,54.875690,9.787993
1390059727,3,0,0.0,0,2,4,0,713,750,-0.0292,121.2923,6.8213,0.4212,54.873737,9.789522,108.3,5.845,1.85,335.95,54.895348,9.797490,54.875690,9.787993
1390059727,3,0,0.0,0,1,0,0,713,700,-0.0292,120.9589,6.8213,0.4212,54.873730,9.789546,108.3,5.845,1.85,335.95,54.895348,9.797490,54.875690,9.787993
1390059727,3,0,0.0,0,1,4,0,713,750,-0.0292,120.6256,6.8213,0.4212,54.873722,9.789569,108.3,5.845,1.85,335.95,54.895348,9.797490,54.875690,9.787993
1390059727,3,0,0.0,0,1,0,0,713,700,-0.0292,120.2923,6.8213,0.4212,54.873711,9.789593,108.3,5.845,1.85,335.95,54.895348,9.797490,54.875690,9.787993
1390059728,3,0,0.0,0,0,4,0,713,750,-0.0292,120.2923,6.8213,0.4212,54.873703,9.789617,108.3,5.845,1.85,335.95,54.895348,9.797490,54.875690,9.787993
1390059728,3,0,0.0,0,0,0,0,713,700,-0.0292,120.2923,6.8213,0.4212,54.873695,9.789640,108.3,5.845,1.85,335.95,54.895348,9.797490,54.875690,9.787993
1390059728,3,0,0.0,0,0,4,0,713,750,-0.0292,120.2923,6.8213,0.4212,54.873688,9.789664,108.3,5.845,1.85,335.95,54.895348,9.797490,54.875690,9.787993
1390059728,3,0,0.0,0,0,0,0,713,700,-0.0292,120.2923,6.8213,0.4212,54.873680,9.789688,108.3,5.845,1.85,335.95,54.895348,9.797490,54.875690,9.787993
1390059729,3,0,0.0,0,0,4,0,713,750,-0.0292,120.2923,6.8213,0.4212,54.873672,9.789712,108.3,5.845,1.85,335.95,54.895348,9.797490,54.875690,9.787993
1390059729,3,0,0.0,0,0,0,0,713,700,-0.0292,120.2923,6.8213,0.4212,54.873661,9.789736,108.3,5.845,1.85,335.95,54.895348,9.797490,54.875690,9.787993
1390059729,3,0,0.0,0,0,4,0,713,750,-0.0292,120.2923,6.8213,0.4212,54.873653,9.789760,108.3,5.845,1.85,335.95,54.895348,9.797490,54.875690,9.787993
1390059729,3,0,0.0,0,0,0,0,713,700,-0.0292,120.2923,6.8213,0.4212,54.873646,9.789783,108.3,5.845,1.85,335.95,54.895348,9.797490,54.875690,9.787993
1390059730,3,0,0.0,0,0,4,0,713,750,-0.0292,120.2923,6.8213,0.4212,54.873638,9.789807,108.3,5.845,1.85,335.95,54.895348,9.797490,54.875690,9.787993
1390059730,3,0,0.0,0,0,0,0,713,700,-0.0292,120.2923,6.8213,0.4212,54.873631,9.789831,108.3,5.845,1.85,335.95,54.895348,9.797490,54.875690,9.787993
1390059730,3,0,0.0,0,0,4,0,713,750,-0.0292,120.2923,6.8213,0.4212,54.873623,9.789855,108.3,5.845,1.85,335.95,54.895348,9.797490,54.875690,9.787993
1390059730,3,0,0.0,0,0,0,0,713,700,-0.0292,120.2923,6.8213,0.4212,54.873611,9.789879,108.3,5.845,1.85,335.95,54.895348,9.797490,54.875690,9.787993
1390059731,3,0,0.0,0,10,4,0,713,750,-0.0292,116.9589,6.8213,0.4212,54.873604,9.789904,108.3,5.845,1.85,335.95,54.895348,9.797490,54.875690,9.787993
1390059731,3,0,0.0,0,7,8,0,713,700,-0.0292,114.6256,6.8213,0.4212,54.873596,9.789928,108.3,5.845,1.85,335.95,54.895348,9.797490,54.875690,9.787993
1390059731,3,0,0.0,0,5,4,0,713,750,-0.0292,112.9589,6.8213,0.4212,54.873592,9.789953,108.3,5.845,1.85,335.95,54.895348,9.797490,54.875690,9.787993
1390059731,3,0,0.0,0,3,0,0,713,700,-0.0292,111.9589,6.8213,0.4212,54.873589,9.789978,108.3,5.845,1.85,335.95,54.895348,9.797490,54.875690,9.787993
1390059732,3,0,0.0,0,2,4,0,713,750,-0.0292,111.2923,6.8213,0.4212,54.873585,9.790002,108.3,5.845,1.85,335.95,54.895348,9.797490,54.875690,9.787993
1390059732,3,0,0.0,0,1,0,0,713,700,-0.0292,110.9589,6.8213,0.4212,54.873581,9.790027,108.3,5.845,1.85,335.95,54.895348,9.797490,54.875690,9.787993
1390059732,3,0,0.0,0,1,4,0,713,750,-0.0292,110.6256,6.8213,0.4212,54.873573,9.790051,108.3,5.845,1.85,335.95,54.895348,9.797490,54.875690,9.787993
1390059732,3,0,0.0,0,1,0,0,870,800,-0.0292,110.2923,6.8213,0.4212,54.873569,9.790076,108.3,5.845,1.85,335.95,54.895348,9.797490,54.875690,9.787993
1390059733,3,0,0.0,0,0,4,0,870,850,-0.0292,110.2923,6.8213,0.4212,54.873566,9.790101,108.3,5.845,1.85,335.95,54.895348,9.797490,54.875690,9.787993
1390059733,3,0,0.0,0,0,0,0,870,900,-0.0292,110.2923,6.8213,0.4212,54.873562,9.790126,108.3,5.845,1.85,335.95,54.895348,9.797490,54.875690,9.787993
1390059733,3,0,0.0,0,0,4,0,870,850,-0.0292,110.2923,6.8213,0.4212,54.873558,9.790151,108.3,5.845,1.85,335.95,54.895348,9.797490,54.875690,9.787993
1390059733,3,0,0.0,0,0,0,0,870,900,-0.0292,110.2923,6.8213,0.4212,54.873550,9.790175,108.3,5.845,1.85,335.95,54.895348,9.797490,54.875690,9.787993
1390059734,3,0,0.0,0,0,4,0,870,850,-0.0292,110.2923,6.8213,0.4212,54.873543,9.790200,108.3,5.845,1.85,335.95,54.895348,9.797490,54.875690,9.787993
1390059734,3,0,0.0,0,0,0,0,870,900,-0.0292,110.2923,6.8213,0.4212,54.873539,9.790225,108.3,5.845,1.85,335.95,54.895348,9.797490,54.875690,9.787993
1390059734,3,0,0.0,0,0,4,0,870,850,-0.0292,110.2923,6.8213,0.4212,54.873535,9.790250,108.3,5.845,1.85,335.95,54.895348,9.797490,54.875690,9.787993
1390059734,3,0,0.0,0,0,0,0,870,900,-0.0292,110.2923,6.8213,0.4212,54.873531,9.790275,108.3,5.845,1.85,335.95,54.895348,9.797490,54.875690,9.787993
1390059735,3,0,0.0,0,0,4,0,870,850,-0.0292,110.2923,6.8213,0.4212,54.873524,9.790298,108.3,5.845,1.85,335.95,54.895348,9.797490,54.875690,9.787993
1390059735,3,0,0.0,0,0,0,0,870,900,-0.0292,110.2923,6.8213,0.4212,54.873520,9.790323,108.3,5.845,1.85,335.95,54.895348,9.797490,54.875690,9.787993
1390059735,3,0,0.0,0,0,4,0,870,850,-0.0292,110.2923,6.8213,0.4212,54.873516,9.790348,108.3,5.845,1.85,335.95,54.895348,9.797490,54.875690,9.787993
1390059735,3,0,0.0,0,0,0,0,870,900,-0.0292,110.2923,6.8213,0.4212,54.873512,9.790373,108.3,5.845,1.85,335.95,54.895348,9.797490,54.875690,9.787993
1390059736,3,0,0.0,0,10,4,0,870,850,-0.0292,106.9589,6.8213,0.4212,54.873508,9.790398,108.3,5.845,1.85,335.95,54.895348,9.797490,54.875690,9.787993
1390059736,3,0,0.0,0,7,8,0,870,900,-0.0292,104.6256,6.8213,0.4212,54.873505,9.790422,108.3,5.845,1.85,335.95,54.895348,9.797490,54.875690,9.787993
1390059736,3,0,0.0,0,5,4,0,870,850,-0.0292,102.9589,6.8213,0.4212,54.873501,9.790447,108.3,5.845,1.85,335.95,54.895348,9.797490,54.875690,9.787993
1390059736,3,0,0.0,0,3,0,0,870,900,-0.0292,101.9589,6.8213,0.4212,54.873497,9.790471,108.3,5.845,1.85,335.95,54.895348,9.797490,54.875690,9.787993
1390059737,3,0,0.0,0,2,4,0,870,850,-0.0292,101.2923,6.8213,0.4212,54.873497,9.790496,108.3,5.845,1.85,335.95,54.895348,9.797490,54.875690,9.787993
1390059737,3,0,0.0,0,1,0,0,870,900,-0.0292,100.9589,6.8213,0.4212,54.873497,9.790520,108.3,5.845,1.85,335.95,54.895348,9.797490,54.875690,9.787993
1390059737,3,0,0.0,0,1,4,0,870,850,-0.0292,100.6256,6.8213,0.4212,54.873497,9.790545,108.3,5.845,1.85,335.95,54.895348,9.797490,54.875690,9.787993
1390059737,3,0,0.0,0,1,0,0,870,900,-0.0292,100.2922,6.8213,0.4212,54.873497,9.790569,108.3,5.845,1.85,335.95,54.895348,9.797490,54.875690,9.787993
1390059738,3,0,0.0,0,0,4,0,870,850,-0.0292,100.2922,6.8213,0.4212,54.873497,9.790594,108.3,5.845,1.85,335.95,54.895348,9.797490,54.875690,9.787993
1390059738,3,0,0.0,0,0,0,0,870,900,-0.0292,100.2922,6.8213,0.4212,54.873497,9.790619,108.3,5.845,1.85,335.95,54.895348,9.797490,54.875690,9.787993
1390059738,3,0,0.0,0,0,4,0,870,850,-0.0292,100.2922,6.8213,0.4212,54.873497,9.790643,108.3,5.845,1.85,335.95,54.895348,9.797490,54.875690,9.787993
1390059739,3,0,0.0,0,0,0,0,870,900,-0.0292,100.2922,6.8213,0.4212,54.873497,9.790668,108.3,5.845,1.85,335.95,54.895348,9.797490,54.875690,9.787993
1390059739,3,0,0.0,0,0,4,0,870,850,-0.0292,100.2922,6.8213,0.4212,54.873497,9.790691,108.3,5.845,1.85,335.95,54.895348,9.797490,54.875690,9.787993
1390059739,3,0,0.0,0,0,0,0,870,900,-0.0292,100.2922,6.8213,0.4212,54.873497,9.790716,108.3,5.845,1.85,335.95,54.895348,9.797490,54.875690,9.787993
1390059739,3,0,0.0,0,0,4,0,870,850,-0.0292,100.2922,6.8213,0.4212,54.873497,9.790741,108.3,5.845,1.85,335.95,54.895348,9.797490,54.875690,9.787993
1390059740,3,0,0.0,0,0,0,0,870,900,-0.0292,100.2922,6.8213,0.4212,54.873497,9.790766,108.3,5.845,1.85,335.95,54.895348,9.797490,54.875690,9.787993
1390059740,3,0,0.0,0,0,4,0,870,850,-0.0292,100.2922,6.8213,0.4212,54.873497,9.790791,108.3,5.845,1.85,335.95,54.895348,9.797490,54.875690,9.787993
1390059740,3,0,0.0,0,0,0,0,870,900,-0.0292,100.2922,6.8213,0.4212,54.873497,9.790814,108.3,5.845,1.85,335.95,54.895348,9.797490,54.875690,9.787993
1390059740,3,0,0.0,0,0,4,0,870,850,-0.0292,100.2922,6.8213,0.4212,54.873497,9.790839,108.3,5.845,1.85,335.95,54.895348,9.797490,54.875690,9.787993
1390059741,3,0,0.0,0,0,0,0,870,900,-0.0292,100.2922,6.8213,0.4212,54.873497,9.790863,108.3,5.845,1.85,335.95,54.895348,9.797490,54.875690,9.787993
1390059741,3,0,0.0,0,10,4,0,870,850,-0.0292,96.9589,6.8213,0.4212,54.873497,9.790888,108.3,5.845,1.85,335.95,54.895348,9.797490,54.875690,9.787993
1390059741,3,0,0.0,0,7,8,0,870,900,-0.0292,94.6256,6.8213,0.4212,54.873497,9.790912,108.3,5.845,1.85,335.95,54.895348,9.797490,54.875690,9.787993
1390059741,3,0,0.0,0,5,4,0,840,850,-0.0292,92.9589,6.8213,0.4212,54.873497,9.790936,108.3,5.845,1.85,335.95,54.895348,9.797490,54.875690,9.787993
1390059742,3,0,0.0,0,3,0,0,817,800,-0.0292,91.9589,6.8213,0.4212,54.873497,9.790959,108.3,5.845,1.85,335.95,54.895348,9.797490,54.875690,9.787993
1390059742,3,0,0.0,0,2,4,0,802,850,-0.0292,91.2922,6.8213,0.4212,54.873497,9.790983,108.3,5.845,1.85,335.95,54.895348,9.797490,54.875690,9.787993
1390059742,3,0,0.0,0,1,0,0,793,800,-0.0292,90.9589,6.8213,0.4212,54.873497,9.791007,108.3,5.845,1.85,335.95,54.895348,9.797490,54.875690,9.787993
1390059742,3,0,0.0,0,1,4,0,788,750,-0.0292,90.6256,6.8213,0.4212,54.873497,9.791030,108.3,5.845,1.85,335.95,54.895348,9.797490,54.875690,9.787993
1390059743,3,0,0.0,0,1,0,0,783,800,-0.0292,90.2922,6.8213,0.4212,54.873497,9.791054,108.3,5.845,1.85,335.95,54.895348,9.797490,54.875690,9.787993
1390059743,3,0,0.0,0,0,4,0,778,750,-0.0292,90.2922,6.8213,0.4212,54.873497,9.791077,108.3,5.845,1.85,335.95,54.895348,9.797490,54.875690,9.787993
1390059743,3,0,0.0,0,0,0,0,778,800,-0.0292,90.2922,6.8213,0.4212,54.873497,9.791101,108.3,5.845,1.85,335.95,54.895348,9.797490,54.875690,9.787993
1390059743,3,0,0.0,0,0,4,0,778,750,-0.0292,90.2922,6.8213,0.4212,54.873497,9.791123,108.3,5.845,1.85,335.95,54.895348,9.797490,54.875690,9.787993
1390059744,3,0,0.0,0,0,0,0,778,800,-0.0292,90.2922,6.8213,0.4212,54.873497,9.791147,108.3,5.845,1.85,335.95,54.895348,9.797490,54.875690,9.787993
1390059744,3,0,0.0,0,0,4,0,778,750,-0.0292,90.2922,6.8213,0.4212,54.873497,9.791170,108.3,5.845,1.85,335.95,54.895348,9.797490,54.875690,9.787993
1390059744,3,0,0.0,0,0,0,0,778,800,-0.0292,90.2922,6.8213,0.4212,54.873497,9.791194,108.3,5.845,1.85,335.95,54.895348,9.797490,54.875690,9.787993
1390059744,3,0,0.0,0,0,4,0,778,750,-0.0292,90.2922,6.8213,0.4212,54.873497,9.791217,108.3,5.845,1.85,335.95,54.895348,9.797490,54.875690,9.787993
1390059745,3,0,0.0,0,0,0,0,778,800,-0.0292,90.2922,6.8213,0.4212,54.873497,9.791240,108.3,5.845,1.85,335.95,54.895348,9.797490,54.875690,9.787993
1390059745,3,0,0.0,0,0,4,0,778,750,-0.0292,90.2922,6.8213,0.4212,54.873497,9.791263,108.3,5.845,1.85,335.95,54.895348,9.797490,54.875690,9.787993
1390059745,3,0,0.0,0,0,0,0,778,800,-0.0292,90.2922,6.8213,0.4212,54.873497,9.791286,108.3,5.845,1.85,335.95,54.895348,9.797490,54.875690,9.787993
1390059745,3,0,0.0,0,0,4,0,778,750,-0.0292,90.2922,6.8213,0.4212,54.873497,9.791309,108.3,5.845,1.85,335.95,54.895348,9.797490,54.875690,9.787993
1390059746,3,0,0.0,0,0,0,0,778,800,-0.0292,90.2922,6.8213,0.4212,54.873497,9.791332,108.3,5.845,1.85,335.95,54.895348,9.797490,54.875690,9.787993
1390059746,3,0,0.0,0,10,4,0,778,750,-0.0292,86.9589,6.8213,0.4212,54.873501,9.791355,108.3,5.845,1.85,335.95,54.895348,9.797490,54.875690,9.787993
1390059746,3,0,0.0,0,7,8,0,729,700,-0.0292,84.6256,6.8213,0.4212,54.873501,9.791377,108.3,5.845,1.85,335.95,54.895348,9.797490,54.875690,9.787993
1390059746,3,0,0.0,0,5,4,0,693,650,-0.0292,82.9589,6.8213,0.4212,54.873501,9.791399,108.3,5.845,1.85,335.95,54.895348,9.797490,54.875690,9.787993
1390059747,3,0,0.0,0,3,0,0,668,700,-0.0292,81.9589,6.8213,0.4212,54.873501,9.791420,108.3,5.845,1.85,335.95,54.895348,9.797490,54.875690,9.787993
1390059747,3,0,0.0,0,2,4,0,652,650,-0.0292,81.2922,6.8213,0.4212,54.873501,9.791442,108.3,5.845,1.85,335.95,54.895348,9.797490,54.875690,9.787993
1390059747,3,0,0.0,0,1,0,0,642,600,-0.0292,80.9589,6.8213,0.4212,54.873501,9.791463,108.3,5.845,1.85,335.95,54.895348,9.797490,54.875690,9.787993
1390059747,3,0,0.0,0,1,4,0,637,650,-0.0292,80.6256,6.8213,0.4212,54.873501,9.791485,108.3,5.845,1.85,335.95,54.895348,9.797490,54.875690,9.787993
1390059748,3,0,0.0,0,1,0,0,632,600,-0.0292,80.2922,6.8213,0.4212,54.873501,9.791506,108.3,5.845,1.85,335.95,54.895348,9.797490,54.875690,9.787993
1390059748,3,0,0.0,0,0,4,0,627,650,-0.0292,80.2922,6.8213,0.4212,54.873501,9.791527,108.3,5.845,1.85,335.95,54.895348,9.797490,54.875690,9.787993
1390059748,3,0,0.0,0,0,0,0,627,600,-0.0292,80.2922,6.8213,0.4212,54.873501,9.791548,108.3,5.845,1.85,335.95,54.895348,9.797490,54.875690,9.787993
1390059748,3,0,0.0,0,0,4,0,627,650,-0.0292,80.2922,6.8213,0.4212,54.873501,9.791569,108.3,5.845,1.85,335.95,54.895348,9.797490,54.875690,9.787993
1390059749,3,0,0.0,0,0,0,0,627,600,-0.0292,80.2922,6.8213,0.4212,54.873501,9.791590,108.3,5.845,1.85,335.95,54.895348,9.797490,54.875690,9.787993
1390059749,3,0,0.0,0,0,4,0,627,650,-0.0292,80.2922,6.8213,0.4212,54.873501,9.791611,108.3,5.845,1.85,335.95,54.895348,9.797490,54.875690,9.787993
1390059749,3,0,0.0,0,0,0,0,627,600,-0.0292,80.2922,6.8213,0.4212,54.873501,9.791632,108.3,5.845,1.85,335.95,54.895348,9.797490,54.875690,9.787993
1390059749,3,0,0.0,0,0,4,0,627,650,-0.0292,80.2922,6.8213,0.4212,54.873501,9.791653,108.3,5.845,1.85,335.95,54.895348,9.797490,54.875690,9.787993
1390059750,3,0,0.0,0,0,0,0,627,600,-0.0292,80.2922,6.8213,0.4212,54.873501,9.791674,108.3,5.845,1.85,335.95,54.895348,9.797490,54.875690,9.787993
1390059750,3,0,0.0,0,0,4,0,627,650,-0.0292,80.2922,6.8213,0.4212,54.873501,9.791695,108.3,5.845,1.85,335.95,54.895348,9.797490,54.875690,9.787993
1390059750,3,0,0.0,0,0,0,0,627,600,-0.0292,80.2922,6.8213,0.4212,54.873501,9.791716,108.3,5.845,1.85,335.95,54.895348,9.797490,54.875690,9.787993
1390059750,3,0,0.0,0,0,4,0,627,650,-0.0292,80.2922,6.8213,0.4212,54.873501,9.791737,108.3,5.845,1.85,335.95,54.895348,9.797490,54.875690,9.787993
1390059751,3,0,0.0,0,0,0,0,627,600,-0.0292,80.2922,6.8213,0.4212,54.873501,9.791758,108.3,5.845,1.85,335.95,54.895348,9.797490,54.875690,9.787993
1390059751,3,0,0.0,0,10,4,0,627,650,-0.0292,76.9589,6.8213,0.4212,54.873501,9.791778,108.3,5.845,1.85,335.95,54.895348,9.797490,54.875690,9.787993
1390059751,3,0,0.0,0,7,8,0,574,600,-0.0292,74.6256,6.8213,0.4212,54.873501,9.791797,108.3,5.845,1.85,335.95,54.895348,9.797490,54.875690,9.787993
1390059751,3,0,0.0,0,5,4,0,538,550,-0.0292,72.9589,6.8213,0.4212,54.873501,9.791816,108.3,5.845,1.85,335.95,54.895348,9.797490,54.875690,9.787993
1390059752,3,0,0.0,0,3,0,0,511,500,-0.0292,71.9589,6.8213,0.4212,54.873501,9.791835,108.3,5.845,1.85,335.95,54.895348,9.797490,54.875690,9.787993
1390059752,3,0,0.0,0,2,4,0,495,450,-0.0292,71.2922,6.8213,0.4212,54.873501,9.791853,108.3,5.845,1.85,335.95,54.895348,9.797490,54.875690,9.787993
1390059752,3,0,0.0,0,1,0,0,485,500,-0.0292,70.9589,6.8213,0.4212,54.873501,9.791872,108.3,5.845,1.85,335.95,54.895348,9.797490,54.875690,9.787993
1390059752,3,0,0.0,0,1,4,0,479,450,-0.0292,70.6256,6.8213,0.4212,54.873501,9.791890,108.3,5.845,1.85,335.95,54.895348,9.797490,54.875690,9.787993
1390059753,3,0,0.0,0,1,0,0,474,500,-0.0292,70.2922,6.8213,0.4212,54.873501,9.791908,108.3,5.845,1.85,335.95,54.895348,9.797490,54.875690,9.787993
1390059753,3,0,0.0,0,0,4,0,469,450,-0.0292,70.2922,6.8213,0.4212,54.873501,9.791926,108.3,5.845,1.85,335.95,54.895348,9.797490,54.875690,9.787993
1390059753,3,0,0.0,0,0,0,0,469,500,-0.0292,70.2922,6.8213,0.4212,54.873501,9.791945,108.3,5.845,1.85,335.95,54.895348,9.797490,54.875690,9.787993
1390059753,3,0,0.0,0,0,4,0,469,450,-0.0292,70.2922,6.8213,0.4212,54.873501,9.791964,108.3,5.845,1.85,335.95,54.895348,9.797490,54.875690,9.787993
1390059754,3,0,0.0,0,0,0,0,469,500,-0.0292,70.2922,6.8213,0.4212,54.873501,9.791982,108.3,5.845,1.85,335.95,54.895348,9.797490,54.875690,9.787993
1390059754,3,0,0.0,0,0,4,0,469,450,-0.0292,70.2922,6.8213,0.4212,54.873501,9.792001,108.3,5.845,1.85,335.95,54.895348,9.797490,54.875690,9.787993
1390059754,3,0,0.0,0,0,0,0,469,500,-0.0292,70.2922,6.8213,0.4212,54.873501,9.792019,108.3,5.845,1.85,335.95,54.895348,9.797490,54.875690,9.787993
1390059754,3,0,0.0,0,0,4,0,469,450,-0.0292,70.2922,6.8213,0.4212,54.873501,9.792037,108.3,5.845,1.85,335.95,54.895348,9.797490,54.875690,9.787993
1390059755,3,0,0.0,0,0,0,0,469,500,-0.0292,70.2922,6.8213,0.4212,54.873501,9.792055,108.3,5.845,1.85,335.95,54.895348,9.797490,54.875690,9.787993
1390059755,3,0,0.0,0,0,4,0,469,450,-0.0292,70.2922,6.8213,0.4212,54.873501,9.792073,108.3,5.845,1.85,335.95,54.895348,9.797490,54.875690,9.787993
1390059755,3,0,0.0,0,0,0,0,469,500,-0.0292,70.2922,6.8213,0.4212,54.873501,9.792092,108.3,5.845,1.85,335.95,54.895348,9.797490,54.875690,9.787993
1390059755,3,0,0.0,0,0,4,0,469,450,-0.0292,70.2922,6.8213,0.4212,54.873501,9.792110,108.3,5.845,1.85,335.95,54.895348,9.797490,54.875690,9.787993
1390059756,3,0,0.0,0,0,0,0,469,500,-0.0292,70.2922,6.8213,0.4212,54.873501,9.792130,108.3,5.845,1.85,335.95,54.895348,9.797490,54.875690,9.787993
1390059756,3,0,0.0,0,10,4,0,469,450,-0.0292,66.9589,6.8213,0.4212,54.873505,9.792147,108.3,5.845,1.85,335.95,54.895348,9.797490,54.875690,9.787993
1390059756,3,0,0.0,0,7,8,0,415,400,-0.0292,64.6255,6.8213,0.4212,54.873508,9.792163,108.3,5.845,1.85,335.95,54.895348,9.797490,54.875690,9.787993
1390059756,3,0,0.0,0,5,4,0,378,350,-0.0292,62.9589,6.8213,0.4212,54.873512,9.792178,108.3,5.845,1.85,335.95,54.895348,9.797490,54.875690,9.787993
1390059757,3,0,0.0,0,3,0,0,352,400,-0.0292,61.9589,6.8213,0.4212,54.873516,9.792193,108.3,5.845,1.85,335.95,54.895348,9.797490,54.875690,9.787993
1390059757,3,0,0.0,0,2,4,0,336,350,-0.0292,61.2922,6.8213,0.4212,54.873520,9.792209,108.3,5.845,1.85,335.95,54.895348,9.797490,54.875690,9.787993
1390059757,3,0,0.0,0,1,0,0,325,300,-0.0292,60.9589,6.8213,0.4212,54.873528,9.792224,108.3,5.845,1.85,335.95,54.895348,9.797490,54.875690,9.787993
1390059757,3,0,0.0,0,1,4,0,320,350,-0.0292,60.6255,6.8213,0.4212,54.873531,9.792239,108.3,5.845,1.85,335.95,54.895348,9.797490,54.875690,9.787993
1390059758,3,0,0.0,0,1,0,0,315,300,-0.0292,60.2922,6.8213,0.4212,54.873535,9.792254,108.3,5.845,1.85,335.95,54.895348,9.797490,54.875690,9.787993
1390059758,3,0,0.0,0,0,4,0,310,350,-0.0292,60.2922,6.8213,0.4212,54.873539,9.792269,108.3,5.845,1.85,335.95,54.895348,9.797490,54.875690,9.787993
1390059758,3,0,0.0,0,0,0,0,310,300,-0.0292,60.2922,6.8213,0.4212,54.873543,9.792284,108.3,5.845,1.85,335.95,54.895348,9.797490,54.875690,9.787993
1390059758,3,0,0.0,0,0,4,0,310,350,-0.0292,60.2922,6.8213,0.4212,54.873550,9.792299,108.3,5.845,1.85,335.95,54.895348,9.797490,54.875690,9.787993
1390059759,3,0,0.0,0,0,0,0,310,300,-0.0292,60.2922,6.8213,0.4212,54.873554,9.792314,108.3,5.845,1.85,335.95,54.895348,9.797490,54.875690,9.787993
1390059759,3,0,0.0,0,0,4,0,310,350,-0.0292,60.2922,6.8213,0.4212,54.873558,9.792329,108.3,5.845,1.85,335.95,54.895348,9.797490,54.875690,9.787993
1390059759,3,0,0.0,0,0,0,0,310,300,-0.0292,60.2922,6.8213,0.4212,54.873562,9.792344,108.3,5.845,1.85,335.95,54.895348,9.797490,54.875690,9.787993
1390059759,3,0,0.0,0,0,4,0,310,350,-0.0292,60.2922,6.8213,0.4212,54.873566,9.792358,108.3,5.845,1.85,335.95,54.895348,9.797490,54.875690,9.787993
1390059760,3,0,0.0,0,0,0,0,310,300,-0.0292,60.2922,6.8213,0.4212,54.873573,9.792374,108.3,5.845,1.85,335.95,54.895348,9.797490,54.875690,9.787993
1390059760,3,0,0.0,0,0,4,0,310,350,-0.0292,60.2922,6.8213,0.4212,54.873581,9.792389,108.3,5.845,1.85,335.95,54.895348,9.797490,54.875690,9.787993
1390059760,3,0,0.0,0,0,0,0,310,300,-0.0292,60.2922,6.8213,0.4212,54.873585,9.792404,108.3,5.845,1.85,335.95,54.895348,9.797490,54.875690,9.787993
1390059760,3,0,0.0,0,0,4,0,310,350,-0.0292,60.2922,6.8213,0.4212,54.873589,9.792419,108.3,5.845,1.85,335.95,54.895348,9.797490,54.875690,9.787993
1390059761,3,0,0.0,0,0,0,0,310,300,-0.0292,60.2922,6.8213,0.4212,54.873592,9.792434,108.3,5.845,1.85,335.95,54.895348,9.797490,54.875690,9.787993
1390059761,3,0,0.0,0,10,4,0,310,350,-0.0292,56.9589,6.8213,0.4212,54.873600,9.792447,108.3,5.845,1.85,335.95,54.895348,9.797490,54.875690,9.787993
1390059761,3,0,0.0,0,7,8,0,258,300,-0.0292,54.6256,6.8213,0.4212,54.873604,9.792460,108.3,5.845,1.85,335.95,54.895348,9.797490,54.875690,9.787993
1390059761,3,0,0.0,0,5,4,0,223,250,-0.0292,52.9589,6.8213,0.4212,54.873608,9.792472,108.3,5.845,1.85,335.95,54.895348,9.797490,54.875690,9.787993
1390059762,3,0,0.0,0,3,0,0,198,200,-0.0292,51.9589,6.8213,0.4212,54.873611,9.792483,108.3,5.845,1.85,335.95,54.895348,9.797490,54.875690,9.787993
1390059762,3,0,0.0,0,2,4,0,184,150,-0.0292,51.2922,6.8213,0.4212,54.873615,9.792495,108.3,5.845,1.85,335.95,54.895348,9.797490,54.875690,9.787993
1390059762,3,0,0.0,0,1,0,0,174,200,-0.0292,50.9589,6.8213,0.4212,54.873623,9.792507,108.3,5.845,1.85,335.95,54.895348,9.797490,54.875690,9.787993
1390059762,3,0,0.0,0,1,4,0,170,150,-0.0292,50.6256,6.8213,0.4212,54.873627,9.792519,108.3,5.845,1.85,335.95,54.895348,9.797490,54.875690,9.787993
1390059763,3,0,0.0,0,1,0,0,165,200,-0.0292,50.2922,6.8213,0.4212,54.873631,9.792530,108.3,5.845,1.85,335.95,54.895348,9.797490,54.875690,9.787993
1390059763,3,0,0.0,0,0,4,0,160,150,-0.0292,50.2922,6.8213,0.4212,54.873634,9.792542,108.3,5.845,1.85,335.95,54.895348,9.797490,54.875690,9.787993
1390059763,3,0,0.0,0,0,0,0,160,200,-0.0292,50.2922,6.8213,0.4212,54.873638,9.792553,108.3,5.845,1.85,335.95,54.895348,9.797490,54.875690,9.787993
1390059763,3,0,0.0,0,0,4,0,160,150,-0.0292,50.2922,6.8213,0.4212,54.873646,9.792564,108.3,5.845,1.85,335.95,54.895348,9.797490,54.875690,9.787993
1390059764,3,0,0.0,0,0,0,0,160,200,-0.0292,50.2922,6.8213,0.4212,54.873653,9.792576,108.3,5.845,1.85,335.95,54.895348,9.797490,54.875690,9.787993
1390059764,3,0,0.0,0,0,4,0,160,150,-0.0292,50.2922,6.8213,0.4212,54.873657,9.792587,108.3,5.845,1.85,335.95,54.895348,9.797490,54.875690,9.787993
1390059764,3,0,0.0,0,0,0,0,160,200,-0.0292,50.2922,6.8213,0.4212,54.873661,9.792599,108.3,5.845,1.85,335.95,54.895348,9.797490,54.875690,9.787993
1390059764,3,0,0.0,0,0,4,0,160,150,-0.0292,50.2922,6.8213,0.4212,54.873669,9.792610,108.3,5.845,1.85,335.95,54.895348,9.797490,54.875690,9.787993
1390059765,3,0,0.0,0,0,0,0,160,200,-0.0292,50.2922,6.8213,0.4212,54.873676,9.792622,108.3,5.845,1.85,335.95,54.895348,9.797490,54.875690,9.787993
1390059765,3,0,0.0,0,0,4,0,160,150,-0.0292,50.2922,6.8213,0.4212,54.873680,9.792633,108.3,5.845,1.85,335.95,54.895348,9.797490,54.875690,9.787993
1390059765,3,0,0.0,0,0,0,0,160,200,-0.0292,50.2922,6.8213,0.4212,54.873684,9.792645,108.3,5.845,1.85,335.95,54.895348,9.797490,54.875690,9.787993
1390059765,3,0,0.0,0,0,4,0,160,150,-0.0292,50.2922,6.8213,0.4212,54.873688,9.792656,108.3,5.845,1.85,335.95,54.895348,9.797490,54.875690,9.787993
1390059766,3,0,0.0,0,0,0,0,160,200,-0.0292,50.2922,6.8213,0.4212,54.873695,9.792667,108.3,5.845,1.85,335.95,54.895348,9.797490,54.875690,9.787993
1390059766,3,0,0.0,0,10,4,0,160,150,-0.0292,46.9589,6.8213,0.4212,54.873703,9.792678,108.3,5.845,1.85,335.95,54.895348,9.797490,54.875690,9.787993
1390059766,3,0,0.0,0,7,8,0,116,100,-0.0292,44.6256,6.8213,0.4212,54.873707,9.792686,108.3,5.845,1.85,335.95,54.895348,9.797490,54.875690,9.787993
1390059766,3,0,0.0,0,5,4,0,88,50,-0.0292,42.9589,6.8213,0.4212,54.873711,9.792695,108.3,5.845,1.85,335.95,54.895348,9.797490,54.875690,9.787993
1390059767,3,0,0.0,0,3,0,0,70,100,-0.0292,41.9589,6.8213,0.4212,54.873718,9.792704,108.3,5.845,1.85,335.95,54.895348,9.797490,54.875690,9.787993
1390059767,3,0,0.0,0,2,4,0,59,50,-0.0292,41.2922,6.8213,0.4212,54.873726,9.792712,108.3,5.845,1.85,335.95,54.895348,9.797490,54.875690,9.787993
1390059767,3,0,0.0,0,1,0,0,53,100,-0.0292,40.9589,6.8213,0.4212,54.873730,9.792721,108.3,5.845,1.85,335.95,54.895348,9.797490,54.875690,9.787993
1390059767,3,0,0.0,0,1,4,0,50,50,-0.0292,40.6256,6.8213,0.4212,54.873734,9.792728,108.3,5.845,1.85,335.95,54.895348,9.797490,54.875690,9.787993
1390059768,3,0,0.0,0,1,0,0,47,0,-0.0292,40.2922,6.8213,0.4212,54.873737,9.792736,108.3,5.845,1.85,335.95,54.895348,9.797490,54.875690,9.787993
1390059768,3,0,0.0,0,0,4,0,44,50,-0.0292,40.2922,6.8213,0.4212,54.873745,9.792744,108.3,5.845,1.85,335.95,54.895348,9.797490,54.875690,9.787993
1390059768,3,0,0.0,0,0,0,0,44,0,-0.0292,40.2922,6.8213,0.4212,54.873753,9.792751,108.3,5.845,1.85,335.95,54.895348,9.797490,54.875690,9.787993
1390059768,3,0,0.0,0,0,4,0,44,50,-0.0292,40.2922,6.8213,0.4212,54.873756,9.792760,108.3,5.845,1.85,335.95,54.895348,9.797490,54.875690,9.787993
1390059769,3,0,0.0,0,0,0,0,44,0,-0.0292,40.2922,6.8213,0.4212,54.873760,9.792768,108.3,5.845,1.85,335.95,54.895348,9.797490,54.875690,9.787993
1390059769,3,0,0.0,0,0,4,0,44,50,-0.0292,40.2922,6.8213,0.4212,54.873768,9.792775,108.3,5.845,1.85,335.95,54.895348,9.797490,54.875690,9.787993
1390059769,3,0,0.0,0,0,0,0,44,0,-0.0292,40.2922,6.8213,0.4212,54.873775,9.792783,108.3,5.845,1.85,335.95,54.895348,9.797490,54.875690,9.787993
1390059769,3,0,0.0,0,0,4,0,44,50,-0.0292,40.2922,6.8213,0.4212,54.873779,9.792790,108.3,5.845,1.85,335.95,54.895348,9.797490,54.875690,9.787993
1390059770,3,0,0.0,0,0,0,0,44,0,-0.0292,40.2922,6.8213,0.4212,54.873783,9.792799,108.3,5.845,1.85,335.95,54.895348,9.797490,54.875690,9.787993
1390059770,3,0,0.0,0,0,4,0,44,50,-0.0292,40.2922,6.8213,0.4212,54.873787,9.792808,108.3,5.845,1.85,335.95,54.895348,9.797490,54.875690,9.787993
1390059770,3,0,0.0,0,0,0,0,44,0,-0.0292,40.2922,6.8213,0.4212,54.873795,9.792815,108.3,5.845,1.85,335.95,54.895348,9.797490,54.875690,9.787993
1390059770,3,0,0.0,0,0,4,0,44,50,-0.0292,40.2922,6.8213,0.4212,54.873802,9.792823,108.3,5.845,1.85,335.95,54.895348,9.797490,54.875690,9.787993
1390059771,3,0,0.0,0,0,0,0,44,0,-0.0292,40.2922,6.8213,0.4212,54.873806,9.792830,108.3,5.845,1.85,335.95,54.895348,9.797490,54.875690,9.787993
1390059771,3,0,0.0,0,10,4,0,44,50,-0.0292,36.9589,6.8213,0.4212,54.873810,9.792837,108.3,5.845,1.85,335.95,54.895348,9.797490,54.875690,9.787993
1390059771,3,0,0.0,0,7,8,0,19,0,-0.0292,34.6256,6.8213,0.4212,54.873814,9.792844,108.3,5.845,1.85,335.95,54.895348,9.797490,54.875690,9.787993
1390059771,3,0,0.0,0,5,4,0,7,50,-0.0292,32.9589,6.8213,0.4212,54.873821,9.792850,108.3,5.845,1.85,335.95,54.895348,9.797490,54.875690,9.787993
1390059772,3,0,0.0,0,3,0,0,2,0,-0.0292,31.9589,6.8213,0.4212,54.873825,9.792854,108.3,5.845,1.85,335.95,54.895348,9.797490,54.875690,9.787993
1390059772,3,0,0.0,0,2,4,0,1,50,-0.0292,31.2922,6.8213,0.4212,54.873829,9.792859,108.3,5.845,1.85,335.95,54.895348,9.797490,54.875690,9.787993
1390059772,3,0,0.0,0,1,0,0,0,0,-0.0292,30.9589,6.8213,0.4212,54.873833,9.792864,108.3,5.845,1.85,335.95,54.895348,9.797490,54.875690,9.787993
1390059772,3,0,0.0,0,1,4,0,0,0,-0.0292,30.6256,6.8213,0.4212,54.873837,9.792869,108.3,5.845,1.85,335.95,54.895348,9.797490,54.875690,9.787993
1390059773,3,0,0.0,0,1,0,0,0,0,-0.0292,30.2922,6.8213,0.4212,54.873840,9.792873,108.3,5.845,1.85,335.95,54.895348,9.797490,54.875690,9.787993
1390059773,3,0,0.0,0,0,4,0,0,0,-0.0292,30.2922,6.8213,0.4212,54.873848,9.792878,108.3,5.845,1.85,335.95,54.895348,9.797490,54.875690,9.787993
1390059773,3,0,0.0,0,0,0,0,0,0,-0.0292,30.2922,6.8213,0.4212,54.873852,9.792883,108.3,5.845,1.85,335.95,54.895348,9.797490,54.875690,9.787993
1390059773,3,0,0.0,0,0,4,0,0,0,-0.0292,30.2922,6.8213,0.4212,54.873856,9.792888,108.3,5.845,1.85,335.95,54.895348,9.797490,54.875690,9.787993
1390059774,3,0,0.0,0,0,0,0,0,0,-0.0292,30.2922,6.8213,0.4212,54.873859,9.792893,108.3,5.845,1.85,335.95,54.895348,9.797490,54.875690,9.787993
1390059774,3,0,0.0,0,0,4,0,0,0,-0.0292,30.2922,6.8213,0.4212,54.873863,9.792898,108.3,5.845,1.85,335.95,54.895348,9.797490,54.875690,9.787993
1390059774,3,0,0.0,0,0,0,0,0,0,-0.0292,30.2922,6.8213,0.4212,54.873871,9.792903,108.3,5.845,1.85,335.95,54.895348,9.797490,54.875690,9.787993
1390059774,3,0,0.0,0,0,4,0,0,0,-0.0292,30.2922,6.8213,0.4212,54.873875,9.792908,108.3,5.845,1.85,335.95,54.895348,9.797490,54.875690,9.787993
1390059775,3,0,0.0,0,0,0,0,0,0,-0.0292,30.2922,6.8213,0.4212,54.873878,9.792912,108.3,5.845,1.85,335.95,54.895348,9.797490,54.875690,9.787993
1390059775,3,0,0.0,0,0,4,0,0,0,-0.0292,30.2922,6.8213,0.4212,54.873882,9.792917,108.3,5.845,1.85,335.95,54.895348,9.797490,54.875690,9.787993
1390059775,3,0,0.0,0,0,0,0,0,0,-0.0292,30.2922,6.8213,0.4212,54.873886,9.792922,108.3,5.845,1.85,335.95,54.895348,9.797490,54.875690,9.787993
1390059775,3,0,0.0,0,0,4,0,0,0,-0.0292,30.2922,6.8213,0.4212,54.873890,9.792927,108.3,5.845,1.85,335.95,54.895348,9.797490,54.875690,9.787993
1390059776,3,0,0.0,0,0,0,0,0,0,-0.0292,30.2922,6.8213,0.4212,54.873898,9.792932,108.3,5.845,1.85,335.95,54.895348,9.797490,54.875690,9.787993
1390059776,3,0,0.0,0,10,4,0,0,0,-0.0292,26.9589,6.8213,0.4212,54.873901,9.792935,108.3,5.845,1.85,335.95,54.895348,9.797490,54.875690,9.787993
1390059776,3,0,0.0,0,7,8,0,0,0,-0.0292,24.6256,6.8213,0.4212,54.873905,9.792938,108.3,5.845,1.85,335.95,54.895348,9.797490,54.875690,9.787993
1390059777,3,0,0.0,0,5,4,0,0,0,-0.0292,22.9589,6.8213,0.4212,54.873909,9.792941,108.3,5.845,1.85,335.95,54.895348,9.797490,54.875690,9.787993
1390059777,3,0,0.0,0,3,0,0,0,0,-0.0292,21.9589,6.8213,0.4212,54.873913,9.792943,108.3,5.845,1.85,335.95,54.895348,9.797490,54.875690,9.787993
1390059777,3,0,0.0,0,2,4,0,0,0,-0.0292,21.2922,6.8213,0.4212,54.873917,9.792945,108.3,5.845,1.85,335.95,54.895348,9.797490,54.875690,9.787993
1390059777,3,0,0.0,0,1,0,0,0,0,-0.0292,20.9589,6.8213,0.4212,54.873920,9.792947,108.3,5.845,1.85,335.95,54.895348,9.797490,54.875690,9.787993
1390059778,3,0,0.0,0,1,4,0,0,0,-0.0292,20.6256,6.8213,0.4212,54.873920,9.792949,108.3,5.845,1.85,335.95,54.895348,9.797490,54.875690,9.787993
1390059778,3,0,0.0,0,1,0,0,0,0,-0.0292,20.2922,6.8213,0.4212,54.873920,9.792951,108.3,5.845,1.85,335.95,54.895348,9.797490,54.875690,9.787993
1390059778,3,0,0.0,0,0,4,0,0,0,-0.0292,20.2922,6.8213,0.4212,54.873920,9.792953,108.3,5.845,1.85,335.95,54.895348,9.797490,54.875690,9.787993
1390059778,3,0,0.0,0,0,0,0,0,0,-0.0292,20.2922,6.8213,0.4212,54.873920,9.792954,108.3,5.845,1.85,335.95,54.895348,9.797490,54.875690,9.787993
1390059779,3,0,0.0,0,0,4,0,0,0,-0.0292,20.2922,6.8213,0.4212,54.873920,9.792956,108.3,5.845,1.85,335.95,54.895348,9.797490,54.875690,9.787993
1390059779,3,0,0.0,0,0,0,0,0,0,-0.0292,20.2922,6.8213,0.4212,54.873920,9.792958,108.3,5.845,1.85,335.95,54.895348,9.797490,54.875690,9.787993
1390059779,3,0,0.0,0,0,4,0,0,0,-0.0292,20.2922,6.8213,0.4212,54.873920,9.792961,108.3,5.845,1.85,335.95,54.895348,9.797490,54.875690,9.787993
1390059779,3,0,0.0,0,0,0,0,0,0,-0.0292,20.2922,6.8213,0.4212,54.873920,9.792964,108.3,5.845,1.85,335.95,54.895348,9.797490,54.875690,9.787993
1390059780,3,0,0.0,0,0,4,0,0,0,-0.0292,20.2922,6.8213,0.4212,54.873920,9.792967,108.3,5.845,1.85,335.95,54.895348,9.797490,54.875690,9.787993
1390059780,3,0,0.0,0,0,0,0,0,0,-0.0292,20.2922,6.8213,0.4212,54.873920,9.792970,108.3,5.845,1.85,335.95,54.895348,9.797490,54.875690,9.787993
1390059780,3,0,0.0,0,0,4,0,0,0,-0.0292,20.2922,6.8213,0.4212,54.873920,9.792973,108.3,5.845,1.85,335.95,54.895348,9.797490,54.875690,9.787993
1390059780,3,0,0.0,0,0,0,0,0,0,-0.0292,20.2922,6.8213,0.4212,54.873920,9.792975,108.3,5.845,1.85,335.95,54.895348,9.797490,54.875690,9.787993
1390059781,3,0,0.0,0,0,4,0,0,0,-0.0292,20.2922,6.8213,0.4212,54.873920,9.792977,108.3,5.845,1.85,335.95,54.895348,9.797490,54.875690,9.787993
1390059781,3,0,0.0,0,0,0,0,0,0,-0.0292,20.2922,6.8213,0.4212,54.873920,9.792979,108.3,5.845,1.85,335.95,54.895348,9.797490,54.875690,9.787993
1390059781,3,0,0.0,0,10,4,0,0,0,-0.0292,16.9589,6.8213,0.4212,54.873920,9.792980,108.3,5.845,1.85,335.95,54.895348,9.797490,54.875690,9.787993
1390059781,3,0,0.0,0,7,8,0,0,0,-0.0292,14.6256,6.8213,0.4212,54.873920,9.792981,108.3,5.845,1.85,335.95,54.895348,9.797490,54.875690,9.787993
1390059782,3,0,0.0,0,5,4,0,0,0,-0.0292,12.9589,6.8213,0.4212,54.873920,9.792982,108.3,5.845,1.85,335.95,54.895348,9.797490,54.875690,9.787993
1390059782,3,0,0.0,0,3,0,0,0,0,-0.0292,11.9589,6.8213,0.4212,54.873920,9.792983,108.3,5.845,1.85,335.95,54.895348,9.797490,54.875690,9.787993
1390059782,3,0,0.0,0,2,4,0,0,0,-0.0292,11.2922,6.8213,0.4212,54.873920,9.792983,108.3,5.845,1.85,335.95,54.895348,9.797490,54.875690,9.787993
1390059782,3,0,0.0,0,1,0,0,0,0,-0.0292,10.9589,6.8213,0.4212,54.873920,9.792983,108.3,5.845,1.85,335.95,54.895348,9.797490,54.875690,9.787993
1390059783,3,0,0.0,0,1,4,0,0,0,-0.0292,10.6256,6.8213,0.4212,54.873920,9.792983,108.3,5.845,1.85,335.95,54.895348,9.797490,54.875690,9.787993
1390059783,3,0,0.0,0,1,0,0,0,0,-0.0292,10.2922,6.8213,0.4212,54.873920,9.792983,108.3,5.845,1.85,335.95,54.895348,9.797490,54.875690,9.787993
1390059783,3,0,0.0,0,0,4,0,0,0,-0.0292,10.2922,6.8213,0.4212,54.873920,9.792983,108.3,5.845,1.85,335.95,54.895348,9.797490,54.875690,9.787993
1390059783,3,0,0.0,0,0,0,0,0,0,-0.0292,10.2922,6.8213,0.4212,54.873920,9.792983,108.3,5.845,1.85,335.95,54.895348,9.797490,54.875690,9.787993
1390059784,3,0,0.0,0,0,4,0,0,0,-0.0292,10.2922,6.8213,0.4212,54.873920,9.792983,108.3,5.845,1.85,335.95,54.895348,9.797490,54.875690,9.787993
1390059784,3,0,0.0,0,0,0,0,0,0,-0.0292,10.2922,6.8213,0.4212,54.873920,9.792983,108.3,5.845,1.85,335.95,54.895348,9.797490,54.875690,9.787993
1390059784,3,0,0.0,0,0,4,0,0,0,-0.0292,10.2922,6.8213,0.4212,54.873920,9.792983,108.3,5.845,1.85,335.95,54.895348,9.797490,54.875690,9.787993
1390059784,3,0,0.0,0,0,0,0,0,0,-0.0292,10.2922,6.8213,0.4212,54.873920,9.792983,108.3,5.845,1.85,335.95,54.895348,9.797490,54.875690,9.787993
1390059785,3,0,0.0,0,0,4,0,0,0,-0.0292,10.2922,6.8213,0.4212,54.873920,9.792983,108.3,5.845,1.85,335.95,54.895348,9.797490,54.875690,9.787993
1390059785,3,0,0.0,0,0,0,0,0,0,-0.0292,10.2922,6.8213,0.4212,54.873920,9.792983,108.3,5.845,1.85,335.95,54.895348,9.797490,54.875690,9.787993
1390059785,3,0,0.0,0,0,4,0,0,0,-0.0292,10.2922,6.8213,0.4212,54.873920,9.792983,108.3,5.845,1.85,335.95,54.895348,9.797490,54.875690,9.787993
1390059785,3,0,0.0,0,0,0,0,0,0,-0.0292,10.2922,6.8213,0.4212,54.873920,9.792983,108.3,5.845,1.85,335.95,54.895348,9.797490,54.875690,9.787993
1390059786,3,0,0.0,0,0,4,0,0,0,-0.0292,10.2922,6.8213,0.4212,54.873920,9.792983,108.3,5.845,1.85,335.95,54.895348,9.797490,54.875690,9.787993
1390059786,3,0,0.0,0,0,0,0,0,0,-0.0292,10.2922,6.8213,0.4212,54.873920,9.792983,108.3,5.845,1.85,335.95,54.895348,9.797490,54.875690,9.787993
1390059786,3,0,0.0,0,10,4,0,0,0,-0.0292,6.9589,6.8213,0.4212,54.873920,9.792983,108.3,5.845,1.85,335.95,54.895348,9.797490,54.875690,9.787993
1390059786,3,0,0.0,0,7,8,0,0,0,-0.0292,4.6256,6.8213,0.4212,54.873920,9.792983,108.3,5.845,1.85,335.95,54.895348,9.797490,54.875690,9.787993
1390059787,3,0,0.0,0,5,4,0,0,0,-0.0292,2.9589,6.8213,0.4212,54.873920,9.792983,108.3,5.845,1.85,335.95,54.895348,9.797490,54.875690,9.787993
1390059787,3,0,0.0,0,3,0,0,0,0,-0.0292,1.9589,6.8213,0.4212,54.873920,9.792983,108.3,5.845,1.85,335.95,54.895348,9.797490,54.875690,9.787993
1390059787,3,0,0.0,0,2,4,0,0,0,-0.0292,1.2922,6.8213,0.4212,54.873920,9.792983,108.3,5.845,1.85,335.95,54.895348,9.797490,54.875690,9.787993
1390059787,3,0,0.0,0,1,0,0,0,0,-0.0292,0.9589,6.8213,0.4212,54.873920,9.792983,108.3,5.845,1.85,335.95,54.895348,9.797490,54.875690,9.787993
1390059788,3,0,0.0,0,1,4,0,0,0,-0.0292,0.6256,6.8213,0.4212,54.873920,9.792983,108.3,5.845,1.85,335.95,54.895348,9.797490,54.875690,9.787993
1390059788,3,0,0.0,0,1,0,0,0,0,-0.0292,0.2922,6.8213,0.4212,54.873920,9.792983,108.3,5.845,1.85,335.95,54.895348,9.797490,54.875690,9.787993
1390059788,3,0,0.0,0,0,4,0,0,0,-0.0292,0.2922,6.8213,0.4212,54.873920,9.792983,108.3,5.845,1.85,335.95,54.895348,9.797490,54.875690,9.787993
1390059788,3,0,0.0,0,0,0,0,0,0,-0.0292,0.2922,6.8213,0.4212,54.873920,9.792983,108.3,5.845,1.85,335.95,54.895348,9.797490,54.875690,9.787993
1390059789,3,0,0.0,0,0,4,0,0,0,-0.0292,0.2922,6.8213,0.4212,54.873920,9.792983,108.3,5.845,1.85,335.95,54.895348,9.797490,54.875690,9.787993
1390059789,3,0,0.0,0,0,0,0,0,0,-0.0292,0.2922,6.8213,0.4212,54.873920,9.792983,108.3,5.845,1.85,335.95,54.895348,9.797490,54.875690,9.787993
1390059789,3,0,0.0,0,0,4,0,0,0,-0.0292,0.2922,6.8213,0.4212,54.873920,9.792983,108.3,5.845,1.85,335.95,54.895348,9.797490,54.875690,9.787993
1390059789,3,0,0.0,0,0,0,0,0,0,-0.0292,0.2922,6.8213,0.4212,54.873920,9.792983,108.3,5.845,1.85,335.95,54.895348,9.797490,54.875690,9.787993
1390059790,3,0,0.0,0,0,4,0,0,0,-0.0292,0.2922,6.8213,0.4212,54.873920,9.792983,108.3,5.845,1.85,335.95,54.895348,9.797490,54.875690,9.787993
