MCU_timestamp,Navigation_System,Manual_Control,Guidance_Heading,Manual_Ctrl_Rudder,Rudder_Desired_Angle,Rudder_Feedback,Manual_Ctrl_Sail,Sail_Desired_Pos,Sail_Feedback,Rate,Heading,Pitch,Roll,Latitude,Longitude,COG,SOG,Wind_Speed,Wind_Angle,Point_Start_Lat,Point_Start_Lon,Point_End_Lat,Point_End_Lon
1386963329,0,0,0.0,0,0,-32,0,0,0,-0.0292,8701.4561,6.8213,0.4212,54.895077,9.793242,108.3,5.845,1.85,0.00,0.000000,0.000000,0.000000,0.000000
1386963329,0,0,0.0,0,0,-32,0,0,0,-0.0292,8701.4561,6.8213,0.4212,54.895077,9.793242,108.3,5.845,1.85,0.00,0.000000,0.000000,0.000000,0.000000
1386963329,0,0,0.0,0,0,-32,0,0,0,-0.0292,8701.4561,6.8213,0.4212,54.895077,9.793242,108.3,5.845,1.85,0.00,0.000000,0.000000,0.000000,0.000000
1386963330,0,0,0.0,0,0,-32,0,0,0,-0.0292,8701.4561,6.8213,0.4212,54.895077,9.793242,108.3,5.845,1.85,0.00,0.000000,0.000000,0.000000,0.000000
1386963330,0,0,0.0,0,0,-32,0,0,0,-0.0292,8701.4561,6.8213,0.4212,54.895077,9.793242,108.3,5.845,1.85,0.00,0.000000,0.000000,0.000000,0.000000
1386963330,0,0,0.0,0,0,-32,0,0,0,-0.0292,8701.4561,6.8213,0.4212,54.895077,9.793242,108.3,5.845,1.85,0.00,0.000000,0.000000,0.000000,0.000000
1386963330,0,0,0.0,0,0,-32,0,0,0,-0.0292,8701.4561,6.8213,0.4212,54.895077,9.793242,108.3,5.845,1.85,0.00,0.000000,0.000000,0.000000,0.000000
1386963331,0,0,0.0,0,0,-32,0,0,0,-0.0292,8701.4561,6.8213,0.4212,54.895077,9.793242,108.3,5.845,1.85,0.00,0.000000,0.000000,0.000000,0.000000
1386963331,0,0,0.0,0,0,-32,0,0,0,-0.0292,8701.4561,6.8213,0.4212,54.895077,9.793242,108.3,5.845,1.85,0.00,0.000000,0.000000,0.000000,0.000000
1386963331,0,0,0.0,0,0,-32,0,0,0,-0.0292,8701.4561,6.8213,0.4212,54.895077,9.793242,108.3,5.845,1.85,0.00,0.000000,0.000000,0.000000,0.000000
1386963331,0,0,0.0,0,0,-32,0,0,0,-0.0292,8701.4561,6.8213,0.4212,54.895077,9.793242,108.3,5.845,1.85,0.00,0.000000,0.000000,0.000000,0.000000
1386963332,0,0,0.0,0,0,-32,0,0,0,-0.0292,8701.4561,6.8213,0.4212,54.895077,9.793242,108.3,5.845,1.85,0.00,0.000000,0.000000,0.000000,0.000000
1386963332,0,0,0.0,0,0,-32,0,0,0,-0.0292,8701.4561,6.8213,0.4212,54.895077,9.793242,108.3,5.845,1.85,0.00,0.000000,0.000000,0.000000,0.000000
1386963332,0,0,0.0,0,0,-32,0,0,0,-0.0292,8701.4561,6.8213,0.4212,54.895077,9.793242,108.3,5.845,1.85,0.00,0.000000,0.000000,0.000000,0.000000
1386963332,0,0,0.0,0,0,-32,0,0,0,-0.0292,8701.4561,6.8213,0.4212,54.895077,9.793242,108.3,5.845,1.85,0.00,0.000000,0.000000,0.000000,0.000000
1386963333,0,0,0.0,0,0,-32,0,0,0,-0.0292,8701.4561,6.8213,0.4212,54.895077,9.793242,108.3,5.845,1.85,0.00,0.000000,0.000000,0.000000,0.000000
1386963333,0,0,0.0,0,0,-32,0,0,0,-0.0292,8701.4561,6.8213,0.4212,54.895077,9.793242,108.3,5.845,1.85,0.00,0.000000,0.000000,0.000000,0.000000
1386963333,0,0,0.0,0,0,-32,0,0,0,-0.0292,8701.4561,6.8213,0.4212,54.895077,9.793242,108.3,5.845,1.85,0.00,0.000000,0.000000,0.000000,0.000000
1386963333,0,0,0.0,0,0,-32,0,0,0,-0.0292,8701.4561,6.8213,0.4212,54.895077,9.793242,108.3,5.845,1.85,0.00,0.000000,0.000000,0.000000,0.000000
1386963334,0,0,0.0,0,0,-32,0,0,0,-0.0292,8701.4561,6.8213,0.4212,54.895077,9.793242,108.3,5.845,1.85,0.00,0.000000,0.000000,0.000000,0.000000
1386963334,0,0,0.0,0,0,-32,0,0,0,-0.0292,8701.4561,6.8213,0.4212,54.895077,9.793242,108.3,5.845,1.85,0.00,0.000000,0.000000,0.000000,0.000000
1386963334,0,0,0.0,0,0,-32,0,0,0,-0.0292,8701.4561,6.8213,0.4212,54.895077,9.793242,108.3,5.845,1.85,0.00,0.000000,0.000000,0.000000,0.000000
1386963334,0,0,0.0,0,0,-32,0,0,0,-0.0292,8701.4561,6.8213,0.4212,54.895077,9.793242,108.3,5.845,1.85,0.00,0.000000,0.000000,0.000000,0.000000
1386963335,0,0,0.0,0,0,-32,0,0,0,-0.0292,8701.4561,6.8213,0.4212,54.895077,9.793242,108.3,5.845,1.85,0.00,0.000000,0.000000,0.000000,0.000000
1386963335,0,0,0.0,0,0,-32,0,0,0,-0.0292,8701.4561,6.8213,0.4212,54.895077,9.793242,108.3,5.845,1.85,0.00,0.000000,0.000000,0.000000,0.000000
1386963335,0,0,0.0,0,0,-32,0,0,0,-0.0292,8701.4561,6.8213,0.4212,54.895176,9.791093,108.3,5.845,1.85,0.00,0.000000,0.000000,0.000000,0.000000
1386963335,0,0,0.0,0,0,-32,0,0,0,-0.0292,8701.4561,6.8213,0.4212,54.895176,9.791093,108.3,5.845,1.85,0.00,0.000000,0.000000,0.000000,0.000000
1386963336,0,0,0.0,0,0,-32,0,0,0,-0.0292,8701.4561,6.8213,0.4212,54.895176,9.791093,108.3,5.845,1.85,0.00,0.000000,0.000000,0.000000,0.000000
1386963336,0,0,0.0,0,0,-32,0,0,0,-0.0292,8701.4561,6.8213,0.4212,54.895176,9.791093,108.3,5.845,1.85,0.00,0.000000,0.000000,0.000000,0.000000
1386963336,0,0,0.0,0,0,-32,0,0,0,-0.0292,8701.4561,6.8213,0.4212,54.895176,9.791093,108.3,5.845,1.85,0.00,0.000000,0.000000,0.000000,0.000000
1386963336,0,0,0.0,0,0,-32,0,0,0,-0.0292,8701.4561,6.8213,0.4212,54.895176,9.791093,108.3,5.845,1.85,0.00,0.000000,0.000000,0.000000,0.000000
1386963337,0,0,0.0,0,0,-32,0,0,0,-0.0292,8701.4561,6.8213,0.4212,54.895176,9.791093,108.3,5.845,1.85,0.00,0.000000,0.000000,0.000000,0.000000
1386963337,0,0,0.0,0,0,-32,0,0,0,-0.0292,8701.4561,6.8213,0.4212,54.895176,9.791093,108.3,5.845,1.85,0.00,0.000000,0.000000,0.000000,0.000000
1386963337,0,0,0.0,0,0,-32,0,0,0,-0.0292,8701.4561,6.8213,0.4212,54.895176,9.791093,108.3,5.845,1.85,0.00,0.000000,0.000000,0.000000,0.000000
1386963337,4,0,0.0,0,0,-32,0,0,0,-0.0292,8701.4561,6.8213,0.4212,54.895176,9.791093,108.3,5.845,1.85,0.00,0.000000,0.000000,0.000000,0.000000
1386963338,1,0,93.9,0,-32,-28,0,22,50,-0.0292,8712.1230,6.8213,0.4212,54.895180,9.791122,108.3,5.845,1.85,0.00,54.895176,9.791093,54.895069,9.793790
1386963338,1,0,94.1,0,-22,-24,0,131,100,-0.0292,8719.4561,6.8213,0.4212,54.895184,9.791153,108.3,5.845,1.85,0.00,54.895176,9.791093,54.895069,9.793790
1386963338,1,0,94.3,0,-15,-20,0,234,150,-0.0292,8724.4561,6.8213,0.4212,54.895187,9.791184,108.3,5.845,1.85,0.00,54.895176,9.791093,54.895069,9.793790
1386963338,1,0,94.5,0,-10,-16,0,311,200,-0.0292,8727.7891,6.8213,0.4212,54.895191,9.791215,108.3,5.845,1.85,0.00,54.895176,9.791093,54.895069,9.793790
1386963339,1,0,94.7,0,-7,-12,0,364,250,-0.0292,8730.1221,6.8213,0.4212,54.895195,9.791246,108.3,5.845,1.85,0.00,54.895176,9.791093,54.895069,9.793790
1386963339,1,0,94.9,0,-5,-8,0,401,300,-0.0292,8731.7891,6.8213,0.4212,54.895191,9.791278,108.3,5.845,1.85,0.00,54.895176,9.791093,54.895069,9.793790
1386963339,1,0,94.8,0,-3,-4,0,428,350,-0.0292,8732.7891,6.8213,0.4212,54.895191,9.791309,108.3,5.845,1.85,0.00,54.895176,9.791093,54.895069,9.793790
1386963339,1,0,94.9,0,-2,0,0,444,400,-0.0292,8733.4561,6.8213,0.4212,54.895191,9.791340,108.3,5.845,1.85,0.00,54.895176,9.791093,54.895069,9.793790
1386963340,1,0,94.9,0,-1,-4,0,454,450,-0.0292,8733.7891,6.8213,0.4212,54.895191,9.791371,108.3,5.845,1.85,0.00,54.895176,9.791093,54.895069,9.793790
1386963340,1,0,95.0,0,-1,0,0,460,500,-0.0292,8734.1221,6.8213,0.4212,54.895191,9.791403,108.3,5.845,1.85,0.00,54.895176,9.791093,54.895069,9.793790
1386963340,1,0,95.1,0,-1,-4,0,465,450,-0.0292,8734.4551,6.8213,0.4212,54.895191,9.791433,108.3,5.845,1.85,0.00,54.895176,9.791093,54.895069,9.793790
1386963340,1,0,95.1,0,-1,0,0,470,500,-0.0292,8734.7881,6.8213,0.4212,54.895191,9.791464,108.3,5.845,1.85,0.00,54.895176,9.791093,54.895069,9.793790
1386963341,1,0,95.2,0,0,4,0,476,450,-0.0292,8734.7881,6.8213,0.4212,54.895191,9.791495,108.3,5.845,1.85,0.00,54.895176,9.791093,54.895069,9.793790
1386963341,1,0,95.3,0,0,0,0,476,500,-0.0292,8734.7881,6.8213,0.4212,54.895191,9.791527,108.3,5.845,1.85,0.00,54.895176,9.791093,54.895069,9.793790
1386963341,1,0,95.3,0,-1,-4,0,476,450,-0.0292,8735.1211,6.8213,0.4212,54.895191,9.791557,108.3,5.845,1.85,0.00,54.895176,9.791093,54.895069,9.793790
1386963341,1,0,95.4,0,0,0,0,481,500,-0.0292,8735.1211,6.8213,0.4212,54.895191,9.791589,108.3,5.845,1.85,0.00,54.895176,9.791093,54.895069,9.793790
1386963342,1,0,95.5,0,0,4,0,481,450,-0.0292,8735.1211,6.8213,0.4212,54.895191,9.791620,108.3,5.845,1.85,0.00,54.895176,9.791093,54.895069,9.793790
1386963342,1,0,95.6,0,0,0,0,481,500,-0.0292,8735.1211,6.8213,0.4212,54.895191,9.791652,108.3,5.845,1.85,0.00,54.895176,9.791093,54.895069,9.793790
1386963342,1,0,95.6,0,-1,-4,0,481,450,-0.0292,8735.4541,6.8213,0.4212,54.895191,9.791682,108.3,5.845,1.85,0.00,54.895176,9.791093,54.895069,9.793790
1386963342,1,0,95.7,0,0,0,0,486,500,-0.0292,8735.4541,6.8213,0.4212,54.895191,9.791714,108.3,5.845,1.85,0.00,54.895176,9.791093,54.895069,9.793790
1386963343,1,0,95.8,0,0,4,0,486,450,-0.0292,8735.4541,6.8213,0.4212,54.895191,9.791745,108.3,5.845,1.85,0.00,54.895176,9.791093,54.895069,9.793790
1386963343,1,0,95.9,0,0,0,0,486,500,-0.0292,8735.4541,6.8213,0.4212,54.895191,9.791776,108.3,5.845,1.85,0.00,54.895176,9.791093,54.895069,9.793790
1386963343,1,0,96.0,0,-1,-4,0,486,450,-0.0292,8735.7871,6.8213,0.4212,54.895191,9.791806,108.3,5.845,1.85,0.00,54.895176,9.791093,54.895069,9.793790
1386963343,1,0,96.1,0,0,0,0,492,500,-0.0292,8735.7871,6.8213,0.4212,54.895191,9.791838,108.3,5.845,1.85,0.00,54.895176,9.791093,54.895069,9.793790
1386963344,1,0,96.2,0,0,4,0,492,450,-0.0292,8735.7871,6.8213,0.4212,54.895191,9.791869,108.3,5.845,1.85,0.00,54.895176,9.791093,54.895069,9.793790
1386963344,1,0,96.3,0,0,0,0,492,500,-0.0292,8735.7871,6.8213,0.4212,54.895191,9.791900,108.3,5.845,1.85,0.00,54.895176,9.791093,54.895069,9.793790
1386963344,1,0,96.4,0,-1,-4,0,492,450,-0.0292,8736.1201,6.8213,0.4212,54.895191,9.791931,108.3,5.845,1.85,0.00,54.895176,9.791093,54.895069,9.793790
1386963344,1,0,96.5,0,0,0,0,497,500,-0.0292,8736.1201,6.8213,0.4212,54.895191,9.791963,108.3,5.845,1.85,0.00,54.895176,9.791093,54.895069,9.793790
1386963345,1,0,96.6,0,0,4,0,497,450,-0.0292,8736.1201,6.8213,0.4212,54.895191,9.791993,108.3,5.845,1.85,0.00,54.895176,9.791093,54.895069,9.793790
1386963345,1,0,96.7,0,-1,0,0,497,500,-0.0292,8736.4531,6.8213,0.4212,54.895191,9.792024,108.3,5.845,1.85,0.00,54.895176,9.791093,54.895069,9.793790
1386963345,1,0,96.8,0,0,4,0,502,550,-0.0292,8736.4531,6.8213,0.4212,54.895191,9.792055,108.3,5.845,1.85,0.00,54.895176,9.791093,54.895069,9.793790
1386963345,1,0,96.9,0,0,0,0,502,500,-0.0292,8736.4531,6.8213,0.4212,54.895191,9.792087,108.3,5.845,1.85,0.00,54.895176,9.791093,54.895069,9.793790
1386963346,1,0,97.1,0,-1,-4,0,502,550,-0.0292,8736.7861,6.8213,0.4212,54.895191,9.792117,108.3,5.845,1.85,0.00,54.895176,9.791093,54.895069,9.793790
1386963346,1,0,97.2,0,0,0,0,507,500,-0.0292,8736.7861,6.8213,0.4212,54.895191,9.792148,108.3,5.845,1.85,0.00,54.895176,9.791093,54.895069,9.793790
1386963346,1,0,97.3,0,-1,-4,0,507,550,-0.0292,8737.1191,6.8213,0.4212,54.895191,9.792179,108.3,5.845,1.85,0.00,54.895176,9.791093,54.895069,9.793790
1386963346,1,0,97.5,0,0,0,0,513,500,-0.0292,8737.1191,6.8213,0.4212,54.895191,9.792210,108.3,5.845,1.85,0.00,54.895176,9.791093,54.895069,9.793790
1386963347,1,0,97.6,0,0,4,0,513,550,-0.0292,8737.1191,6.8213,0.4212,54.895191,9.792240,108.3,5.845,1.85,0.00,54.895176,9.791093,54.895069,9.793790
1386963347,1,0,97.8,0,-1,0,0,513,500,-0.0292,8737.4521,6.8213,0.4212,54.895191,9.792272,108.3,5.845,1.85,0.00,54.895176,9.791093,54.895069,9.793790
1386963347,1,0,97.9,0,0,4,0,518,550,-0.0292,8737.4521,6.8213,0.4212,54.895191,9.792303,108.3,5.845,1.85,0.00,54.895176,9.791093,54.895069,9.793790
1386963347,1,0,98.1,0,-1,0,0,518,500,-0.0292,8737.7852,6.8213,0.4212,54.895191,9.792334,108.3,5.845,1.85,0.00,54.895176,9.791093,54.895069,9.793790
1386963348,1,0,98.2,0,0,4,0,523,550,-0.0292,8737.7852,6.8213,0.4212,54.895191,9.792364,108.3,5.845,1.85,0.00,54.895176,9.791093,54.895069,9.793790
1386963348,1,0,98.4,0,-1,0,0,523,500,-0.0292,8738.1182,6.8213,0.4212,54.895191,9.792396,108.3,5.845,1.85,0.00,54.895176,9.791093,54.895069,9.793790
1386963348,1,0,98.6,0,0,4,0,529,550,-0.0292,8738.1182,6.8213,0.4212,54.895191,9.792426,108.3,5.845,1.85,0.00,54.895176,9.791093,54.895069,9.793790
1386963348,1,0,98.8,0,-1,0,0,529,500,-0.0292,8738.4512,6.8213,0.4212,54.895191,9.792457,108.3,5.845,1.85,0.00,54.895176,9.791093,54.895069,9.793790
1386963349,1,0,99.0,0,-1,-4,0,534,550,-0.0292,8738.7842,6.8213,0.4212,54.895191,9.792488,108.3,5.845,1.85,0.00,54.895176,9.791093,54.895069,9.793790
1386963349,1,0,99.2,0,0,0,0,539,500,-0.0292,8738.7842,6.8213,0.4212,54.895191,9.792520,108.3,5.845,1.85,0.00,54.895176,9.791093,54.895069,9.793790
1386963349,1,0,99.4,0,-1,-4,0,539,550,-0.0292,8739.1172,6.8213,0.4212,54.895191,9.792550,108.3,5.845,1.85,0.00,54.895176,9.791093,54.895069,9.793790
1386963349,1,0,99.7,0,-1,0,0,545,500,-0.0292,8739.4502,6.8213,0.4212,54.895191,9.792581,108.3,5.845,1.85,0.00,54.895176,9.791093,54.895069,9.793790
1386963350,1,0,99.9,0,0,4,0,550,550,-0.0292,8739.4502,6.8213,0.4212,54.895191,9.792612,108.3,5.845,1.85,0.00,54.895176,9.791093,54.895069,9.793790
1386963350,1,0,100.2,0,-1,0,0,550,550,-0.0292,8739.7832,6.8213,0.4212,54.895191,9.792643,108.3,5.845,1.85,0.00,54.895176,9.791093,54.895069,9.793790
1386963350,1,0,100.4,0,-1,-4,0,555,600,-0.0292,8740.1162,6.8213,0.4212,54.895191,9.792673,108.3,5.845,1.85,0.00,54.895176,9.791093,54.895069,9.793790
1386963350,1,0,100.7,0,-1,0,0,560,550,-0.0292,8740.4492,6.8213,0.4212,54.895191,9.792705,108.3,5.845,1.85,0.00,54.895176,9.791093,54.895069,9.793790
1386963351,1,0,101.0,0,-1,-4,0,566,600,-0.0292,8740.7822,6.8213,0.4212,54.895191,9.792735,108.3,5.845,1.85,0.00,54.895176,9.791093,54.895069,9.793790
1386963351,1,0,101.3,0,-1,0,0,571,550,-0.0292,8741.1152,6.8213,0.4212,54.895191,9.792766,108.3,5.845,1.85,0.00,54.895176,9.791093,54.895069,9.793790
1386963351,1,0,101.6,0,-1,-4,0,576,600,-0.0292,8741.4482,6.8213,0.4212,54.895191,9.792796,108.3,5.845,1.85,0.00,54.895176,9.791093,54.895069,9.793790
1386963351,1,0,102.0,0,-1,0,0,581,550,-0.0292,8741.7812,6.8213,0.4212,54.895191,9.792827,108.3,5.845,1.85,0.00,54.895176,9.791093,54.895069,9.793790
1386963352,1,0,102.4,0,-1,-4,0,587,600,-0.0292,8742.1143,6.8213,0.4212,54.895191,9.792857,108.3,5.845,1.85,0.00,54.895176,9.791093,54.895069,9.793790
1386963352,1,0,102.7,0,-1,0,0,592,550,-0.0292,8742.4473,6.8213,0.4212,54.895191,9.792888,108.3,5.845,1.85,0.00,54.895176,9.791093,54.895069,9.793790
1386963352,1,0,103.2,0,-1,-4,0,597,600,-0.0292,8742.7803,6.8213,0.4212,54.895191,9.792918,108.3,5.845,1.85,0.00,54.895176,9.791093,54.895069,9.793790
1386963352,1,0,103.6,0,-1,0,0,602,650,-0.0292,8743.1133,6.8213,0.4212,54.895187,9.792949,108.3,5.845,1.85,0.00,54.895176,9.791093,54.895069,9.793790
1386963353,1,0,103.7,0,-1,-4,0,607,600,-0.0292,8743.4463,6.8213,0.4212,54.895184,9.792979,108.3,5.845,1.85,0.00,54.895176,9.791093,54.895069,9.793790
1386963353,1,0,103.7,0,0,0,0,613,650,-0.0292,8743.4463,6.8213,0.4212,54.895180,9.793009,108.3,5.845,1.85,0.00,54.895176,9.791093,54.895069,9.793790
1386963353,1,0,103.8,0,0,4,0,613,600,-0.0292,8743.4463,6.8213,0.4212,54.895176,9.793039,108.3,5.845,1.85,0.00,54.895176,9.791093,54.895069,9.793790
1386963353,1,0,103.8,0,0,0,0,613,650,-0.0292,8743.4463,6.8213,0.4212,54.895172,9.793070,108.3,5.845,1.85,0.00,54.895176,9.791093,54.895069,9.793790
1386963354,1,0,103.9,0,0,4,0,613,600,-0.0292,8743.4463,6.8213,0.4212,54.895168,9.793100,108.3,5.845,1.85,0.00,54.895176,9.791093,54.895069,9.793790
1386963354,1,0,104.0,0,-1,0,0,613,650,-0.0292,8743.7793,6.8213,0.4212,54.895161,9.793131,108.3,5.845,1.85,0.00,54.895176,9.791093,54.895069,9.793790
1386963354,1,0,103.5,0,0,4,0,618,600,-0.0292,8743.7793,6.8213,0.4212,54.895157,9.793161,108.3,5.845,1.85,0.00,54.895176,9.791093,54.895069,9.793790
1386963354,1,0,103.6,0,0,0,0,618,650,-0.0292,8743.7793,6.8213,0.4212,54.895153,9.793192,108.3,5.845,1.85,0.00,54.895176,9.791093,54.895069,9.793790
1386963355,1,0,103.6,0,0,4,0,618,600,-0.0292,8743.7793,6.8213,0.4212,54.895149,9.793221,108.3,5.845,1.85,0.00,54.895176,9.791093,54.895069,9.793790
1386963355,1,0,103.7,0,0,0,0,618,650,-0.0292,8743.7793,6.8213,0.4212,54.895145,9.793252,108.3,5.845,1.85,0.00,54.895176,9.791093,54.895069,9.793790
1386963355,1,0,103.8,0,0,4,0,618,600,-0.0292,8743.7793,6.8213,0.4212,54.895138,9.793283,108.3,5.845,1.85,0.00,54.895176,9.791093,54.895069,9.793790
1386963355,1,0,103.2,0,1,0,0,618,650,-0.0292,8743.4463,6.8213,0.4212,54.895134,9.793313,108.3,5.845,1.85,0.00,54.895176,9.791093,54.895069,9.793790
1386963356,1,0,103.2,0,0,4,0,613,600,-0.0292,8743.4463,6.8213,0.4212,54.895130,9.793344,108.3,5.845,1.85,0.00,54.895176,9.791093,54.895069,9.793790
1386963356,1,0,103.3,0,0,0,0,613,650,-0.0292,8743.4463,6.8213,0.4212,54.895126,9.793374,108.3,5.845,1.85,0.00,54.895176,9.791093,54.895069,9.793790
1386963356,1,0,103.4,0,0,4,0,613,600,-0.0292,8743.4463,6.8213,0.4212,54.895123,9.793405,108.3,5.845,1.85,0.00,54.895176,9.791093,54.895069,9.793790
1386963356,1,0,103.5,0,0,0,0,613,650,-0.0292,8743.4463,6.8213,0.4212,54.895119,9.793434,108.3,5.845,1.85,0.00,54.895176,9.791093,54.895069,9.793790
1386963357,1,0,103.5,0,0,4,0,613,600,-0.0292,8743.4463,6.8213,0.4212,54.895111,9.793465,108.3,5.845,1.85,0.00,54.895176,9.791093,54.895069,9.793790
1386963357,1,0,102.6,0,1,0,0,613,650,-0.0292,8743.1133,6.8213,0.4212,54.895107,9.793495,108.3,5.845,1.85,0.00,54.895176,9.791093,54.895069,9.793790
1386963357,1,0,102.6,0,1,4,0,607,600,-0.0292,8742.7803,6.8213,0.4212,54.895103,9.793526,108.3,5.845,1.85,0.00,54.895176,9.791093,54.895069,9.793790
1386963357,1,0,102.7,0,0,0,0,602,650,-0.0292,8742.7803,6.8213,0.4212,54.895100,9.793556,108.3,5.845,1.85,0.00,54.895176,9.791093,54.895069,9.793790
1386963358,1,0,102.7,0,0,4,0,602,600,-0.0292,8742.7803,6.8213,0.4212,54.895096,9.793587,108.3,5.845,1.85,0.00,54.895176,9.791093,54.895069,9.793790
1386963358,1,0,102.8,0,0,0,0,602,650,-0.0292,8742.7803,6.8213,0.4212,54.895088,9.793617,108.3,5.845,1.85,0.00,54.895176,9.791093,54.895069,9.793790
1386963358,1,0,100.8,0,2,4,0,602,600,-0.0292,8742.1133,6.8213,0.4212,54.895084,9.793647,108.3,5.845,1.85,0.00,54.895176,9.791093,54.895069,9.793790
1386963358,1,0,100.4,0,2,0,0,592,550,-0.0292,8741.4463,6.8213,0.4212,54.895081,9.793677,108.3,5.845,1.85,0.00,54.895176,9.791093,54.895069,9.793790
1386963359,1,0,100.0,0,1,4,0,581,600,-0.0292,8741.1133,6.8213,0.4212,54.895077,9.793708,108.3,5.845,1.85,0.00,54.895176,9.791093,54.895069,9.793790
1386963359,1,0,99.1,0,2,0,0,576,550,-0.0292,8740.4463,6.8213,0.4212,54.895073,9.793738,108.3,5.845,1.85,0.00,54.895176,9.791093,54.895069,9.793790
1386963359,1,0,97.3,0,3,4,0,566,600,-0.0292,8739.4463,6.8213,0.4212,54.895069,9.793770,108.3,5.845,1.85,0.00,54.895069,9.793790,54.895348,9.797490
1386963359,1,0,82.6,0,17,8,0,550,550,-0.0292,8733.7793,6.8213,0.4212,54.895065,9.793801,108.3,5.845,1.85,0.00,54.895069,9.793790,54.895348,9.797490
1386963360,1,0,82.5,0,11,12,0,459,500,-0.0292,8730.1123,6.8213,0.4212,54.895065,9.793833,108.3,5.845,1.85,0.00,54.895069,9.793790,54.895348,9.797490
1386963360,1,0,82.4,0,8,8,0,401,450,-0.0292,8727.4453,6.8213,0.4212,54.895069,9.793863,108.3,5.845,1.85,0.00,54.895069,9.793790,54.895348,9.797490
1386963360,1,0,82.4,0,5,4,0,358,400,-0.0292,8725.7783,6.8213,0.4212,54.895069,9.793895,108.3,5.845,1.85,0.00,54.895069,9.793790,54.895348,9.797490
1386963360,1,0,82.4,0,3,0,0,332,350,-0.0292,8724.7783,6.8213,0.4212,54.895069,9.793926,108.3,5.845,1.85,0.00,54.895069,9.793790,54.895348,9.797490
1386963361,1,0,82.3,0,2,4,0,316,300,-0.0292,8724.1113,6.8213,0.4212,54.895069,9.793957,108.3,5.845,1.85,0.00,54.895069,9.793790,54.895348,9.797490
1386963361,1,0,82.2,0,2,0,0,306,350,-0.0292,8723.4443,6.8213,0.4212,54.895069,9.793988,108.3,5.845,1.85,0.00,54.895069,9.793790,54.895348,9.797490
1386963361,1,0,82.2,0,1,4,0,296,300,-0.0292,8723.1113,6.8213,0.4212,54.895069,9.794020,108.3,5.845,1.85,0.00,54.895069,9.793790,54.895348,9.797490
1386963361,1,0,82.1,0,1,0,0,290,250,-0.0292,8722.7783,6.8213,0.4212,54.895069,9.794050,108.3,5.845,1.85,0.00,54.895069,9.793790,54.895348,9.797490
1386963362,1,0,82.0,0,1,4,0,285,300,-0.0292,8722.4453,6.8213,0.4212,54.895069,9.794081,108.3,5.845,1.85,0.00,54.895069,9.793790,54.895348,9.797490
1386963362,1,0,82.0,0,0,0,0,280,250,-0.0292,8722.4453,6.8213,0.4212,54.895069,9.794112,108.3,5.845,1.85,0.00,54.895069,9.793790,54.895348,9.797490
1386963362,1,0,81.9,0,1,4,0,280,300,-0.0292,8722.1123,6.8213,0.4212,54.895069,9.794143,108.3,5.845,1.85,0.00,54.895069,9.793790,54.895348,9.797490
1386963362,1,0,81.8,0,0,0,0,275,250,-0.0292,8722.1123,6.8213,0.4212,54.895069,9.794173,108.3,5.845,1.85,0.00,54.895069,9.793790,54.895348,9.797490
1386963363,1,0,81.7,0,0,4,0,275,300,-0.0292,8722.1123,6.8213,0.4212,54.895069,9.794205,108.3,5.845,1.85,0.00,54.895069,9.793790,54.895348,9.797490
1386963363,1,0,81.7,0,0,0,0,275,250,-0.0292,8722.1123,6.8213,0.4212,54.895069,9.794236,108.3,5.845,1.85,0.00,54.895069,9.793790,54.895348,9.797490
1386963363,1,0,81.6,0,1,4,0,275,300,-0.0292,8721.7793,6.8213,0.4212,54.895069,9.794267,108.3,5.845,1.85,0.00,54.895069,9.793790,54.895348,9.797490
1386963363,1,0,81.5,0,0,0,0,270,250,-0.0292,8721.7793,6.8213,0.4212,54.895069,9.794297,108.3,5.845,1.85,0.00,54.895069,9.793790,54.895348,9.797490
1386963364,1,0,81.4,0,0,4,0,270,300,-0.0292,8721.7793,6.8213,0.4212,54.895069,9.794329,108.3,5.845,1.85,0.00,54.895069,9.793790,54.895348,9.797490
1386963364,1,0,81.3,0,0,0,0,270,250,-0.0292,8721.7793,6.8213,0.4212,54.895069,9.794359,108.3,5.845,1.85,0.00,54.895069,9.793790,54.895348,9.797490
1386963364,1,0,81.3,0,1,4,0,270,300,-0.0292,8721.4463,6.8213,0.4212,54.895069,9.794390,108.3,5.845,1.85,0.00,54.895069,9.793790,54.895348,9.797490
1386963364,1,0,81.2,0,0,0,0,265,250,-0.0292,8721.4463,6.8213,0.4212,54.895069,9.794420,108.3,5.845,1.85,0.00,54.895069,9.793790,54.895348,9.797490
1386963365,1,0,81.1,0,0,4,0,265,300,-0.0292,8721.4463,6.8213,0.4212,54.895069,9.794452,108.3,5.845,1.85,0.00,54.895069,9.793790,54.895348,9.797490
1386963365,1,0,81.0,0,0,0,0,265,250,-0.0292,8721.4463,6.8213,0.4212,54.895069,9.794482,108.3,5.845,1.85,0.00,54.895069,9.793790,54.895348,9.797490
1386963365,1,0,80.9,0,1,4,0,265,300,-0.0292,8721.1133,6.8213,0.4212,54.895069,9.794513,108.3,5.845,1.85,0.00,54.895069,9.793790,54.895348,9.797490
1386963365,1,0,80.8,0,0,0,0,260,250,-0.0292,8721.1133,6.8213,0.4212,54.895069,9.794544,108.3,5.845,1.85,0.00,54.895069,9.793790,54.895348,9.797490
1386963366,1,0,80.7,0,0,4,0,260,300,-0.0292,8721.1133,6.8213,0.4212,54.895069,9.794575,108.3,5.845,1.85,0.00,54.895069,9.793790,54.895348,9.797490
1386963366,1,0,80.6,0,0,0,0,260,250,-0.0292,8721.1133,6.8213,0.4212,54.895069,9.794605,108.3,5.845,1.85,0.00,54.895069,9.793790,54.895348,9.797490
1386963366,1,0,80.5,0,1,4,0,260,300,-0.0292,8720.7803,6.8213,0.4212,54.895069,9.794636,108.3,5.845,1.85,0.00,54.895069,9.793790,54.895348,9.797490
1386963366,1,0,80.4,0,0,0,0,254,250,-0.0292,8720.7803,6.8213,0.4212,54.895069,9.794667,108.3,5.845,1.85,0.00,54.895069,9.793790,54.895348,9.797490
1386963367,1,0,80.3,0,0,4,0,254,300,-0.0292,8720.7803,6.8213,0.4212,54.895069,9.794698,108.3,5.845,1.85,0.00,54.895069,9.793790,54.895348,9.797490
1386963367,1,0,80.2,0,1,0,0,254,250,-0.0292,8720.4473,6.8213,0.4212,54.895069,9.794728,108.3,5.845,1.85,0.00,54.895069,9.793790,54.895348,9.797490
1386963367,1,0,80.1,0,0,4,0,249,200,-0.0292,8720.4473,6.8213,0.4212,54.895069,9.794760,108.3,5.845,1.85,0.00,54.895069,9.793790,54.895348,9.797490
1386963368,1,0,80.0,0,0,0,0,249,250,-0.0292,8720.4473,6.8213,0.4212,54.895069,9.794790,108.3,5.845,1.85,0.00,54.895069,9.793790,54.895348,9.797490
1386963368,1,0,79.9,0,1,4,0,249,200,-0.0292,8720.1143,6.8213,0.4212,54.895069,9.794821,108.3,5.845,1.85,0.00,54.895069,9.793790,54.895348,9.797490
1386963368,1,0,79.8,0,0,0,0,244,250,-0.0292,8720.1143,6.8213,0.4212,54.895069,9.794851,108.3,5.845,1.85,0.00,54.895069,9.793790,54.895348,9.797490
1386963368,1,0,79.7,0,0,4,0,244,200,-0.0292,8720.1143,6.8213,0.4212,54.895069,9.794883,108.3,5.845,1.85,0.00,54.895069,9.793790,54.895348,9.797490
1386963369,1,0,79.5,0,1,0,0,244,250,-0.0292,8719.7812,6.8213,0.4212,54.895069,9.794913,108.3,5.845,1.85,0.00,54.895069,9.793790,54.895348,9.797490
1386963369,1,0,79.4,0,0,4,0,239,200,-0.0292,8719.7812,6.8213,0.4212,54.895069,9.794944,108.3,5.845,1.85,0.00,54.895069,9.793790,54.895348,9.797490
1386963369,1,0,79.3,0,0,0,0,239,250,-0.0292,8719.7812,6.8213,0.4212,54.895069,9.794975,108.3,5.845,1.85,0.00,54.895069,9.793790,54.895348,9.797490
1386963369,1,0,79.2,0,1,4,0,239,200,-0.0292,8719.4482,6.8213,0.4212,54.895069,9.795006,108.3,5.845,1.85,0.00,54.895069,9.793790,54.895348,9.797490
1386963370,1,0,79.0,0,0,0,0,234,250,-0.0292,8719.4482,6.8213,0.4212,54.895069,9.795036,108.3,5.845,1.85,0.00,54.895069,9.793790,54.895348,9.797490
1386963370,1,0,78.9,0,1,4,0,234,200,-0.0292,8719.1152,6.8213,0.4212,54.895069,9.795067,108.3,5.845,1.85,0.00,54.895069,9.793790,54.895348,9.797490
1386963370,1,0,78.8,0,0,0,0,229,250,-0.0292,8719.1152,6.8213,0.4212,54.895069,9.795097,108.3,5.845,1.85,0.00,54.895069,9.793790,54.895348,9.797490
1386963370,1,0,78.6,0,0,4,0,229,200,-0.0292,8719.1152,6.8213,0.4212,54.895069,9.795128,108.3,5.845,1.85,0.00,54.895069,9.793790,54.895348,9.797490
1386963371,1,0,78.5,0,1,0,0,229,250,-0.0292,8718.7822,6.8213,0.4212,54.895069,9.795158,108.3,5.845,1.85,0.00,54.895069,9.793790,54.895348,9.797490
1386963371,1,0,78.3,0,0,4,0,224,200,-0.0292,8718.7822,6.8213,0.4212,54.895069,9.795190,108.3,5.845,1.85,0.00,54.895069,9.793790,54.895348,9.797490
1386963371,1,0,78.2,0,1,0,0,224,250,-0.0292,8718.4492,6.8213,0.4212,54.895069,9.795220,108.3,5.845,1.85,0.00,54.895069,9.793790,54.895348,9.797490
1386963371,1,0,78.0,0,0,4,0,219,200,-0.0292,8718.4492,6.8213,0.4212,54.895069,9.795251,108.3,5.845,1.85,0.00,54.895069,9.793790,54.895348,9.797490
1386963372,1,0,77.9,0,1,0,0,219,250,-0.0292,8718.1162,6.8213,0.4212,54.895069,9.795281,108.3,5.845,1.85,0.00,54.895069,9.793790,54.895348,9.797490
1386963372,1,0,77.7,0,0,4,0,214,200,-0.0292,8718.1162,6.8213,0.4212,54.895069,9.795312,108.3,5.845,1.85,0.00,54.895069,9.793790,54.895348,9.797490
1386963372,1,0,77.5,0,1,0,0,214,250,-0.0292,8717.7832,6.8213,0.4212,54.895069,9.795342,108.3,5.845,1.85,0.00,54.895069,9.793790,54.895348,9.797490
1386963372,1,0,77.4,0,0,4,0,210,200,-0.0292,8717.7832,6.8213,0.4212,54.895069,9.795373,108.3,5.845,1.85,0.00,54.895069,9.793790,54.895348,9.797490
1386963373,1,0,77.2,0,1,0,0,210,250,-0.0292,8717.4502,6.8213,0.4212,54.895069,9.795403,108.3,5.845,1.85,0.00,54.895069,9.793790,54.895348,9.797490
1386963373,1,0,77.0,0,0,4,0,205,200,-0.0292,8717.4502,6.8213,0.4212,54.895069,9.795434,108.3,5.845,1.85,0.00,54.895069,9.793790,54.895348,9.797490
1386963373,1,0,76.8,0,1,0,0,205,250,-0.0292,8717.1172,6.8213,0.4212,54.895069,9.795465,108.3,5.845,1.85,0.00,54.895069,9.793790,54.895348,9.797490
1386963373,1,0,76.6,0,0,4,0,200,200,-0.0292,8717.1172,6.8213,0.4212,54.895069,9.795494,108.3,5.845,1.85,0.00,54.895069,9.793790,54.895348,9.797490
1386963374,1,0,76.4,0,1,0,0,200,200,-0.0292,8716.7842,6.8213,0.4212,54.895073,9.795525,108.3,5.845,1.85,0.00,54.895069,9.793790,54.895348,9.797490
1386963374,1,0,76.4,0,0,4,0,195,150,-0.0292,8716.7842,6.8213,0.4212,54.895077,9.795555,108.3,5.845,1.85,0.00,54.895069,9.793790,54.895348,9.797490
1386963374,1,0,76.4,0,0,0,0,195,200,-0.0292,8716.7842,6.8213,0.4212,54.895081,9.795586,108.3,5.845,1.85,0.00,54.895069,9.793790,54.895348,9.797490
1386963374,1,0,76.4,0,0,4,0,195,150,-0.0292,8716.7842,6.8213,0.4212,54.895084,9.795616,108.3,5.845,1.85,0.00,54.895069,9.793790,54.895348,9.797490
1386963375,1,0,76.4,0,0,0,0,195,200,-0.0292,8716.7842,6.8213,0.4212,54.895088,9.795647,108.3,5.845,1.85,0.00,54.895069,9.793790,54.895348,9.797490
1386963375,1,0,76.3,0,0,4,0,195,150,-0.0292,8716.7842,6.8213,0.4212,54.895092,9.795677,108.3,5.845,1.85,0.00,54.895069,9.793790,54.895348,9.797490
1386963375,1,0,76.3,0,0,0,0,195,200,-0.0292,8716.7842,6.8213,0.4212,54.895100,9.795707,108.3,5.845,1.85,0.00,54.895069,9.793790,54.895348,9.797490
1386963375,1,0,76.5,0,0,4,0,195,150,-0.0292,8716.7842,6.8213,0.4212,54.895103,9.795737,108.3,5.845,1.85,0.00,54.895069,9.793790,54.895348,9.797490
1386963376,1,0,76.5,0,0,0,0,195,200,-0.0292,8716.7842,6.8213,0.4212,54.895107,9.795768,108.3,5.845,1.85,0.00,54.895069,9.793790,54.895348,9.797490
1386963376,1,0,76.4,0,0,4,0,195,150,-0.0292,8716.7842,6.8213,0.4212,54.895111,9.795798,108.3,5.845,1.85,0.00,54.895069,9.793790,54.895348,9.797490
1386963376,1,0,76.4,0,0,0,0,195,200,-0.0292,8716.7842,6.8213,0.4212,54.895115,9.795829,108.3,5.845,1.85,0.00,54.895069,9.793790,54.895348,9.797490
1386963376,1,0,76.4,0,0,4,0,195,150,-0.0292,8716.7842,6.8213,0.4212,54.895123,9.795859,108.3,5.845,1.85,0.00,54.895069,9.793790,54.895348,9.797490
1386963377,1,0,76.6,0,0,0,0,195,200,-0.0292,8716.7842,6.8213,0.4212,54.895126,9.795890,108.3,5.845,1.85,0.00,54.895069,9.793790,54.895348,9.797490
1386963377,1,0,76.6,0,0,4,0,195,150,-0.0292,8716.7842,6.8213,0.4212,54.895130,9.795919,108.3,5.845,1.85,0.00,54.895069,9.793790,54.895348,9.797490
1386963377,1,0,76.5,0,0,0,0,195,200,-0.0292,8716.7842,6.8213,0.4212,54.895134,9.795950,108.3,5.845,1.85,0.00,54.895069,9.793790,54.895348,9.797490
1386963377,1,0,76.5,0,0,4,0,195,150,-0.0292,8716.7842,6.8213,0.4212,54.895138,9.795980,108.3,5.845,1.85,0.00,54.895069,9.793790,54.895348,9.797490
1386963378,1,0,76.5,0,0,0,0,195,200,-0.0292,8716.7842,6.8213,0.4212,54.895142,9.796010,108.3,5.845,1.85,0.00,54.895069,9.793790,54.895348,9.797490
1386963378,1,0,76.5,0,0,4,0,195,150,-0.0292,8716.7842,6.8213,0.4212,54.895149,9.796041,108.3,5.845,1.85,0.00,54.895069,9.793790,54.895348,9.797490
1386963378,1,0,76.7,0,0,0,0,195,200,-0.0292,8716.7842,6.8213,0.4212,54.895153,9.796071,108.3,5.845,1.85,0.00,54.895069,9.793790,54.895348,9.797490
1386963378,1,0,76.7,0,0,4,0,195,150,-0.0292,8716.7842,6.8213,0.4212,54.895157,9.796102,108.3,5.845,1.85,0.00,54.895069,9.793790,54.895348,9.797490
1386963379,1,0,76.6,0,0,0,0,195,200,-0.0292,8716.7842,6.8213,0.4212,54.895161,9.796132,108.3,5.845,1.85,0.00,54.895069,9.793790,54.895348,9.797490
1386963379,1,0,76.6,0,0,4,0,195,150,-0.0292,8716.7842,6.8213,0.4212,54.895164,9.796163,108.3,5.845,1.85,0.00,54.895069,9.793790,54.895348,9.797490
1386963379,1,0,76.6,0,0,0,0,195,200,-0.0292,8716.7842,6.8213,0.4212,54.895172,9.796193,108.3,5.845,1.85,0.00,54.895069,9.793790,54.895348,9.797490
1386963379,1,0,76.8,0,0,4,0,195,150,-0.0292,8716.7842,6.8213,0.4212,54.895176,9.796223,108.3,5.845,1.85,0.00,54.895069,9.793790,54.895348,9.797490
1386963380,1,0,76.8,0,0,0,0,195,200,-0.0292,8716.7842,6.8213,0.4212,54.895180,9.796253,108.3,5.845,1.85,0.00,54.895069,9.793790,54.895348,9.797490
1386963380,1,0,76.8,0,0,4,0,195,150,-0.0292,8716.7842,6.8213,0.4212,54.895184,9.796284,108.3,5.845,1.85,0.00,54.895069,9.793790,54.895348,9.797490
1386963380,1,0,76.8,0,0,0,0,195,200,-0.0292,8716.7842,6.8213,0.4212,54.895187,9.796314,108.3,5.845,1.85,0.00,54.895069,9.793790,54.895348,9.797490
1386963380,1,0,76.7,0,0,4,0,195,150,-0.0292,8716.7842,6.8213,0.4212,54.895191,9.796345,108.3,5.845,1.85,0.00,54.895069,9.793790,54.895348,9.797490
1386963381,1,0,76.7,0,0,0,0,195,200,-0.0292,8716.7842,6.8213,0.4212,54.895199,9.796375,108.3,5.845,1.85,0.00,54.895069,9.793790,54.895348,9.797490
1386963381,1,0,77.0,0,0,4,0,195,150,-0.0292,8716.7842,6.8213,0.4212,54.895203,9.796406,108.3,5.845,1.85,0.00,54.895069,9.793790,54.895348,9.797490
1386963381,1,0,77.0,0,0,0,0,195,200,-0.0292,8716.7842,6.8213,0.4212,54.895206,9.796435,108.3,5.845,1.85,0.00,54.895069,9.793790,54.895348,9.797490
1386963381,1,0,77.0,0,0,4,0,195,150,-0.0292,8716.7842,6.8213,0.4212,54.895210,9.796466,108.3,5.845,1.85,0.00,54.895069,9.793790,54.895348,9.797490
1386963382,1,0,77.0,0,0,0,0,195,200,-0.0292,8716.7842,6.8213,0.4212,54.895214,9.796496,108.3,5.845,1.85,0.00,54.895069,9.793790,54.895348,9.797490
1386963382,1,0,76.9,0,0,4,0,195,150,-0.0292,8716.7842,6.8213,0.4212,54.895222,9.796527,108.3,5.845,1.85,0.00,54.895069,9.793790,54.895348,9.797490
1386963382,1,0,77.3,0,0,0,0,195,200,-0.0292,8716.7842,6.8213,0.4212,54.895226,9.796557,108.3,5.845,1.85,0.00,54.895069,9.793790,54.895348,9.797490
1386963382,1,0,77.3,0,0,4,0,195,150,-0.0292,8716.7842,6.8213,0.4212,54.895229,9.796588,108.3,5.845,1.85,0.00,54.895069,9.793790,54.895348,9.797490
1386963383,1,0,77.2,0,0,0,0,195,200,-0.0292,8716.7842,6.8213,0.4212,54.895233,9.796618,108.3,5.845,1.85,0.00,54.895069,9.793790,54.895348,9.797490
1386963383,1,0,77.2,0,0,4,0,195,150,-0.0292,8716.7842,6.8213,0.4212,54.895237,9.796648,108.3,5.845,1.85,0.00,54.895069,9.793790,54.895348,9.797490
1386963383,1,0,77.2,0,0,0,0,195,200,-0.0292,8716.7842,6.8213,0.4212,54.895241,9.796679,108.3,5.845,1.85,0.00,54.895069,9.793790,54.895348,9.797490
1386963383,1,0,77.2,0,0,4,0,195,150,-0.0292,8716.7842,6.8213,0.4212,54.895248,9.796709,108.3,5.845,1.85,0.00,54.895069,9.793790,54.895348,9.797490
1386963384,1,0,77.6,0,-1,0,0,195,200,-0.0292,8717.1172,6.8213,0.4212,54.895252,9.796740,108.3,5.845,1.85,0.00,54.895069,9.793790,54.895348,9.797490
1386963384,1,0,77.6,0,0,4,0,200,200,-0.0292,8717.1172,6.8213,0.4212,54.895256,9.796770,108.3,5.845,1.85,0.00,54.895069,9.793790,54.895348,9.797490
1386963384,1,0,77.6,0,0,0,0,200,200,-0.0292,8717.1172,6.8213,0.4212,54.895260,9.796801,108.3,5.845,1.85,0.00,54.895069,9.793790,54.895348,9.797490
1386963384,1,0,77.6,0,0,4,0,200,200,-0.0292,8717.1172,6.8213,0.4212,54.895264,9.796831,108.3,5.845,1.85,0.00,54.895069,9.793790,54.895348,9.797490
1386963385,1,0,77.6,0,0,0,0,200,200,-0.0292,8717.1172,6.8213,0.4212,54.895271,9.796862,108.3,5.845,1.85,0.00,54.895069,9.793790,54.895348,9.797490
1386963385,1,0,78.2,0,-1,-4,0,200,200,-0.0292,8717.4502,6.8213,0.4212,54.895275,9.796892,108.3,5.845,1.85,0.00,54.895069,9.793790,54.895348,9.797490
1386963385,1,0,78.2,0,-1,0,0,205,250,-0.0292,8717.7832,6.8213,0.4212,54.895279,9.796923,108.3,5.845,1.85,0.00,54.895069,9.793790,54.895348,9.797490
1386963385,1,0,78.2,0,0,4,0,210,200,-0.0292,8717.7832,6.8213,0.4212,54.895283,9.796953,108.3,5.845,1.85,0.00,54.895069,9.793790,54.895348,9.797490
1386963386,1,0,78.2,0,0,0,0,210,250,-0.0292,8717.7832,6.8213,0.4212,54.895287,9.796984,108.3,5.845,1.85,0.00,54.895069,9.793790,54.895348,9.797490
1386963386,1,0,78.2,0,0,4,0,210,200,-0.0292,8717.7832,6.8213,0.4212,54.895290,9.797014,108.3,5.845,1.85,0.00,54.895069,9.793790,54.895348,9.797490
1386963386,1,0,78.3,0,0,0,0,210,250,-0.0292,8717.7832,6.8213,0.4212,54.895290,9.797045,108.3,5.845,1.85,0.00,54.895069,9.793790,54.895348,9.797490
1386963386,1,0,77.5,0,0,4,0,210,200,-0.0292,8717.7832,6.8213,0.4212,54.895290,9.797075,108.3,5.845,1.85,0.00,54.895069,9.793790,54.895348,9.797490
1386963387,1,0,76.6,0,1,0,0,210,250,-0.0292,8717.4502,6.8213,0.4212,54.895290,9.797106,108.3,5.845,1.85,0.00,54.895069,9.793790,54.895348,9.797490
1386963387,1,0,75.6,0,2,4,0,205,200,-0.0292,8716.7832,6.8213,0.4212,54.895290,9.797136,108.3,5.845,1.85,0.00,54.895069,9.793790,54.895348,9.797490
1386963387,1,0,55.0,0,22,8,0,195,150,-0.0292,8709.4502,6.8213,0.4212,54.895294,9.797165,108.3,5.845,1.85,0.00,54.895069,9.793790,54.895348,9.797490
1386963387,1,0,55.0,0,14,12,0,97,100,-0.0292,8704.7832,6.8213,0.4212,54.895302,9.797194,108.3,5.845,1.85,0.00,54.895069,9.793790,54.895348,9.797490
1386963388,1,0,75.1,0,-10,8,0,48,50,-0.0292,8708.1162,6.8213,0.4212,54.895309,9.797222,108.3,5.845,1.85,0.00,54.895069,9.793790,54.895348,9.797490
1386963388,1,0,76.2,0,-8,4,0,82,100,-0.0292,8710.7832,6.8213,0.4212,54.895317,9.797251,108.3,5.845,1.85,0.00,54.895069,9.793790,54.895348,9.797490
1386963388,1,0,77.6,0,-7,0,0,113,150,-0.0292,8713.1162,6.8213,0.4212,54.895321,9.797281,108.3,5.845,1.85,0.00,54.895069,9.793790,54.895348,9.797490
1386963388,1,0,77.5,0,-4,-4,0,144,100,-0.0292,8714.4492,6.8213,0.4212,54.895325,9.797312,108.3,5.845,1.85,0.00,54.895069,9.793790,54.895348,9.797490
1386963389,1,0,77.5,0,-3,0,0,162,150,-0.0292,8715.4492,6.8213,0.4212,54.895329,9.797341,108.3,5.845,1.85,0.00,54.895069,9.793790,54.895348,9.797490
1386963389,1,0,77.5,0,-2,-4,0,176,200,-0.0292,8716.1162,6.8213,0.4212,54.895332,9.797372,108.3,5.845,1.85,0.00,54.895069,9.793790,54.895348,9.797490
1386963389,1,0,77.4,0,-1,0,0,185,150,-0.0292,8716.4492,6.8213,0.4212,54.895336,9.797402,108.3,5.845,1.85,0.00,54.895069,9.793790,54.895348,9.797490
1386963389,1,0,77.3,0,-1,-4,0,190,200,-0.0292,8716.7822,6.8213,0.4212,54.895344,9.797433,108.3,5.845,1.85,0.00,54.895069,9.793790,54.895348,9.797490
1386963390,1,0,83.4,0,-7,-8,0,195,150,-0.0292,8719.1152,6.8213,0.4212,54.895348,9.797463,108.3,5.845,1.85,0.00,54.895348,9.797490,54.894039,9.801540
1386963390,1,0,119.0,0,-35,-12,0,229,200,-0.0292,8730.7822,6.8213,0.4212,54.895348,9.797495,108.3,5.845,1.85,0.00,54.895348,9.797490,54.894039,9.801540
1386963390,1,0,119.2,0,-28,-16,0,412,250,-0.0292,8740.1152,6.8213,0.4212,54.895344,9.797525,108.3,5.845,1.85,0.00,54.895348,9.797490,54.894039,9.801540
1386963390,1,0,119.3,0,-19,-20,0,560,300,-0.0292,8746.4482,6.8213,0.4212,54.895336,9.797555,108.3,5.845,1.85,0.00,54.895348,9.797490,54.894039,9.801540
1386963391,1,0,119.4,0,-13,-16,0,659,350,-0.0292,8750.7812,6.8213,0.4212,54.895332,9.797585,108.3,5.845,1.85,0.00,54.895348,9.797490,54.894039,9.801540
1386963391,1,0,119.5,0,-9,-12,0,725,400,-0.0292,8753.7812,6.8213,0.4212,54.895325,9.797613,108.3,5.845,1.85,0.00,54.895348,9.797490,54.894039,9.801540
1386963391,1,0,119.5,0,-6,-8,0,770,450,-0.0292,8755.7812,6.8213,0.4212,54.895317,9.797641,108.3,5.845,1.85,0.00,54.895348,9.797490,54.894039,9.801540
1386963391,1,0,119.5,0,-4,-4,0,799,500,-0.0292,8757.1143,6.8213,0.4212,54.895306,9.797669,108.3,5.845,1.85,0.00,54.895348,9.797490,54.894039,9.801540
1386963392,1,0,119.5,0,-2,0,0,818,550,-0.0292,8757.7812,6.8213,0.4212,54.895298,9.797697,108.3,5.845,1.85,0.00,54.895348,9.797490,54.894039,9.801540
1386963392,1,0,119.5,0,-2,-4,0,828,600,-0.0292,8758.4482,6.8213,0.4212,54.895290,9.797724,108.3,5.845,1.85,0.00,54.895348,9.797490,54.894039,9.801540
1386963392,1,0,119.5,0,-1,0,0,837,650,-0.0292,8758.7812,6.8213,0.4212,54.895279,9.797751,108.3,5.845,1.85,0.00,54.895348,9.797490,54.894039,9.801540
1386963392,1,0,119.5,0,-1,-4,0,842,700,-0.0292,8759.1143,6.8213,0.4212,54.895271,9.797779,108.3,5.845,1.85,0.00,54.895348,9.797490,54.894039,9.801540
1386963393,1,0,119.5,0,0,0,0,847,750,-0.0292,8759.1143,6.8213,0.4212,54.895260,9.797806,108.3,5.845,1.85,0.00,54.895348,9.797490,54.894039,9.801540
1386963393,1,0,119.5,0,0,4,0,847,800,-0.0292,8759.1143,6.8213,0.4212,54.895252,9.797833,108.3,5.845,1.85,0.00,54.895348,9.797490,54.894039,9.801540
1386963393,1,0,119.5,0,0,0,0,847,850,-0.0292,8759.1143,6.8213,0.4212,54.895245,9.797860,108.3,5.845,1.85,0.00,54.895348,9.797490,54.894039,9.801540
1386963393,1,0,119.5,0,0,4,0,847,800,-0.0292,8759.1143,6.8213,0.4212,54.895233,9.797888,108.3,5.845,1.85,0.00,54.895348,9.797490,54.894039,9.801540
1386963394,1,0,119.5,0,0,0,0,847,850,-0.0292,8759.1143,6.8213,0.4212,54.895226,9.797915,108.3,5.845,1.85,0.00,54.895348,9.797490,54.894039,9.801540
1386963394,1,0,119.5,0,0,4,0,847,800,-0.0292,8759.1143,6.8213,0.4212,54.895218,9.797942,108.3,5.845,1.85,0.00,54.895348,9.797490,54.894039,9.801540
1386963394,1,0,119.5,0,0,0,0,847,850,-0.0292,8759.1143,6.8213,0.4212,54.895206,9.797970,108.3,5.845,1.85,0.00,54.895348,9.797490,54.894039,9.801540
1386963394,1,0,119.5,0,0,4,0,847,800,-0.0292,8759.1143,6.8213,0.4212,54.895199,9.797997,108.3,5.845,1.85,0.00,54.895348,9.797490,54.894039,9.801540
1386963395,1,0,119.5,0,0,0,0,847,850,-0.0292,8759.1143,6.8213,0.4212,54.895187,9.798024,108.3,5.845,1.85,0.00,54.895348,9.797490,54.894039,9.801540
1386963395,1,0,119.4,0,0,4,0,847,800,-0.0292,8759.1143,6.8213,0.4212,54.895180,9.798052,108.3,5.845,1.85,0.00,54.895348,9.797490,54.894039,9.801540
1386963395,1,0,119.5,0,0,0,0,847,850,-0.0292,8759.1143,6.8213,0.4212,54.895172,9.798079,108.3,5.845,1.85,0.00,54.895348,9.797490,54.894039,9.801540
1386963395,1,0,119.5,0,0,4,0,847,800,-0.0292,8759.1143,6.8213,0.4212,54.895161,9.798106,108.3,5.845,1.85,0.00,54.895348,9.797490,54.894039,9.801540
1386963396,1,0,119.4,0,0,0,0,847,850,-0.0292,8759.1143,6.8213,0.4212,54.895153,9.798134,108.3,5.845,1.85,0.00,54.895348,9.797490,54.894039,9.801540
1386963396,1,0,119.5,0,0,4,0,847,800,-0.0292,8759.1143,6.8213,0.4212,54.895145,9.798161,108.3,5.845,1.85,0.00,54.895348,9.797490,54.894039,9.801540
1386963396,1,0,119.5,0,0,0,0,847,850,-0.0292,8759.1143,6.8213,0.4212,54.895134,9.798188,108.3,5.845,1.85,0.00,54.895348,9.797490,54.894039,9.801540
1386963397,1,0,119.4,0,0,4,0,847,800,-0.0292,8759.1143,6.8213,0.4212,54.895126,9.798216,108.3,5.845,1.85,0.00,54.895348,9.797490,54.894039,9.801540
1386963397,1,0,119.5,0,0,0,0,847,850,-0.0292,8759.1143,6.8213,0.4212,54.895119,9.798243,108.3,5.845,1.85,0.00,54.895348,9.797490,54.894039,9.801540
1386963397,1,0,119.5,0,0,4,0,847,800,-0.0292,8759.1143,6.8213,0.4212,54.895107,9.798270,108.3,5.845,1.85,0.00,54.895348,9.797490,54.894039,9.801540
1386963397,1,0,119.4,0,0,0,0,847,850,-0.0292,8759.1143,6.8213,0.4212,54.895100,9.798298,108.3,5.845,1.85,0.00,54.895348,9.797490,54.894039,9.801540
1386963398,1,0,119.5,0,0,4,0,847,800,-0.0292,8759.1143,6.8213,0.4212,54.895088,9.798325,108.3,5.845,1.85,0.00,54.895348,9.797490,54.894039,9.801540
1386963398,1,0,119.4,0,0,0,0,847,850,-0.0292,8759.1143,6.8213,0.4212,54.895081,9.798352,108.3,5.845,1.85,0.00,54.895348,9.797490,54.894039,9.801540
1386963398,1,0,119.4,0,0,4,0,847,800,-0.0292,8759.1143,6.8213,0.4212,54.895073,9.798380,108.3,5.845,1.85,0.00,54.895348,9.797490,54.894039,9.801540
1386963398,1,0,119.5,0,0,0,0,847,850,-0.0292,8759.1143,6.8213,0.4212,54.895061,9.798407,108.3,5.845,1.85,0.00,54.895348,9.797490,54.894039,9.801540
1386963399,1,0,119.4,0,0,4,0,847,800,-0.0292,8759.1143,6.8213,0.4212,54.895054,9.798434,108.3,5.845,1.85,0.00,54.895348,9.797490,54.894039,9.801540
1386963399,1,0,119.4,0,0,0,0,847,850,-0.0292,8759.1143,6.8213,0.4212,54.895046,9.798461,108.3,5.845,1.85,0.00,54.895348,9.797490,54.894039,9.801540
1386963399,1,0,119.5,0,0,4,0,847,800,-0.0292,8759.1143,6.8213,0.4212,54.895035,9.798489,108.3,5.845,1.85,0.00,54.895348,9.797490,54.894039,9.801540
1386963399,1,0,119.4,0,0,0,0,847,850,-0.0292,8759.1143,6.8213,0.4212,54.895027,9.798516,108.3,5.845,1.85,0.00,54.895348,9.797490,54.894039,9.801540
1386963400,1,0,119.5,0,0,4,0,847,800,-0.0292,8759.1143,6.8213,0.4212,54.895016,9.798543,108.3,5.845,1.85,0.00,54.895348,9.797490,54.894039,9.801540
1386963400,1,0,119.4,0,0,0,0,847,850,-0.0292,8759.1143,6.8213,0.4212,54.895008,9.798571,108.3,5.845,1.85,0.00,54.895348,9.797490,54.894039,9.801540
1386963400,1,0,119.4,0,0,4,0,847,800,-0.0292,8759.1143,6.8213,0.4212,54.895000,9.798598,108.3,5.845,1.85,0.00,54.895348,9.797490,54.894039,9.801540
1386963400,1,0,119.5,0,0,0,0,847,850,-0.0292,8759.1143,6.8213,0.4212,54.894989,9.798625,108.3,5.845,1.85,0.00,54.895348,9.797490,54.894039,9.801540
1386963401,1,0,119.4,0,0,4,0,847,800,-0.0292,8759.1143,6.8213,0.4212,54.894981,9.798653,108.3,5.845,1.85,0.00,54.895348,9.797490,54.894039,9.801540
1386963401,1,0,119.4,0,0,0,0,847,850,-0.0292,8759.1143,6.8213,0.4212,54.894974,9.798680,108.3,5.845,1.85,0.00,54.895348,9.797490,54.894039,9.801540
1386963401,1,0,119.5,0,0,4,0,847,800,-0.0292,8759.1143,6.8213,0.4212,54.894962,9.798707,108.3,5.845,1.85,0.00,54.895348,9.797490,54.894039,9.801540
1386963401,1,0,119.4,0,0,0,0,847,850,-0.0292,8759.1143,6.8213,0.4212,54.894955,9.798735,108.3,5.845,1.85,0.00,54.895348,9.797490,54.894039,9.801540
1386963402,1,0,119.4,0,0,4,0,847,800,-0.0292,8759.1143,6.8213,0.4212,54.894947,9.798761,108.3,5.845,1.85,0.00,54.895348,9.797490,54.894039,9.801540
1386963402,1,0,119.4,0,0,0,0,847,850,-0.0292,8759.1143,6.8213,0.4212,54.894936,9.798788,108.3,5.845,1.85,0.00,54.895348,9.797490,54.894039,9.801540
1386963402,1,0,119.4,0,0,4,0,847,800,-0.0292,8759.1143,6.8213,0.4212,54.894928,9.798816,108.3,5.845,1.85,0.00,54.895348,9.797490,54.894039,9.801540
1386963402,1,0,119.4,0,0,0,0,847,850,-0.0292,8759.1143,6.8213,0.4212,54.894917,9.798842,108.3,5.845,1.85,0.00,54.895348,9.797490,54.894039,9.801540
1386963403,1,0,119.3,0,0,4,0,847,800,-0.0292,8759.1143,6.8213,0.4212,54.894909,9.798870,108.3,5.845,1.85,0.00,54.895348,9.797490,54.894039,9.801540
1386963403,1,0,119.4,0,0,0,0,847,850,-0.0292,8759.1143,6.8213,0.4212,54.894901,9.798898,108.3,5.845,1.85,0.00,54.895348,9.797490,54.894039,9.801540
1386963403,1,0,119.4,0,0,4,0,847,800,-0.0292,8759.1143,6.8213,0.4212,54.894890,9.798924,108.3,5.845,1.85,0.00,54.895348,9.797490,54.894039,9.801540
1386963403,1,0,119.3,0,0,0,0,847,850,-0.0292,8759.1143,6.8213,0.4212,54.894882,9.798952,108.3,5.845,1.85,0.00,54.895348,9.797490,54.894039,9.801540
1386963404,1,0,119.4,0,0,4,0,847,800,-0.0292,8759.1143,6.8213,0.4212,54.894875,9.798980,108.3,5.845,1.85,0.00,54.895348,9.797490,54.894039,9.801540
1386963404,1,0,119.4,0,0,0,0,847,850,-0.0292,8759.1143,6.8213,0.4212,54.894863,9.799006,108.3,5.845,1.85,0.00,54.895348,9.797490,54.894039,9.801540
1386963404,1,0,119.3,0,0,4,0,847,800,-0.0292,8759.1143,6.8213,0.4212,54.894855,9.799034,108.3,5.845,1.85,0.00,54.895348,9.797490,54.894039,9.801540
1386963404,1,0,119.4,0,0,0,0,847,850,-0.0292,8759.1143,6.8213,0.4212,54.894844,9.799061,108.3,5.845,1.85,0.00,54.895348,9.797490,54.894039,9.801540
1386963405,1,0,119.3,0,0,4,0,847,800,-0.0292,8759.1143,6.8213,0.4212,54.894836,9.799088,108.3,5.845,1.85,0.00,54.895348,9.797490,54.894039,9.801540
1386963405,1,0,119.3,0,0,0,0,847,850,-0.0292,8759.1143,6.8213,0.4212,54.894829,9.799116,108.3,5.845,1.85,0.00,54.895348,9.797490,54.894039,9.801540
1386963405,1,0,119.4,0,0,4,0,847,800,-0.0292,8759.1143,6.8213,0.4212,54.894817,9.799143,108.3,5.845,1.85,0.00,54.895348,9.797490,54.894039,9.801540
1386963405,1,0,119.3,0,0,0,0,847,850,-0.0292,8759.1143,6.8213,0.4212,54.894810,9.799170,108.3,5.845,1.85,0.00,54.895348,9.797490,54.894039,9.801540
1386963406,1,0,119.3,0,0,4,0,847,800,-0.0292,8759.1143,6.8213,0.4212,54.894802,9.799198,108.3,5.845,1.85,0.00,54.895348,9.797490,54.894039,9.801540
1386963406,1,0,119.4,0,0,0,0,847,850,-0.0292,8759.1143,6.8213,0.4212,54.894791,9.799225,108.3,5.845,1.85,0.00,54.895348,9.797490,54.894039,9.801540
1386963406,1,0,119.3,0,0,4,0,847,800,-0.0292,8759.1143,6.8213,0.4212,54.894783,9.799253,108.3,5.845,1.85,0.00,54.895348,9.797490,54.894039,9.801540
1386963406,1,0,119.3,0,0,0,0,847,850,-0.0292,8759.1143,6.8213,0.4212,54.894775,9.799280,108.3,5.845,1.85,0.00,54.895348,9.797490,54.894039,9.801540
1386963407,1,0,119.4,0,0,4,0,847,800,-0.0292,8759.1143,6.8213,0.4212,54.894764,9.799307,108.3,5.845,1.85,0.00,54.895348,9.797490,54.894039,9.801540
1386963407,1,0,119.3,0,0,0,0,847,850,-0.0292,8759.1143,6.8213,0.4212,54.894756,9.799335,108.3,5.845,1.85,0.00,54.895348,9.797490,54.894039,9.801540
1386963407,1,0,119.3,0,0,4,0,847,800,-0.0292,8759.1143,6.8213,0.4212,54.894745,9.799361,108.3,5.845,1.85,0.00,54.895348,9.797490,54.894039,9.801540
1386963407,1,0,119.2,0,0,0,0,847,850,-0.0292,8759.1143,6.8213,0.4212,54.894737,9.799389,108.3,5.845,1.85,0.00,54.895348,9.797490,54.894039,9.801540
1386963408,1,0,119.3,0,0,4,0,847,800,-0.0292,8759.1143,6.8213,0.4212,54.894730,9.799417,108.3,5.845,1.85,0.00,54.895348,9.797490,54.894039,9.801540
1386963408,1,0,119.3,0,0,0,0,847,850,-0.0292,8759.1143,6.8213,0.4212,54.894718,9.799443,108.3,5.845,1.85,0.00,54.895348,9.797490,54.894039,9.801540
1386963408,1,0,119.2,0,0,4,0,847,800,-0.0292,8759.1143,6.8213,0.4212,54.894711,9.799471,108.3,5.845,1.85,0.00,54.895348,9.797490,54.894039,9.801540
1386963408,1,0,119.3,0,0,0,0,847,850,-0.0292,8759.1143,6.8213,0.4212,54.894703,9.799499,108.3,5.845,1.85,0.00,54.895348,9.797490,54.894039,9.801540
1386963409,1,0,119.3,0,0,4,0,847,800,-0.0292,8759.1143,6.8213,0.4212,54.894691,9.799525,108.3,5.845,1.85,0.00,54.895348,9.797490,54.894039,9.801540
1386963409,1,0,119.2,0,0,0,0,847,850,-0.0292,8759.1143,6.8213,0.4212,54.894684,9.799553,108.3,5.845,1.85,0.00,54.895348,9.797490,54.894039,9.801540
1386963409,1,0,119.3,0,0,4,0,847,800,-0.0292,8759.1143,6.8213,0.4212,54.894676,9.799581,108.3,5.845,1.85,0.00,54.895348,9.797490,54.894039,9.801540
1386963409,1,0,119.3,0,0,0,0,847,850,-0.0292,8759.1143,6.8213,0.4212,54.894665,9.799607,108.3,5.845,1.85,0.00,54.895348,9.797490,54.894039,9.801540
1386963410,1,0,119.2,0,0,4,0,847,800,-0.0292,8759.1143,6.8213,0.4212,54.894657,9.799635,108.3,5.845,1.85,0.00,54.895348,9.797490,54.894039,9.801540
1386963410,1,0,119.3,0,0,0,0,847,850,-0.0292,8759.1143,6.8213,0.4212,54.894646,9.799662,108.3,5.845,1.85,0.00,54.895348,9.797490,54.894039,9.801540
1386963410,1,0,119.2,0,0,4,0,847,800,-0.0292,8759.1143,6.8213,0.4212,54.894638,9.799688,108.3,5.845,1.85,0.00,54.895348,9.797490,54.894039,9.801540
1386963410,1,0,119.2,0,0,0,0,847,850,-0.0292,8759.1143,6.8213,0.4212,54.894630,9.799716,108.3,5.845,1.85,0.00,54.895348,9.797490,54.894039,9.801540
1386963411,1,0,119.3,0,0,4,0,847,800,-0.0292,8759.1143,6.8213,0.4212,54.894619,9.799743,108.3,5.845,1.85,0.00,54.895348,9.797490,54.894039,9.801540
1386963411,1,0,119.1,0,0,0,0,847,850,-0.0292,8759.1143,6.8213,0.4212,54.894611,9.799770,108.3,5.845,1.85,0.00,54.895348,9.797490,54.894039,9.801540
1386963411,1,0,119.2,0,0,4,0,847,800,-0.0292,8759.1143,6.8213,0.4212,54.894604,9.799798,108.3,5.845,1.85,0.00,54.895348,9.797490,54.894039,9.801540
1386963411,1,0,119.2,0,0,0,0,847,850,-0.0292,8759.1143,6.8213,0.4212,54.894592,9.799825,108.3,5.845,1.85,0.00,54.895348,9.797490,54.894039,9.801540
1386963412,1,0,119.1,0,0,4,0,847,800,-0.0292,8759.1143,6.8213,0.4212,54.894585,9.799852,108.3,5.845,1.85,0.00,54.895348,9.797490,54.894039,9.801540
1386963412,1,0,119.2,0,0,0,0,847,850,-0.0292,8759.1143,6.8213,0.4212,54.894573,9.799880,108.3,5.845,1.85,0.00,54.895348,9.797490,54.894039,9.801540
1386963412,1,0,119.1,0,0,4,0,847,800,-0.0292,8759.1143,6.8213,0.4212,54.894566,9.799907,108.3,5.845,1.85,0.00,54.895348,9.797490,54.894039,9.801540
1386963412,1,0,119.1,0,0,0,0,847,850,-0.0292,8759.1143,6.8213,0.4212,54.894558,9.799934,108.3,5.845,1.85,0.00,54.895348,9.797490,54.894039,9.801540
1386963413,1,0,119.2,0,0,4,0,847,800,-0.0292,8759.1143,6.8213,0.4212,54.894547,9.799961,108.3,5.845,1.85,0.00,54.895348,9.797490,54.894039,9.801540
1386963413,1,0,119.0,0,0,0,0,847,850,-0.0292,8759.1143,6.8213,0.4212,54.894539,9.799989,108.3,5.845,1.85,0.00,54.895348,9.797490,54.894039,9.801540
1386963413,1,0,119.1,0,0,4,0,847,800,-0.0292,8759.1143,6.8213,0.4212,54.894531,9.800016,108.3,5.845,1.85,0.00,54.895348,9.797490,54.894039,9.801540
1386963413,1,0,119.2,0,0,0,0,847,850,-0.0292,8759.1143,6.8213,0.4212,54.894520,9.800043,108.3,5.845,1.85,0.00,54.895348,9.797490,54.894039,9.801540
1386963414,1,0,119.0,0,0,4,0,847,800,-0.0292,8759.1143,6.8213,0.4212,54.894512,9.800071,108.3,5.845,1.85,0.00,54.895348,9.797490,54.894039,9.801540
1386963414,1,0,119.1,0,0,0,0,847,850,-0.0292,8759.1143,6.8213,0.4212,54.894505,9.800098,108.3,5.845,1.85,0.00,54.895348,9.797490,54.894039,9.801540
1386963414,1,0,119.2,0,0,4,0,847,800,-0.0292,8759.1143,6.8213,0.4212,54.894493,9.800125,108.3,5.845,1.85,0.00,54.895348,9.797490,54.894039,9.801540
1386963414,1,0,119.0,0,0,0,0,847,850,-0.0292,8759.1143,6.8213,0.4212,54.894485,9.800153,108.3,5.845,1.85,0.00,54.895348,9.797490,54.894039,9.801540
1386963415,1,0,119.1,0,0,4,0,847,800,-0.0292,8759.1143,6.8213,0.4212,54.894474,9.800180,108.3,5.845,1.85,0.00,54.895348,9.797490,54.894039,9.801540
1386963415,1,0,118.9,0,0,0,0,847,850,-0.0292,8759.1143,6.8213,0.4212,54.894466,9.800207,108.3,5.845,1.85,0.00,54.895348,9.797490,54.894039,9.801540
1386963415,1,0,119.0,0,0,4,0,847,800,-0.0292,8759.1143,6.8213,0.4212,54.894459,9.800235,108.3,5.845,1.85,0.00,54.895348,9.797490,54.894039,9.801540
1386963415,1,0,119.1,0,0,0,0,847,850,-0.0292,8759.1143,6.8213,0.4212,54.894447,9.800261,108.3,5.845,1.85,0.00,54.895348,9.797490,54.894039,9.801540
1386963416,1,0,118.9,0,0,4,0,847,800,-0.0292,8759.1143,6.8213,0.4212,54.894440,9.800288,108.3,5.845,1.85,0.00,54.895348,9.797490,54.894039,9.801540
1386963416,1,0,118.9,0,0,0,0,847,850,-0.0292,8759.1143,6.8213,0.4212,54.894432,9.800316,108.3,5.845,1.85,0.00,54.895348,9.797490,54.894039,9.801540
1386963416,1,0,119.0,0,0,4,0,847,800,-0.0292,8759.1143,6.8213,0.4212,54.894421,9.800343,108.3,5.845,1.85,0.00,54.895348,9.797490,54.894039,9.801540
1386963416,1,0,118.8,0,0,0,0,847,850,-0.0292,8759.1143,6.8213,0.4212,54.894413,9.800370,108.3,5.845,1.85,0.00,54.895348,9.797490,54.894039,9.801540
1386963417,1,0,118.9,0,0,4,0,847,800,-0.0292,8759.1143,6.8213,0.4212,54.894402,9.800398,108.3,5.845,1.85,0.00,54.895348,9.797490,54.894039,9.801540
1386963417,1,0,118.7,0,0,0,0,847,850,-0.0292,8759.1143,6.8213,0.4212,54.894394,9.800425,108.3,5.845,1.85,0.00,54.895348,9.797490,54.894039,9.801540
1386963417,1,0,118.8,0,0,4,0,847,800,-0.0292,8759.1143,6.8213,0.4212,54.894386,9.800452,108.3,5.845,1.85,0.00,54.895348,9.797490,54.894039,9.801540
1386963417,1,0,118.9,0,0,0,0,847,850,-0.0292,8759.1143,6.8213,0.4212,54.894375,9.800480,108.3,5.845,1.85,0.00,54.895348,9.797490,54.894039,9.801540
1386963418,1,0,118.7,0,0,4,0,847,800,-0.0292,8759.1143,6.8213,0.4212,54.894367,9.800507,108.3,5.845,1.85,0.00,54.895348,9.797490,54.894039,9.801540
1386963418,1,0,118.7,0,0,0,0,847,850,-0.0292,8759.1143,6.8213,0.4212,54.894360,9.800534,108.3,5.845,1.85,0.00,54.895348,9.797490,54.894039,9.801540
1386963418,1,0,118.8,0,0,4,0,847,800,-0.0292,8759.1143,6.8213,0.4212,54.894348,9.800561,108.3,5.845,1.85,0.00,54.895348,9.797490,54.894039,9.801540
1386963418,1,0,118.6,0,1,0,0,847,850,-0.0292,8758.7812,6.8213,0.4212,54.894341,9.800589,108.3,5.845,1.85,0.00,54.895348,9.797490,54.894039,9.801540
1386963419,1,0,118.7,0,0,4,0,842,800,-0.0292,8758.7812,6.8213,0.4212,54.894333,9.800616,108.3,5.845,1.85,0.00,54.895348,9.797490,54.894039,9.801540
1386963419,1,0,118.8,0,0,0,0,842,850,-0.0292,8758.7812,6.8213,0.4212,54.894321,9.800643,108.3,5.845,1.85,0.00,54.895348,9.797490,54.894039,9.801540
1386963419,1,0,118.5,0,0,4,0,842,800,-0.0292,8758.7812,6.8213,0.4212,54.894314,9.800671,108.3,5.845,1.85,0.00,54.895348,9.797490,54.894039,9.801540
1386963419,1,0,118.6,0,0,0,0,842,850,-0.0292,8758.7812,6.8213,0.4212,54.894302,9.800698,108.3,5.845,1.85,0.00,54.895348,9.797490,54.894039,9.801540
1386963420,1,0,118.4,0,0,4,0,842,800,-0.0292,8758.7812,6.8213,0.4212,54.894295,9.800725,108.3,5.845,1.85,0.00,54.895348,9.797490,54.894039,9.801540
1386963420,1,0,118.4,0,0,0,0,842,850,-0.0292,8758.7812,6.8213,0.4212,54.894287,9.800753,108.3,5.845,1.85,0.00,54.895348,9.797490,54.894039,9.801540
1386963420,1,0,118.5,0,0,4,0,842,800,-0.0292,8758.7812,6.8213,0.4212,54.894276,9.800780,108.3,5.845,1.85,0.00,54.895348,9.797490,54.894039,9.801540
1386963420,1,0,118.3,0,1,0,0,842,850,-0.0292,8758.4482,6.8213,0.4212,54.894268,9.800807,108.3,5.845,1.85,0.00,54.895348,9.797490,54.894039,9.801540
1386963421,1,0,118.3,0,0,4,0,837,800,-0.0292,8758.4482,6.8213,0.4212,54.894260,9.800835,108.3,5.845,1.85,0.00,54.895348,9.797490,54.894039,9.801540
1386963421,1,0,118.4,0,0,0,0,837,850,-0.0292,8758.4482,6.8213,0.4212,54.894249,9.800862,108.3,5.845,1.85,0.00,54.895348,9.797490,54.894039,9.801540
1386963421,1,0,118.1,0,0,4,0,837,800,-0.0292,8758.4482,6.8213,0.4212,54.894241,9.800889,108.3,5.845,1.85,0.00,54.895348,9.797490,54.894039,9.801540
1386963421,1,0,118.2,0,0,0,0,837,850,-0.0292,8758.4482,6.8213,0.4212,54.894234,9.800917,108.3,5.845,1.85,0.00,54.895348,9.797490,54.894039,9.801540
1386963422,1,0,118.3,0,0,4,0,837,800,-0.0292,8758.4482,6.8213,0.4212,54.894222,9.800944,108.3,5.845,1.85,0.00,54.895348,9.797490,54.894039,9.801540
1386963422,1,0,118.0,0,0,0,0,837,850,-0.0292,8758.4482,6.8213,0.4212,54.894215,9.800972,108.3,5.845,1.85,0.00,54.895348,9.797490,54.894039,9.801540
1386963422,1,0,118.1,0,0,4,0,837,800,-0.0292,8758.4482,6.8213,0.4212,54.894203,9.801000,108.3,5.845,1.85,0.00,54.895348,9.797490,54.894039,9.801540
1386963422,1,0,117.7,0,1,0,0,837,850,-0.0292,8758.1152,6.8213,0.4212,54.894196,9.801027,108.3,5.845,1.85,0.00,54.895348,9.797490,54.894039,9.801540
1386963423,1,0,117.8,0,0,4,0,832,800,-0.0292,8758.1152,6.8213,0.4212,54.894188,9.801055,108.3,5.845,1.85,0.00,54.895348,9.797490,54.894039,9.801540
1386963423,1,0,117.9,0,0,0,0,832,850,-0.0292,8758.1152,6.8213,0.4212,54.894176,9.801083,108.3,5.845,1.85,0.00,54.895348,9.797490,54.894039,9.801540
1386963423,1,0,117.4,0,1,4,0,832,800,-0.0292,8757.7822,6.8213,0.4212,54.894169,9.801110,108.3,5.845,1.85,0.00,54.895348,9.797490,54.894039,9.801540
1386963423,1,0,117.5,0,0,0,0,828,850,-0.0292,8757.7822,6.8213,0.4212,54.894161,9.801138,108.3,5.845,1.85,0.00,54.895348,9.797490,54.894039,9.801540
1386963424,1,0,117.7,0,0,4,0,828,800,-0.0292,8757.7822,6.8213,0.4212,54.894150,9.801166,108.3,5.845,1.85,0.00,54.895348,9.797490,54.894039,9.801540
1386963424,1,0,117.0,0,1,0,0,828,850,-0.0292,8757.4492,6.8213,0.4212,54.894142,9.801193,108.3,5.845,1.85,0.00,54.895348,9.797490,54.894039,9.801540
1386963424,1,0,117.1,0,0,4,0,823,800,-0.0292,8757.4492,6.8213,0.4212,54.894135,9.801221,108.3,5.845,1.85,0.00,54.895348,9.797490,54.894039,9.801540
1386963424,1,0,117.3,0,0,0,0,823,850,-0.0292,8757.4492,6.8213,0.4212,54.894123,9.801249,108.3,5.845,1.85,0.00,54.895348,9.797490,54.894039,9.801540
1386963425,1,0,116.4,0,1,4,0,823,800,-0.0292,8757.1162,6.8213,0.4212,54.894115,9.801276,108.3,5.845,1.85,0.00,54.895348,9.797490,54.894039,9.801540
1386963425,1,0,116.5,0,1,0,0,818,850,-0.0292,8756.7832,6.8213,0.4212,54.894108,9.801304,108.3,5.845,1.85,0.00,54.895348,9.797490,54.894039,9.801540
1386963425,1,0,116.6,0,0,4,0,813,800,-0.0292,8756.7832,6.8213,0.4212,54.894100,9.801332,108.3,5.845,1.85,0.00,54.895348,9.797490,54.894039,9.801540
1386963425,1,0,116.8,0,0,0,0,813,850,-0.0292,8756.7832,6.8213,0.4212,54.894093,9.801360,108.3,5.845,1.85,0.00,54.895348,9.797490,54.894039,9.801540
1386963426,1,0,117.1,0,0,4,0,813,800,-0.0292,8756.7832,6.8213,0.4212,54.894085,9.801388,108.3,5.845,1.85,0.00,54.895348,9.797490,54.894039,9.801540
1386963426,1,0,117.4,0,-1,0,0,813,850,-0.0292,8757.1162,6.8213,0.4212,54.894077,9.801415,108.3,5.845,1.85,0.00,54.895348,9.797490,54.894039,9.801540
1386963426,1,0,117.8,0,-1,-4,0,818,800,-0.0292,8757.4492,6.8213,0.4212,54.894070,9.801443,108.3,5.845,1.85,0.00,54.895348,9.797490,54.894039,9.801540
1386963426,1,0,118.5,0,-1,0,0,823,850,-0.0292,8757.7822,6.8213,0.4212,54.894062,9.801471,108.3,5.845,1.85,0.00,54.895348,9.797490,54.894039,9.801540
1386963427,1,0,119.6,0,-2,-4,0,828,800,-0.0292,8758.4492,6.8213,0.4212,54.894051,9.801497,108.3,5.845,1.85,0.00,54.895348,9.797490,54.894039,9.801540
1386963427,1,0,114.7,0,4,0,0,837,850,-0.0292,8757.1162,6.8213,0.4212,54.894043,9.801525,108.3,5.845,1.85,0.00,54.894039,9.801540,54.893795,9.802254
1386963427,1,0,120.5,0,-3,-4,0,818,800,-0.0292,8758.1162,6.8213,0.4212,54.894035,9.801553,108.3,5.845,1.85,0.00,54.894039,9.801540,54.893795,9.802254
1386963427,1,0,120.6,0,-3,0,0,832,850,-0.0292,8759.1162,6.8213,0.4212,54.894028,9.801579,108.3,5.845,1.85,0.00,54.894039,9.801540,54.893795,9.802254
1386963428,1,0,120.8,0,-2,-4,0,847,800,-0.0292,8759.7832,6.8213,0.4212,54.894020,9.801607,108.3,5.845,1.85,0.00,54.894039,9.801540,54.893795,9.802254
1386963428,1,0,121.0,0,-1,0,0,856,850,-0.0292,8760.1162,6.8213,0.4212,54.894009,9.801634,108.3,5.845,1.85,0.00,54.894039,9.801540,54.893795,9.802254
1386963428,1,0,120.8,0,-1,-4,0,861,900,-0.0292,8760.4492,6.8213,0.4212,54.894001,9.801661,108.3,5.845,1.85,0.00,54.894039,9.801540,54.893795,9.802254
1386963428,1,0,121.0,0,-1,0,0,865,850,-0.0292,8760.7822,6.8213,0.4212,54.893993,9.801687,108.3,5.845,1.85,0.00,54.894039,9.801540,54.893795,9.802254
1386963429,1,0,121.2,0,0,4,0,870,900,-0.0292,8760.7822,6.8213,0.4212,54.893982,9.801714,108.3,5.845,1.85,0.00,54.894039,9.801540,54.893795,9.802254
1386963429,1,0,120.9,0,0,0,0,870,850,-0.0292,8760.7822,6.8213,0.4212,54.893974,9.801742,108.3,5.845,1.85,0.00,54.894039,9.801540,54.893795,9.802254
1386963429,1,0,121.2,0,0,4,0,870,900,-0.0292,8760.7822,6.8213,0.4212,54.893967,9.801768,108.3,5.845,1.85,0.00,54.894039,9.801540,54.893795,9.802254
1386963429,1,0,121.4,0,-1,0,0,870,850,-0.0292,8761.1152,6.8213,0.4212,54.893955,9.801795,108.3,5.845,1.85,0.00,54.894039,9.801540,54.893795,9.802254
1386963430,1,0,121.1,0,0,4,0,870,900,-0.0292,8761.1152,6.8213,0.4212,54.893948,9.801822,108.3,5.845,1.85,0.00,54.894039,9.801540,54.893795,9.802254
1386963430,1,0,121.4,0,0,0,0,870,850,-0.0292,8761.1152,6.8213,0.4212,54.893936,9.801848,108.3,5.845,1.85,0.00,54.894039,9.801540,54.893795,9.802254
1386963430,1,0,121.0,0,0,4,0,870,900,-0.0292,8761.1152,6.8213,0.4212,54.893929,9.801875,108.3,5.845,1.85,0.00,54.894039,9.801540,54.893795,9.802254
1386963430,1,0,121.4,0,0,0,0,870,850,-0.0292,8761.1152,6.8213,0.4212,54.893921,9.801902,108.3,5.845,1.85,0.00,54.894039,9.801540,54.893795,9.802254
