MCU_timestamp,Navigation_System,Manual_Control,Guidance_Heading,Manual_Ctrl_Rudder,Rudder_Desired_Angle,Rudder_Feedback,Manual_Ctrl_Sail,Sail_Desired_Pos,Sail_Feedback,Rate,Heading,Pitch,Roll,Latitude,Longitude,COG,SOG,Wind_Speed,Wind_Angle,Point_Start_Lat,Point_Start_Lon,Point_End_Lat,Point_End_Lon
1390058754,0,0,0.0,0,0,20,0,0,0,-0.0292,95.6255,6.8213,0.4212,54.896885,9.784269,108.3,5.845,1.85,335.95,0.000000,0.000000,0.000000,0.000000
1390058754,0,0,0.0,0,0,20,0,0,0,-0.0292,95.6255,6.8213,0.4212,54.896885,9.784269,108.3,5.845,1.85,335.95,0.000000,0.000000,0.000000,0.000000
1390058754,0,0,0.0,0,0,20,0,0,0,-0.0292,95.6255,6.8213,0.4212,54.896885,9.784269,108.3,5.845,1.85,335.95,0.000000,0.000000,0.000000,0.000000
1390058754,0,0,0.0,0,0,20,0,0,0,-0.0292,95.6255,6.8213,0.4212,54.896885,9.784269,108.3,5.845,1.85,335.95,0.000000,0.000000,0.000000,0.000000
1390058755,0,0,0.0,0,0,20,0,0,0,-0.0292,95.6255,6.8213,0.4212,54.896885,9.784269,108.3,5.845,1.85,335.95,0.000000,0.000000,0.000000,0.000000
1390058755,0,0,0.0,0,0,20,0,0,0,-0.0292,95.6255,6.8213,0.4212,54.896885,9.784269,108.3,5.845,1.85,335.95,0.000000,0.000000,0.000000,0.000000
1390058755,0,0,0.0,0,0,20,0,0,0,-0.0292,95.6255,6.8213,0.4212,54.896885,9.784269,108.3,5.845,1.85,335.95,0.000000,0.000000,0.000000,0.000000
1390058755,0,0,0.0,0,0,20,0,0,0,-0.0292,95.6255,6.8213,0.4212,54.896885,9.784269,108.3,5.845,1.85,335.95,0.000000,0.000000,0.000000,0.000000
1390058756,0,0,0.0,0,0,20,0,0,0,-0.0292,95.6255,6.8213,0.4212,54.896885,9.784269,108.3,5.845,1.85,335.95,0.000000,0.000000,0.000000,0.000000
1390058756,0,0,0.0,0,0,20,0,0,0,-0.0292,95.6255,6.8213,0.4212,54.896885,9.784269,108.3,5.845,1.85,335.95,0.000000,0.000000,0.000000,0.000000
1390058756,0,0,0.0,0,0,20,0,0,0,-0.0292,95.6255,6.8213,0.4212,54.896885,9.784269,108.3,5.845,1.85,335.95,0.000000,0.000000,0.000000,0.000000
1390058756,0,0,0.0,0,0,20,0,0,0,-0.0292,95.6255,6.8213,0.4212,54.896885,9.784269,108.3,5.845,1.85,335.95,0.000000,0.000000,0.000000,0.000000
1390058757,0,0,0.0,0,0,20,0,0,0,-0.0292,95.6255,6.8213,0.4212,54.896885,9.784269,108.3,5.845,1.85,335.95,0.000000,0.000000,0.000000,0.000000
1390058757,0,0,0.0,0,0,20,0,0,0,-0.0292,95.6255,6.8213,0.4212,54.896885,9.784269,108.3,5.845,1.85,335.95,0.000000,0.000000,0.000000,0.000000
1390058757,0,0,0.0,0,0,20,0,0,0,-0.0292,95.6255,6.8213,0.4212,54.896885,9.784269,108.3,5.845,1.85,335.95,0.000000,0.000000,0.000000,0.000000
1390058757,0,0,0.0,0,0,20,0,0,0,-0.0292,95.6255,6.8213,0.4212,54.896885,9.784269,108.3,5.845,1.85,335.95,0.000000,0.000000,0.000000,0.000000
1390058758,0,0,0.0,0,0,20,0,0,0,-0.0292,95.6255,6.8213,0.4212,54.896885,9.784269,108.3,5.845,1.85,335.95,0.000000,0.000000,0.000000,0.000000
1390058758,0,0,0.0,0,0,20,0,0,0,-0.0292,95.6255,6.8213,0.4212,54.896885,9.784269,108.3,5.845,1.85,335.95,0.000000,0.000000,0.000000,0.000000
1390058758,0,0,0.0,0,0,20,0,0,0,-0.0292,95.6255,6.8213,0.4212,54.896885,9.784269,108.3,5.845,1.85,335.95,0.000000,0.000000,0.000000,0.000000
1390058758,0,0,0.0,0,0,20,0,0,0,-0.0292,95.6255,6.8213,0.4212,54.896885,9.784269,108.3,5.845,1.85,335.95,0.000000,0.000000,0.000000,0.000000
1390058759,0,0,0.0,0,0,20,0,0,0,-0.0292,95.6255,6.8213,0.4212,54.896885,9.784269,108.3,5.845,1.85,335.95,0.000000,0.000000,0.000000,0.000000
1390058759,0,0,0.0,0,0,20,0,0,0,-0.0292,95.6255,6.8213,0.4212,54.896885,9.784269,108.3,5.845,1.85,335.95,0.000000,0.000000,0.000000,0.000000
1390058759,0,0,0.0,0,0,20,0,0,0,-0.0292,95.6255,6.8213,0.4212,54.896885,9.784269,108.3,5.845,1.85,335.95,0.000000,0.000000,0.000000,0.000000
1390058759,0,0,0.0,0,0,20,0,0,0,-0.0292,95.6255,6.8213,0.4212,54.896885,9.784269,108.3,5.845,1.85,335.95,0.000000,0.000000,0.000000,0.000000
1390058760,0,0,0.0,0,0,20,0,0,0,-0.0292,95.6255,6.8213,0.4212,54.896885,9.784269,108.3,5.845,1.85,335.95,0.000000,0.000000,0.000000,0.000000
1390058760,0,0,0.0,0,0,20,0,0,0,-0.0292,95.6255,6.8213,0.4212,54.896885,9.784269,108.3,5.845,1.85,335.95,0.000000,0.000000,0.000000,0.000000
1390058760,0,0,0.0,0,0,20,0,0,0,-0.0292,95.6255,6.8213,0.4212,54.896885,9.784269,108.3,5.845,1.85,335.95,0.000000,0.000000,0.000000,0.000000
1390058760,0,0,0.0,0,0,20,0,0,0,-0.0292,95.6255,6.8213,0.4212,54.896885,9.784269,108.3,5.845,1.85,335.95,0.000000,0.000000,0.000000,0.000000
1390058761,0,0,0.0,0,0,20,0,0,0,-0.0292,95.6255,6.8213,0.4212,54.896885,9.784269,108.3,5.845,1.85,335.95,0.000000,0.000000,0.000000,0.000000
1390058761,0,0,0.0,0,0,20,0,0,0,-0.0292,95.6255,6.8213,0.4212,54.896885,9.784269,108.3,5.845,1.85,335.95,0.000000,0.000000,0.000000,0.000000
1390058761,0,0,0.0,0,0,20,0,0,0,-0.0292,95.6255,6.8213,0.4212,54.896885,9.784269,108.3,5.845,1.85,335.95,0.000000,0.000000,0.000000,0.000000
1390058761,0,0,0.0,0,0,20,0,0,0,-0.0292,95.6255,6.8213,0.4212,54.896885,9.784269,108.3,5.845,1.85,335.95,0.000000,0.000000,0.000000,0.000000
1390058762,0,0,0.0,0,0,20,0,0,0,-0.0292,95.6255,6.8213,0.4212,54.896885,9.784269,108.3,5.845,1.85,335.95,0.000000,0.000000,0.000000,0.000000
1390058762,0,0,0.0,0,0,20,0,0,0,-0.0292,95.6255,6.8213,0.4212,54.896885,9.784269,108.3,5.845,1.85,335.95,0.000000,0.000000,0.000000,0.000000
1390058762,0,0,0.0,0,0,20,0,0,0,-0.0292,95.6255,6.8213,0.4212,54.896885,9.784269,108.3,5.845,1.85,335.95,0.000000,0.000000,0.000000,0.000000
1390058762,0,0,0.0,0,0,20,0,0,0,-0.0292,95.6255,6.8213,0.4212,54.896885,9.784269,108.3,5.845,1.85,335.95,0.000000,0.000000,0.000000,0.000000
1390058763,0,0,0.0,0,0,20,0,0,0,-0.0292,95.6255,6.8213,0.4212,54.896885,9.784269,108.3,5.845,1.85,335.95,0.000000,0.000000,0.000000,0.000000
1390058763,0,0,0.0,0,0,20,0,0,0,-0.0292,95.6255,6.8213,0.4212,54.896885,9.784269,108.3,5.845,1.85,335.95,0.000000,0.000000,0.000000,0.000000
1390058763,0,0,0.0,0,0,20,0,0,0,-0.0292,95.6255,6.8213,0.4212,54.896885,9.784269,108.3,5.845,1.85,335.95,0.000000,0.000000,0.000000,0.000000
1390058763,0,0,0.0,0,0,20,0,0,0,-0.0292,95.6255,6.8213,0.4212,54.896885,9.784269,108.3,5.845,1.85,335.95,0.000000,0.000000,0.000000,0.000000
1390058764,0,0,0.0,0,0,20,0,0,0,-0.0292,95.6255,6.8213,0.4212,54.896885,9.784269,108.3,5.845,1.85,335.95,0.000000,0.000000,0.000000,0.000000
1390058764,0,0,0.0,0,0,20,0,0,0,-0.0292,95.6255,6.8213,0.4212,54.896885,9.784269,108.3,5.845,1.85,335.95,0.000000,0.000000,0.000000,0.000000
1390058764,0,0,0.0,0,0,20,0,0,0,-0.0292,95.6255,6.8213,0.4212,54.896885,9.784269,108.3,5.845,1.85,335.95,0.000000,0.000000,0.000000,0.000000
1390058764,0,0,0.0,0,0,20,0,0,0,-0.0292,95.6255,6.8213,0.4212,54.896885,9.784269,108.3,5.845,1.85,335.95,0.000000,0.000000,0.000000,0.000000
1390058765,0,0,0.0,0,0,20,0,0,0,-0.0292,95.6255,6.8213,0.4212,54.896885,9.784269,108.3,5.845,1.85,335.95,0.000000,0.000000,0.000000,0.000000
1390058765,0,0,0.0,0,0,20,0,0,0,-0.0292,95.6255,6.8213,0.4212,54.896885,9.784269,108.3,5.845,1.85,335.95,0.000000,0.000000,0.000000,0.000000
1390058765,0,0,0.0,0,0,20,0,0,0,-0.0292,95.6255,6.8213,0.4212,54.896885,9.784269,108.3,5.845,1.85,335.95,0.000000,0.000000,0.000000,0.000000
1390058765,0,0,0.0,0,0,20,0,0,0,-0.0292,95.6255,6.8213,0.4212,54.896885,9.784269,108.3,5.845,1.85,335.95,0.000000,0.000000,0.000000,0.000000
1390058766,0,0,0.0,0,0,20,0,0,0,-0.0292,95.6255,6.8213,0.4212,54.896885,9.784269,108.3,5.845,1.85,335.95,0.000000,0.000000,0.000000,0.000000
1390058766,0,0,0.0,0,0,20,0,0,0,-0.0292,95.6255,6.8213,0.4212,54.896885,9.784269,108.3,5.845,1.85,335.95,0.000000,0.000000,0.000000,0.000000
1390058766,0,0,0.0,0,0,20,0,0,0,-0.0292,95.6255,6.8213,0.4212,54.896885,9.784269,108.3,5.845,1.85,335.95,0.000000,0.000000,0.000000,0.000000
1390058766,0,0,0.0,0,0,20,0,0,0,-0.0292,95.6255,6.8213,0.4212,54.896885,9.784269,108.3,5.845,1.85,335.95,0.000000,0.000000,0.000000,0.000000
1390058767,0,0,0.0,0,0,20,0,0,0,-0.0292,95.6255,6.8213,0.4212,54.896885,9.784269,108.3,5.845,1.85,335.95,0.000000,0.000000,0.000000,0.000000
1390058767,0,0,0.0,0,0,20,0,0,0,-0.0292,95.6255,6.8213,0.4212,54.896885,9.784269,108.3,5.845,1.85,335.95,0.000000,0.000000,0.000000,0.000000
1390058767,0,0,0.0,0,0,20,0,0,0,-0.0292,95.6255,6.8213,0.4212,54.896885,9.784269,108.3,5.845,1.85,335.95,0.000000,0.000000,0.000000,0.000000
1390058767,0,0,0.0,0,0,20,0,0,0,-0.0292,95.6255,6.8213,0.4212,54.896885,9.784269,108.3,5.845,1.85,335.95,0.000000,0.000000,0.000000,0.000000
1390058768,0,0,0.0,0,0,20,0,0,0,-0.0292,95.6255,6.8213,0.4212,54.896885,9.784269,108.3,5.845,1.85,335.95,0.000000,0.000000,0.000000,0.000000
1390058768,0,0,0.0,0,0,20,0,0,0,-0.0292,95.6255,6.8213,0.4212,54.896885,9.784269,108.3,5.845,1.85,335.95,0.000000,0.000000,0.000000,0.000000
1390058768,0,0,0.0,0,0,20,0,0,0,-0.0292,95.6255,6.8213,0.4212,54.896885,9.784269,108.3,5.845,1.85,335.95,0.000000,0.000000,0.000000,0.000000
1390058768,0,0,0.0,0,0,20,0,0,0,-0.0292,95.6255,6.8213,0.4212,54.896885,9.784269,108.3,5.845,1.85,335.95,0.000000,0.000000,0.000000,0.000000
1390058769,0,0,0.0,0,0,20,0,0,0,-0.0292,95.6255,6.8213,0.4212,54.896885,9.784269,108.3,5.845,1.85,335.95,0.000000,0.000000,0.000000,0.000000
1390058769,0,0,0.0,0,0,20,0,0,0,-0.0292,95.6255,6.8213,0.4212,54.896885,9.784269,108.3,5.845,1.85,335.95,0.000000,0.000000,0.000000,0.000000
1390058769,0,0,0.0,0,0,20,0,0,0,-0.0292,95.6255,6.8213,0.4212,54.896885,9.784269,108.3,5.845,1.85,335.95,0.000000,0.000000,0.000000,0.000000
1390058769,0,0,0.0,0,0,20,0,0,0,-0.0292,95.6255,6.8213,0.4212,54.896885,9.784269,108.3,5.845,1.85,335.95,0.000000,0.000000,0.000000,0.000000
1390058770,0,0,0.0,0,0,20,0,0,0,-0.0292,95.6255,6.8213,0.4212,54.896885,9.784269,108.3,5.845,1.85,335.95,0.000000,0.000000,0.000000,0.000000
1390058770,0,0,0.0,0,0,20,0,0,0,-0.0292,95.6255,6.8213,0.4212,54.896885,9.784269,108.3,5.845,1.85,335.95,0.000000,0.000000,0.000000,0.000000
1390058770,0,0,0.0,0,0,20,0,0,0,-0.0292,95.6255,6.8213,0.4212,54.896885,9.784269,108.3,5.845,1.85,335.95,0.000000,0.000000,0.000000,0.000000
1390058770,0,0,0.0,0,0,20,0,0,0,-0.0292,95.6255,6.8213,0.4212,54.896885,9.784269,108.3,5.845,1.85,335.95,0.000000,0.000000,0.000000,0.000000
1390058771,0,0,0.0,0,0,20,0,0,0,-0.0292,95.6255,6.8213,0.4212,54.896885,9.784269,108.3,5.845,1.85,335.95,0.000000,0.000000,0.000000,0.000000
1390058771,0,0,0.0,0,0,20,0,0,0,-0.0292,95.6255,6.8213,0.4212,54.896885,9.784269,108.3,5.845,1.85,335.95,0.000000,0.000000,0.000000,0.000000
1390058771,0,0,0.0,0,0,20,0,0,0,-0.0292,95.6255,6.8213,0.4212,54.896885,9.784269,108.3,5.845,1.85,335.95,0.000000,0.000000,0.000000,0.000000
1390058771,0,0,0.0,0,0,20,0,0,0,-0.0292,95.6255,6.8213,0.4212,54.896885,9.784269,108.3,5.845,1.85,335.95,0.000000,0.000000,0.000000,0.000000
1390058772,0,0,0.0,0,0,20,0,0,0,-0.0292,95.6255,6.8213,0.4212,54.896885,9.784269,108.3,5.845,1.85,335.95,0.000000,0.000000,0.000000,0.000000
1390058772,0,0,0.0,0,0,20,0,0,0,-0.0292,95.6255,6.8213,0.4212,54.896885,9.784269,108.3,5.845,1.85,335.95,0.000000,0.000000,0.000000,0.000000
1390058772,0,0,0.0,0,0,20,0,0,0,-0.0292,95.6255,6.8213,0.4212,54.896885,9.784269,108.3,5.845,1.85,335.95,0.000000,0.000000,0.000000,0.000000
1390058772,0,0,0.0,0,0,20,0,0,0,-0.0292,95.6255,6.8213,0.4212,54.896885,9.784269,108.3,5.845,1.85,335.95,0.000000,0.000000,0.000000,0.000000
1390058773,0,0,0.0,0,0,20,0,0,0,-0.0292,95.6255,6.8213,0.4212,54.896885,9.784269,108.3,5.845,1.85,335.95,0.000000,0.000000,0.000000,0.000000
1390058773,0,0,0.0,0,0,20,0,0,0,-0.0292,95.6255,6.8213,0.4212,54.896885,9.784269,108.3,5.845,1.85,335.95,0.000000,0.000000,0.000000,0.000000
1390058773,0,0,0.0,0,0,20,0,0,0,-0.0292,95.6255,6.8213,0.4212,54.896885,9.784269,108.3,5.845,1.85,335.95,0.000000,0.000000,0.000000,0.000000
1390058773,0,0,0.0,0,0,20,0,0,0,-0.0292,95.6255,6.8213,0.4212,54.896885,9.784269,108.3,5.845,1.85,335.95,0.000000,0.000000,0.000000,0.000000
1390058774,0,0,0.0,0,0,20,0,0,0,-0.0292,95.6255,6.8213,0.4212,54.896885,9.784269,108.3,5.845,1.85,335.95,0.000000,0.000000,0.000000,0.000000
1390058774,0,0,0.0,0,0,20,0,0,0,-0.0292,95.6255,6.8213,0.4212,54.896885,9.784269,108.3,5.845,1.85,335.95,0.000000,0.000000,0.000000,0.000000
1390058774,0,0,0.0,0,0,20,0,0,0,-0.0292,95.6255,6.8213,0.4212,54.896885,9.784269,108.3,5.845,1.85,335.95,0.000000,0.000000,0.000000,0.000000
1390058774,0,0,0.0,0,0,20,0,0,0,-0.0292,95.6255,6.8213,0.4212,54.896885,9.784269,108.3,5.845,1.85,335.95,0.000000,0.000000,0.000000,0.000000
1390058775,0,0,0.0,0,0,20,0,0,0,-0.0292,95.6255,6.8213,0.4212,54.896885,9.784269,108.3,5.845,1.85,335.95,0.000000,0.000000,0.000000,0.000000
1390058775,0,0,0.0,0,0,20,0,0,0,-0.0292,95.6255,6.8213,0.4212,54.896885,9.784269,108.3,5.845,1.85,335.95,0.000000,0.000000,0.000000,0.000000
1390058775,0,0,0.0,0,0,20,0,0,0,-0.0292,95.6255,6.8213,0.4212,54.896885,9.784269,108.3,5.845,1.85,335.95,0.000000,0.000000,0.000000,0.000000
1390058775,0,0,0.0,0,0,20,0,0,0,-0.0292,95.6255,6.8213,0.4212,54.896885,9.784269,108.3,5.845,1.85,335.95,0.000000,0.000000,0.000000,0.000000
1390058776,0,0,0.0,0,0,20,0,0,0,-0.0292,95.6255,6.8213,0.4212,54.896885,9.784269,108.3,5.845,1.85,335.95,0.000000,0.000000,0.000000,0.000000
1390058776,0,0,0.0,0,0,20,0,0,0,-0.0292,95.6255,6.8213,0.4212,54.896885,9.784269,108.3,5.845,1.85,335.95,0.000000,0.000000,0.000000,0.000000
1390058776,0,0,0.0,0,0,20,0,0,0,-0.0292,95.6255,6.8213,0.4212,54.896885,9.784269,108.3,5.845,1.85,335.95,0.000000,0.000000,0.000000,0.000000
1390058776,0,0,0.0,0,0,20,0,0,0,-0.0292,95.6255,6.8213,0.4212,54.896885,9.784269,108.3,5.845,1.85,335.95,0.000000,0.000000,0.000000,0.000000
1390058777,0,0,0.0,0,0,20,0,0,0,-0.0292,95.6255,6.8213,0.4212,54.896885,9.784269,108.3,5.845,1.85,335.95,0.000000,0.000000,0.000000,0.000000
1390058777,0,0,0.0,0,0,20,0,0,0,-0.0292,95.6255,6.8213,0.4212,54.896885,9.784269,108.3,5.845,1.85,335.95,0.000000,0.000000,0.000000,0.000000
1390058777,0,0,0.0,0,0,20,0,0,0,-0.0292,95.6255,6.8213,0.4212,54.896885,9.784269,108.3,5.845,1.85,335.95,0.000000,0.000000,0.000000,0.000000
1390058777,0,0,0.0,0,0,20,0,0,0,-0.0292,95.6255,6.8213,0.4212,54.896885,9.784269,108.3,5.845,1.85,335.95,0.000000,0.000000,0.000000,0.000000
1390058778,0,0,0.0,0,0,20,0,0,0,-0.0292,95.6255,6.8213,0.4212,54.896885,9.784269,108.3,5.845,1.85,335.95,0.000000,0.000000,0.000000,0.000000
1390058778,0,0,0.0,0,0,20,0,0,0,-0.0292,95.6255,6.8213,0.4212,54.896885,9.784269,108.3,5.845,1.85,335.95,0.000000,0.000000,0.000000,0.000000
1390058778,0,0,0.0,0,0,20,0,0,0,-0.0292,95.6255,6.8213,0.4212,54.896885,9.784269,108.3,5.845,1.85,335.95,0.000000,0.000000,0.000000,0.000000
1390058778,0,0,0.0,0,0,20,0,0,0,-0.0292,95.6255,6.8213,0.4212,54.896885,9.784269,108.3,5.845,1.85,335.95,0.000000,0.000000,0.000000,0.000000
1390058779,0,0,0.0,0,0,20,0,0,0,-0.0292,95.6255,6.8213,0.4212,54.896885,9.784269,108.3,5.845,1.85,335.95,0.000000,0.000000,0.000000,0.000000
1390058779,0,0,0.0,0,0,20,0,0,0,-0.0292,95.6255,6.8213,0.4212,54.896885,9.784269,108.3,5.845,1.85,335.95,0.000000,0.000000,0.000000,0.000000
1390058779,0,0,0.0,0,0,20,0,0,0,-0.0292,95.6255,6.8213,0.4212,54.896885,9.784269,108.3,5.845,1.85,335.95,0.000000,0.000000,0.000000,0.000000
1390058779,0,0,0.0,0,0,20,0,0,0,-0.0292,95.6255,6.8213,0.4212,54.896885,9.784269,108.3,5.845,1.85,335.95,0.000000,0.000000,0.000000,0.000000
1390058780,0,0,0.0,0,0,20,0,0,0,-0.0292,95.6255,6.8213,0.4212,54.896885,9.784269,108.3,5.845,1.85,335.95,0.000000,0.000000,0.000000,0.000000
1390058780,0,0,0.0,0,0,20,0,0,0,-0.0292,95.6255,6.8213,0.4212,54.896885,9.784269,108.3,5.845,1.85,335.95,0.000000,0.000000,0.000000,0.000000
1390058780,0,0,0.0,0,0,20,0,0,0,-0.0292,95.6255,6.8213,0.4212,54.896885,9.784269,108.3,5.845,1.85,335.95,0.000000,0.000000,0.000000,0.000000
1390058780,0,0,0.0,0,0,20,0,0,0,-0.0292,95.6255,6.8213,0.4212,54.896885,9.784269,108.3,5.845,1.85,335.95,0.000000,0.000000,0.000000,0.000000
1390058781,0,0,0.0,0,0,20,0,0,0,-0.0292,95.6255,6.8213,0.4212,54.896885,9.784269,108.3,5.845,1.85,335.95,0.000000,0.000000,0.000000,0.000000
1390058781,0,0,0.0,0,0,20,0,0,0,-0.0292,95.6255,6.8213,0.4212,54.896885,9.784269,108.3,5.845,1.85,335.95,0.000000,0.000000,0.000000,0.000000
1390058781,0,0,0.0,0,0,20,0,0,0,-0.0292,95.6255,6.8213,0.4212,54.896885,9.784269,108.3,5.845,1.85,335.95,0.000000,0.000000,0.000000,0.000000
1390058781,0,0,0.0,0,0,20,0,0,0,-0.0292,95.6255,6.8213,0.4212,54.896885,9.784269,108.3,5.845,1.85,335.95,0.000000,0.000000,0.000000,0.000000
1390058782,0,0,0.0,0,0,20,0,0,0,-0.0292,95.6255,6.8213,0.4212,54.896885,9.784269,108.3,5.845,1.85,335.95,0.000000,0.000000,0.000000,0.000000
1390058782,0,0,0.0,0,0,20,0,0,0,-0.0292,95.6255,6.8213,0.4212,54.896885,9.784269,108.3,5.845,1.85,335.95,0.000000,0.000000,0.000000,0.000000
1390058782,0,0,0.0,0,0,20,0,0,0,-0.0292,95.6255,6.8213,0.4212,54.896885,9.784269,108.3,5.845,1.85,335.95,0.000000,0.000000,0.000000,0.000000
1390058782,0,0,0.0,0,0,20,0,0,0,-0.0292,95.6255,6.8213,0.4212,54.896885,9.784269,108.3,5.845,1.85,335.95,0.000000,0.000000,0.000000,0.000000
1390058783,0,0,0.0,0,0,20,0,0,0,-0.0292,95.6255,6.8213,0.4212,54.896885,9.784269,108.3,5.845,1.85,335.95,0.000000,0.000000,0.000000,0.000000
1390058783,0,0,0.0,0,0,20,0,0,0,-0.0292,95.6255,6.8213,0.4212,54.896885,9.784269,108.3,5.845,1.85,335.95,0.000000,0.000000,0.000000,0.000000
1390058783,0,0,0.0,0,0,20,0,0,0,-0.0292,95.6255,6.8213,0.4212,54.896885,9.784269,108.3,5.845,1.85,335.95,0.000000,0.000000,0.000000,0.000000
1390058783,0,0,0.0,0,0,20,0,0,0,-0.0292,95.6255,6.8213,0.4212,54.896885,9.784269,108.3,5.845,1.85,335.95,0.000000,0.000000,0.000000,0.000000
1390058784,0,0,0.0,0,0,20,0,0,0,-0.0292,95.6255,6.8213,0.4212,54.896885,9.784269,108.3,5.845,1.85,335.95,0.000000,0.000000,0.000000,0.000000
1390058784,0,0,0.0,0,0,20,0,0,0,-0.0292,95.6255,6.8213,0.4212,54.896885,9.784269,108.3,5.845,1.85,335.95,0.000000,0.000000,0.000000,0.000000
1390058784,0,0,0.0,0,0,20,0,0,0,-0.0292,95.6255,6.8213,0.4212,54.896885,9.784269,108.3,5.845,1.85,335.95,0.000000,0.000000,0.000000,0.000000
1390058784,0,0,0.0,0,0,20,0,0,0,-0.0292,95.6255,6.8213,0.4212,54.896885,9.784269,108.3,5.845,1.85,335.95,0.000000,0.000000,0.000000,0.000000
1390058785,0,0,0.0,0,0,20,0,0,0,-0.0292,95.6255,6.8213,0.4212,54.896885,9.784269,108.3,5.845,1.85,335.95,0.000000,0.000000,0.000000,0.000000
1390058785,0,0,0.0,0,0,20,0,0,0,-0.0292,95.6255,6.8213,0.4212,54.896885,9.784269,108.3,5.845,1.85,335.95,0.000000,0.000000,0.000000,0.000000
1390058785,0,0,0.0,0,0,20,0,0,0,-0.0292,95.6255,6.8213,0.4212,54.896885,9.784269,108.3,5.845,1.85,335.95,0.000000,0.000000,0.000000,0.000000
1390058785,0,0,0.0,0,0,20,0,0,0,-0.0292,95.6255,6.8213,0.4212,54.896885,9.784269,108.3,5.845,1.85,335.95,0.000000,0.000000,0.000000,0.000000
1390058786,0,0,0.0,0,0,20,0,0,0,-0.0292,95.6255,6.8213,0.4212,54.896885,9.784269,108.3,5.845,1.85,335.95,0.000000,0.000000,0.000000,0.000000
1390058786,0,0,0.0,0,0,20,0,0,0,-0.0292,95.6255,6.8213,0.4212,54.896885,9.784269,108.3,5.845,1.85,335.95,0.000000,0.000000,0.000000,0.000000
1390058786,0,0,0.0,0,0,20,0,0,0,-0.0292,95.6255,6.8213,0.4212,54.896885,9.784269,108.3,5.845,1.85,335.95,0.000000,0.000000,0.000000,0.000000
1390058786,0,0,0.0,0,0,20,0,0,0,-0.0292,95.6255,6.8213,0.4212,54.896885,9.784269,108.3,5.845,1.85,335.95,0.000000,0.000000,0.000000,0.000000
1390058787,0,0,0.0,0,0,20,0,0,0,-0.0292,95.6255,6.8213,0.4212,54.896885,9.784269,108.3,5.845,1.85,335.95,0.000000,0.000000,0.000000,0.000000
1390058787,0,0,0.0,0,0,20,0,0,0,-0.0292,95.6255,6.8213,0.4212,54.896885,9.784269,108.3,5.845,1.85,335.95,0.000000,0.000000,0.000000,0.000000
1390058787,0,0,0.0,0,0,20,0,0,0,-0.0292,95.6255,6.8213,0.4212,54.896885,9.784269,108.3,5.845,1.85,335.95,0.000000,0.000000,0.000000,0.000000
1390058787,0,0,0.0,0,0,20,0,0,0,-0.0292,95.6255,6.8213,0.4212,54.896885,9.784269,108.3,5.845,1.85,335.95,0.000000,0.000000,0.000000,0.000000
1390058788,0,0,0.0,0,0,20,0,0,0,-0.0292,95.6255,6.8213,0.4212,54.896885,9.784269,108.3,5.845,1.85,335.95,0.000000,0.000000,0.000000,0.000000
1390058788,0,0,0.0,0,0,20,0,0,0,-0.0292,95.6255,6.8213,0.4212,54.896885,9.784269,108.3,5.845,1.85,335.95,0.000000,0.000000,0.000000,0.000000
1390058788,0,0,0.0,0,0,20,0,0,0,-0.0292,95.6255,6.8213,0.4212,54.896885,9.784269,108.3,5.845,1.85,335.95,0.000000,0.000000,0.000000,0.000000
1390058789,0,0,0.0,0,0,20,0,0,0,-0.0292,95.6255,6.8213,0.4212,54.896885,9.784269,108.3,5.845,1.85,335.95,0.000000,0.000000,0.000000,0.000000
1390058789,0,0,0.0,0,0,20,0,0,0,-0.0292,95.6255,6.8213,0.4212,54.896885,9.784269,108.3,5.845,1.85,335.95,0.000000,0.000000,0.000000,0.000000
1390058789,0,0,0.0,0,0,20,0,0,0,-0.0292,95.6255,6.8213,0.4212,54.896885,9.784269,108.3,5.845,1.85,335.95,0.000000,0.000000,0.000000,0.000000
1390058789,0,0,0.0,0,0,20,0,0,0,-0.0292,95.6255,6.8213,0.4212,54.896885,9.784269,108.3,5.845,1.85,335.95,0.000000,0.000000,0.000000,0.000000
1390058790,0,0,0.0,0,0,20,0,0,0,-0.0292,95.6255,6.8213,0.4212,54.896885,9.784269,108.3,5.845,1.85,335.95,0.000000,0.000000,0.000000,0.000000
1390058790,0,0,0.0,0,0,20,0,0,0,-0.0292,95.6255,6.8213,0.4212,54.896885,9.784269,108.3,5.845,1.85,335.95,0.000000,0.000000,0.000000,0.000000
1390058790,0,0,0.0,0,0,20,0,0,0,-0.0292,95.6255,6.8213,0.4212,54.896885,9.784269,108.3,5.845,1.85,335.95,0.000000,0.000000,0.000000,0.000000
1390058790,0,0,0.0,0,0,20,0,0,0,-0.0292,95.6255,6.8213,0.4212,54.896885,9.784269,108.3,5.845,1.85,335.95,0.000000,0.000000,0.000000,0.000000
1390058791,0,0,0.0,0,0,20,0,0,0,-0.0292,95.6255,6.8213,0.4212,54.896885,9.784269,108.3,5.845,1.85,335.95,0.000000,0.000000,0.000000,0.000000
1390058791,0,0,0.0,0,0,20,0,0,0,-0.0292,95.6255,6.8213,0.4212,54.896885,9.784269,108.3,5.845,1.85,335.95,0.000000,0.000000,0.000000,0.000000
1390058791,0,0,0.0,0,0,20,0,0,0,-0.0292,95.6255,6.8213,0.4212,54.896885,9.784269,108.3,5.845,1.85,335.95,0.000000,0.000000,0.000000,0.000000
1390058791,0,0,0.0,0,0,20,0,0,0,-0.0292,95.6255,6.8213,0.4212,54.896885,9.784269,108.3,5.845,1.85,335.95,0.000000,0.000000,0.000000,0.000000
1390058792,0,0,0.0,0,0,20,0,0,0,-0.0292,95.6255,6.8213,0.4212,54.896885,9.784269,108.3,5.845,1.85,335.95,0.000000,0.000000,0.000000,0.000000
1390058792,4,0,0.0,0,0,20,0,0,0,-0.0292,95.6255,6.8213,0.4212,54.896885,9.784269,108.3,5.845,1.85,335.95,0.000000,0.000000,0.000000,0.000000
1390058792,1,0,0.0,0,-35,16,0,855,50,-0.0292,107.2922,6.8213,0.4212,54.896881,9.784294,108.3,5.845,1.85,335.95,54.895069,9.793790,54.895348,9.797490
1390058792,1,0,0.0,0,-35,12,0,870,100,-0.0292,118.9588,6.8213,0.4212,54.896873,9.784318,108.3,5.845,1.85,335.95,54.895348,9.797490,54.894039,9.801540
1390058793,1,0,0.0,0,-35,8,0,713,150,-0.0292,130.6255,6.8213,0.4212,54.896862,9.784339,108.3,5.845,1.85,335.95,54.894039,9.801540,54.893795,9.802299
1390058793,1,0,0.0,0,-35,4,0,713,200,-0.0292,142.2922,6.8213,0.4212,54.896851,9.784357,108.3,5.845,1.85,335.95,54.893795,9.802299,54.893364,9.803688
1390058793,1,0,0.0,0,-35,0,0,713,250,-0.0292,153.9588,6.8213,0.4212,54.896835,9.784371,108.3,5.845,1.85,335.95,54.893364,9.803688,54.892704,9.801139
1390058793,1,0,0.0,0,-26,-4,0,0,200,-0.0292,162.6255,6.8213,0.4212,54.896820,9.784380,108.3,5.845,1.85,335.95,54.892704,9.801139,54.891663,9.800174
1390058794,1,0,0.0,0,-17,-8,0,0,150,-0.0292,168.2922,6.8213,0.4212,54.896801,9.784387,108.3,5.845,1.85,335.95,54.891663,9.800174,54.892929,9.805077
1390058794,1,0,0.0,0,-12,-12,0,713,200,-0.0292,172.2922,6.8213,0.4212,54.896782,9.784391,108.3,5.845,1.85,335.95,54.892929,9.805077,54.892498,9.806466
1390058794,1,0,0.0,0,-8,-8,0,713,250,-0.0292,174.9588,6.8213,0.4212,54.896763,9.784394,108.3,5.845,1.85,335.95,54.892498,9.806466,54.891232,9.801563
1390058794,1,0,0.0,0,-5,-4,0,713,300,-0.0292,176.6255,6.8213,0.4212,54.896748,9.784396,108.3,5.845,1.85,335.95,54.891232,9.801563,54.890800,9.802953
1390058795,1,0,0.0,0,-3,0,0,713,350,-0.0292,177.6255,6.8213,0.4212,54.896729,9.784398,108.3,5.845,1.85,335.95,54.890800,9.802953,54.891651,9.806246
1390058795,1,0,0.0,0,-2,-4,0,713,400,-0.0292,178.2922,6.8213,0.4212,54.896709,9.784399,108.3,5.845,1.85,335.95,54.891651,9.806246,54.890560,9.805087
1390058795,1,0,0.0,0,-2,0,0,713,450,-0.0292,178.9589,6.8213,0.4212,54.896694,9.784400,108.3,5.845,1.85,335.95,54.890560,9.805087,54.890366,9.804342
1390058795,1,0,0.0,0,-1,-4,0,713,500,-0.0292,179.2922,6.8213,0.4212,54.896675,9.784401,108.3,5.845,1.85,335.95,54.890366,9.804342,54.890846,9.801930
1390058796,1,0,0.0,0,-1,0,0,713,550,-0.0292,179.6255,6.8213,0.4212,54.896656,9.784401,108.3,5.845,1.85,335.95,54.890846,9.801930,54.889477,9.798280
1390058796,1,0,0.0,0,0,4,0,713,600,-0.0292,179.6255,6.8213,0.4212,54.896637,9.784401,108.3,5.845,1.85,335.95,54.889477,9.798280,54.891819,9.794550
1390058796,1,0,0.0,0,0,0,0,713,650,-0.0292,179.6255,6.8213,0.4212,54.896622,9.784401,108.3,5.845,1.85,335.95,54.891819,9.794550,54.895348,9.797490
1390058796,1,0,0.0,0,0,4,0,713,700,-0.0292,179.6255,6.8213,0.4212,54.896603,9.784401,108.3,5.845,1.85,335.95,54.895348,9.797490,54.895069,9.793790
1390058797,1,0,0.0,0,0,0,0,713,750,-0.0292,179.6255,6.8213,0.4212,54.896584,9.784401,108.3,5.845,1.85,335.95,54.895348,9.797490,54.895069,9.793790
1390058797,3,0,0.0,0,0,4,0,713,700,-0.0292,179.6255,6.8213,0.4212,54.896564,9.784401,108.3,5.845,1.85,335.95,54.895348,9.797490,54.896584,9.784401
1390058797,3,0,0.0,0,0,0,0,713,750,-0.0292,179.6255,6.8213,0.4212,54.896549,9.784401,108.3,5.845,1.85,335.95,54.895348,9.797490,54.896584,9.784401
1390058797,3,0,0.0,0,0,4,0,713,700,-0.0292,179.6255,6.8213,0.4212,54.896530,9.784401,108.3,5.845,1.85,335.95,54.895348,9.797490,54.896584,9.784401
1390058798,3,0,0.0,0,0,0,0,713,750,-0.0292,179.6255,6.8213,0.4212,54.896511,9.784401,108.3,5.845,1.85,335.95,54.895348,9.797490,54.896584,9.784401
1390058798,3,0,0.0,0,0,4,0,713,700,-0.0292,179.6255,6.8213,0.4212,54.896492,9.784401,108.3,5.845,1.85,335.95,54.895348,9.797490,54.896584,9.784401
1390058798,3,0,0.0,0,0,0,0,713,750,-0.0292,179.6255,6.8213,0.4212,54.896477,9.784401,108.3,5.845,1.85,335.95,54.895348,9.797490,54.896584,9.784401
1390058798,3,0,0.0,0,0,4,0,713,700,-0.0292,179.6255,6.8213,0.4212,54.896458,9.784401,108.3,5.845,1.85,335.95,54.895348,9.797490,54.896584,9.784401
1390058799,3,0,0.0,0,0,0,0,713,750,-0.0292,179.6255,6.8213,0.4212,54.896439,9.784401,108.3,5.845,1.85,335.95,54.895348,9.797490,54.896584,9.784401
1390058799,3,0,0.0,0,0,4,0,713,700,-0.0292,179.6255,6.8213,0.4212,54.896420,9.784401,108.3,5.845,1.85,335.95,54.895348,9.797490,54.896584,9.784401
1390058799,3,0,0.0,0,0,0,0,713,750,-0.0292,179.6255,6.8213,0.4212,54.896404,9.784401,108.3,5.845,1.85,335.95,54.895348,9.797490,54.896584,9.784401
1390058799,3,0,0.0,0,0,4,0,713,700,-0.0292,179.6255,6.8213,0.4212,54.896385,9.784401,108.3,5.845,1.85,335.95,54.895348,9.797490,54.896584,9.784401
1390058800,3,0,0.0,0,0,0,0,713,750,-0.0292,179.6255,6.8213,0.4212,54.896366,9.784401,108.3,5.845,1.85,335.95,54.895348,9.797490,54.896584,9.784401
1390058800,3,0,0.0,0,0,4,0,713,700,-0.0292,179.6255,6.8213,0.4212,54.896351,9.784401,108.3,5.845,1.85,335.95,54.895348,9.797490,54.896584,9.784401
1390058800,3,0,0.0,0,0,0,0,713,750,-0.0292,179.6255,6.8213,0.4212,54.896332,9.784401,108.3,5.845,1.85,335.95,54.895348,9.797490,54.896584,9.784401
1390058800,3,0,0.0,0,0,4,0,713,700,-0.0292,179.6255,6.8213,0.4212,54.896313,9.784401,108.3,5.845,1.85,335.95,54.895348,9.797490,54.896584,9.784401
1390058801,3,0,0.0,0,0,0,0,713,750,-0.0292,179.6255,6.8213,0.4212,54.896294,9.784401,108.3,5.845,1.85,335.95,54.895348,9.797490,54.896584,9.784401
1390058801,3,0,0.0,0,0,4,0,713,700,-0.0292,179.6255,6.8213,0.4212,54.896278,9.784401,108.3,5.845,1.85,335.95,54.895348,9.797490,54.896584,9.784401
1390058801,3,0,0.0,0,0,0,0,713,750,-0.0292,179.6255,6.8213,0.4212,54.896259,9.784401,108.3,5.845,1.85,335.95,54.895348,9.797490,54.896584,9.784401
1390058801,3,0,0.0,0,0,4,0,713,700,-0.0292,179.6255,6.8213,0.4212,54.896240,9.784401,108.3,5.845,1.85,335.95,54.895348,9.797490,54.896584,9.784401
1390058802,3,0,0.0,0,0,0,0,713,750,-0.0292,179.6255,6.8213,0.4212,54.896221,9.784401,108.3,5.845,1.85,335.95,54.895348,9.797490,54.896584,9.784401
1390058802,3,0,0.0,0,0,4,0,713,700,-0.0292,179.6255,6.8213,0.4212,54.896206,9.784401,108.3,5.845,1.85,335.95,54.895348,9.797490,54.896584,9.784401
1390058802,3,0,0.0,0,0,0,0,713,750,-0.0292,179.6255,6.8213,0.4212,54.896187,9.784401,108.3,5.845,1.85,335.95,54.895348,9.797490,54.896584,9.784401
1390058802,3,0,0.0,0,0,4,0,713,700,-0.0292,179.6255,6.8213,0.4212,54.896168,9.784401,108.3,5.845,1.85,335.95,54.895348,9.797490,54.896584,9.784401
1390058803,3,0,0.0,0,0,0,0,713,750,-0.0292,179.6255,6.8213,0.4212,54.896149,9.784401,108.3,5.845,1.85,335.95,54.895348,9.797490,54.896584,9.784401
1390058803,3,0,0.0,0,0,4,0,713,700,-0.0292,179.6255,6.8213,0.4212,54.896133,9.784401,108.3,5.845,1.85,335.95,54.895348,9.797490,54.896584,9.784401
1390058803,3,0,0.0,0,0,0,0,713,750,-0.0292,179.6255,6.8213,0.4212,54.896114,9.784401,108.3,5.845,1.85,335.95,54.895348,9.797490,54.896584,9.784401
1390058803,3,0,0.0,0,0,4,0,713,700,-0.0292,179.6255,6.8213,0.4212,54.896095,9.784401,108.3,5.845,1.85,335.95,54.895348,9.797490,54.896584,9.784401
1390058804,3,0,0.0,0,0,0,0,713,750,-0.0292,179.6255,6.8213,0.4212,54.896080,9.784401,108.3,5.845,1.85,335.95,54.895348,9.797490,54.896584,9.784401
1390058804,3,0,0.0,0,0,4,0,713,700,-0.0292,179.6255,6.8213,0.4212,54.896061,9.784401,108.3,5.845,1.85,335.95,54.895348,9.797490,54.896584,9.784401
1390058804,3,0,0.0,0,0,0,0,713,750,-0.0292,179.6255,6.8213,0.4212,54.896042,9.784401,108.3,5.845,1.85,335.95,54.895348,9.797490,54.896584,9.784401
1390058804,3,0,0.0,0,0,4,0,713,700,-0.0292,179.6255,6.8213,0.4212,54.896023,9.784401,108.3,5.845,1.85,335.95,54.895348,9.797490,54.896584,9.784401
1390058805,3,0,0.0,0,0,0,0,713,750,-0.0292,179.6255,6.8213,0.4212,54.896008,9.784401,108.3,5.845,1.85,335.95,54.895348,9.797490,54.896584,9.784401
1390058805,3,0,0.0,0,0,4,0,713,700,-0.0292,179.6255,6.8213,0.4212,54.895988,9.784401,108.3,5.845,1.85,335.95,54.895348,9.797490,54.896584,9.784401
1390058805,3,0,0.0,0,0,0,0,713,750,-0.0292,179.6255,6.8213,0.4212,54.895969,9.784401,108.3,5.845,1.85,335.95,54.895348,9.797490,54.896584,9.784401
1390058805,3,0,0.0,0,0,4,0,713,700,-0.0292,179.6255,6.8213,0.4212,54.895950,9.784401,108.3,5.845,1.85,335.95,54.895348,9.797490,54.896584,9.784401
1390058806,3,0,0.0,0,0,0,0,713,750,-0.0292,179.6255,6.8213,0.4212,54.895935,9.784401,108.3,5.845,1.85,335.95,54.895348,9.797490,54.896584,9.784401
1390058806,3,0,0.0,0,0,4,0,713,700,-0.0292,179.6255,6.8213,0.4212,54.895916,9.784401,108.3,5.845,1.85,335.95,54.895348,9.797490,54.896584,9.784401
1390058806,3,0,0.0,0,0,0,0,713,750,-0.0292,179.6255,6.8213,0.4212,54.895897,9.784401,108.3,5.845,1.85,335.95,54.895348,9.797490,54.896584,9.784401
1390058806,3,0,0.0,0,0,4,0,713,700,-0.0292,179.6255,6.8213,0.4212,54.895878,9.784401,108.3,5.845,1.85,335.95,54.895348,9.797490,54.896584,9.784401
1390058807,3,0,0.0,0,0,0,0,713,750,-0.0292,179.6255,6.8213,0.4212,54.895863,9.784401,108.3,5.845,1.85,335.95,54.895348,9.797490,54.896584,9.784401
1390058807,3,0,0.0,0,0,4,0,713,700,-0.0292,179.6255,6.8213,0.4212,54.895844,9.784401,108.3,5.845,1.85,335.95,54.895348,9.797490,54.896584,9.784401
1390058807,3,0,0.0,0,0,0,0,713,750,-0.0292,179.6255,6.8213,0.4212,54.895824,9.784401,108.3,5.845,1.85,335.95,54.895348,9.797490,54.896584,9.784401
1390058807,3,0,0.0,0,0,4,0,713,700,-0.0292,179.6255,6.8213,0.4212,54.895809,9.784401,108.3,5.845,1.85,335.95,54.895348,9.797490,54.896584,9.784401
1390058808,3,0,0.0,0,0,0,0,713,750,-0.0292,179.6255,6.8213,0.4212,54.895790,9.784401,108.3,5.845,1.85,335.95,54.895348,9.797490,54.896584,9.784401
1390058808,3,0,0.0,0,0,4,0,713,700,-0.0292,179.6255,6.8213,0.4212,54.895771,9.784401,108.3,5.845,1.85,335.95,54.895348,9.797490,54.896584,9.784401
1390058808,3,0,0.0,0,0,0,0,713,750,-0.0292,179.6255,6.8213,0.4212,54.895752,9.784401,108.3,5.845,1.85,335.95,54.895348,9.797490,54.896584,9.784401
1390058808,3,0,0.0,0,0,4,0,713,700,-0.0292,179.6255,6.8213,0.4212,54.895737,9.784401,108.3,5.845,1.85,335.95,54.895348,9.797490,54.896584,9.784401
1390058809,3,0,0.0,0,0,0,0,713,750,-0.0292,179.6255,6.8213,0.4212,54.895718,9.784401,108.3,5.845,1.85,335.95,54.895348,9.797490,54.896584,9.784401
1390058809,3,0,0.0,0,0,4,0,713,700,-0.0292,179.6255,6.8213,0.4212,54.895699,9.784401,108.3,5.845,1.85,335.95,54.895348,9.797490,54.896584,9.784401
1390058809,3,0,0.0,0,0,0,0,713,750,-0.0292,179.6255,6.8213,0.4212,54.895679,9.784401,108.3,5.845,1.85,335.95,54.895348,9.797490,54.896584,9.784401
1390058809,3,0,0.0,0,0,4,0,713,700,-0.0292,179.6255,6.8213,0.4212,54.895664,9.784401,108.3,5.845,1.85,335.95,54.895348,9.797490,54.896584,9.784401
1390058810,3,0,0.0,0,0,0,0,713,750,-0.0292,179.6255,6.8213,0.4212,54.895645,9.784401,108.3,5.845,1.85,335.95,54.895348,9.797490,54.896584,9.784401
1390058810,3,0,0.0,0,0,4,0,713,700,-0.0292,179.6255,6.8213,0.4212,54.895626,9.784401,108.3,5.845,1.85,335.95,54.895348,9.797490,54.896584,9.784401
1390058810,3,0,0.0,0,0,0,0,713,750,-0.0292,179.6255,6.8213,0.4212,54.895607,9.784401,108.3,5.845,1.85,335.95,54.895348,9.797490,54.896584,9.784401
1390058810,3,0,0.0,0,0,4,0,713,700,-0.0292,179.6255,6.8213,0.4212,54.895592,9.784401,108.3,5.845,1.85,335.95,54.895348,9.797490,54.896584,9.784401
1390058811,3,0,0.0,0,0,0,0,713,750,-0.0292,179.6255,6.8213,0.4212,54.895573,9.784401,108.3,5.845,1.85,335.95,54.895348,9.797490,54.896584,9.784401
1390058811,3,0,0.0,0,0,4,0,713,700,-0.0292,179.6255,6.8213,0.4212,54.895554,9.784401,108.3,5.845,1.85,335.95,54.895348,9.797490,54.896584,9.784401
1390058811,3,0,0.0,0,0,0,0,713,750,-0.0292,179.6255,6.8213,0.4212,54.895538,9.784401,108.3,5.845,1.85,335.95,54.895348,9.797490,54.896584,9.784401
1390058811,3,0,0.0,0,0,4,0,713,700,-0.0292,179.6255,6.8213,0.4212,54.895519,9.784401,108.3,5.845,1.85,335.95,54.895348,9.797490,54.896584,9.784401
1390058812,3,0,0.0,0,0,0,0,713,750,-0.0292,179.6255,6.8213,0.4212,54.895500,9.784401,108.3,5.845,1.85,335.95,54.895348,9.797490,54.896584,9.784401
1390058812,3,0,0.0,0,0,4,0,713,700,-0.0292,179.6255,6.8213,0.4212,54.895481,9.784401,108.3,5.845,1.85,335.95,54.895348,9.797490,54.896584,9.784401
1390058812,3,0,0.0,0,0,0,0,713,750,-0.0292,179.6255,6.8213,0.4212,54.895466,9.784401,108.3,5.845,1.85,335.95,54.895348,9.797490,54.896584,9.784401
1390058812,3,0,0.0,0,0,4,0,713,700,-0.0292,179.6255,6.8213,0.4212,54.895447,9.784401,108.3,5.845,1.85,335.95,54.895348,9.797490,54.896584,9.784401
1390058813,3,0,0.0,0,0,0,0,713,750,-0.0292,179.6255,6.8213,0.4212,54.895428,9.784401,108.3,5.845,1.85,335.95,54.895348,9.797490,54.896584,9.784401
1390058813,3,0,0.0,0,0,4,0,713,700,-0.0292,179.6255,6.8213,0.4212,54.895409,9.784401,108.3,5.845,1.85,335.95,54.895348,9.797490,54.896584,9.784401
1390058813,3,0,0.0,0,0,0,0,713,750,-0.0292,179.6255,6.8213,0.4212,54.895393,9.784401,108.3,5.845,1.85,335.95,54.895348,9.797490,54.896584,9.784401
1390058813,3,0,0.0,0,0,4,0,713,700,-0.0292,179.6255,6.8213,0.4212,54.895374,9.784401,108.3,5.845,1.85,335.95,54.895348,9.797490,54.896584,9.784401
1390058814,3,0,0.0,0,0,0,0,713,750,-0.0292,179.6255,6.8213,0.4212,54.895355,9.784401,108.3,5.845,1.85,335.95,54.895348,9.797490,54.896584,9.784401
1390058814,3,0,0.0,0,0,4,0,713,700,-0.0292,179.6255,6.8213,0.4212,54.895336,9.784401,108.3,5.845,1.85,335.95,54.895348,9.797490,54.896584,9.784401
1390058814,3,0,0.0,0,0,0,0,713,750,-0.0292,179.6255,6.8213,0.4212,54.895321,9.784401,108.3,5.845,1.85,335.95,54.895348,9.797490,54.896584,9.784401
1390058814,3,0,0.0,0,0,4,0,713,700,-0.0292,179.6255,6.8213,0.4212,54.895302,9.784401,108.3,5.845,1.85,335.95,54.895348,9.797490,54.896584,9.784401
1390058815,3,0,0.0,0,0,0,0,713,750,-0.0292,179.6255,6.8213,0.4212,54.895283,9.784401,108.3,5.845,1.85,335.95,54.895348,9.797490,54.896584,9.784401
1390058815,3,0,0.0,0,0,4,0,713,700,-0.0292,179.6255,6.8213,0.4212,54.895264,9.784401,108.3,5.845,1.85,335.95,54.895348,9.797490,54.896584,9.784401
1390058815,3,0,0.0,0,0,0,0,713,750,-0.0292,179.6255,6.8213,0.4212,54.895248,9.784401,108.3,5.845,1.85,335.95,54.895348,9.797490,54.896584,9.784401
1390058815,3,0,0.0,0,0,4,0,713,700,-0.0292,179.6255,6.8213,0.4212,54.895229,9.784401,108.3,5.845,1.85,335.95,54.895348,9.797490,54.896584,9.784401
1390058816,3,0,0.0,0,0,0,0,713,750,-0.0292,179.6255,6.8213,0.4212,54.895210,9.784401,108.3,5.845,1.85,335.95,54.895348,9.797490,54.896584,9.784401
1390058816,3,0,0.0,0,0,4,0,713,700,-0.0292,179.6255,6.8213,0.4212,54.895195,9.784401,108.3,5.845,1.85,335.95,54.895348,9.797490,54.896584,9.784401
1390058816,3,0,0.0,0,0,0,0,713,750,-0.0292,179.6255,6.8213,0.4212,54.895176,9.784401,108.3,5.845,1.85,335.95,54.895348,9.797490,54.896584,9.784401
1390058816,3,0,0.0,0,0,4,0,713,700,-0.0292,179.6255,6.8213,0.4212,54.895157,9.784401,108.3,5.845,1.85,335.95,54.895348,9.797490,54.896584,9.784401
1390058817,3,0,0.0,0,0,0,0,713,750,-0.0292,179.6255,6.8213,0.4212,54.895138,9.784401,108.3,5.845,1.85,335.95,54.895348,9.797490,54.896584,9.784401
1390058817,3,0,0.0,0,0,4,0,713,700,-0.0292,179.6255,6.8213,0.4212,54.895123,9.784401,108.3,5.845,1.85,335.95,54.895348,9.797490,54.896584,9.784401
1390058817,3,0,0.0,0,0,0,0,713,750,-0.0292,179.6255,6.8213,0.4212,54.895103,9.784401,108.3,5.845,1.85,335.95,54.895348,9.797490,54.896584,9.784401
1390058817,3,0,0.0,0,0,4,0,713,700,-0.0292,179.6255,6.8213,0.4212,54.895084,9.784401,108.3,5.845,1.85,335.95,54.895348,9.797490,54.896584,9.784401
1390058818,3,0,0.0,0,0,0,0,713,750,-0.0292,179.6255,6.8213,0.4212,54.895065,9.784401,108.3,5.845,1.85,335.95,54.895348,9.797490,54.896584,9.784401
1390058818,3,0,0.0,0,0,4,0,713,700,-0.0292,179.6255,6.8213,0.4212,54.895050,9.784401,108.3,5.845,1.85,335.95,54.895348,9.797490,54.896584,9.784401
1390058818,3,0,0.0,0,0,0,0,713,750,-0.0292,179.6255,6.8213,0.4212,54.895031,9.784401,108.3,5.845,1.85,335.95,54.895348,9.797490,54.896584,9.784401
1390058818,3,0,0.0,0,0,4,0,713,700,-0.0292,179.6255,6.8213,0.4212,54.895012,9.784401,108.3,5.845,1.85,335.95,54.895348,9.797490,54.896584,9.784401
1390058819,3,0,0.0,0,0,0,0,713,750,-0.0292,179.6255,6.8213,0.4212,54.894993,9.784401,108.3,5.845,1.85,335.95,54.895348,9.797490,54.896584,9.784401
1390058819,3,0,0.0,0,0,4,0,713,700,-0.0292,179.6255,6.8213,0.4212,54.894978,9.784401,108.3,5.845,1.85,335.95,54.895348,9.797490,54.896584,9.784401
1390058819,3,0,0.0,0,0,0,0,713,750,-0.0292,179.6255,6.8213,0.4212,54.894958,9.784401,108.3,5.845,1.85,335.95,54.895348,9.797490,54.896584,9.784401
1390058819,3,0,0.0,0,0,4,0,713,700,-0.0292,179.6255,6.8213,0.4212,54.894939,9.784401,108.3,5.845,1.85,335.95,54.895348,9.797490,54.896584,9.784401
1390058820,3,0,0.0,0,0,0,0,713,750,-0.0292,179.6255,6.8213,0.4212,54.894924,9.784401,108.3,5.845,1.85,335.95,54.895348,9.797490,54.896584,9.784401
1390058820,3,0,0.0,0,0,4,0,713,700,-0.0292,179.6255,6.8213,0.4212,54.894905,9.784401,108.3,5.845,1.85,335.95,54.895348,9.797490,54.896584,9.784401
1390058820,3,0,0.0,0,0,0,0,713,750,-0.0292,179.6255,6.8213,0.4212,54.894886,9.784401,108.3,5.845,1.85,335.95,54.895348,9.797490,54.896584,9.784401
1390058820,3,0,0.0,0,0,4,0,713,700,-0.0292,179.6255,6.8213,0.4212,54.894867,9.784401,108.3,5.845,1.85,335.95,54.895348,9.797490,54.896584,9.784401
1390058821,3,0,0.0,0,0,0,0,713,750,-0.0292,179.6255,6.8213,0.4212,54.894852,9.784401,108.3,5.845,1.85,335.95,54.895348,9.797490,54.896584,9.784401
1390058821,3,0,0.0,0,0,4,0,713,700,-0.0292,179.6255,6.8213,0.4212,54.894833,9.784401,108.3,5.845,1.85,335.95,54.895348,9.797490,54.896584,9.784401
1390058821,3,0,0.0,0,0,0,0,713,750,-0.0292,179.6255,6.8213,0.4212,54.894814,9.784401,108.3,5.845,1.85,335.95,54.895348,9.797490,54.896584,9.784401
1390058821,3,0,0.0,0,0,4,0,713,700,-0.0292,179.6255,6.8213,0.4212,54.894794,9.784401,108.3,5.845,1.85,335.95,54.895348,9.797490,54.896584,9.784401
1390058822,3,0,0.0,0,0,0,0,713,750,-0.0292,179.6255,6.8213,0.4212,54.894779,9.784401,108.3,5.845,1.85,335.95,54.895348,9.797490,54.896584,9.784401
1390058822,3,0,0.0,0,0,4,0,713,700,-0.0292,179.6255,6.8213,0.4212,54.894760,9.784401,108.3,5.845,1.85,335.95,54.895348,9.797490,54.896584,9.784401
1390058822,3,0,0.0,0,0,0,0,713,750,-0.0292,179.6255,6.8213,0.4212,54.894741,9.784401,108.3,5.845,1.85,335.95,54.895348,9.797490,54.896584,9.784401
1390058823,3,0,0.0,0,0,4,0,713,700,-0.0292,179.6255,6.8213,0.4212,54.894722,9.784401,108.3,5.845,1.85,335.95,54.895348,9.797490,54.896584,9.784401
1390058823,3,0,0.0,0,0,0,0,713,750,-0.0292,179.6255,6.8213,0.4212,54.894707,9.784401,108.3,5.845,1.85,335.95,54.895348,9.797490,54.896584,9.784401
1390058823,3,0,0.0,0,0,4,0,713,700,-0.0292,179.6255,6.8213,0.4212,54.894688,9.784401,108.3,5.845,1.85,335.95,54.895348,9.797490,54.896584,9.784401
1390058823,3,0,0.0,0,0,0,0,713,750,-0.0292,179.6255,6.8213,0.4212,54.894669,9.784401,108.3,5.845,1.85,335.95,54.895348,9.797490,54.896584,9.784401
1390058824,3,0,0.0,0,0,4,0,713,700,-0.0292,179.6255,6.8213,0.4212,54.894653,9.784401,108.3,5.845,1.85,335.95,54.895348,9.797490,54.896584,9.784401
1390058824,3,0,0.0,0,0,0,0,713,750,-0.0292,179.6255,6.8213,0.4212,54.894634,9.784401,108.3,5.845,1.85,335.95,54.895348,9.797490,54.896584,9.784401
1390058824,3,0,0.0,0,0,4,0,713,700,-0.0292,179.6255,6.8213,0.4212,54.894615,9.784401,108.3,5.845,1.85,335.95,54.895348,9.797490,54.896584,9.784401
1390058824,3,0,0.0,0,0,0,0,713,750,-0.0292,179.6255,6.8213,0.4212,54.894596,9.784401,108.3,5.845,1.85,335.95,54.895348,9.797490,54.896584,9.784401
1390058825,3,0,0.0,0,0,4,0,713,700,-0.0292,179.6255,6.8213,0.4212,54.894581,9.784401,108.3,5.845,1.85,335.95,54.895348,9.797490,54.896584,9.784401
1390058825,3,0,0.0,0,0,0,0,713,750,-0.0292,179.6255,6.8213,0.4212,54.894562,9.784401,108.3,5.845,1.85,335.95,54.895348,9.797490,54.896584,9.784401
1390058825,3,0,0.0,0,0,4,0,713,700,-0.0292,179.6255,6.8213,0.4212,54.894543,9.784401,108.3,5.845,1.85,335.95,54.895348,9.797490,54.896584,9.784401
1390058825,3,0,0.0,0,0,0,0,713,750,-0.0292,179.6255,6.8213,0.4212,54.894524,9.784401,108.3,5.845,1.85,335.95,54.895348,9.797490,54.896584,9.784401
1390058826,3,0,0.0,0,0,4,0,713,700,-0.0292,179.6255,6.8213,0.4212,54.894508,9.784401,108.3,5.845,1.85,335.95,54.895348,9.797490,54.896584,9.784401
1390058826,3,0,0.0,0,0,0,0,713,750,-0.0292,179.6255,6.8213,0.4212,54.894489,9.784401,108.3,5.845,1.85,335.95,54.895348,9.797490,54.896584,9.784401
1390058826,3,0,0.0,0,0,4,0,713,700,-0.0292,179.6255,6.8213,0.4212,54.894470,9.784401,108.3,5.845,1.85,335.95,54.895348,9.797490,54.896584,9.784401
1390058826,3,0,0.0,0,0,0,0,713,750,-0.0292,179.6255,6.8213,0.4212,54.894451,9.784401,108.3,5.845,1.85,335.95,54.895348,9.797490,54.896584,9.784401
1390058827,3,0,0.0,0,0,4,0,713,700,-0.0292,179.6255,6.8213,0.4212,54.894436,9.784401,108.3,5.845,1.85,335.95,54.895348,9.797490,54.896584,9.784401
1390058827,3,0,0.0,0,0,0,0,713,750,-0.0292,179.6255,6.8213,0.4212,54.894417,9.784401,108.3,5.845,1.85,335.95,54.895348,9.797490,54.896584,9.784401
1390058827,3,0,0.0,0,0,4,0,713,700,-0.0292,179.6255,6.8213,0.4212,54.894398,9.784401,108.3,5.845,1.85,335.95,54.895348,9.797490,54.896584,9.784401
1390058827,3,0,0.0,0,0,0,0,713,750,-0.0292,179.6255,6.8213,0.4212,54.894382,9.784401,108.3,5.845,1.85,335.95,54.895348,9.797490,54.896584,9.784401
1390058828,3,0,0.0,0,0,4,0,713,700,-0.0292,179.6255,6.8213,0.4212,54.894363,9.784401,108.3,5.845,1.85,335.95,54.895348,9.797490,54.896584,9.784401
1390058828,3,0,0.0,0,0,0,0,713,750,-0.0292,179.6255,6.8213,0.4212,54.894344,9.784401,108.3,5.845,1.85,335.95,54.895348,9.797490,54.896584,9.784401
1390058828,3,0,0.0,0,0,4,0,713,700,-0.0292,179.6255,6.8213,0.4212,54.894325,9.784401,108.3,5.845,1.85,335.95,54.895348,9.797490,54.896584,9.784401
1390058828,3,0,0.0,0,0,0,0,713,750,-0.0292,179.6255,6.8213,0.4212,54.894310,9.784401,108.3,5.845,1.85,335.95,54.895348,9.797490,54.896584,9.784401
1390058829,3,0,0.0,0,0,4,0,713,700,-0.0292,179.6255,6.8213,0.4212,54.894291,9.784401,108.3,5.845,1.85,335.95,54.895348,9.797490,54.896584,9.784401
1390058829,3,0,0.0,0,0,0,0,713,750,-0.0292,179.6255,6.8213,0.4212,54.894272,9.784401,108.3,5.845,1.85,335.95,54.895348,9.797490,54.896584,9.784401
1390058829,3,0,0.0,0,0,4,0,713,700,-0.0292,179.6255,6.8213,0.4212,54.894253,9.784401,108.3,5.845,1.85,335.95,54.895348,9.797490,54.896584,9.784401
1390058829,3,0,0.0,0,0,0,0,713,750,-0.0292,179.6255,6.8213,0.4212,54.894238,9.784401,108.3,5.845,1.85,335.95,54.895348,9.797490,54.896584,9.784401
1390058830,3,0,0.0,0,0,4,0,713,700,-0.0292,179.6255,6.8213,0.4212,54.894218,9.784401,108.3,5.845,1.85,335.95,54.895348,9.797490,54.896584,9.784401
1390058830,3,0,0.0,0,0,0,0,713,750,-0.0292,179.6255,6.8213,0.4212,54.894199,9.784401,108.3,5.845,1.85,335.95,54.895348,9.797490,54.896584,9.784401
1390058830,3,0,0.0,0,0,4,0,713,700,-0.0292,179.6255,6.8213,0.4212,54.894180,9.784401,108.3,5.845,1.85,335.95,54.895348,9.797490,54.896584,9.784401
1390058830,3,0,0.0,0,0,0,0,713,750,-0.0292,179.6255,6.8213,0.4212,54.894165,9.784401,108.3,5.845,1.85,335.95,54.895348,9.797490,54.896584,9.784401
1390058831,3,0,0.0,0,0,4,0,713,700,-0.0292,179.6255,6.8213,0.4212,54.894146,9.784401,108.3,5.845,1.85,335.95,54.895348,9.797490,54.896584,9.784401
1390058831,3,0,0.0,0,0,0,0,713,750,-0.0292,179.6255,6.8213,0.4212,54.894127,9.784401,108.3,5.845,1.85,335.95,54.895348,9.797490,54.896584,9.784401
1390058831,3,0,0.0,0,0,4,0,713,700,-0.0292,179.6255,6.8213,0.4212,54.894112,9.784401,108.3,5.845,1.85,335.95,54.895348,9.797490,54.896584,9.784401
1390058831,3,0,0.0,0,0,0,0,713,750,-0.0292,179.6255,6.8213,0.4212,54.894093,9.784401,108.3,5.845,1.85,335.95,54.895348,9.797490,54.896584,9.784401
1390058832,3,0,0.0,0,0,4,0,713,700,-0.0292,179.6255,6.8213,0.4212,54.894073,9.784401,108.3,5.845,1.85,335.95,54.895348,9.797490,54.896584,9.784401
1390058832,3,0,0.0,0,0,0,0,713,750,-0.0292,179.6255,6.8213,0.4212,54.894054,9.784401,108.3,5.845,1.85,335.95,54.895348,9.797490,54.896584,9.784401
1390058832,3,0,0.0,0,0,4,0,713,700,-0.0292,179.6255,6.8213,0.4212,54.894039,9.784401,108.3,5.845,1.85,335.95,54.895348,9.797490,54.896584,9.784401
1390058832,3,0,0.0,0,0,0,0,713,750,-0.0292,179.6255,6.8213,0.4212,54.894020,9.784401,108.3,5.845,1.85,335.95,54.895348,9.797490,54.896584,9.784401
1390058833,3,0,0.0,0,0,4,0,713,700,-0.0292,179.6255,6.8213,0.4212,54.894001,9.784401,108.3,5.845,1.85,335.95,54.895348,9.797490,54.896584,9.784401
1390058833,3,0,0.0,0,0,0,0,713,750,-0.0292,179.6255,6.8213,0.4212,54.893982,9.784401,108.3,5.845,1.85,335.95,54.895348,9.797490,54.896584,9.784401
1390058833,3,0,0.0,0,0,4,0,713,700,-0.0292,179.6255,6.8213,0.4212,54.893967,9.784401,108.3,5.845,1.85,335.95,54.895348,9.797490,54.896584,9.784401
1390058833,3,0,0.0,0,0,0,0,713,750,-0.0292,179.6255,6.8213,0.4212,54.893948,9.784401,108.3,5.845,1.85,335.95,54.895348,9.797490,54.896584,9.784401
1390058834,3,0,0.0,0,0,4,0,713,700,-0.0292,179.6255,6.8213,0.4212,54.893929,9.784401,108.3,5.845,1.85,335.95,54.895348,9.797490,54.896584,9.784401
1390058834,3,0,0.0,0,0,0,0,713,750,-0.0292,179.6255,6.8213,0.4212,54.893909,9.784401,108.3,5.845,1.85,335.95,54.895348,9.797490,54.896584,9.784401
1390058834,3,0,0.0,0,0,4,0,713,700,-0.0292,179.6255,6.8213,0.4212,54.893894,9.784401,108.3,5.845,1.85,335.95,54.895348,9.797490,54.896584,9.784401
1390058834,3,0,0.0,0,0,0,0,713,750,-0.0292,179.6255,6.8213,0.4212,54.893875,9.784401,108.3,5.845,1.85,335.95,54.895348,9.797490,54.896584,9.784401
1390058835,3,0,0.0,0,0,4,0,713,700,-0.0292,179.6255,6.8213,0.4212,54.893856,9.784401,108.3,5.845,1.85,335.95,54.895348,9.797490,54.896584,9.784401
1390058835,3,0,0.0,0,0,0,0,713,750,-0.0292,179.6255,6.8213,0.4212,54.893837,9.784401,108.3,5.845,1.85,335.95,54.895348,9.797490,54.896584,9.784401
1390058835,3,0,0.0,0,0,4,0,713,700,-0.0292,179.6255,6.8213,0.4212,54.893822,9.784401,108.3,5.845,1.85,335.95,54.895348,9.797490,54.896584,9.784401
1390058835,3,0,0.0,0,0,0,0,713,750,-0.0292,179.6255,6.8213,0.4212,54.893803,9.784401,108.3,5.845,1.85,335.95,54.895348,9.797490,54.896584,9.784401
1390058836,3,0,0.0,0,0,4,0,713,700,-0.0292,179.6255,6.8213,0.4212,54.893784,9.784401,108.3,5.845,1.85,335.95,54.895348,9.797490,54.896584,9.784401
1390058836,3,0,0.0,0,0,0,0,713,750,-0.0292,179.6255,6.8213,0.4212,54.893768,9.784401,108.3,5.845,1.85,335.95,54.895348,9.797490,54.896584,9.784401
1390058836,3,0,0.0,0,0,4,0,713,700,-0.0292,179.6255,6.8213,0.4212,54.893749,9.784401,108.3,5.845,1.85,335.95,54.895348,9.797490,54.896584,9.784401
1390058836,3,0,0.0,0,0,0,0,713,750,-0.0292,179.6255,6.8213,0.4212,54.893730,9.784401,108.3,5.845,1.85,335.95,54.895348,9.797490,54.896584,9.784401
1390058837,3,0,0.0,0,0,4,0,713,700,-0.0292,179.6255,6.8213,0.4212,54.893711,9.784401,108.3,5.845,1.85,335.95,54.895348,9.797490,54.896584,9.784401
1390058837,3,0,0.0,0,0,0,0,713,750,-0.0292,179.6255,6.8213,0.4212,54.893696,9.784401,108.3,5.845,1.85,335.95,54.895348,9.797490,54.896584,9.784401
1390058837,3,0,0.0,0,0,4,0,713,700,-0.0292,179.6255,6.8213,0.4212,54.893677,9.784401,108.3,5.845,1.85,335.95,54.895348,9.797490,54.896584,9.784401
1390058837,3,0,0.0,0,0,0,0,713,750,-0.0292,179.6255,6.8213,0.4212,54.893658,9.784401,108.3,5.845,1.85,335.95,54.895348,9.797490,54.896584,9.784401
1390058838,3,0,0.0,0,0,4,0,713,700,-0.0292,179.6255,6.8213,0.4212,54.893639,9.784401,108.3,5.845,1.85,335.95,54.895348,9.797490,54.896584,9.784401
1390058838,3,0,0.0,0,0,0,0,713,750,-0.0292,179.6255,6.8213,0.4212,54.893623,9.784401,108.3,5.845,1.85,335.95,54.895348,9.797490,54.896584,9.784401
1390058838,3,0,0.0,0,0,4,0,713,700,-0.0292,179.6255,6.8213,0.4212,54.893604,9.784401,108.3,5.845,1.85,335.95,54.895348,9.797490,54.896584,9.784401
1390058838,3,0,0.0,0,0,0,0,713,750,-0.0292,179.6255,6.8213,0.4212,54.893585,9.784401,108.3,5.845,1.85,335.95,54.895348,9.797490,54.896584,9.784401
1390058839,3,0,0.0,0,0,4,0,713,700,-0.0292,179.6255,6.8213,0.4212,54.893566,9.784401,108.3,5.845,1.85,335.95,54.895348,9.797490,54.896584,9.784401
1390058839,3,0,0.0,0,0,0,0,713,750,-0.0292,179.6255,6.8213,0.4212,54.893551,9.784401,108.3,5.845,1.85,335.95,54.895348,9.797490,54.896584,9.784401
1390058839,3,0,0.0,0,0,4,0,713,700,-0.0292,179.6255,6.8213,0.4212,54.893532,9.784401,108.3,5.845,1.85,335.95,54.895348,9.797490,54.896584,9.784401
1390058839,3,0,0.0,0,0,0,0,713,750,-0.0292,179.6255,6.8213,0.4212,54.893513,9.784401,108.3,5.845,1.85,335.95,54.895348,9.797490,54.896584,9.784401
1390058840,3,0,0.0,0,0,4,0,713,700,-0.0292,179.6255,6.8213,0.4212,54.893497,9.784401,108.3,5.845,1.85,335.95,54.895348,9.797490,54.896584,9.784401
