MCU_timestamp,Navigation_System,Manual_Control,Guidance_Heading,Manual_Ctrl_Rudder,Rudder_Desired_Angle,Rudder_Feedback,Manual_Ctrl_Sail,Sail_Desired_Pos,Sail_Feedback,Rate,Heading,Pitch,Roll,Latitude,Longitude,COG,SOG,Wind_Speed,Wind_Angle,Point_Start_Lat,Point_Start_Lon,Point_End_Lat,Point_End_Lon
1386876312,1,0,485.9,0,-35,-4,0,0,25,-0.0292,400.6925,6.8213,0.4212,54.883259,9.811263,108.3,5.845,1.85,335.95,54.883247,9.811243,0.000000,0.000000
1386876312,1,0,485.9,0,-35,-8,0,27,50,-0.0292,410.0258,6.8213,0.4212,54.883270,9.811287,108.3,5.845,1.85,335.95,54.883247,9.811243,0.000000,0.000000
1386876312,1,0,485.9,0,-35,-12,0,90,75,-0.0292,419.3592,6.8213,0.4212,54.883278,9.811314,108.3,5.845,1.85,335.95,54.883247,9.811243,0.000000,0.000000
1386876312,1,0,485.9,0,-35,-16,0,169,100,-0.0292,428.6925,6.8213,0.4212,54.883286,9.811343,108.3,5.845,1.85,335.95,54.883247,9.811243,0.000000,0.000000
1386876313,1,0,485.9,0,-35,-20,0,254,125,-0.0292,438.0258,6.8213,0.4212,54.883289,9.811374,108.3,5.845,1.85,335.95,54.883247,9.811243,0.000000,0.000000
1386876313,1,0,485.9,0,-35,-24,0,339,150,-0.0292,447.3592,6.8213,0.4212,54.883289,9.811404,108.3,5.845,1.85,335.95,54.883247,9.811243,0.000000,0.000000
1386876313,1,0,485.9,0,-35,-28,0,422,175,-0.0292,456.6925,6.8213,0.4212,54.883286,9.811436,108.3,5.845,1.85,335.95,54.883247,9.811243,0.000000,0.000000
1386876313,1,0,485.9,0,-29,-32,0,499,200,-0.0292,464.4259,6.8213,0.4212,54.883282,9.811466,108.3,5.845,1.85,335.95,54.883247,9.811243,0.000000,0.000000
1386876314,1,0,485.9,0,-22,-28,0,500,225,-0.0292,470.2925,6.8213,0.4212,54.883278,9.811496,108.3,5.845,1.85,335.95,54.883247,9.811243,0.000000,0.000000
1386876314,1,0,485.9,0,-16,-24,0,500,250,-0.0292,474.5592,6.8213,0.4212,54.883270,9.811523,108.3,5.845,1.85,335.95,54.883247,9.811243,0.000000,0.000000
1386876314,1,0,485.9,0,-11,-20,0,409,275,-0.0292,477.4925,6.8213,0.4212,54.883263,9.811551,108.3,5.845,1.85,335.95,54.883247,9.811243,0.000000,0.000000
1386876314,1,0,485.9,0,-8,-16,0,409,300,-0.0292,479.6259,6.8213,0.4212,54.883255,9.811578,108.3,5.845,1.85,335.95,54.883247,9.811243,0.000000,0.000000
1386876315,1,0,485.9,0,-6,-12,0,409,325,-0.0292,481.2259,6.8213,0.4212,54.883247,9.811604,108.3,5.845,1.85,335.95,54.883247,9.811243,0.000000,0.000000
1386876315,1,0,485.9,0,-5,-8,0,409,350,-0.0292,482.5592,6.8213,0.4212,54.883236,9.811631,108.3,5.845,1.85,335.95,54.883247,9.811243,0.000000,0.000000
1386876315,1,0,485.9,0,-3,-4,0,409,375,-0.0292,483.3592,6.8213,0.4212,54.883228,9.811657,108.3,5.845,1.85,335.95,54.883247,9.811243,0.000000,0.000000
1386876315,1,0,485.9,0,-3,0,0,409,400,-0.0292,484.1592,6.8213,0.4212,54.883217,9.811683,108.3,5.845,1.85,335.95,54.883247,9.811243,0.000000,0.000000
1386876316,1,0,485.9,0,-2,-4,0,409,425,-0.0292,484.6925,6.8213,0.4212,54.883205,9.811708,108.3,5.845,1.85,335.95,54.883247,9.811243,0.000000,0.000000
1386876316,1,0,485.9,0,-1,0,0,409,400,-0.0292,484.9592,6.8213,0.4212,54.883194,9.811733,108.3,5.845,1.85,335.95,54.883247,9.811243,0.000000,0.000000
1386876316,1,0,485.9,0,-1,-4,0,409,425,-0.0292,485.2258,6.8213,0.4212,54.883183,9.811759,108.3,5.845,1.85,335.95,54.883247,9.811243,0.000000,0.000000
1386876316,1,0,485.9,0,-1,0,0,409,400,-0.0292,485.4925,6.8213,0.4212,54.883171,9.811784,108.3,5.845,1.85,335.95,54.883247,9.811243,0.000000,0.000000
1386876317,1,0,485.9,0,0,4,0,0,375,-0.0292,485.4925,6.8213,0.4212,54.883160,9.811810,108.3,5.845,1.85,335.95,54.883247,9.811243,0.000000,0.000000
1386876317,1,0,485.9,0,0,0,0,0,350,-0.0292,485.4925,6.8213,0.4212,54.883152,9.811835,108.3,5.845,1.85,335.95,54.883247,9.811243,0.000000,0.000000
1386876317,1,0,485.9,0,0,4,0,0,325,-0.0292,485.4925,6.8213,0.4212,54.883141,9.811861,108.3,5.845,1.85,335.95,54.883247,9.811243,0.000000,0.000000
1386876317,1,0,485.9,0,0,0,0,0,300,-0.0292,485.4925,6.8213,0.4212,54.883133,9.811887,108.3,5.845,1.85,335.95,54.883247,9.811243,0.000000,0.000000
1386876318,1,0,485.9,0,0,4,0,0,275,-0.0292,485.4925,6.8213,0.4212,54.883121,9.811912,108.3,5.845,1.85,335.95,54.883247,9.811243,0.000000,0.000000
1386876318,1,0,485.9,0,0,0,0,0,250,-0.0292,485.4925,6.8213,0.4212,54.883110,9.811937,108.3,5.845,1.85,335.95,54.883247,9.811243,0.000000,0.000000
1386876318,1,0,485.9,0,0,4,0,0,225,-0.0292,485.4925,6.8213,0.4212,54.883102,9.811963,108.3,5.845,1.85,335.95,54.883247,9.811243,0.000000,0.000000
1386876318,1,0,485.9,0,0,0,0,0,200,-0.0292,485.4925,6.8213,0.4212,54.883091,9.811989,108.3,5.845,1.85,335.95,54.883247,9.811243,0.000000,0.000000
1386876319,1,0,485.9,0,0,4,0,0,175,-0.0292,485.4925,6.8213,0.4212,54.883083,9.812015,108.3,5.845,1.85,335.95,54.883247,9.811243,0.000000,0.000000
1386876319,1,0,485.9,0,0,0,0,0,150,-0.0292,485.4925,6.8213,0.4212,54.883072,9.812039,108.3,5.845,1.85,335.95,54.883247,9.811243,0.000000,0.000000
1386876319,1,0,485.9,0,0,4,0,0,125,-0.0292,485.4925,6.8213,0.4212,54.883060,9.812065,108.3,5.845,1.85,335.95,54.883247,9.811243,0.000000,0.000000
1386876319,1,0,485.9,0,0,0,0,0,100,-0.0292,485.4925,6.8213,0.4212,54.883053,9.812090,108.3,5.845,1.85,335.95,54.883247,9.811243,0.000000,0.000000
1386876320,1,0,485.9,0,0,4,0,0,75,-0.0292,485.4925,6.8213,0.4212,54.883041,9.812116,108.3,5.845,1.85,335.95,54.883247,9.811243,0.000000,0.000000
1386876320,1,0,485.9,0,0,0,0,0,50,-0.0292,485.4925,6.8213,0.4212,54.883034,9.812141,108.3,5.845,1.85,335.95,54.883247,9.811243,0.000000,0.000000
1386876320,1,0,485.9,0,0,4,0,0,25,-0.0292,485.4925,6.8213,0.4212,54.883022,9.812166,108.3,5.845,1.85,335.95,54.883247,9.811243,0.000000,0.000000
1386876320,1,0,485.9,0,0,0,0,0,0,-0.0292,485.4925,6.8213,0.4212,54.883011,9.812192,108.3,5.845,1.85,335.95,54.883247,9.811243,0.000000,0.000000
1386876321,1,0,485.9,0,0,4,0,0,25,-0.0292,485.4925,6.8213,0.4212,54.883003,9.812217,108.3,5.845,1.85,335.95,54.883247,9.811243,0.000000,0.000000
1386876321,1,0,545.9,0,-35,0,0,0,0,-0.0292,494.8258,6.8213,0.4212,54.882992,9.812240,108.3,5.845,1.85,335.95,54.883247,9.811243,0.000000,0.000000
1386876321,1,0,545.9,0,-35,-4,0,0,25,-0.0292,504.1592,6.8213,0.4212,54.882980,9.812258,108.3,5.845,1.85,335.95,54.883247,9.811243,0.000000,0.000000
1386876321,1,0,545.9,0,-35,-8,0,0,0,-0.0292,513.4925,6.8213,0.4212,54.882965,9.812272,108.3,5.845,1.85,335.95,54.883247,9.811243,0.000000,0.000000
1386876322,1,0,545.9,0,-32,-12,0,0,25,-0.0292,522.0258,6.8213,0.4212,54.882950,9.812282,108.3,5.845,1.85,335.95,54.883247,9.811243,0.000000,0.000000
1386876322,1,0,545.9,0,-24,-16,0,0,0,-0.0292,528.4258,6.8213,0.4212,54.882931,9.812287,108.3,5.845,1.85,335.95,54.883247,9.811243,0.000000,0.000000
1386876322,1,0,545.9,0,-18,-20,0,0,25,-0.0292,533.2258,6.8213,0.4212,54.882912,9.812291,108.3,5.845,1.85,335.95,54.883247,9.811243,0.000000,0.000000
1386876322,1,0,545.9,0,-13,-16,0,0,0,-0.0292,536.6925,6.8213,0.4212,54.882893,9.812293,108.3,5.845,1.85,335.95,54.883247,9.811243,0.000000,0.000000
1386876323,1,0,545.9,0,-9,-12,0,0,25,-0.0292,539.0925,6.8213,0.4212,54.882877,9.812294,108.3,5.845,1.85,335.95,54.883247,9.811243,0.000000,0.000000
1386876323,1,0,545.9,0,-7,-8,0,409,50,-0.0292,540.9592,6.8213,0.4212,54.882858,9.812294,108.3,5.845,1.85,335.95,54.883247,9.811243,0.000000,0.000000
1386876323,1,0,545.9,0,-5,-4,0,409,75,-0.0292,542.2925,6.8213,0.4212,54.882839,9.812293,108.3,5.845,1.85,335.95,54.883247,9.811243,0.000000,0.000000
1386876323,1,0,545.9,0,-4,0,0,409,100,-0.0292,543.3591,6.8213,0.4212,54.882824,9.812291,108.3,5.845,1.85,335.95,54.883247,9.811243,0.000000,0.000000
1386876324,1,0,545.9,0,-3,-4,0,409,125,-0.0292,544.1591,6.8213,0.4212,54.882805,9.812289,108.3,5.845,1.85,335.95,54.883247,9.811243,0.000000,0.000000
1386876324,1,0,545.9,0,-2,0,0,409,150,-0.0292,544.6924,6.8213,0.4212,54.882786,9.812286,108.3,5.845,1.85,335.95,54.883247,9.811243,0.000000,0.000000
1386876324,1,0,545.9,0,-1,-4,0,409,175,-0.0292,544.9591,6.8213,0.4212,54.882767,9.812284,108.3,5.845,1.85,335.95,54.883247,9.811243,0.000000,0.000000
1386876324,1,0,545.9,0,-1,0,0,409,200,-0.0292,545.2258,6.8213,0.4212,54.882751,9.812281,108.3,5.845,1.85,335.95,54.883247,9.811243,0.000000,0.000000
1386876325,1,0,545.9,0,-1,-4,0,409,225,-0.0292,545.4924,6.8213,0.4212,54.882732,9.812278,108.3,5.845,1.85,335.95,54.883247,9.811243,0.000000,0.000000
1386876325,1,0,545.9,0,0,0,0,409,250,-0.0292,545.4924,6.8213,0.4212,54.882713,9.812275,108.3,5.845,1.85,335.95,54.883247,9.811243,0.000000,0.000000
1386876325,1,0,545.9,0,0,4,0,409,275,-0.0292,545.4924,6.8213,0.4212,54.882694,9.812272,108.3,5.845,1.85,335.95,54.883247,9.811243,0.000000,0.000000
1386876325,1,0,545.9,0,0,0,0,409,300,-0.0292,545.4924,6.8213,0.4212,54.882679,9.812269,108.3,5.845,1.85,335.95,54.883247,9.811243,0.000000,0.000000
1386876326,1,0,545.9,0,0,4,0,409,325,-0.0292,545.4924,6.8213,0.4212,54.882660,9.812265,108.3,5.845,1.85,335.95,54.883247,9.811243,0.000000,0.000000
1386876326,1,0,545.9,0,0,0,0,409,350,-0.0292,545.4924,6.8213,0.4212,54.882641,9.812262,108.3,5.845,1.85,335.95,54.883247,9.811243,0.000000,0.000000
1386876326,1,0,545.9,0,0,4,0,409,375,-0.0292,545.4924,6.8213,0.4212,54.882622,9.812259,108.3,5.845,1.85,335.95,54.883247,9.811243,0.000000,0.000000
1386876326,1,0,545.9,0,0,0,0,0,350,-0.0292,545.4924,6.8213,0.4212,54.882607,9.812256,108.3,5.845,1.85,335.95,54.883247,9.811243,0.000000,0.000000
1386876327,1,0,545.9,0,0,4,0,0,325,-0.0292,545.4924,6.8213,0.4212,54.882587,9.812253,108.3,5.845,1.85,335.95,54.883247,9.811243,0.000000,0.000000
1386876327,1,0,545.9,0,0,0,0,0,300,-0.0292,545.4924,6.8213,0.4212,54.882568,9.812250,108.3,5.845,1.85,335.95,54.883247,9.811243,0.000000,0.000000
1386876327,1,0,545.9,0,0,4,0,0,275,-0.0292,545.4924,6.8213,0.4212,54.882553,9.812247,108.3,5.845,1.85,335.95,54.883247,9.811243,0.000000,0.000000
1386876327,1,0,545.9,0,0,0,0,0,250,-0.0292,545.4924,6.8213,0.4212,54.882534,9.812244,108.3,5.845,1.85,335.95,54.883247,9.811243,0.000000,0.000000
1386876328,1,0,545.9,0,0,4,0,0,225,-0.0292,545.4924,6.8213,0.4212,54.882515,9.812242,108.3,5.845,1.85,335.95,54.883247,9.811243,0.000000,0.000000
1386876328,1,0,545.9,0,0,0,0,0,200,-0.0292,545.4924,6.8213,0.4212,54.882496,9.812239,108.3,5.845,1.85,335.95,54.883247,9.811243,0.000000,0.000000
1386876328,1,0,545.9,0,0,4,0,0,175,-0.0292,545.4924,6.8213,0.4212,54.882481,9.812236,108.3,5.845,1.85,335.95,54.883247,9.811243,0.000000,0.000000
1386876328,1,0,545.9,0,0,0,0,0,150,-0.0292,545.4924,6.8213,0.4212,54.882462,9.812233,108.3,5.845,1.85,335.95,54.883247,9.811243,0.000000,0.000000
1386876329,1,0,545.9,0,0,4,0,0,125,-0.0292,545.4924,6.8213,0.4212,54.882442,9.812230,108.3,5.845,1.85,335.95,54.883247,9.811243,0.000000,0.000000
1386876329,1,0,545.9,0,0,0,0,0,100,-0.0292,545.4924,6.8213,0.4212,54.882423,9.812227,108.3,5.845,1.85,335.95,54.883247,9.811243,0.000000,0.000000
1386876329,1,0,545.9,0,0,4,0,0,75,-0.0292,545.4924,6.8213,0.4212,54.882408,9.812223,108.3,5.845,1.85,335.95,54.883247,9.811243,0.000000,0.000000
1386876329,1,0,545.9,0,0,0,0,0,50,-0.0292,545.4924,6.8213,0.4212,54.882389,9.812220,108.3,5.845,1.85,335.95,54.883247,9.811243,0.000000,0.000000
1386876330,1,0,545.9,0,0,4,0,0,25,-0.0292,545.4924,6.8213,0.4212,54.882370,9.812217,108.3,5.845,1.85,335.95,54.883247,9.811243,0.000000,0.000000
1386876330,1,0,545.9,0,0,0,0,0,0,-0.0292,545.4924,6.8213,0.4212,54.882351,9.812214,108.3,5.845,1.85,335.95,54.883247,9.811243,0.000000,0.000000
1386876330,1,0,545.9,0,0,4,0,0,25,-0.0292,545.4924,6.8213,0.4212,54.882336,9.812211,108.3,5.845,1.85,335.95,54.883247,9.811243,0.000000,0.000000
1386876330,1,0,485.9,0,35,8,0,0,0,-0.0292,536.1591,6.8213,0.4212,54.882317,9.812213,108.3,5.845,1.85,335.95,54.883247,9.811243,0.000000,0.000000
1386876331,1,0,485.9,0,35,12,0,0,25,-0.0292,526.8258,6.8213,0.4212,54.882298,9.812221,108.3,5.845,1.85,335.95,54.883247,9.811243,0.000000,0.000000
1386876331,1,0,485.9,0,35,16,0,0,0,-0.0292,517.4925,6.8213,0.4212,54.882282,9.812233,108.3,5.845,1.85,335.95,54.883247,9.811243,0.000000,0.000000
1386876331,1,0,485.9,0,32,20,0,0,25,-0.0292,508.9592,6.8213,0.4212,54.882263,9.812249,108.3,5.845,1.85,335.95,54.883247,9.811243,0.000000,0.000000
1386876331,1,0,485.9,0,23,24,0,0,0,-0.0292,502.8258,6.8213,0.4212,54.882248,9.812268,108.3,5.845,1.85,335.95,54.883247,9.811243,0.000000,0.000000
1386876332,1,0,485.9,0,17,20,0,0,25,-0.0292,498.2925,6.8213,0.4212,54.882236,9.812288,108.3,5.845,1.85,335.95,54.883247,9.811243,0.000000,0.000000
1386876332,1,0,485.9,0,12,16,0,0,0,-0.0292,495.0925,6.8213,0.4212,54.882221,9.812310,108.3,5.845,1.85,335.95,54.883247,9.811243,0.000000,0.000000
1386876332,1,0,485.9,0,9,12,0,0,25,-0.0292,492.6925,6.8213,0.4212,54.882210,9.812333,108.3,5.845,1.85,335.95,54.883247,9.811243,0.000000,0.000000
1386876332,1,0,485.9,0,7,8,0,409,50,-0.0292,490.8258,6.8213,0.4212,54.882195,9.812357,108.3,5.845,1.85,335.95,54.883247,9.811243,0.000000,0.000000
1386876333,1,0,485.9,0,5,4,0,409,75,-0.0292,489.4925,6.8213,0.4212,54.882183,9.812381,108.3,5.845,1.85,335.95,54.883247,9.811243,0.000000,0.000000
1386876333,1,0,485.9,0,4,8,0,409,100,-0.0292,488.4258,6.8213,0.4212,54.882172,9.812406,108.3,5.845,1.85,335.95,54.883247,9.811243,0.000000,0.000000
1386876333,1,0,485.9,0,2,4,0,409,125,-0.0292,487.8925,6.8213,0.4212,54.882160,9.812430,108.3,5.845,1.85,335.95,54.883247,9.811243,0.000000,0.000000
1386876333,1,0,485.9,0,2,0,0,409,150,-0.0292,487.3592,6.8213,0.4212,54.882149,9.812455,108.3,5.845,1.85,335.95,54.883247,9.811243,0.000000,0.000000
1386876334,1,0,485.9,0,1,4,0,409,175,-0.0292,487.0925,6.8213,0.4212,54.882137,9.812480,108.3,5.845,1.85,335.95,54.883247,9.811243,0.000000,0.000000
1386876334,1,0,485.9,0,1,0,0,409,200,-0.0292,486.8258,6.8213,0.4212,54.882126,9.812505,108.3,5.845,1.85,335.95,54.883247,9.811243,0.000000,0.000000
1386876334,1,0,485.9,0,1,4,0,409,225,-0.0292,486.5592,6.8213,0.4212,54.882114,9.812530,108.3,5.845,1.85,335.95,54.883247,9.811243,0.000000,0.000000
1386876334,1,0,485.9,0,1,0,0,409,250,-0.0292,486.2925,6.8213,0.4212,54.882103,9.812554,108.3,5.845,1.85,335.95,54.883247,9.811243,0.000000,0.000000
1386876335,1,0,485.9,0,0,4,0,409,275,-0.0292,486.2925,6.8213,0.4212,54.882095,9.812580,108.3,5.845,1.85,335.95,54.883247,9.811243,0.000000,0.000000
1386876335,1,0,485.9,0,0,0,0,409,300,-0.0292,486.2925,6.8213,0.4212,54.882084,9.812605,108.3,5.845,1.85,335.95,54.883247,9.811243,0.000000,0.000000
1386876335,1,0,485.9,0,0,4,0,409,325,-0.0292,486.2925,6.8213,0.4212,54.882072,9.812631,108.3,5.845,1.85,335.95,54.883247,9.811243,0.000000,0.000000
1386876336,1,0,485.9,0,0,0,0,409,350,-0.0292,486.2925,6.8213,0.4212,54.882061,9.812655,108.3,5.845,1.85,335.95,54.883247,9.811243,0.000000,0.000000
1386876336,1,0,485.9,0,0,4,0,409,375,-0.0292,486.2925,6.8213,0.4212,54.882050,9.812680,108.3,5.845,1.85,335.95,54.883247,9.811243,0.000000,0.000000
1386876336,1,0,485.9,0,0,0,0,409,400,-0.0292,486.2925,6.8213,0.4212,54.882038,9.812706,108.3,5.845,1.85,335.95,54.883247,9.811243,0.000000,0.000000
1386876336,1,0,485.9,0,0,4,0,409,425,-0.0292,486.2925,6.8213,0.4212,54.882027,9.812731,108.3,5.845,1.85,335.95,54.883247,9.811243,0.000000,0.000000
1386876337,1,0,485.9,0,0,0,0,409,400,-0.0292,486.2925,6.8213,0.4212,54.882015,9.812757,108.3,5.845,1.85,335.95,54.883247,9.811243,0.000000,0.000000
1386876337,1,0,485.9,0,0,4,0,409,425,-0.0292,486.2925,6.8213,0.4212,54.882004,9.812781,108.3,5.845,1.85,335.95,54.883247,9.811243,0.000000,0.000000
1386876337,1,0,485.9,0,0,0,0,409,400,-0.0292,486.2925,6.8213,0.4212,54.881996,9.812806,108.3,5.845,1.85,335.95,54.883247,9.811243,0.000000,0.000000
1386876337,1,0,485.9,0,0,4,0,409,425,-0.0292,486.2925,6.8213,0.4212,54.881985,9.812832,108.3,5.845,1.85,335.95,54.883247,9.811243,0.000000,0.000000
1386876338,1,0,485.9,0,0,0,0,409,400,-0.0292,486.2925,6.8213,0.4212,54.881977,9.812857,108.3,5.845,1.85,335.95,54.883247,9.811243,0.000000,0.000000
1386876338,1,0,485.9,0,0,4,0,409,425,-0.0292,486.2925,6.8213,0.4212,54.881966,9.812882,108.3,5.845,1.85,335.95,54.883247,9.811243,0.000000,0.000000
1386876338,1,0,485.9,0,0,0,0,409,400,-0.0292,486.2925,6.8213,0.4212,54.881954,9.812907,108.3,5.845,1.85,335.95,54.883247,9.811243,0.000000,0.000000
1386876338,1,0,485.9,0,0,4,0,409,425,-0.0292,486.2925,6.8213,0.4212,54.881947,9.812933,108.3,5.845,1.85,335.95,54.883247,9.811243,0.000000,0.000000
1386876339,1,0,485.9,0,0,0,0,409,400,-0.0292,486.2925,6.8213,0.4212,54.881935,9.812958,108.3,5.845,1.85,335.95,54.883247,9.811243,0.000000,0.000000
1386876339,1,0,485.9,0,0,4,0,409,425,-0.0292,486.2925,6.8213,0.4212,54.881927,9.812983,108.3,5.845,1.85,335.95,54.883247,9.811243,0.000000,0.000000
1386876339,1,0,485.9,0,0,0,0,409,400,-0.0292,486.2925,6.8213,0.4212,54.881916,9.813008,108.3,5.845,1.85,335.95,54.883247,9.811243,0.000000,0.000000
1386876339,1,0,485.9,0,0,4,0,409,425,-0.0292,486.2925,6.8213,0.4212,54.881905,9.813033,108.3,5.845,1.85,335.95,54.883247,9.811243,0.000000,0.000000
1386876340,1,0,485.9,0,0,0,0,409,400,-0.0292,486.2925,6.8213,0.4212,54.881893,9.813059,108.3,5.845,1.85,335.95,54.883247,9.811243,0.000000,0.000000
1386876340,1,0,485.9,0,0,4,0,409,425,-0.0292,486.2925,6.8213,0.4212,54.881882,9.813084,108.3,5.845,1.85,335.95,54.883247,9.811243,0.000000,0.000000
1386876340,1,0,485.9,0,0,0,0,409,400,-0.0292,486.2925,6.8213,0.4212,54.881874,9.813108,108.3,5.845,1.85,335.95,54.883247,9.811243,0.000000,0.000000
1386876340,1,0,485.9,0,0,4,0,409,425,-0.0292,486.2925,6.8213,0.4212,54.881863,9.813134,108.3,5.845,1.85,335.95,54.883247,9.811243,0.000000,0.000000
1386876341,1,0,485.9,0,0,0,0,409,400,-0.0292,486.2925,6.8213,0.4212,54.881851,9.813159,108.3,5.845,1.85,335.95,54.883247,9.811243,0.000000,0.000000
1386876341,1,0,485.9,0,0,4,0,409,425,-0.0292,486.2925,6.8213,0.4212,54.881840,9.813185,108.3,5.845,1.85,335.95,54.883247,9.811243,0.000000,0.000000
1386876341,1,0,485.9,0,0,0,0,409,400,-0.0292,486.2925,6.8213,0.4212,54.881828,9.813210,108.3,5.845,1.85,335.95,54.883247,9.811243,0.000000,0.000000
1386876341,1,0,485.9,0,0,4,0,409,425,-0.0292,486.2925,6.8213,0.4212,54.881817,9.813234,108.3,5.845,1.85,335.95,54.883247,9.811243,0.000000,0.000000
1386876342,1,0,485.9,0,0,0,0,409,400,-0.0292,486.2925,6.8213,0.4212,54.881805,9.813260,108.3,5.845,1.85,335.95,54.883247,9.811243,0.000000,0.000000
1386876342,1,0,485.9,0,0,4,0,409,425,-0.0292,486.2925,6.8213,0.4212,54.881794,9.813285,108.3,5.845,1.85,335.95,54.883247,9.811243,0.000000,0.000000
1386876342,1,0,485.9,0,0,0,0,409,400,-0.0292,486.2925,6.8213,0.4212,54.881783,9.813311,108.3,5.845,1.85,335.95,54.883247,9.811243,0.000000,0.000000
1386876342,1,0,485.9,0,0,4,0,409,425,-0.0292,486.2925,6.8213,0.4212,54.881775,9.813335,108.3,5.845,1.85,335.95,54.883247,9.811243,0.000000,0.000000
1386876343,1,0,485.9,0,0,0,0,409,400,-0.0292,486.2925,6.8213,0.4212,54.881763,9.813361,108.3,5.845,1.85,335.95,54.883247,9.811243,0.000000,0.000000
1386876343,1,0,485.9,0,0,4,0,409,425,-0.0292,486.2925,6.8213,0.4212,54.881752,9.813386,108.3,5.845,1.85,335.95,54.883247,9.811243,0.000000,0.000000
1386876343,1,0,485.9,0,0,0,0,409,400,-0.0292,486.2925,6.8213,0.4212,54.881741,9.813411,108.3,5.845,1.85,335.95,54.883247,9.811243,0.000000,0.000000
1386876343,1,0,485.9,0,0,4,0,409,425,-0.0292,486.2925,6.8213,0.4212,54.881729,9.813437,108.3,5.845,1.85,335.95,54.883247,9.811243,0.000000,0.000000
1386876344,1,0,485.9,0,0,0,0,409,400,-0.0292,486.2925,6.8213,0.4212,54.881718,9.813461,108.3,5.845,1.85,335.95,54.883247,9.811243,0.000000,0.000000
1386876344,1,0,485.9,0,0,4,0,409,425,-0.0292,486.2925,6.8213,0.4212,54.881706,9.813487,108.3,5.845,1.85,335.95,54.883247,9.811243,0.000000,0.000000
1386876344,1,0,485.9,0,0,0,0,409,400,-0.0292,486.2925,6.8213,0.4212,54.881695,9.813512,108.3,5.845,1.85,335.95,54.883247,9.811243,0.000000,0.000000
1386876344,1,0,485.9,0,0,4,0,409,425,-0.0292,486.2925,6.8213,0.4212,54.881683,9.813537,108.3,5.845,1.85,335.95,54.883247,9.811243,0.000000,0.000000
1386876345,1,0,485.9,0,0,0,0,409,400,-0.0292,486.2925,6.8213,0.4212,54.881672,9.813562,108.3,5.845,1.85,335.95,54.883247,9.811243,0.000000,0.000000
1386876345,1,0,485.9,0,0,4,0,409,425,-0.0292,486.2925,6.8213,0.4212,54.881660,9.813587,108.3,5.845,1.85,335.95,54.883247,9.811243,0.000000,0.000000
1386876345,1,0,485.9,0,0,0,0,409,400,-0.0292,486.2925,6.8213,0.4212,54.881653,9.813613,108.3,5.845,1.85,335.95,54.883247,9.811243,0.000000,0.000000
1386876345,1,0,485.9,0,0,4,0,409,425,-0.0292,486.2925,6.8213,0.4212,54.881641,9.813638,108.3,5.845,1.85,335.95,54.883247,9.811243,0.000000,0.000000
1386876346,1,0,485.9,0,0,0,0,409,400,-0.0292,486.2925,6.8213,0.4212,54.881630,9.813663,108.3,5.845,1.85,335.95,54.883247,9.811243,0.000000,0.000000
1386876346,1,0,485.9,0,0,4,0,409,425,-0.0292,486.2925,6.8213,0.4212,54.881618,9.813688,108.3,5.845,1.85,335.95,54.883247,9.811243,0.000000,0.000000
1386876346,1,0,485.9,0,0,0,0,409,400,-0.0292,486.2925,6.8213,0.4212,54.881607,9.813713,108.3,5.845,1.85,335.95,54.883247,9.811243,0.000000,0.000000
1386876346,1,0,485.9,0,0,4,0,409,425,-0.0292,486.2925,6.8213,0.4212,54.881596,9.813739,108.3,5.845,1.85,335.95,54.883247,9.811243,0.000000,0.000000
1386876347,1,0,485.9,0,0,0,0,409,400,-0.0292,486.2925,6.8213,0.4212,54.881584,9.813764,108.3,5.845,1.85,335.95,54.883247,9.811243,0.000000,0.000000
1386876347,1,0,485.9,0,0,4,0,409,425,-0.0292,486.2925,6.8213,0.4212,54.881573,9.813789,108.3,5.845,1.85,335.95,54.883247,9.811243,0.000000,0.000000
1386876347,1,0,485.9,0,0,0,0,409,400,-0.0292,486.2925,6.8213,0.4212,54.881561,9.813814,108.3,5.845,1.85,335.95,54.883247,9.811243,0.000000,0.000000
1386876347,1,0,485.9,0,0,4,0,409,425,-0.0292,486.2925,6.8213,0.4212,54.881554,9.813839,108.3,5.845,1.85,335.95,54.883247,9.811243,0.000000,0.000000
1386876348,1,0,485.9,0,0,0,0,409,400,-0.0292,486.2925,6.8213,0.4212,54.881542,9.813865,108.3,5.845,1.85,335.95,54.883247,9.811243,0.000000,0.000000
1386876348,1,0,485.9,0,0,4,0,409,425,-0.0292,486.2925,6.8213,0.4212,54.881531,9.813890,108.3,5.845,1.85,335.95,54.883247,9.811243,0.000000,0.000000
1386876348,1,0,485.9,0,0,0,0,409,400,-0.0292,486.2925,6.8213,0.4212,54.881519,9.813915,108.3,5.845,1.85,335.95,54.883247,9.811243,0.000000,0.000000
1386876348,1,0,485.9,0,0,4,0,409,425,-0.0292,486.2925,6.8213,0.4212,54.881508,9.813940,108.3,5.845,1.85,335.95,54.883247,9.811243,0.000000,0.000000
1386876349,1,0,485.9,0,0,0,0,409,400,-0.0292,486.2925,6.8213,0.4212,54.881496,9.813965,108.3,5.845,1.85,335.95,54.883247,9.811243,0.000000,0.000000
1386876349,1,0,485.9,0,0,4,0,409,425,-0.0292,486.2925,6.8213,0.4212,54.881485,9.813991,108.3,5.845,1.85,335.95,54.883247,9.811243,0.000000,0.000000
1386876349,1,0,485.9,0,0,0,0,409,400,-0.0292,486.2925,6.8213,0.4212,54.881474,9.814015,108.3,5.845,1.85,335.95,54.883247,9.811243,0.000000,0.000000
1386876349,1,0,485.9,0,0,4,0,409,425,-0.0292,486.2925,6.8213,0.4212,54.881462,9.814041,108.3,5.845,1.85,335.95,54.883247,9.811243,0.000000,0.000000
1386876350,1,0,485.9,0,0,0,0,409,400,-0.0292,486.2925,6.8213,0.4212,54.881451,9.814066,108.3,5.845,1.85,335.95,54.883247,9.811243,0.000000,0.000000
1386876350,1,0,485.9,0,0,4,0,409,425,-0.0292,486.2925,6.8213,0.4212,54.881439,9.814091,108.3,5.845,1.85,335.95,54.883247,9.811243,0.000000,0.000000
1386876350,1,0,485.9,0,0,0,0,409,400,-0.0292,486.2925,6.8213,0.4212,54.881432,9.814116,108.3,5.845,1.85,335.95,54.883247,9.811243,0.000000,0.000000
1386876350,1,0,485.9,0,0,4,0,409,425,-0.0292,486.2925,6.8213,0.4212,54.881420,9.814140,108.3,5.845,1.85,335.95,54.883247,9.811243,0.000000,0.000000
1386876351,1,0,485.9,0,0,0,0,409,400,-0.0292,486.2925,6.8213,0.4212,54.881409,9.814166,108.3,5.845,1.85,335.95,54.883247,9.811243,0.000000,0.000000
1386876351,1,0,485.9,0,0,4,0,409,425,-0.0292,486.2925,6.8213,0.4212,54.881397,9.814191,108.3,5.845,1.85,335.95,54.883247,9.811243,0.000000,0.000000
1386876351,1,0,485.9,0,0,0,0,409,400,-0.0292,486.2925,6.8213,0.4212,54.881386,9.814217,108.3,5.845,1.85,335.95,54.883247,9.811243,0.000000,0.000000
1386876351,1,0,485.9,0,0,4,0,409,425,-0.0292,486.2925,6.8213,0.4212,54.881374,9.814241,108.3,5.845,1.85,335.95,54.883247,9.811243,0.000000,0.000000
1386876352,1,0,485.9,0,0,0,0,409,400,-0.0292,486.2925,6.8213,0.4212,54.881363,9.814266,108.3,5.845,1.85,335.95,54.883247,9.811243,0.000000,0.000000
1386876352,1,0,485.9,0,0,4,0,409,425,-0.0292,486.2925,6.8213,0.4212,54.881351,9.814292,108.3,5.845,1.85,335.95,54.883247,9.811243,0.000000,0.000000
1386876352,1,0,485.9,0,0,0,0,409,400,-0.0292,486.2925,6.8213,0.4212,54.881340,9.814317,108.3,5.845,1.85,335.95,54.883247,9.811243,0.000000,0.000000
1386876352,1,0,485.9,0,0,4,0,409,425,-0.0292,486.2925,6.8213,0.4212,54.881332,9.814342,108.3,5.845,1.85,335.95,54.883247,9.811243,0.000000,0.000000
1386876353,1,0,485.9,0,0,0,0,409,400,-0.0292,486.2925,6.8213,0.4212,54.881321,9.814367,108.3,5.845,1.85,335.95,54.883247,9.811243,0.000000,0.000000
1386876353,1,0,485.9,0,0,4,0,409,425,-0.0292,486.2925,6.8213,0.4212,54.881310,9.814392,108.3,5.845,1.85,335.95,54.883247,9.811243,0.000000,0.000000
1386876353,1,0,485.9,0,0,0,0,409,400,-0.0292,486.2925,6.8213,0.4212,54.881298,9.814418,108.3,5.845,1.85,335.95,54.883247,9.811243,0.000000,0.000000
1386876353,1,0,485.9,0,0,4,0,409,425,-0.0292,486.2925,6.8213,0.4212,54.881287,9.814443,108.3,5.845,1.85,335.95,54.883247,9.811243,0.000000,0.000000
1386876354,1,0,485.9,0,0,0,0,409,400,-0.0292,486.2925,6.8213,0.4212,54.881275,9.814468,108.3,5.845,1.85,335.95,54.883247,9.811243,0.000000,0.000000
1386876354,1,0,485.9,0,0,4,0,409,425,-0.0292,486.2925,6.8213,0.4212,54.881264,9.814493,108.3,5.845,1.85,335.95,54.883247,9.811243,0.000000,0.000000
1386876354,1,0,485.9,0,0,0,0,409,400,-0.0292,486.2925,6.8213,0.4212,54.881252,9.814519,108.3,5.845,1.85,335.95,54.883247,9.811243,0.000000,0.000000
1386876354,1,0,485.9,0,0,4,0,409,425,-0.0292,486.2925,6.8213,0.4212,54.881241,9.814544,108.3,5.845,1.85,335.95,54.883247,9.811243,0.000000,0.000000
1386876355,1,0,485.9,0,0,0,0,409,400,-0.0292,486.2925,6.8213,0.4212,54.881229,9.814569,108.3,5.845,1.85,335.95,54.883247,9.811243,0.000000,0.000000
1386876355,1,0,485.9,0,0,4,0,409,425,-0.0292,486.2925,6.8213,0.4212,54.881218,9.814594,108.3,5.845,1.85,335.95,54.883247,9.811243,0.000000,0.000000
1386876355,1,0,485.9,0,0,0,0,409,400,-0.0292,486.2925,6.8213,0.4212,54.881210,9.814619,108.3,5.845,1.85,335.95,54.883247,9.811243,0.000000,0.000000
1386876355,1,0,485.9,0,0,4,0,409,425,-0.0292,486.2925,6.8213,0.4212,54.881199,9.814645,108.3,5.845,1.85,335.95,54.883247,9.811243,0.000000,0.000000
1386876356,1,0,485.9,0,0,0,0,409,400,-0.0292,486.2925,6.8213,0.4212,54.881187,9.814670,108.3,5.845,1.85,335.95,54.883247,9.811243,0.000000,0.000000
1386876356,1,0,485.9,0,0,4,0,409,425,-0.0292,486.2925,6.8213,0.4212,54.881176,9.814694,108.3,5.845,1.85,335.95,54.883247,9.811243,0.000000,0.000000
1386876356,1,0,485.9,0,0,0,0,409,400,-0.0292,486.2925,6.8213,0.4212,54.881165,9.814720,108.3,5.845,1.85,335.95,54.883247,9.811243,0.000000,0.000000
1386876356,1,0,485.9,0,0,4,0,409,425,-0.0292,486.2925,6.8213,0.4212,54.881153,9.814745,108.3,5.845,1.85,335.95,54.883247,9.811243,0.000000,0.000000
1386876357,1,0,485.9,0,0,0,0,409,400,-0.0292,486.2925,6.8213,0.4212,54.881142,9.814771,108.3,5.845,1.85,335.95,54.883247,9.811243,0.000000,0.000000
1386876357,1,0,485.9,0,0,4,0,409,425,-0.0292,486.2925,6.8213,0.4212,54.881130,9.814795,108.3,5.845,1.85,335.95,54.883247,9.811243,0.000000,0.000000
1386876357,1,0,485.9,0,0,0,0,409,400,-0.0292,486.2925,6.8213,0.4212,54.881119,9.814820,108.3,5.845,1.85,335.95,54.883247,9.811243,0.000000,0.000000
1386876357,1,0,485.9,0,0,4,0,409,425,-0.0292,486.2925,6.8213,0.4212,54.881111,9.814846,108.3,5.845,1.85,335.95,54.883247,9.811243,0.000000,0.000000
1386876358,1,0,485.9,0,0,0,0,409,400,-0.0292,486.2925,6.8213,0.4212,54.881100,9.814871,108.3,5.845,1.85,335.95,54.883247,9.811243,0.000000,0.000000
1386876358,1,0,485.9,0,0,4,0,409,425,-0.0292,486.2925,6.8213,0.4212,54.881088,9.814897,108.3,5.845,1.85,335.95,54.883247,9.811243,0.000000,0.000000
1386876358,1,0,485.9,0,0,0,0,409,400,-0.0292,486.2925,6.8213,0.4212,54.881077,9.814921,108.3,5.845,1.85,335.95,54.883247,9.811243,0.000000,0.000000
1386876358,1,0,485.9,0,0,4,0,409,425,-0.0292,486.2925,6.8213,0.4212,54.881065,9.814947,108.3,5.845,1.85,335.95,54.883247,9.811243,0.000000,0.000000
1386876359,1,0,485.9,0,0,0,0,409,400,-0.0292,486.2925,6.8213,0.4212,54.881054,9.814972,108.3,5.845,1.85,335.95,54.883247,9.811243,0.000000,0.000000
1386876359,1,0,485.9,0,0,4,0,409,425,-0.0292,486.2925,6.8213,0.4212,54.881042,9.814997,108.3,5.845,1.85,335.95,54.883247,9.811243,0.000000,0.000000
1386876359,1,0,485.9,0,0,0,0,409,400,-0.0292,486.2925,6.8213,0.4212,54.881031,9.815022,108.3,5.845,1.85,335.95,54.883247,9.811243,0.000000,0.000000
1386876360,1,0,485.9,0,0,4,0,409,425,-0.0292,486.2925,6.8213,0.4212,54.881020,9.815047,108.3,5.845,1.85,335.95,54.883247,9.811243,0.000000,0.000000
1386876360,1,0,485.9,0,0,0,0,409,400,-0.0292,486.2925,6.8213,0.4212,54.881012,9.815073,108.3,5.845,1.85,335.95,54.883247,9.811243,0.000000,0.000000
1386876360,1,0,485.9,0,0,4,0,409,425,-0.0292,486.2925,6.8213,0.4212,54.881001,9.815098,108.3,5.845,1.85,335.95,54.883247,9.811243,0.000000,0.000000
1386876360,1,0,485.9,0,0,0,0,409,400,-0.0292,486.2925,6.8213,0.4212,54.880993,9.815123,108.3,5.845,1.85,335.95,54.883247,9.811243,0.000000,0.000000
1386876361,1,0,485.9,0,0,4,0,409,425,-0.0292,486.2925,6.8213,0.4212,54.880981,9.815148,108.3,5.845,1.85,335.95,54.883247,9.811243,0.000000,0.000000
1386876361,1,0,485.9,0,0,0,0,409,400,-0.0292,486.2925,6.8213,0.4212,54.880970,9.815173,108.3,5.845,1.85,335.95,54.883247,9.811243,0.000000,0.000000
1386876361,1,0,485.9,0,0,4,0,409,425,-0.0292,486.2925,6.8213,0.4212,54.880959,9.815199,108.3,5.845,1.85,335.95,54.883247,9.811243,0.000000,0.000000
1386876361,1,0,485.9,0,0,0,0,409,400,-0.0292,486.2925,6.8213,0.4212,54.880947,9.815224,108.3,5.845,1.85,335.95,54.883247,9.811243,0.000000,0.000000
1386876362,1,0,485.9,0,0,4,0,409,425,-0.0292,486.2925,6.8213,0.4212,54.880939,9.815248,108.3,5.845,1.85,335.95,54.883247,9.811243,0.000000,0.000000
1386876362,1,0,485.9,0,0,0,0,409,400,-0.0292,486.2925,6.8213,0.4212,54.880928,9.815273,108.3,5.845,1.85,335.95,54.883247,9.811243,0.000000,0.000000
1386876362,1,0,485.9,0,0,4,0,409,425,-0.0292,486.2925,6.8213,0.4212,54.880917,9.815298,108.3,5.845,1.85,335.95,54.883247,9.811243,0.000000,0.000000
1386876362,1,0,485.9,0,0,0,0,409,400,-0.0292,486.2925,6.8213,0.4212,54.880905,9.815324,108.3,5.845,1.85,335.95,54.883247,9.811243,0.000000,0.000000
1386876363,1,0,485.9,0,0,4,0,409,425,-0.0292,486.2925,6.8213,0.4212,54.880894,9.815349,108.3,5.845,1.85,335.95,54.883247,9.811243,0.000000,0.000000
1386876363,1,0,485.9,0,0,0,0,409,400,-0.0292,486.2925,6.8213,0.4212,54.880882,9.815374,108.3,5.845,1.85,335.95,54.883247,9.811243,0.000000,0.000000
1386876363,1,0,485.9,0,0,4,0,409,425,-0.0292,486.2925,6.8213,0.4212,54.880871,9.815399,108.3,5.845,1.85,335.95,54.883247,9.811243,0.000000,0.000000
1386876363,1,0,485.9,0,0,0,0,409,400,-0.0292,486.2925,6.8213,0.4212,54.880859,9.815424,108.3,5.845,1.85,335.95,54.883247,9.811243,0.000000,0.000000
1386876364,1,0,485.9,0,0,4,0,409,425,-0.0292,486.2925,6.8213,0.4212,54.880848,9.815450,108.3,5.845,1.85,335.95,54.883247,9.811243,0.000000,0.000000
1386876364,1,0,485.9,0,0,0,0,409,400,-0.0292,486.2925,6.8213,0.4212,54.880840,9.815475,108.3,5.845,1.85,335.95,54.883247,9.811243,0.000000,0.000000
1386876364,1,0,485.9,0,0,4,0,409,425,-0.0292,486.2925,6.8213,0.4212,54.880829,9.815500,108.3,5.845,1.85,335.95,54.883247,9.811243,0.000000,0.000000
1386876364,1,0,485.9,0,0,0,0,409,400,-0.0292,486.2925,6.8213,0.4212,54.880817,9.815525,108.3,5.845,1.85,335.95,54.883247,9.811243,0.000000,0.000000
1386876365,1,0,485.9,0,0,4,0,409,425,-0.0292,486.2925,6.8213,0.4212,54.880806,9.815550,108.3,5.845,1.85,335.95,54.883247,9.811243,0.000000,0.000000
1386876365,1,0,485.9,0,0,0,0,409,400,-0.0292,486.2925,6.8213,0.4212,54.880795,9.815576,108.3,5.845,1.85,335.95,54.883247,9.811243,0.000000,0.000000
1386876365,1,0,485.9,0,0,4,0,409,425,-0.0292,486.2925,6.8213,0.4212,54.880783,9.815600,108.3,5.845,1.85,335.95,54.883247,9.811243,0.000000,0.000000
1386876365,1,0,485.9,0,0,0,0,409,400,-0.0292,486.2925,6.8213,0.4212,54.880772,9.815626,108.3,5.845,1.85,335.95,54.883247,9.811243,0.000000,0.000000
1386876366,1,0,485.9,0,0,4,0,409,425,-0.0292,486.2925,6.8213,0.4212,54.880760,9.815651,108.3,5.845,1.85,335.95,54.883247,9.811243,0.000000,0.000000
1386876366,1,0,485.9,0,0,0,0,409,400,-0.0292,486.2925,6.8213,0.4212,54.880749,9.815676,108.3,5.845,1.85,335.95,54.883247,9.811243,0.000000,0.000000
1386876366,1,0,485.9,0,0,4,0,409,425,-0.0292,486.2925,6.8213,0.4212,54.880737,9.815701,108.3,5.845,1.85,335.95,54.883247,9.811243,0.000000,0.000000
1386876366,1,0,485.9,0,0,0,0,409,400,-0.0292,486.2925,6.8213,0.4212,54.880726,9.815725,108.3,5.845,1.85,335.95,54.883247,9.811243,0.000000,0.000000
1386876367,1,0,485.9,0,0,4,0,409,425,-0.0292,486.2925,6.8213,0.4212,54.880718,9.815751,108.3,5.845,1.85,335.95,54.883247,9.811243,0.000000,0.000000
1386876367,1,0,485.9,0,0,0,0,409,400,-0.0292,486.2925,6.8213,0.4212,54.880707,9.815776,108.3,5.845,1.85,335.95,54.883247,9.811243,0.000000,0.000000
1386876367,1,0,485.9,0,0,4,0,409,425,-0.0292,486.2925,6.8213,0.4212,54.880695,9.815802,108.3,5.845,1.85,335.95,54.883247,9.811243,0.000000,0.000000
1386876367,1,0,485.9,0,0,0,0,409,400,-0.0292,486.2925,6.8213,0.4212,54.880684,9.815826,108.3,5.845,1.85,335.95,54.883247,9.811243,0.000000,0.000000
1386876368,1,0,485.9,0,0,4,0,409,425,-0.0292,486.2925,6.8213,0.4212,54.880672,9.815851,108.3,5.845,1.85,335.95,54.883247,9.811243,0.000000,0.000000
1386876368,1,0,485.9,0,0,0,0,409,400,-0.0292,486.2925,6.8213,0.4212,54.880661,9.815877,108.3,5.845,1.85,335.95,54.883247,9.811243,0.000000,0.000000
1386876368,1,0,485.9,0,0,4,0,409,425,-0.0292,486.2925,6.8213,0.4212,54.880650,9.815902,108.3,5.845,1.85,335.95,54.883247,9.811243,0.000000,0.000000
1386876368,1,0,485.9,0,0,0,0,409,400,-0.0292,486.2925,6.8213,0.4212,54.880638,9.815928,108.3,5.845,1.85,335.95,54.883247,9.811243,0.000000,0.000000
1386876369,1,0,485.9,0,0,4,0,409,425,-0.0292,486.2925,6.8213,0.4212,54.880627,9.815952,108.3,5.845,1.85,335.95,54.883247,9.811243,0.000000,0.000000
1386876369,1,0,485.9,0,0,0,0,409,400,-0.0292,486.2925,6.8213,0.4212,54.880619,9.815977,108.3,5.845,1.85,335.95,54.883247,9.811243,0.000000,0.000000
1386876369,1,0,485.9,0,0,4,0,409,425,-0.0292,486.2925,6.8213,0.4212,54.880608,9.816002,108.3,5.845,1.85,335.95,54.883247,9.811243,0.000000,0.000000
1386876369,1,0,485.9,0,0,0,0,409,400,-0.0292,486.2925,6.8213,0.4212,54.880596,9.816027,108.3,5.845,1.85,335.95,54.883247,9.811243,0.000000,0.000000
1386876370,1,0,485.9,0,0,4,0,409,425,-0.0292,486.2925,6.8213,0.4212,54.880585,9.816052,108.3,5.845,1.85,335.95,54.883247,9.811243,0.000000,0.000000
1386876370,1,0,485.9,0,0,0,0,409,400,-0.0292,486.2925,6.8213,0.4212,54.880573,9.816077,108.3,5.845,1.85,335.95,54.883247,9.811243,0.000000,0.000000
1386876370,1,0,485.9,0,0,4,0,409,425,-0.0292,486.2925,6.8213,0.4212,54.880562,9.816103,108.3,5.845,1.85,335.95,54.883247,9.811243,0.000000,0.000000
1386876370,1,0,485.9,0,0,0,0,409,400,-0.0292,486.2925,6.8213,0.4212,54.880550,9.816128,108.3,5.845,1.85,335.95,54.883247,9.811243,0.000000,0.000000
1386876371,1,0,485.9,0,0,4,0,409,425,-0.0292,486.2925,6.8213,0.4212,54.880539,9.816153,108.3,5.845,1.85,335.95,54.883247,9.811243,0.000000,0.000000
1386876371,1,0,485.9,0,0,0,0,409,400,-0.0292,486.2925,6.8213,0.4212,54.880527,9.816178,108.3,5.845,1.85,335.95,54.883247,9.811243,0.000000,0.000000
1386876371,1,0,485.9,0,0,4,0,409,425,-0.0292,486.2925,6.8213,0.4212,54.880516,9.816203,108.3,5.845,1.85,335.95,54.883247,9.811243,0.000000,0.000000
1386876371,1,0,485.9,0,0,0,0,409,400,-0.0292,486.2925,6.8213,0.4212,54.880505,9.816229,108.3,5.845,1.85,335.95,54.883247,9.811243,0.000000,0.000000
1386876372,1,0,485.9,0,0,4,0,409,425,-0.0292,486.2925,6.8213,0.4212,54.880497,9.816254,108.3,5.845,1.85,335.95,54.883247,9.811243,0.000000,0.000000
1386876372,1,0,485.9,0,0,0,0,409,400,-0.0292,486.2925,6.8213,0.4212,54.880486,9.816278,108.3,5.845,1.85,335.95,54.883247,9.811243,0.000000,0.000000
1386876372,1,0,485.9,0,0,4,0,409,425,-0.0292,486.2925,6.8213,0.4212,54.880474,9.816304,108.3,5.845,1.85,335.95,54.883247,9.811243,0.000000,0.000000
1386876372,1,0,485.9,0,0,0,0,409,400,-0.0292,486.2925,6.8213,0.4212,54.880463,9.816329,108.3,5.845,1.85,335.95,54.883247,9.811243,0.000000,0.000000
1386876373,1,0,485.9,0,0,4,0,409,425,-0.0292,486.2925,6.8213,0.4212,54.880451,9.816355,108.3,5.845,1.85,335.95,54.883247,9.811243,0.000000,0.000000
1386876373,1,0,485.9,0,0,0,0,409,400,-0.0292,486.2925,6.8213,0.4212,54.880440,9.816380,108.3,5.845,1.85,335.95,54.883247,9.811243,0.000000,0.000000
1386876373,1,0,485.9,0,0,4,0,409,425,-0.0292,486.2925,6.8213,0.4212,54.880428,9.816404,108.3,5.845,1.85,335.95,54.883247,9.811243,0.000000,0.000000
1386876373,1,0,485.9,0,0,0,0,409,400,-0.0292,486.2925,6.8213,0.4212,54.880417,9.816429,108.3,5.845,1.85,335.95,54.883247,9.811243,0.000000,0.000000
1386876374,1,0,485.9,0,0,4,0,409,425,-0.0292,486.2925,6.8213,0.4212,54.880405,9.816454,108.3,5.845,1.85,335.95,54.883247,9.811243,0.000000,0.000000
1386876374,1,0,485.9,0,0,0,0,409,400,-0.0292,486.2925,6.8213,0.4212,54.880398,9.816480,108.3,5.845,1.85,335.95,54.883247,9.811243,0.000000,0.000000
1386876374,1,0,485.9,0,0,4,0,409,425,-0.0292,486.2925,6.8213,0.4212,54.880386,9.816504,108.3,5.845,1.85,335.95,54.883247,9.811243,0.000000,0.000000
1386876374,1,0,485.9,0,0,0,0,409,400,-0.0292,486.2925,6.8213,0.4212,54.880375,9.816530,108.3,5.845,1.85,335.95,54.883247,9.811243,0.000000,0.000000
1386876375,1,0,485.9,0,0,4,0,409,425,-0.0292,486.2925,6.8213,0.4212,54.880363,9.816555,108.3,5.845,1.85,335.95,54.883247,9.811243,0.000000,0.000000
1386876375,1,0,485.9,0,0,0,0,409,400,-0.0292,486.2925,6.8213,0.4212,54.880352,9.816580,108.3,5.845,1.85,335.95,54.883247,9.811243,0.000000,0.000000
1386876375,1,0,485.9,0,0,4,0,409,425,-0.0292,486.2925,6.8213,0.4212,54.880341,9.816606,108.3,5.845,1.85,335.95,54.883247,9.811243,0.000000,0.000000
1386876375,1,0,485.9,0,0,0,0,409,400,-0.0292,486.2925,6.8213,0.4212,54.880329,9.816630,108.3,5.845,1.85,335.95,54.883247,9.811243,0.000000,0.000000
1386876376,1,0,485.9,0,0,4,0,409,425,-0.0292,486.2925,6.8213,0.4212,54.880318,9.816656,108.3,5.845,1.85,335.95,54.883247,9.811243,0.000000,0.000000
1386876376,1,0,485.9,0,0,0,0,409,400,-0.0292,486.2925,6.8213,0.4212,54.880306,9.816681,108.3,5.845,1.85,335.95,54.883247,9.811243,0.000000,0.000000
1386876376,1,0,485.9,0,0,4,0,409,425,-0.0292,486.2925,6.8213,0.4212,54.880295,9.816706,108.3,5.845,1.85,335.95,54.883247,9.811243,0.000000,0.000000
1386876376,1,0,485.9,0,0,0,0,409,400,-0.0292,486.2925,6.8213,0.4212,54.880283,9.816730,108.3,5.845,1.85,335.95,54.883247,9.811243,0.000000,0.000000
1386876377,1,0,485.9,0,0,4,0,409,425,-0.0292,486.2925,6.8213,0.4212,54.880276,9.816755,108.3,5.845,1.85,335.95,54.883247,9.811243,0.000000,0.000000
1386876377,1,0,485.9,0,0,0,0,409,400,-0.0292,486.2925,6.8213,0.4212,54.880264,9.816781,108.3,5.845,1.85,335.95,54.883247,9.811243,0.000000,0.000000
1386876377,1,0,485.9,0,0,4,0,409,425,-0.0292,486.2925,6.8213,0.4212,54.880253,9.816806,108.3,5.845,1.85,335.95,54.883247,9.811243,0.000000,0.000000
1386876377,1,0,485.9,0,0,0,0,409,400,-0.0292,486.2925,6.8213,0.4212,54.880241,9.816832,108.3,5.845,1.85,335.95,54.883247,9.811243,0.000000,0.000000
1386876378,1,0,485.9,0,0,4,0,409,425,-0.0292,486.2925,6.8213,0.4212,54.880230,9.816856,108.3,5.845,1.85,335.95,54.883247,9.811243,0.000000,0.000000
1386876378,1,0,485.9,0,0,0,0,409,400,-0.0292,486.2925,6.8213,0.4212,54.880219,9.816881,108.3,5.845,1.85,335.95,54.883247,9.811243,0.000000,0.000000
1386876378,1,0,485.9,0,0,4,0,409,425,-0.0292,486.2925,6.8213,0.4212,54.880207,9.816907,108.3,5.845,1.85,335.95,54.883247,9.811243,0.000000,0.000000
1386876378,1,0,485.9,0,0,0,0,409,400,-0.0292,486.2925,6.8213,0.4212,54.880196,9.816932,108.3,5.845,1.85,335.95,54.883247,9.811243,0.000000,0.000000
1386876379,1,0,485.9,0,0,4,0,409,425,-0.0292,486.2925,6.8213,0.4212,54.880184,9.816957,108.3,5.845,1.85,335.95,54.883247,9.811243,0.000000,0.000000
1386876379,1,0,485.9,0,0,0,0,409,400,-0.0292,486.2925,6.8213,0.4212,54.880177,9.816982,108.3,5.845,1.85,335.95,54.883247,9.811243,0.000000,0.000000
1386876379,1,0,485.9,0,0,4,0,409,425,-0.0292,486.2925,6.8213,0.4212,54.880165,9.817007,108.3,5.845,1.85,335.95,54.883247,9.811243,0.000000,0.000000
1386876379,1,0,485.9,0,0,0,0,409,400,-0.0292,486.2925,6.8213,0.4212,54.880154,9.817033,108.3,5.845,1.85,335.95,54.883247,9.811243,0.000000,0.000000
1386876380,1,0,485.9,0,0,4,0,409,425,-0.0292,486.2925,6.8213,0.4212,54.880142,9.817058,108.3,5.845,1.85,335.95,54.883247,9.811243,0.000000,0.000000
1386876380,1,0,485.9,0,0,0,0,409,400,-0.0292,486.2925,6.8213,0.4212,54.880131,9.817083,108.3,5.845,1.85,335.95,54.883247,9.811243,0.000000,0.000000
1386876380,1,0,485.9,0,0,4,0,409,425,-0.0292,486.2925,6.8213,0.4212,54.880119,9.817108,108.3,5.845,1.85,335.95,54.883247,9.811243,0.000000,0.000000
1386876380,1,0,485.9,0,0,0,0,409,400,-0.0292,486.2925,6.8213,0.4212,54.880108,9.817134,108.3,5.845,1.85,335.95,54.883247,9.811243,0.000000,0.000000
1386876381,1,0,485.9,0,0,4,0,409,425,-0.0292,486.2925,6.8213,0.4212,54.880096,9.817159,108.3,5.845,1.85,335.95,54.883247,9.811243,0.000000,0.000000
1386876381,1,0,485.9,0,0,0,0,409,400,-0.0292,486.2925,6.8213,0.4212,54.880085,9.817183,108.3,5.845,1.85,335.95,54.883247,9.811243,0.000000,0.000000
1386876381,1,0,485.9,0,0,4,0,409,425,-0.0292,486.2925,6.8213,0.4212,54.880077,9.817209,108.3,5.845,1.85,335.95,54.883247,9.811243,0.000000,0.000000
1386876381,1,0,485.9,0,0,0,0,409,400,-0.0292,486.2925,6.8213,0.4212,54.880066,9.817234,108.3,5.845,1.85,335.95,54.883247,9.811243,0.000000,0.000000
1386876382,1,0,485.9,0,0,4,0,409,425,-0.0292,486.2925,6.8213,0.4212,54.880058,9.817260,108.3,5.845,1.85,335.95,54.883247,9.811243,0.000000,0.000000
1386876382,1,0,485.9,0,0,0,0,409,400,-0.0292,486.2925,6.8213,0.4212,54.880047,9.817285,108.3,5.845,1.85,335.95,54.883247,9.811243,0.000000,0.000000
1386876382,1,0,485.9,0,0,4,0,409,425,-0.0292,486.2925,6.8213,0.4212,54.880035,9.817309,108.3,5.845,1.85,335.95,54.883247,9.811243,0.000000,0.000000
1386876382,1,0,485.9,0,0,0,0,409,400,-0.0292,486.2925,6.8213,0.4212,54.880024,9.817335,108.3,5.845,1.85,335.95,54.883247,9.811243,0.000000,0.000000
1386876383,1,0,485.9,0,0,4,0,409,425,-0.0292,486.2925,6.8213,0.4212,54.880013,9.817360,108.3,5.845,1.85,335.95,54.883247,9.811243,0.000000,0.000000
1386876383,1,0,485.9,0,0,0,0,409,400,-0.0292,486.2925,6.8213,0.4212,54.880005,9.817386,108.3,5.845,1.85,335.95,54.883247,9.811243,0.000000,0.000000
1386876383,1,0,485.9,0,0,4,0,409,425,-0.0292,486.2925,6.8213,0.4212,54.879993,9.817410,108.3,5.845,1.85,335.95,54.883247,9.811243,0.000000,0.000000
1386876383,1,0,485.9,0,0,0,0,409,400,-0.0292,486.2925,6.8213,0.4212,54.879982,9.817435,108.3,5.845,1.85,335.95,54.883247,9.811243,0.000000,0.000000
1386876384,1,0,485.9,0,0,4,0,409,425,-0.0292,486.2925,6.8213,0.4212,54.879971,9.817461,108.3,5.845,1.85,335.95,54.883247,9.811243,0.000000,0.000000
1386876384,1,0,485.9,0,0,0,0,409,400,-0.0292,486.2925,6.8213,0.4212,54.879959,9.817486,108.3,5.845,1.85,335.95,54.883247,9.811243,0.000000,0.000000
1386876384,1,0,485.9,0,0,4,0,409,425,-0.0292,486.2925,6.8213,0.4212,54.879948,9.817512,108.3,5.845,1.85,335.95,54.883247,9.811243,0.000000,0.000000
1386876384,1,0,485.9,0,0,0,0,409,400,-0.0292,486.2925,6.8213,0.4212,54.879936,9.817536,108.3,5.845,1.85,335.95,54.883247,9.811243,0.000000,0.000000
1386876385,1,0,485.9,0,0,4,0,409,425,-0.0292,486.2925,6.8213,0.4212,54.879925,9.817562,108.3,5.845,1.85,335.95,54.883247,9.811243,0.000000,0.000000
1386876385,1,0,485.9,0,0,0,0,409,400,-0.0292,486.2925,6.8213,0.4212,54.879913,9.817587,108.3,5.845,1.85,335.95,54.883247,9.811243,0.000000,0.000000
1386876385,1,0,485.9,0,0,4,0,409,425,-0.0292,486.2925,6.8213,0.4212,54.879906,9.817612,108.3,5.845,1.85,335.95,54.883247,9.811243,0.000000,0.000000
1386876386,1,0,485.9,0,0,0,0,409,400,-0.0292,486.2925,6.8213,0.4212,54.879894,9.817637,108.3,5.845,1.85,335.95,54.883247,9.811243,0.000000,0.000000
1386876386,1,0,485.9,0,0,4,0,409,425,-0.0292,486.2925,6.8213,0.4212,54.879883,9.817662,108.3,5.845,1.85,335.95,54.883247,9.811243,0.000000,0.000000
1386876386,1,0,485.9,0,0,0,0,409,400,-0.0292,486.2925,6.8213,0.4212,54.879871,9.817688,108.3,5.845,1.85,335.95,54.883247,9.811243,0.000000,0.000000
1386876386,1,0,485.9,0,0,4,0,409,425,-0.0292,486.2925,6.8213,0.4212,54.879860,9.817713,108.3,5.845,1.85,335.95,54.883247,9.811243,0.000000,0.000000
1386876387,1,0,485.9,0,0,0,0,409,400,-0.0292,486.2925,6.8213,0.4212,54.879848,9.817738,108.3,5.845,1.85,335.95,54.883247,9.811243,0.000000,0.000000
1386876387,1,0,485.9,0,0,4,0,409,425,-0.0292,486.2925,6.8213,0.4212,54.879837,9.817763,108.3,5.845,1.85,335.95,54.883247,9.811243,0.000000,0.000000
1386876387,1,0,485.9,0,0,0,0,409,400,-0.0292,486.2925,6.8213,0.4212,54.879826,9.817788,108.3,5.845,1.85,335.95,54.883247,9.811243,0.000000,0.000000
1386876387,1,0,485.9,0,0,4,0,409,425,-0.0292,486.2925,6.8213,0.4212,54.879814,9.817814,108.3,5.845,1.85,335.95,54.883247,9.811243,0.000000,0.000000
1386876388,1,0,485.9,0,0,0,0,409,400,-0.0292,486.2925,6.8213,0.4212,54.879803,9.817839,108.3,5.845,1.85,335.95,54.883247,9.811243,0.000000,0.000000
1386876388,1,0,485.9,0,0,4,0,409,425,-0.0292,486.2925,6.8213,0.4212,54.879791,9.817863,108.3,5.845,1.85,335.95,54.883247,9.811243,0.000000,0.000000
1386876388,1,0,485.9,0,0,0,0,409,400,-0.0292,486.2925,6.8213,0.4212,54.879784,9.817889,108.3,5.845,1.85,335.95,54.883247,9.811243,0.000000,0.000000
1386876388,1,0,485.9,0,0,4,0,409,425,-0.0292,486.2925,6.8213,0.4212,54.879772,9.817914,108.3,5.845,1.85,335.95,54.883247,9.811243,0.000000,0.000000
1386876389,1,0,485.9,0,0,0,0,409,400,-0.0292,486.2925,6.8213,0.4212,54.879761,9.817940,108.3,5.845,1.85,335.95,54.883247,9.811243,0.000000,0.000000
1386876389,1,0,485.9,0,0,4,0,409,425,-0.0292,486.2925,6.8213,0.4212,54.879749,9.817965,108.3,5.845,1.85,335.95,54.883247,9.811243,0.000000,0.000000
1386876389,1,0,485.9,0,0,0,0,409,400,-0.0292,486.2925,6.8213,0.4212,54.879738,9.817990,108.3,5.845,1.85,335.95,54.883247,9.811243,0.000000,0.000000
1386876389,1,0,485.9,0,0,4,0,409,425,-0.0292,486.2925,6.8213,0.4212,54.879726,9.818015,108.3,5.845,1.85,335.95,54.883247,9.811243,0.000000,0.000000
