MCU_timestamp,Navigation_System,Manual_Control,Guidance_Heading,Manual_Ctrl_Rudder,Rudder_Desired_Angle,Rudder_Feedback,Manual_Ctrl_Sail,Sail_Desired_Pos,Sail_Feedback,Rate,Heading,Pitch,Roll,Latitude,Longitude,COG,SOG,Wind_Speed,Wind_Angle,Point_Start_Lat,Point_Start_Lon,Point_End_Lat,Point_End_Lon
1386865896,1,0,485.9,0,0,4,0,409,225,-0.0292,-234.5080,6.8213,0.4212,54.898727,9.794305,108.3,5.845,1.85,335.95,54.898739,9.794279,0.000000,0.000000
1386865896,1,0,485.9,0,0,0,0,409,250,-0.0292,-234.5080,6.8213,0.4212,54.898720,9.794330,108.3,5.845,1.85,335.95,54.898739,9.794279,0.000000,0.000000
1386865897,1,0,485.9,0,0,4,0,409,275,-0.0292,-234.5080,6.8213,0.4212,54.898708,9.794355,108.3,5.845,1.85,335.95,54.898739,9.794279,0.000000,0.000000
1386865897,1,0,485.9,0,0,0,0,409,300,-0.0292,-234.5080,6.8213,0.4212,54.898701,9.794380,108.3,5.845,1.85,335.95,54.898739,9.794279,0.000000,0.000000
1386865897,1,0,485.9,0,0,4,0,409,325,-0.0292,-234.5080,6.8213,0.4212,54.898689,9.794406,108.3,5.845,1.85,335.95,54.898739,9.794279,0.000000,0.000000
1386865897,1,0,485.9,0,0,0,0,409,350,-0.0292,-234.5080,6.8213,0.4212,54.898678,9.794432,108.3,5.845,1.85,335.95,54.898739,9.794279,0.000000,0.000000
1386865898,1,0,485.9,0,0,4,0,409,375,-0.0292,-234.5080,6.8213,0.4212,54.898670,9.794456,108.3,5.845,1.85,335.95,54.898739,9.794279,0.000000,0.000000
1386865898,1,0,485.9,0,0,0,0,409,400,-0.0292,-234.5080,6.8213,0.4212,54.898659,9.794482,108.3,5.845,1.85,335.95,54.898739,9.794279,0.000000,0.000000
1386865898,1,0,485.9,0,0,4,0,409,425,-0.0292,-234.5080,6.8213,0.4212,54.898651,9.794507,108.3,5.845,1.85,335.95,54.898739,9.794279,0.000000,0.000000
1386865898,1,0,485.9,0,0,0,0,409,400,-0.0292,-234.5080,6.8213,0.4212,54.898640,9.794533,108.3,5.845,1.85,335.95,54.898739,9.794279,0.000000,0.000000
1386865899,1,0,485.9,0,0,4,0,409,425,-0.0292,-234.5080,6.8213,0.4212,54.898628,9.794559,108.3,5.845,1.85,335.95,54.898739,9.794279,0.000000,0.000000
1386865899,1,0,485.9,0,0,0,0,409,400,-0.0292,-234.5080,6.8213,0.4212,54.898621,9.794584,108.3,5.845,1.85,335.95,54.898739,9.794279,0.000000,0.000000
1386865899,1,0,485.9,0,0,4,0,409,425,-0.0292,-234.5080,6.8213,0.4212,54.898609,9.794610,108.3,5.845,1.85,335.95,54.898739,9.794279,0.000000,0.000000
1386865899,1,0,485.9,0,0,0,0,409,400,-0.0292,-234.5080,6.8213,0.4212,54.898602,9.794635,108.3,5.845,1.85,335.95,54.898739,9.794279,0.000000,0.000000
1386865900,1,0,485.9,0,0,4,0,409,425,-0.0292,-234.5080,6.8213,0.4212,54.898590,9.794661,108.3,5.845,1.85,335.95,54.898739,9.794279,0.000000,0.000000
1386865900,1,0,485.9,0,0,0,0,409,400,-0.0292,-234.5080,6.8213,0.4212,54.898579,9.794685,108.3,5.845,1.85,335.95,54.898739,9.794279,0.000000,0.000000
1386865900,1,0,485.9,0,0,4,0,409,425,-0.0292,-234.5080,6.8213,0.4212,54.898567,9.794711,108.3,5.845,1.85,335.95,54.898739,9.794279,0.000000,0.000000
1386865900,1,0,485.9,0,0,0,0,409,400,-0.0292,-234.5080,6.8213,0.4212,54.898556,9.794737,108.3,5.845,1.85,335.95,54.898739,9.794279,0.000000,0.000000
1386865901,1,0,485.9,0,0,4,0,409,425,-0.0292,-234.5080,6.8213,0.4212,54.898548,9.794762,108.3,5.845,1.85,335.95,54.898739,9.794279,0.000000,0.000000
1386865901,1,0,485.9,0,0,0,0,409,400,-0.0292,-234.5080,6.8213,0.4212,54.898537,9.794787,108.3,5.845,1.85,335.95,54.898739,9.794279,0.000000,0.000000
1386865901,1,0,485.9,0,0,4,0,0,375,-0.0292,-234.5080,6.8213,0.4212,54.898525,9.794812,108.3,5.845,1.85,335.95,54.898739,9.794279,0.000000,0.000000
1386865902,1,0,485.9,0,0,0,0,0,350,-0.0292,-234.5080,6.8213,0.4212,54.898514,9.794838,108.3,5.845,1.85,335.95,54.898739,9.794279,0.000000,0.000000
1386865902,1,0,485.9,0,0,4,0,0,325,-0.0292,-234.5080,6.8213,0.4212,54.898502,9.794864,108.3,5.845,1.85,335.95,54.898739,9.794279,0.000000,0.000000
1386865902,1,0,485.9,0,0,0,0,0,300,-0.0292,-234.5080,6.8213,0.4212,54.898491,9.794888,108.3,5.845,1.85,335.95,54.898739,9.794279,0.000000,0.000000
1386865902,1,0,485.9,0,0,4,0,0,275,-0.0292,-234.5080,6.8213,0.4212,54.898479,9.794914,108.3,5.845,1.85,335.95,54.898739,9.794279,0.000000,0.000000
1386865903,1,0,485.9,0,0,0,0,0,250,-0.0292,-234.5080,6.8213,0.4212,54.898468,9.794939,108.3,5.845,1.85,335.95,54.898739,9.794279,0.000000,0.000000
1386865903,1,0,485.9,0,0,4,0,0,225,-0.0292,-234.5080,6.8213,0.4212,54.898457,9.794965,108.3,5.845,1.85,335.95,54.898739,9.794279,0.000000,0.000000
1386865903,1,0,485.9,0,0,0,0,0,200,-0.0292,-234.5080,6.8213,0.4212,54.898449,9.794991,108.3,5.845,1.85,335.95,54.898739,9.794279,0.000000,0.000000
1386865903,1,0,485.9,0,0,4,0,0,175,-0.0292,-234.5080,6.8213,0.4212,54.898438,9.795015,108.3,5.845,1.85,335.95,54.898739,9.794279,0.000000,0.000000
1386865904,1,0,485.9,0,0,0,0,0,150,-0.0292,-234.5080,6.8213,0.4212,54.898430,9.795041,108.3,5.845,1.85,335.95,54.898739,9.794279,0.000000,0.000000
1386865904,1,0,485.9,0,0,4,0,0,125,-0.0292,-234.5080,6.8213,0.4212,54.898418,9.795066,108.3,5.845,1.85,335.95,54.898739,9.794279,0.000000,0.000000
1386865904,1,0,485.9,0,0,0,0,0,100,-0.0292,-234.5080,6.8213,0.4212,54.898407,9.795092,108.3,5.845,1.85,335.95,54.898739,9.794279,0.000000,0.000000
1386865904,1,0,485.9,0,0,4,0,0,75,-0.0292,-234.5080,6.8213,0.4212,54.898399,9.795117,108.3,5.845,1.85,335.95,54.898739,9.794279,0.000000,0.000000
1386865905,1,0,485.9,0,0,0,0,0,50,-0.0292,-234.5080,6.8213,0.4212,54.898388,9.795143,108.3,5.845,1.85,335.95,54.898739,9.794279,0.000000,0.000000
1386865905,1,0,485.9,0,0,4,0,0,25,-0.0292,-234.5080,6.8213,0.4212,54.898380,9.795169,108.3,5.845,1.85,335.95,54.898739,9.794279,0.000000,0.000000
1386865905,1,0,485.9,0,0,0,0,0,0,-0.0292,-234.5080,6.8213,0.4212,54.898369,9.795194,108.3,5.845,1.85,335.95,54.898739,9.794279,0.000000,0.000000
