MCU_timestamp,Navigation_System,Manual_Control,Guidance_Heading,Manual_Ctrl_Rudder,Rudder_Desired_Angle,Rudder_Feedback,Manual_Ctrl_Sail,Sail_Desired_Pos,Sail_Feedback,Rate,Heading,Pitch,Roll,Latitude,Longitude,COG,SOG,Wind_Speed,Wind_Angle,Point_Start_Lat,Point_Start_Lon,Point_End_Lat,Point_End_Lon
1386956739,0,0,0.0,0,0,12,0,0,0,-0.0292,5106.8262,6.8213,0.4212,54.895313,9.797241,108.3,5.845,1.85,0.00,0.000000,0.000000,0.000000,0.000000
1386956739,0,0,0.0,0,0,12,0,0,0,-0.0292,5106.8262,6.8213,0.4212,54.895313,9.797241,108.3,5.845,1.85,0.00,0.000000,0.000000,0.000000,0.000000
1386956740,0,0,0.0,0,0,12,0,0,0,-0.0292,5106.8262,6.8213,0.4212,54.895313,9.797241,108.3,5.845,1.85,0.00,0.000000,0.000000,0.000000,0.000000
1386956740,0,0,0.0,0,0,12,0,0,0,-0.0292,5106.8262,6.8213,0.4212,54.895313,9.797241,108.3,5.845,1.85,0.00,0.000000,0.000000,0.000000,0.000000
1386956740,0,0,0.0,0,0,12,0,0,0,-0.0292,5106.8262,6.8213,0.4212,54.895313,9.797241,108.3,5.845,1.85,0.00,0.000000,0.000000,0.000000,0.000000
1386956740,0,0,0.0,0,0,12,0,0,0,-0.0292,5106.8262,6.8213,0.4212,54.895313,9.797241,108.3,5.845,1.85,0.00,0.000000,0.000000,0.000000,0.000000
1386956741,0,0,0.0,0,0,12,0,0,0,-0.0292,5106.8262,6.8213,0.4212,54.895313,9.797241,108.3,5.845,1.85,0.00,0.000000,0.000000,0.000000,0.000000
1386956741,0,0,0.0,0,0,12,0,0,0,-0.0292,5106.8262,6.8213,0.4212,54.895313,9.797241,108.3,5.845,1.85,0.00,0.000000,0.000000,0.000000,0.000000
1386956741,0,0,0.0,0,0,12,0,0,0,-0.0292,5106.8262,6.8213,0.4212,54.895313,9.797241,108.3,5.845,1.85,0.00,0.000000,0.000000,0.000000,0.000000
1386956741,0,0,0.0,0,0,12,0,0,0,-0.0292,5106.8262,6.8213,0.4212,54.895313,9.797241,108.3,5.845,1.85,0.00,0.000000,0.000000,0.000000,0.000000
1386956742,0,0,0.0,0,0,12,0,0,0,-0.0292,5106.8262,6.8213,0.4212,54.895313,9.797241,108.3,5.845,1.85,0.00,0.000000,0.000000,0.000000,0.000000
1386956742,0,0,0.0,0,0,12,0,0,0,-0.0292,5106.8262,6.8213,0.4212,54.895313,9.797241,108.3,5.845,1.85,0.00,0.000000,0.000000,0.000000,0.000000
1386956742,0,0,0.0,0,0,12,0,0,0,-0.0292,5106.8262,6.8213,0.4212,54.895313,9.797241,108.3,5.845,1.85,0.00,0.000000,0.000000,0.000000,0.000000
1386956742,0,0,0.0,0,0,12,0,0,0,-0.0292,5106.8262,6.8213,0.4212,54.895313,9.797241,108.3,5.845,1.85,0.00,0.000000,0.000000,0.000000,0.000000
1386956743,0,0,0.0,0,0,12,0,0,0,-0.0292,5106.8262,6.8213,0.4212,54.895313,9.797241,108.3,5.845,1.85,0.00,0.000000,0.000000,0.000000,0.000000
1386956743,0,0,0.0,0,0,12,0,0,0,-0.0292,5106.8262,6.8213,0.4212,54.895313,9.797241,108.3,5.845,1.85,0.00,0.000000,0.000000,0.000000,0.000000
1386956743,0,0,0.0,0,0,12,0,0,0,-0.0292,5106.8262,6.8213,0.4212,54.895313,9.797241,108.3,5.845,1.85,0.00,0.000000,0.000000,0.000000,0.000000
1386956743,0,0,0.0,0,0,12,0,0,0,-0.0292,5106.8262,6.8213,0.4212,54.895313,9.797241,108.3,5.845,1.85,0.00,0.000000,0.000000,0.000000,0.000000
1386956744,0,0,0.0,0,0,12,0,0,0,-0.0292,5106.8262,6.8213,0.4212,54.895313,9.797241,108.3,5.845,1.85,0.00,0.000000,0.000000,0.000000,0.000000
1386956744,4,0,0.0,0,0,12,0,0,0,-0.0292,5106.8262,6.8213,0.4212,54.895313,9.797241,108.3,5.845,1.85,0.00,0.000000,0.000000,0.000000,0.000000
1386956744,1,0,150.0,0,-35,8,0,67,100,-0.0292,5116.1597,6.8213,0.4212,54.895321,9.797272,108.3,5.845,1.85,0.00,54.895313,9.797241,54.895069,9.793790
1386956744,1,0,150.0,0,-35,4,0,186,150,-0.0292,5125.4932,6.8213,0.4212,54.895321,9.797302,108.3,5.845,1.85,0.00,54.895313,9.797241,54.895069,9.793790
1386956745,1,0,150.0,0,-35,0,0,327,200,-0.0292,5134.8267,6.8213,0.4212,54.895317,9.797334,108.3,5.845,1.85,0.00,54.895313,9.797241,54.895069,9.793790
1386956745,1,0,150.0,0,-35,-4,0,476,250,-0.0292,5144.1602,6.8213,0.4212,54.895309,9.797364,108.3,5.845,1.85,0.00,54.895313,9.797241,54.895069,9.793790
1386956745,1,0,150.0,0,-35,-8,0,623,300,-0.0292,5153.4937,6.8213,0.4212,54.895302,9.797393,108.3,5.845,1.85,0.00,54.895313,9.797241,54.895069,9.793790
1386956745,1,0,150.0,0,-35,-12,0,765,350,-0.0292,5162.8271,6.8213,0.4212,54.895290,9.797419,108.3,5.845,1.85,0.00,54.895313,9.797241,54.895069,9.793790
1386956746,1,0,150.0,0,-27,-16,0,870,400,-0.0292,5170.0273,6.8213,0.4212,54.895275,9.797442,108.3,5.845,1.85,0.00,54.895313,9.797241,54.895069,9.793790
1386956746,1,0,150.0,0,-20,-20,0,870,450,-0.0292,5175.3608,6.8213,0.4212,54.895260,9.797464,108.3,5.845,1.85,0.00,54.895313,9.797241,54.895069,9.793790
1386956746,1,0,150.0,0,-15,-16,0,713,500,-0.0292,5179.3608,6.8213,0.4212,54.895248,9.797485,108.3,5.845,1.85,0.00,54.895313,9.797241,54.895069,9.793790
1386956746,1,0,150.0,0,-11,-12,0,713,550,-0.0292,5182.2939,6.8213,0.4212,54.895233,9.797504,108.3,5.845,1.85,0.00,54.895313,9.797241,54.895069,9.793790
1386956747,1,0,150.0,0,-8,-8,0,713,600,-0.0292,5184.4272,6.8213,0.4212,54.895218,9.797523,108.3,5.845,1.85,0.00,54.895313,9.797241,54.895069,9.793790
1386956747,1,0,150.0,0,-6,-4,0,713,650,-0.0292,5186.0273,6.8213,0.4212,54.895203,9.797540,108.3,5.845,1.85,0.00,54.895313,9.797241,54.895069,9.793790
1386956747,1,0,150.0,0,-4,0,0,713,700,-0.0292,5187.0942,6.8213,0.4212,54.895187,9.797557,108.3,5.845,1.85,0.00,54.895313,9.797241,54.895069,9.793790
1386956747,1,0,150.0,0,-3,-4,0,0,650,-0.0292,5187.8940,6.8213,0.4212,54.895172,9.797574,108.3,5.845,1.85,0.00,54.895313,9.797241,54.895069,9.793790
1386956748,1,0,150.0,0,-2,0,0,0,600,-0.0292,5188.4272,6.8213,0.4212,54.895157,9.797590,108.3,5.845,1.85,0.00,54.895313,9.797241,54.895069,9.793790
1386956748,1,0,150.0,0,-2,-4,0,0,550,-0.0292,5188.9604,6.8213,0.4212,54.895142,9.797606,108.3,5.845,1.85,0.00,54.895313,9.797241,54.895069,9.793790
1386956748,1,0,150.0,0,-1,0,0,0,500,-0.0292,5189.2271,6.8213,0.4212,54.895126,9.797622,108.3,5.845,1.85,0.00,54.895313,9.797241,54.895069,9.793790
1386956748,1,0,150.0,0,-1,-4,0,0,450,-0.0292,5189.4937,6.8213,0.4212,54.895111,9.797638,108.3,5.845,1.85,0.00,54.895313,9.797241,54.895069,9.793790
1386956749,1,0,150.0,0,-1,0,0,0,400,-0.0292,5189.7603,6.8213,0.4212,54.895096,9.797654,108.3,5.845,1.85,0.00,54.895313,9.797241,54.895069,9.793790
1386956749,1,0,150.0,0,0,4,0,0,350,-0.0292,5189.7603,6.8213,0.4212,54.895077,9.797669,108.3,5.845,1.85,0.00,54.895313,9.797241,54.895069,9.793790
1386956749,1,0,150.0,0,0,0,0,0,300,-0.0292,5189.7603,6.8213,0.4212,54.895061,9.797686,108.3,5.845,1.85,0.00,54.895313,9.797241,54.895069,9.793790
1386956749,1,0,150.0,0,0,4,0,0,250,-0.0292,5189.7603,6.8213,0.4212,54.895046,9.797702,108.3,5.845,1.85,0.00,54.895313,9.797241,54.895069,9.793790
1386956750,1,0,150.0,0,0,0,0,0,200,-0.0292,5189.7603,6.8213,0.4212,54.895027,9.797717,108.3,5.845,1.85,0.00,54.895313,9.797241,54.895069,9.793790
1386956750,1,0,150.0,0,0,4,0,0,150,-0.0292,5189.7603,6.8213,0.4212,54.895012,9.797733,108.3,5.845,1.85,0.00,54.895313,9.797241,54.895069,9.793790
1386956750,1,0,150.0,0,0,0,0,0,100,-0.0292,5189.7603,6.8213,0.4212,54.894997,9.797749,108.3,5.845,1.85,0.00,54.895313,9.797241,54.895069,9.793790
1386956750,1,0,150.0,0,0,4,0,0,50,-0.0292,5189.7603,6.8213,0.4212,54.894978,9.797764,108.3,5.845,1.85,0.00,54.895313,9.797241,54.895069,9.793790
1386956751,1,0,150.0,0,0,0,0,0,0,-0.0292,5189.7603,6.8213,0.4212,54.894962,9.797780,108.3,5.845,1.85,0.00,54.895313,9.797241,54.895069,9.793790
1386956751,1,0,150.0,0,0,4,0,0,0,-0.0292,5189.7603,6.8213,0.4212,54.894947,9.797795,108.3,5.845,1.85,0.00,54.895313,9.797241,54.895069,9.793790
1386956751,1,0,210.0,0,-35,0,0,0,0,-0.0292,5199.0938,6.8213,0.4212,54.894928,9.797807,108.3,5.845,1.85,0.00,54.895313,9.797241,54.895069,9.793790
1386956751,1,0,210.0,0,-35,-4,0,0,0,-0.0292,5208.4272,6.8213,0.4212,54.894909,9.797813,108.3,5.845,1.85,0.00,54.895313,9.797241,54.895069,9.793790
1386956752,1,0,210.0,0,-35,-8,0,0,0,-0.0292,5217.7607,6.8213,0.4212,54.894890,9.797815,108.3,5.845,1.85,0.00,54.895313,9.797241,54.895069,9.793790
1386956752,1,0,210.0,0,-32,-12,0,0,0,-0.0292,5226.2939,6.8213,0.4212,54.894875,9.797812,108.3,5.845,1.85,0.00,54.895313,9.797241,54.895069,9.793790
1386956752,1,0,210.0,0,-24,-16,0,0,0,-0.0292,5232.6938,6.8213,0.4212,54.894855,9.797806,108.3,5.845,1.85,0.00,54.895313,9.797241,54.895069,9.793790
1386956752,1,0,210.0,0,-17,-20,0,0,0,-0.0292,5237.2271,6.8213,0.4212,54.894836,9.797797,108.3,5.845,1.85,0.00,54.895313,9.797241,54.895069,9.793790
1386956753,1,0,210.0,0,-13,-16,0,0,0,-0.0292,5240.6938,6.8213,0.4212,54.894821,9.797786,108.3,5.845,1.85,0.00,54.895313,9.797241,54.895069,9.793790
1386956753,1,0,210.0,0,-9,-12,0,0,0,-0.0292,5243.0938,6.8213,0.4212,54.894806,9.797773,108.3,5.845,1.85,0.00,54.895313,9.797241,54.895069,9.793790
1386956753,1,0,210.0,0,-7,-8,0,0,0,-0.0292,5244.9604,6.8213,0.4212,54.894787,9.797761,108.3,5.845,1.85,0.00,54.895313,9.797241,54.895069,9.793790
1386956753,1,0,210.0,0,-5,-4,0,0,0,-0.0292,5246.2939,6.8213,0.4212,54.894772,9.797748,108.3,5.845,1.85,0.00,54.895313,9.797241,54.895069,9.793790
1386956754,1,0,210.0,0,-4,0,0,0,0,-0.0292,5247.3608,6.8213,0.4212,54.894756,9.797733,108.3,5.845,1.85,0.00,54.895313,9.797241,54.895069,9.793790
1386956754,1,0,210.0,0,-3,-4,0,713,50,-0.0292,5248.1606,6.8213,0.4212,54.894741,9.797718,108.3,5.845,1.85,0.00,54.895313,9.797241,54.895069,9.793790
1386956754,1,0,210.0,0,-2,0,0,713,100,-0.0292,5248.6938,6.8213,0.4212,54.894726,9.797703,108.3,5.845,1.85,0.00,54.895313,9.797241,54.895069,9.793790
1386956754,1,0,210.0,0,-1,-4,0,713,150,-0.0292,5248.9604,6.8213,0.4212,54.894707,9.797688,108.3,5.845,1.85,0.00,54.895313,9.797241,54.895069,9.793790
1386956755,1,0,210.0,0,-1,0,0,713,200,-0.0292,5249.2271,6.8213,0.4212,54.894691,9.797672,108.3,5.845,1.85,0.00,54.895313,9.797241,54.895069,9.793790
1386956755,1,0,210.0,0,-1,-4,0,713,250,-0.0292,5249.4937,6.8213,0.4212,54.894676,9.797657,108.3,5.845,1.85,0.00,54.895313,9.797241,54.895069,9.793790
1386956755,1,0,210.0,0,-1,0,0,713,300,-0.0292,5249.7603,6.8213,0.4212,54.894657,9.797641,108.3,5.845,1.85,0.00,54.895313,9.797241,54.895069,9.793790
1386956755,1,0,210.0,0,0,4,0,713,350,-0.0292,5249.7603,6.8213,0.4212,54.894642,9.797626,108.3,5.845,1.85,0.00,54.895313,9.797241,54.895069,9.793790
1386956756,1,0,263.0,0,-35,0,0,713,400,-0.0292,5259.0938,6.8213,0.4212,54.894627,9.797606,108.3,5.845,1.85,0.00,54.895313,9.797241,54.895069,9.793790
1386956756,1,0,-78.7,0,-35,-4,0,713,450,-0.0292,5268.4272,6.8213,0.4212,54.894611,9.797582,108.3,5.845,1.85,0.00,54.895313,9.797241,54.895069,9.793790
1386956756,1,0,-78.2,0,-35,-8,0,870,500,-0.0292,5277.7607,6.8213,0.4212,54.894600,9.797555,108.3,5.845,1.85,0.00,54.895313,9.797241,54.895069,9.793790
1386956756,1,0,-77.8,0,-35,-12,0,870,550,-0.0292,5287.0942,6.8213,0.4212,54.894596,9.797526,108.3,5.845,1.85,0.00,54.895313,9.797241,54.895069,9.793790
1386956757,1,0,-77.7,0,-35,-16,0,756,600,-0.0292,5296.4277,6.8213,0.4212,54.894592,9.797496,108.3,5.845,1.85,0.00,54.895313,9.797241,54.895069,9.793790
1386956757,1,0,-77.5,0,-26,-20,0,614,650,-0.0292,5303.3608,6.8213,0.4212,54.894592,9.797464,108.3,5.845,1.85,0.00,54.895313,9.797241,54.895069,9.793790
1386956757,1,0,-77.4,0,-19,-16,0,505,600,-0.0292,5308.4277,6.8213,0.4212,54.894592,9.797434,108.3,5.845,1.85,0.00,54.895313,9.797241,54.895069,9.793790
1386956757,1,0,-77.3,0,-14,-12,0,424,550,-0.0292,5312.1611,6.8213,0.4212,54.894592,9.797402,108.3,5.845,1.85,0.00,54.895313,9.797241,54.895069,9.793790
1386956758,1,0,-77.1,0,-11,-8,0,364,500,-0.0292,5315.0942,6.8213,0.4212,54.894596,9.797371,108.3,5.845,1.85,0.00,54.895313,9.797241,54.895069,9.793790
1386956758,1,0,-77.1,0,-8,-4,0,318,450,-0.0292,5317.2275,6.8213,0.4212,54.894600,9.797340,108.3,5.845,1.85,0.00,54.895313,9.797241,54.895069,9.793790
1386956758,1,0,-77.1,0,-6,-8,0,285,400,-0.0292,5318.8276,6.8213,0.4212,54.894604,9.797310,108.3,5.845,1.85,0.00,54.895313,9.797241,54.895069,9.793790
1386956758,1,0,-77.1,0,-4,-4,0,260,350,-0.0292,5319.8945,6.8213,0.4212,54.894604,9.797278,108.3,5.845,1.85,0.00,54.895313,9.797241,54.895069,9.793790
1386956759,1,0,-77.0,0,-3,0,0,244,300,-0.0292,5320.6943,6.8213,0.4212,54.894604,9.797248,108.3,5.845,1.85,0.00,54.895313,9.797241,54.895069,9.793790
1386956759,1,0,-76.9,0,-2,-4,0,232,250,-0.0292,5321.2275,6.8213,0.4212,54.894604,9.797217,108.3,5.845,1.85,0.00,54.895313,9.797241,54.895069,9.793790
1386956759,1,0,-76.8,0,-2,0,0,224,200,-0.0292,5321.7607,6.8213,0.4212,54.894604,9.797187,108.3,5.845,1.85,0.00,54.895313,9.797241,54.895069,9.793790
1386956759,1,0,-76.7,0,-2,-4,0,216,250,-0.0292,5322.2939,6.8213,0.4212,54.894608,9.797156,108.3,5.845,1.85,0.00,54.895313,9.797241,54.895069,9.793790
1386956760,1,0,-76.7,0,-1,0,0,208,200,-0.0292,5322.5605,6.8213,0.4212,54.894611,9.797126,108.3,5.845,1.85,0.00,54.895313,9.797241,54.895069,9.793790
1386956760,1,0,-76.7,0,-1,-4,0,204,250,-0.0292,5322.8271,6.8213,0.4212,54.894615,9.797095,108.3,5.845,1.85,0.00,54.895313,9.797241,54.895069,9.793790
1386956760,1,0,-76.6,0,-1,0,0,200,200,-0.0292,5323.0938,6.8213,0.4212,54.894619,9.797065,108.3,5.845,1.85,0.00,54.895313,9.797241,54.895069,9.793790
1386956760,1,0,-76.6,0,0,4,0,196,150,-0.0292,5323.0938,6.8213,0.4212,54.894623,9.797034,108.3,5.845,1.85,0.00,54.895313,9.797241,54.895069,9.793790
1386956761,1,0,-76.6,0,0,0,0,196,200,-0.0292,5323.0938,6.8213,0.4212,54.894630,9.797004,108.3,5.845,1.85,0.00,54.895313,9.797241,54.895069,9.793790
1386956761,1,0,-76.7,0,0,4,0,196,150,-0.0292,5323.0938,6.8213,0.4212,54.894634,9.796973,108.3,5.845,1.85,0.00,54.895313,9.797241,54.895069,9.793790
1386956761,1,0,-76.7,0,0,0,0,196,200,-0.0292,5323.0938,6.8213,0.4212,54.894638,9.796943,108.3,5.845,1.85,0.00,54.895313,9.797241,54.895069,9.793790
1386956761,1,0,-76.7,0,0,4,0,196,150,-0.0292,5323.0938,6.8213,0.4212,54.894642,9.796912,108.3,5.845,1.85,0.00,54.895313,9.797241,54.895069,9.793790
1386956762,1,0,-76.7,0,0,0,0,196,200,-0.0292,5323.0938,6.8213,0.4212,54.894646,9.796882,108.3,5.845,1.85,0.00,54.895313,9.797241,54.895069,9.793790
1386956762,1,0,-76.7,0,0,4,0,196,150,-0.0292,5323.0938,6.8213,0.4212,54.894650,9.796851,108.3,5.845,1.85,0.00,54.895313,9.797241,54.895069,9.793790
1386956762,1,0,-76.7,0,0,0,0,196,200,-0.0292,5323.0938,6.8213,0.4212,54.894657,9.796821,108.3,5.845,1.85,0.00,54.895313,9.797241,54.895069,9.793790
1386956762,1,0,-76.8,0,0,4,0,196,150,-0.0292,5323.0938,6.8213,0.4212,54.894661,9.796790,108.3,5.845,1.85,0.00,54.895313,9.797241,54.895069,9.793790
1386956763,1,0,-76.8,0,0,0,0,196,200,-0.0292,5323.0938,6.8213,0.4212,54.894665,9.796760,108.3,5.845,1.85,0.00,54.895313,9.797241,54.895069,9.793790
1386956763,1,0,-76.8,0,0,4,0,196,150,-0.0292,5323.0938,6.8213,0.4212,54.894669,9.796729,108.3,5.845,1.85,0.00,54.895313,9.797241,54.895069,9.793790
1386956763,1,0,-76.7,0,0,0,0,196,200,-0.0292,5323.0938,6.8213,0.4212,54.894672,9.796699,108.3,5.845,1.85,0.00,54.895313,9.797241,54.895069,9.793790
1386956763,1,0,-76.7,0,0,4,0,196,150,-0.0292,5323.0938,6.8213,0.4212,54.894680,9.796669,108.3,5.845,1.85,0.00,54.895313,9.797241,54.895069,9.793790
1386956764,1,0,-76.9,0,0,0,0,196,200,-0.0292,5323.0938,6.8213,0.4212,54.894684,9.796638,108.3,5.845,1.85,0.00,54.895313,9.797241,54.895069,9.793790
1386956764,1,0,-76.8,0,0,4,0,196,150,-0.0292,5323.0938,6.8213,0.4212,54.894688,9.796608,108.3,5.845,1.85,0.00,54.895313,9.797241,54.895069,9.793790
1386956764,1,0,-76.8,0,0,0,0,196,200,-0.0292,5323.0938,6.8213,0.4212,54.894691,9.796577,108.3,5.845,1.85,0.00,54.895313,9.797241,54.895069,9.793790
1386956764,1,0,-76.8,0,0,4,0,196,150,-0.0292,5323.0938,6.8213,0.4212,54.894695,9.796547,108.3,5.845,1.85,0.00,54.895313,9.797241,54.895069,9.793790
1386956765,1,0,-76.8,0,0,0,0,196,200,-0.0292,5323.0938,6.8213,0.4212,54.894699,9.796516,108.3,5.845,1.85,0.00,54.895313,9.797241,54.895069,9.793790
1386956765,1,0,-76.8,0,0,4,0,196,150,-0.0292,5323.0938,6.8213,0.4212,54.894707,9.796486,108.3,5.845,1.85,0.00,54.895313,9.797241,54.895069,9.793790
1386956765,1,0,-76.9,0,0,0,0,196,200,-0.0292,5323.0938,6.8213,0.4212,54.894711,9.796456,108.3,5.845,1.85,0.00,54.895313,9.797241,54.895069,9.793790
1386956765,1,0,-76.9,0,0,4,0,196,150,-0.0292,5323.0938,6.8213,0.4212,54.894714,9.796426,108.3,5.845,1.85,0.00,54.895313,9.797241,54.895069,9.793790
1386956766,1,0,-76.9,0,0,0,0,196,200,-0.0292,5323.0938,6.8213,0.4212,54.894718,9.796395,108.3,5.845,1.85,0.00,54.895313,9.797241,54.895069,9.793790
1386956766,1,0,-76.9,0,0,4,0,196,150,-0.0292,5323.0938,6.8213,0.4212,54.894722,9.796365,108.3,5.845,1.85,0.00,54.895313,9.797241,54.895069,9.793790
1386956766,1,0,-76.9,0,0,0,0,196,200,-0.0292,5323.0938,6.8213,0.4212,54.894730,9.796334,108.3,5.845,1.85,0.00,54.895313,9.797241,54.895069,9.793790
1386956766,1,0,-77.0,0,0,4,0,196,150,-0.0292,5323.0938,6.8213,0.4212,54.894733,9.796304,108.3,5.845,1.85,0.00,54.895313,9.797241,54.895069,9.793790
1386956767,1,0,-77.0,0,0,0,0,196,200,-0.0292,5323.0938,6.8213,0.4212,54.894737,9.796273,108.3,5.845,1.85,0.00,54.895313,9.797241,54.895069,9.793790
1386956767,1,0,-77.0,0,0,4,0,196,150,-0.0292,5323.0938,6.8213,0.4212,54.894741,9.796244,108.3,5.845,1.85,0.00,54.895313,9.797241,54.895069,9.793790
1386956767,1,0,-77.0,0,0,0,0,196,200,-0.0292,5323.0938,6.8213,0.4212,54.894745,9.796213,108.3,5.845,1.85,0.00,54.895313,9.797241,54.895069,9.793790
1386956767,1,0,-77.0,0,0,4,0,196,150,-0.0292,5323.0938,6.8213,0.4212,54.894749,9.796183,108.3,5.845,1.85,0.00,54.895313,9.797241,54.895069,9.793790
1386956768,1,0,-77.0,0,0,0,0,196,200,-0.0292,5323.0938,6.8213,0.4212,54.894756,9.796152,108.3,5.845,1.85,0.00,54.895313,9.797241,54.895069,9.793790
1386956768,1,0,-77.1,0,0,4,0,196,150,-0.0292,5323.0938,6.8213,0.4212,54.894760,9.796122,108.3,5.845,1.85,0.00,54.895313,9.797241,54.895069,9.793790
1386956768,1,0,-77.1,0,0,0,0,196,200,-0.0292,5323.0938,6.8213,0.4212,54.894764,9.796091,108.3,5.845,1.85,0.00,54.895313,9.797241,54.895069,9.793790
1386956768,1,0,-77.1,0,0,4,0,196,150,-0.0292,5323.0938,6.8213,0.4212,54.894768,9.796061,108.3,5.845,1.85,0.00,54.895313,9.797241,54.895069,9.793790
1386956769,1,0,-77.1,0,0,0,0,196,200,-0.0292,5323.0938,6.8213,0.4212,54.894772,9.796030,108.3,5.845,1.85,0.00,54.895313,9.797241,54.895069,9.793790
1386956769,1,0,-77.1,0,0,4,0,196,150,-0.0292,5323.0938,6.8213,0.4212,54.894779,9.796000,108.3,5.845,1.85,0.00,54.895313,9.797241,54.895069,9.793790
1386956769,1,0,-77.2,0,0,0,0,196,200,-0.0292,5323.0938,6.8213,0.4212,54.894783,9.795969,108.3,5.845,1.85,0.00,54.895313,9.797241,54.895069,9.793790
1386956769,1,0,-77.2,0,0,4,0,196,150,-0.0292,5323.0938,6.8213,0.4212,54.894787,9.795938,108.3,5.845,1.85,0.00,54.895313,9.797241,54.895069,9.793790
1386956770,1,0,-77.2,0,0,0,0,196,200,-0.0292,5323.0938,6.8213,0.4212,54.894791,9.795908,108.3,5.845,1.85,0.00,54.895313,9.797241,54.895069,9.793790
1386956770,1,0,-77.2,0,0,4,0,196,150,-0.0292,5323.0938,6.8213,0.4212,54.894794,9.795877,108.3,5.845,1.85,0.00,54.895313,9.797241,54.895069,9.793790
1386956770,1,0,-77.2,0,0,0,0,196,200,-0.0292,5323.0938,6.8213,0.4212,54.894798,9.795847,108.3,5.845,1.85,0.00,54.895313,9.797241,54.895069,9.793790
1386956770,1,0,-77.2,0,0,4,0,196,150,-0.0292,5323.0938,6.8213,0.4212,54.894806,9.795816,108.3,5.845,1.85,0.00,54.895313,9.797241,54.895069,9.793790
1386956771,1,0,-77.3,0,0,0,0,196,200,-0.0292,5323.0938,6.8213,0.4212,54.894810,9.795786,108.3,5.845,1.85,0.00,54.895313,9.797241,54.895069,9.793790
1386956771,1,0,-77.3,0,0,4,0,196,150,-0.0292,5323.0938,6.8213,0.4212,54.894814,9.795755,108.3,5.845,1.85,0.00,54.895313,9.797241,54.895069,9.793790
1386956771,1,0,-77.3,0,0,0,0,196,200,-0.0292,5323.0938,6.8213,0.4212,54.894817,9.795726,108.3,5.845,1.85,0.00,54.895313,9.797241,54.895069,9.793790
1386956771,1,0,-77.3,0,0,4,0,196,150,-0.0292,5323.0938,6.8213,0.4212,54.894821,9.795695,108.3,5.845,1.85,0.00,54.895313,9.797241,54.895069,9.793790
1386956772,1,0,-77.3,0,0,0,0,196,200,-0.0292,5323.0938,6.8213,0.4212,54.894829,9.795665,108.3,5.845,1.85,0.00,54.895313,9.797241,54.895069,9.793790
1386956772,1,0,-77.5,0,1,4,0,196,150,-0.0292,5322.8271,6.8213,0.4212,54.894833,9.795634,108.3,5.845,1.85,0.00,54.895313,9.797241,54.895069,9.793790
1386956772,1,0,-77.5,0,0,0,0,200,200,-0.0292,5322.8271,6.8213,0.4212,54.894836,9.795604,108.3,5.845,1.85,0.00,54.895313,9.797241,54.895069,9.793790
1386956773,1,0,-77.5,0,0,4,0,200,200,-0.0292,5322.8271,6.8213,0.4212,54.894840,9.795573,108.3,5.845,1.85,0.00,54.895313,9.797241,54.895069,9.793790
1386956773,1,0,-77.5,0,0,0,0,200,200,-0.0292,5322.8271,6.8213,0.4212,54.894844,9.795543,108.3,5.845,1.85,0.00,54.895313,9.797241,54.895069,9.793790
1386956773,1,0,-77.5,0,0,4,0,200,200,-0.0292,5322.8271,6.8213,0.4212,54.894848,9.795513,108.3,5.845,1.85,0.00,54.895313,9.797241,54.895069,9.793790
1386956773,1,0,-77.5,0,0,0,0,200,200,-0.0292,5322.8271,6.8213,0.4212,54.894848,9.795483,108.3,5.845,1.85,0.00,54.895313,9.797241,54.895069,9.793790
1386956774,1,0,-77.3,0,0,4,0,200,200,-0.0292,5322.8271,6.8213,0.4212,54.894848,9.795452,108.3,5.845,1.85,0.00,54.895313,9.797241,54.895069,9.793790
1386956774,1,0,-77.0,0,0,0,0,200,200,-0.0292,5322.8271,6.8213,0.4212,54.894848,9.795422,108.3,5.845,1.85,0.00,54.895313,9.797241,54.895069,9.793790
1386956774,1,0,-76.8,0,0,4,0,200,200,-0.0292,5322.8271,6.8213,0.4212,54.894848,9.795391,108.3,5.845,1.85,0.00,54.895313,9.797241,54.895069,9.793790
1386956774,1,0,-76.6,0,-1,0,0,200,200,-0.0292,5323.0938,6.8213,0.4212,54.894848,9.795361,108.3,5.845,1.85,0.00,54.895313,9.797241,54.895069,9.793790
1386956775,1,0,-76.3,0,-1,-4,0,196,150,-0.0292,5323.3604,6.8213,0.4212,54.894852,9.795330,108.3,5.845,1.85,0.00,54.895313,9.797241,54.895069,9.793790
1386956775,1,0,-76.3,0,0,0,0,192,200,-0.0292,5323.3604,6.8213,0.4212,54.894855,9.795300,108.3,5.845,1.85,0.00,54.895313,9.797241,54.895069,9.793790
1386956775,1,0,-76.3,0,0,4,0,192,150,-0.0292,5323.3604,6.8213,0.4212,54.894859,9.795270,108.3,5.845,1.85,0.00,54.895313,9.797241,54.895069,9.793790
1386956775,1,0,-76.2,0,0,0,0,192,200,-0.0292,5323.3604,6.8213,0.4212,54.894863,9.795239,108.3,5.845,1.85,0.00,54.895313,9.797241,54.895069,9.793790
