MCU_timestamp,Navigation_System,Manual_Control,Guidance_Heading,Manual_Ctrl_Rudder,Rudder_Desired_Angle,Rudder_Feedback,Manual_Ctrl_Sail,Sail_Desired_Pos,Sail_Feedback,Rate,Heading,Pitch,Roll,Latitude,Longitude,COG,SOG,Wind_Speed,Wind_Angle,Point_Start_Lat,Point_Start_Lon,Point_End_Lat,Point_End_Lon
1386875547,0,0,0.0,0,0,4,0,0,0,-0.0292,549.2255,6.8213,0.4212,54.888668,9.805895,108.3,5.845,1.85,335.95,0.000000,0.000000,0.000000,0.000000
1386875548,0,0,0.0,0,0,4,0,0,0,-0.0292,549.2255,6.8213,0.4212,54.888668,9.805895,108.3,5.845,1.85,335.95,0.000000,0.000000,0.000000,0.000000
1386875548,0,0,0.0,0,0,4,0,0,0,-0.0292,549.2255,6.8213,0.4212,54.888668,9.805895,108.3,5.845,1.85,335.95,0.000000,0.000000,0.000000,0.000000
1386875548,0,0,0.0,0,0,4,0,0,0,-0.0292,549.2255,6.8213,0.4212,54.888668,9.805895,108.3,5.845,1.85,335.95,0.000000,0.000000,0.000000,0.000000
1386875548,0,0,0.0,0,0,4,0,0,0,-0.0292,549.2255,6.8213,0.4212,54.888668,9.805895,108.3,5.845,1.85,335.95,0.000000,0.000000,0.000000,0.000000
1386875549,0,0,0.0,0,0,4,0,0,0,-0.0292,549.2255,6.8213,0.4212,54.888668,9.805895,108.3,5.845,1.85,335.95,0.000000,0.000000,0.000000,0.000000
1386875549,0,0,0.0,0,0,4,0,0,0,-0.0292,549.2255,6.8213,0.4212,54.888668,9.805895,108.3,5.845,1.85,335.95,0.000000,0.000000,0.000000,0.000000
1386875549,0,0,0.0,0,0,4,0,0,0,-0.0292,549.2255,6.8213,0.4212,54.888668,9.805895,108.3,5.845,1.85,335.95,0.000000,0.000000,0.000000,0.000000
1386875549,0,0,0.0,0,0,4,0,0,0,-0.0292,549.2255,6.8213,0.4212,54.888668,9.805895,108.3,5.845,1.85,335.95,0.000000,0.000000,0.000000,0.000000
1386875550,0,0,0.0,0,0,4,0,0,0,-0.0292,549.2255,6.8213,0.4212,54.888668,9.805895,108.3,5.845,1.85,335.95,0.000000,0.000000,0.000000,0.000000
1386875550,0,0,0.0,0,0,4,0,0,0,-0.0292,549.2255,6.8213,0.4212,54.888668,9.805895,108.3,5.845,1.85,335.95,0.000000,0.000000,0.000000,0.000000
1386875550,0,0,0.0,0,0,4,0,0,0,-0.0292,549.2255,6.8213,0.4212,54.888668,9.805895,108.3,5.845,1.85,335.95,0.000000,0.000000,0.000000,0.000000
1386875550,0,0,0.0,0,0,4,0,0,0,-0.0292,549.2255,6.8213,0.4212,54.888668,9.805895,108.3,5.845,1.85,335.95,0.000000,0.000000,0.000000,0.000000
1386875551,0,0,0.0,0,0,4,0,0,0,-0.0292,549.2255,6.8213,0.4212,54.888668,9.805895,108.3,5.845,1.85,335.95,0.000000,0.000000,0.000000,0.000000
1386875551,0,0,0.0,0,0,4,0,0,0,-0.0292,549.2255,6.8213,0.4212,54.888668,9.805895,108.3,5.845,1.85,335.95,0.000000,0.000000,0.000000,0.000000
1386875551,0,0,0.0,0,0,4,0,0,0,-0.0292,549.2255,6.8213,0.4212,54.888668,9.805895,108.3,5.845,1.85,335.95,0.000000,0.000000,0.000000,0.000000
1386875551,0,0,0.0,0,0,4,0,0,0,-0.0292,549.2255,6.8213,0.4212,54.888668,9.805895,108.3,5.845,1.85,335.95,0.000000,0.000000,0.000000,0.000000
1386875552,0,0,0.0,0,0,4,0,0,0,-0.0292,549.2255,6.8213,0.4212,54.888668,9.805895,108.3,5.845,1.85,335.95,0.000000,0.000000,0.000000,0.000000
1386875552,0,0,0.0,0,0,4,0,0,0,-0.0292,549.2255,6.8213,0.4212,54.888668,9.805895,108.3,5.845,1.85,335.95,0.000000,0.000000,0.000000,0.000000
1386875552,0,0,0.0,0,0,4,0,0,0,-0.0292,549.2255,6.8213,0.4212,54.888668,9.805895,108.3,5.845,1.85,335.95,0.000000,0.000000,0.000000,0.000000
1386875552,4,0,0.0,0,0,4,0,0,0,-0.0292,549.2255,6.8213,0.4212,54.888668,9.805895,108.3,5.845,1.85,335.95,0.000000,0.000000,0.000000,0.000000
1386875553,1,0,485.9,0,35,8,0,409,250,-0.0292,539.8922,6.8213,0.4212,54.888653,9.805895,108.3,5.845,1.85,335.95,54.888668,9.805895,54.895069,9.793790
1386875553,1,0,485.9,0,35,12,0,409,275,-0.0292,530.5589,6.8213,0.4212,54.888634,9.805900,108.3,5.845,1.85,335.95,54.888668,9.805895,54.895069,9.793790
1386875553,1,0,485.9,0,35,16,0,409,300,-0.0292,521.2256,6.8213,0.4212,54.888615,9.805910,108.3,5.845,1.85,335.95,54.888668,9.805895,54.895069,9.793790
1386875553,1,0,485.9,0,35,20,0,0,275,-0.0292,511.8922,6.8213,0.4212,54.888599,9.805925,108.3,5.845,1.85,335.95,54.888668,9.805895,54.895069,9.793790
1386875554,1,0,485.9,0,26,24,0,0,250,-0.0292,504.9589,6.8213,0.4212,54.888588,9.805943,108.3,5.845,1.85,335.95,54.888668,9.805895,54.895069,9.793790
1386875554,1,0,485.9,0,19,20,0,409,275,-0.0292,499.8922,6.8213,0.4212,54.888573,9.805963,108.3,5.845,1.85,335.95,54.888668,9.805895,54.895069,9.793790
1386875554,1,0,485.9,0,14,16,0,409,300,-0.0292,496.1589,6.8213,0.4212,54.888561,9.805984,108.3,5.845,1.85,335.95,54.888668,9.805895,54.895069,9.793790
1386875554,1,0,485.9,0,10,12,0,409,325,-0.0292,493.4922,6.8213,0.4212,54.888550,9.806007,108.3,5.845,1.85,335.95,54.888668,9.805895,54.895069,9.793790
1386875555,1,0,485.9,0,8,8,0,409,350,-0.0292,491.3589,6.8213,0.4212,54.888538,9.806030,108.3,5.845,1.85,335.95,54.888668,9.805895,54.895069,9.793790
1386875555,1,0,485.9,0,5,4,0,409,375,-0.0292,490.0256,6.8213,0.4212,54.888527,9.806054,108.3,5.845,1.85,335.95,54.888668,9.805895,54.895069,9.793790
1386875555,1,0,485.9,0,4,8,0,409,400,-0.0292,488.9589,6.8213,0.4212,54.888512,9.806078,108.3,5.845,1.85,335.95,54.888668,9.805895,54.895069,9.793790
1386875555,1,0,485.9,0,3,4,0,409,425,-0.0292,488.1589,6.8213,0.4212,54.888500,9.806103,108.3,5.845,1.85,335.95,54.888668,9.805895,54.895069,9.793790
1386875556,1,0,485.9,0,2,0,0,409,400,-0.0292,487.6256,6.8213,0.4212,54.888493,9.806128,108.3,5.845,1.85,335.95,54.888668,9.805895,54.895069,9.793790
1386875556,1,0,485.9,0,2,4,0,409,425,-0.0292,487.0923,6.8213,0.4212,54.888481,9.806152,108.3,5.845,1.85,335.95,54.888668,9.805895,54.895069,9.793790
1386875556,1,0,485.9,0,1,0,0,409,400,-0.0292,486.8256,6.8213,0.4212,54.888470,9.806177,108.3,5.845,1.85,335.95,54.888668,9.805895,54.895069,9.793790
1386875556,1,0,485.9,0,1,4,0,409,425,-0.0292,486.5589,6.8213,0.4212,54.888458,9.806202,108.3,5.845,1.85,335.95,54.888668,9.805895,54.895069,9.793790
1386875557,1,0,485.9,0,1,0,0,409,400,-0.0292,486.2923,6.8213,0.4212,54.888447,9.806227,108.3,5.845,1.85,335.95,54.888668,9.805895,54.895069,9.793790
1386875557,1,0,485.9,0,0,4,0,409,425,-0.0292,486.2923,6.8213,0.4212,54.888435,9.806252,108.3,5.845,1.85,335.95,54.888668,9.805895,54.895069,9.793790
1386875557,1,0,485.9,0,0,0,0,409,400,-0.0292,486.2923,6.8213,0.4212,54.888424,9.806277,108.3,5.845,1.85,335.95,54.888668,9.805895,54.895069,9.793790
1386875557,1,0,485.9,0,0,4,0,409,425,-0.0292,486.2923,6.8213,0.4212,54.888416,9.806302,108.3,5.845,1.85,335.95,54.888668,9.805895,54.895069,9.793790
1386875558,1,0,485.9,0,0,0,0,0,400,-0.0292,486.2923,6.8213,0.4212,54.888405,9.806328,108.3,5.845,1.85,335.95,54.888668,9.805895,54.895069,9.793790
1386875558,1,0,485.9,0,0,4,0,0,375,-0.0292,486.2923,6.8213,0.4212,54.888393,9.806353,108.3,5.845,1.85,335.95,54.888668,9.805895,54.895069,9.793790
1386875558,1,0,485.9,0,0,0,0,0,350,-0.0292,486.2923,6.8213,0.4212,54.888382,9.806377,108.3,5.845,1.85,335.95,54.888668,9.805895,54.895069,9.793790
1386875558,0,0,485.9,0,0,0,0,0,350,-0.0292,486.2923,6.8213,0.4212,54.888382,9.806377,108.3,5.845,1.85,335.95,54.888668,9.805895,54.895069,9.793790
1386875559,0,0,485.9,0,0,0,0,0,350,-0.0292,486.2923,6.8213,0.4212,54.888382,9.806377,108.3,5.845,1.85,335.95,54.888668,9.805895,54.895069,9.793790
1386875559,0,0,485.9,0,0,0,0,0,350,-0.0292,486.2923,6.8213,0.4212,54.888382,9.806377,108.3,5.845,1.85,335.95,54.888668,9.805895,54.895069,9.793790
1386875559,4,0,485.9,0,0,0,0,0,350,-0.0292,486.2923,6.8213,0.4212,54.888382,9.806377,108.3,5.845,1.85,335.95,54.888668,9.805895,54.895069,9.793790
1386875559,1,0,485.9,0,0,4,0,0,325,-0.0292,486.2923,6.8213,0.4212,54.888371,9.806403,108.3,5.845,1.85,335.95,54.888382,9.806377,54.895069,9.793790
1386875560,1,0,485.9,0,0,0,0,0,300,-0.0292,486.2923,6.8213,0.4212,54.888359,9.806428,108.3,5.845,1.85,335.95,54.888382,9.806377,54.895069,9.793790
1386875560,1,0,485.9,0,0,4,0,0,275,-0.0292,486.2923,6.8213,0.4212,54.888348,9.806454,108.3,5.845,1.85,335.95,54.888382,9.806377,54.895069,9.793790
1386875560,1,0,485.9,0,0,0,0,0,250,-0.0292,486.2923,6.8213,0.4212,54.888336,9.806479,108.3,5.845,1.85,335.95,54.888382,9.806377,54.895069,9.793790
1386875560,1,0,485.9,0,0,4,0,0,225,-0.0292,486.2923,6.8213,0.4212,54.888325,9.806503,108.3,5.845,1.85,335.95,54.888382,9.806377,54.895069,9.793790
1386875561,1,0,485.9,0,0,0,0,0,200,-0.0292,486.2923,6.8213,0.4212,54.888317,9.806528,108.3,5.845,1.85,335.95,54.888382,9.806377,54.895069,9.793790
1386875561,1,0,485.9,0,0,4,0,0,175,-0.0292,486.2923,6.8213,0.4212,54.888306,9.806553,108.3,5.845,1.85,335.95,54.888382,9.806377,54.895069,9.793790
1386875561,1,0,485.9,0,0,0,0,0,150,-0.0292,486.2923,6.8213,0.4212,54.888294,9.806579,108.3,5.845,1.85,335.95,54.888382,9.806377,54.895069,9.793790
1386875561,1,0,485.9,0,0,4,0,0,125,-0.0292,486.2923,6.8213,0.4212,54.888283,9.806603,108.3,5.845,1.85,335.95,54.888382,9.806377,54.895069,9.793790
1386875562,1,0,485.9,0,0,0,0,0,100,-0.0292,486.2923,6.8213,0.4212,54.888271,9.806629,108.3,5.845,1.85,335.95,54.888382,9.806377,54.895069,9.793790
1386875562,1,0,485.9,0,0,4,0,0,75,-0.0292,486.2923,6.8213,0.4212,54.888260,9.806654,108.3,5.845,1.85,335.95,54.888382,9.806377,54.895069,9.793790
1386875562,1,0,485.9,0,0,0,0,0,50,-0.0292,486.2923,6.8213,0.4212,54.888248,9.806679,108.3,5.845,1.85,335.95,54.888382,9.806377,54.895069,9.793790
1386875562,1,0,485.9,0,0,4,0,0,25,-0.0292,486.2923,6.8213,0.4212,54.888237,9.806705,108.3,5.845,1.85,335.95,54.888382,9.806377,54.895069,9.793790
1386875563,1,0,485.9,0,0,0,0,0,0,-0.0292,486.2923,6.8213,0.4212,54.888226,9.806729,108.3,5.845,1.85,335.95,54.888382,9.806377,54.895069,9.793790
1386875563,1,0,485.9,0,0,4,0,0,25,-0.0292,486.2923,6.8213,0.4212,54.888214,9.806755,108.3,5.845,1.85,335.95,54.888382,9.806377,54.895069,9.793790
1386875563,1,0,545.9,0,-35,0,0,0,0,-0.0292,495.6256,6.8213,0.4212,54.888199,9.806777,108.3,5.845,1.85,335.95,54.888382,9.806377,54.895069,9.793790
1386875563,1,0,545.9,0,-35,-4,0,0,25,-0.0292,504.9590,6.8213,0.4212,54.888184,9.806795,108.3,5.845,1.85,335.95,54.888382,9.806377,54.895069,9.793790
1386875564,1,0,545.9,0,-35,-8,0,0,0,-0.0292,514.2923,6.8213,0.4212,54.888165,9.806808,108.3,5.845,1.85,335.95,54.888382,9.806377,54.895069,9.793790
1386875564,1,0,545.9,0,-32,-12,0,0,25,-0.0292,522.8256,6.8213,0.4212,54.888145,9.806818,108.3,5.845,1.85,335.95,54.888382,9.806377,54.895069,9.793790
1386875564,1,0,545.9,0,-23,-16,0,0,0,-0.0292,528.9590,6.8213,0.4212,54.888126,9.806825,108.3,5.845,1.85,335.95,54.888382,9.806377,54.895069,9.793790
1386875564,1,0,545.9,0,-17,-20,0,0,25,-0.0292,533.4923,6.8213,0.4212,54.888111,9.806828,108.3,5.845,1.85,335.95,54.888382,9.806377,54.895069,9.793790
1386875565,1,0,545.9,0,-12,-16,0,0,0,-0.0292,536.6923,6.8213,0.4212,54.888092,9.806829,108.3,5.845,1.85,335.95,54.888382,9.806377,54.895069,9.793790
1386875565,1,0,545.9,0,-9,-12,0,0,25,-0.0292,539.0923,6.8213,0.4212,54.888073,9.806829,108.3,5.845,1.85,335.95,54.888382,9.806377,54.895069,9.793790
1386875565,1,0,545.9,0,-7,-8,0,409,50,-0.0292,540.9590,6.8213,0.4212,54.888054,9.806828,108.3,5.845,1.85,335.95,54.888382,9.806377,54.895069,9.793790
1386875565,1,0,545.9,0,-5,-4,0,409,75,-0.0292,542.2923,6.8213,0.4212,54.888039,9.806827,108.3,5.845,1.85,335.95,54.888382,9.806377,54.895069,9.793790
1386875566,1,0,545.9,0,-4,0,0,409,100,-0.0292,543.3589,6.8213,0.4212,54.888020,9.806825,108.3,5.845,1.85,335.95,54.888382,9.806377,54.895069,9.793790
1386875566,1,0,545.9,0,-3,-4,0,409,125,-0.0292,544.1589,6.8213,0.4212,54.888000,9.806822,108.3,5.845,1.85,335.95,54.888382,9.806377,54.895069,9.793790
1386875566,1,0,545.9,0,-2,0,0,409,150,-0.0292,544.6923,6.8213,0.4212,54.887981,9.806819,108.3,5.845,1.85,335.95,54.888382,9.806377,54.895069,9.793790
1386875566,1,0,545.9,0,-1,-4,0,409,175,-0.0292,544.9589,6.8213,0.4212,54.887966,9.806817,108.3,5.845,1.85,335.95,54.888382,9.806377,54.895069,9.793790
1386875567,1,0,545.9,0,-1,0,0,409,200,-0.0292,545.2256,6.8213,0.4212,54.887947,9.806814,108.3,5.845,1.85,335.95,54.888382,9.806377,54.895069,9.793790
1386875567,1,0,545.9,0,-1,-4,0,409,225,-0.0292,545.4922,6.8213,0.4212,54.887928,9.806811,108.3,5.845,1.85,335.95,54.888382,9.806377,54.895069,9.793790
1386875567,1,0,545.9,0,0,0,0,409,250,-0.0292,545.4922,6.8213,0.4212,54.887909,9.806808,108.3,5.845,1.85,335.95,54.888382,9.806377,54.895069,9.793790
1386875567,1,0,545.9,0,0,4,0,409,275,-0.0292,545.4922,6.8213,0.4212,54.887894,9.806806,108.3,5.845,1.85,335.95,54.888382,9.806377,54.895069,9.793790
1386875568,1,0,545.9,0,0,0,0,409,300,-0.0292,545.4922,6.8213,0.4212,54.887875,9.806803,108.3,5.845,1.85,335.95,54.888382,9.806377,54.895069,9.793790
1386875568,1,0,545.9,0,0,4,0,409,325,-0.0292,545.4922,6.8213,0.4212,54.887856,9.806800,108.3,5.845,1.85,335.95,54.888382,9.806377,54.895069,9.793790
1386875568,1,0,545.9,0,0,0,0,409,350,-0.0292,545.4922,6.8213,0.4212,54.887840,9.806797,108.3,5.845,1.85,335.95,54.888382,9.806377,54.895069,9.793790
1386875568,1,0,545.9,0,0,4,0,409,375,-0.0292,545.4922,6.8213,0.4212,54.887821,9.806794,108.3,5.845,1.85,335.95,54.888382,9.806377,54.895069,9.793790
1386875569,1,0,545.9,0,0,0,0,409,400,-0.0292,545.4922,6.8213,0.4212,54.887802,9.806791,108.3,5.845,1.85,335.95,54.888382,9.806377,54.895069,9.793790
1386875569,1,0,545.9,0,0,4,0,409,425,-0.0292,545.4922,6.8213,0.4212,54.887783,9.806788,108.3,5.845,1.85,335.95,54.888382,9.806377,54.895069,9.793790
1386875569,1,0,545.9,0,0,0,0,409,400,-0.0292,545.4922,6.8213,0.4212,54.887768,9.806786,108.3,5.845,1.85,335.95,54.888382,9.806377,54.895069,9.793790
1386875569,1,0,545.9,0,0,4,0,409,425,-0.0292,545.4922,6.8213,0.4212,54.887749,9.806783,108.3,5.845,1.85,335.95,54.888382,9.806377,54.895069,9.793790
1386875570,1,0,545.9,0,0,0,0,409,400,-0.0292,545.4922,6.8213,0.4212,54.887730,9.806779,108.3,5.845,1.85,335.95,54.888382,9.806377,54.895069,9.793790
1386875570,1,0,545.9,0,0,4,0,409,425,-0.0292,545.4922,6.8213,0.4212,54.887711,9.806775,108.3,5.845,1.85,335.95,54.888382,9.806377,54.895069,9.793790
1386875570,1,0,545.9,0,0,0,0,409,400,-0.0292,545.4922,6.8213,0.4212,54.887695,9.806772,108.3,5.845,1.85,335.95,54.888382,9.806377,54.895069,9.793790
1386875570,1,0,545.9,0,0,4,0,409,425,-0.0292,545.4922,6.8213,0.4212,54.887676,9.806769,108.3,5.845,1.85,335.95,54.888382,9.806377,54.895069,9.793790
1386875571,1,0,545.9,0,0,0,0,409,400,-0.0292,545.4922,6.8213,0.4212,54.887657,9.806767,108.3,5.845,1.85,335.95,54.888382,9.806377,54.895069,9.793790
1386875571,1,0,545.9,0,0,4,0,409,425,-0.0292,545.4922,6.8213,0.4212,54.887638,9.806764,108.3,5.845,1.85,335.95,54.888382,9.806377,54.895069,9.793790
1386875571,1,0,545.9,0,0,0,0,409,400,-0.0292,545.4922,6.8213,0.4212,54.887623,9.806761,108.3,5.845,1.85,335.95,54.888382,9.806377,54.895069,9.793790
1386875571,1,0,545.9,0,0,4,0,409,425,-0.0292,545.4922,6.8213,0.4212,54.887604,9.806758,108.3,5.845,1.85,335.95,54.888382,9.806377,54.895069,9.793790
1386875572,1,0,545.9,0,0,0,0,409,400,-0.0292,545.4922,6.8213,0.4212,54.887585,9.806755,108.3,5.845,1.85,335.95,54.888382,9.806377,54.895069,9.793790
1386875572,1,0,545.9,0,0,4,0,409,425,-0.0292,545.4922,6.8213,0.4212,54.887569,9.806752,108.3,5.845,1.85,335.95,54.888382,9.806377,54.895069,9.793790
1386875572,1,0,545.9,0,0,0,0,409,400,-0.0292,545.4922,6.8213,0.4212,54.887550,9.806749,108.3,5.845,1.85,335.95,54.888382,9.806377,54.895069,9.793790
1386875572,1,0,545.9,0,0,4,0,409,425,-0.0292,545.4922,6.8213,0.4212,54.887531,9.806746,108.3,5.845,1.85,335.95,54.888382,9.806377,54.895069,9.793790
1386875573,1,0,545.9,0,0,0,0,409,400,-0.0292,545.4922,6.8213,0.4212,54.887512,9.806744,108.3,5.845,1.85,335.95,54.888382,9.806377,54.895069,9.793790
1386875573,1,0,545.9,0,0,4,0,409,425,-0.0292,545.4922,6.8213,0.4212,54.887497,9.806741,108.3,5.845,1.85,335.95,54.888382,9.806377,54.895069,9.793790
1386875573,1,0,545.9,0,0,0,0,409,400,-0.0292,545.4922,6.8213,0.4212,54.887478,9.806738,108.3,5.845,1.85,335.95,54.888382,9.806377,54.895069,9.793790
1386875573,1,0,545.9,0,0,4,0,409,425,-0.0292,545.4922,6.8213,0.4212,54.887459,9.806734,108.3,5.845,1.85,335.95,54.888382,9.806377,54.895069,9.793790
1386875574,1,0,545.9,0,0,0,0,409,400,-0.0292,545.4922,6.8213,0.4212,54.887440,9.806731,108.3,5.845,1.85,335.95,54.888382,9.806377,54.895069,9.793790
1386875574,1,0,545.9,0,0,4,0,409,425,-0.0292,545.4922,6.8213,0.4212,54.887424,9.806728,108.3,5.845,1.85,335.95,54.888382,9.806377,54.895069,9.793790
1386875574,1,0,545.9,0,0,0,0,409,400,-0.0292,545.4922,6.8213,0.4212,54.887405,9.806726,108.3,5.845,1.85,335.95,54.888382,9.806377,54.895069,9.793790
1386875574,1,0,545.9,0,0,4,0,409,425,-0.0292,545.4922,6.8213,0.4212,54.887386,9.806723,108.3,5.845,1.85,335.95,54.888382,9.806377,54.895069,9.793790
1386875575,1,0,545.9,0,0,0,0,409,400,-0.0292,545.4922,6.8213,0.4212,54.887367,9.806720,108.3,5.845,1.85,335.95,54.888382,9.806377,54.895069,9.793790
1386875575,1,0,545.9,0,0,4,0,409,425,-0.0292,545.4922,6.8213,0.4212,54.887352,9.806717,108.3,5.845,1.85,335.95,54.888382,9.806377,54.895069,9.793790
1386875575,1,0,545.9,0,0,0,0,409,400,-0.0292,545.4922,6.8213,0.4212,54.887333,9.806714,108.3,5.845,1.85,335.95,54.888382,9.806377,54.895069,9.793790
1386875575,1,0,545.9,0,0,4,0,409,425,-0.0292,545.4922,6.8213,0.4212,54.887314,9.806711,108.3,5.845,1.85,335.95,54.888382,9.806377,54.895069,9.793790
1386875576,1,0,545.9,0,0,0,0,409,400,-0.0292,545.4922,6.8213,0.4212,54.887299,9.806708,108.3,5.845,1.85,335.95,54.888382,9.806377,54.895069,9.793790
1386875576,1,0,545.9,0,0,4,0,409,425,-0.0292,545.4922,6.8213,0.4212,54.887280,9.806705,108.3,5.845,1.85,335.95,54.888382,9.806377,54.895069,9.793790
1386875576,1,0,545.9,0,0,0,0,409,400,-0.0292,545.4922,6.8213,0.4212,54.887260,9.806703,108.3,5.845,1.85,335.95,54.888382,9.806377,54.895069,9.793790
1386875576,1,0,545.9,0,0,4,0,409,425,-0.0292,545.4922,6.8213,0.4212,54.887241,9.806700,108.3,5.845,1.85,335.95,54.888382,9.806377,54.895069,9.793790
1386875577,1,0,545.9,0,0,0,0,409,400,-0.0292,545.4922,6.8213,0.4212,54.887226,9.806697,108.3,5.845,1.85,335.95,54.888382,9.806377,54.895069,9.793790
1386875577,1,0,545.9,0,0,4,0,409,425,-0.0292,545.4922,6.8213,0.4212,54.887207,9.806693,108.3,5.845,1.85,335.95,54.888382,9.806377,54.895069,9.793790
1386875577,1,0,545.9,0,0,0,0,409,400,-0.0292,545.4922,6.8213,0.4212,54.887188,9.806689,108.3,5.845,1.85,335.95,54.888382,9.806377,54.895069,9.793790
1386875577,1,0,545.9,0,0,4,0,409,425,-0.0292,545.4922,6.8213,0.4212,54.887169,9.806686,108.3,5.845,1.85,335.95,54.888382,9.806377,54.895069,9.793790
1386875578,1,0,545.9,0,0,0,0,409,400,-0.0292,545.4922,6.8213,0.4212,54.887154,9.806684,108.3,5.845,1.85,335.95,54.888382,9.806377,54.895069,9.793790
1386875578,1,0,545.9,0,0,4,0,409,425,-0.0292,545.4922,6.8213,0.4212,54.887135,9.806681,108.3,5.845,1.85,335.95,54.888382,9.806377,54.895069,9.793790
1386875578,1,0,545.9,0,0,0,0,409,400,-0.0292,545.4922,6.8213,0.4212,54.887115,9.806678,108.3,5.845,1.85,335.95,54.888382,9.806377,54.895069,9.793790
1386875578,1,0,545.9,0,0,4,0,409,425,-0.0292,545.4922,6.8213,0.4212,54.887096,9.806675,108.3,5.845,1.85,335.95,54.888382,9.806377,54.895069,9.793790
1386875579,1,0,545.9,0,0,0,0,409,400,-0.0292,545.4922,6.8213,0.4212,54.887081,9.806672,108.3,5.845,1.85,335.95,54.888382,9.806377,54.895069,9.793790
1386875579,1,0,545.9,0,0,4,0,409,425,-0.0292,545.4922,6.8213,0.4212,54.887062,9.806669,108.3,5.845,1.85,335.95,54.888382,9.806377,54.895069,9.793790
1386875579,1,0,545.9,0,0,0,0,409,400,-0.0292,545.4922,6.8213,0.4212,54.887043,9.806666,108.3,5.845,1.85,335.95,54.888382,9.806377,54.895069,9.793790
1386875579,1,0,545.9,0,0,4,0,409,425,-0.0292,545.4922,6.8213,0.4212,54.887024,9.806664,108.3,5.845,1.85,335.95,54.888382,9.806377,54.895069,9.793790
1386875580,1,0,545.9,0,0,0,0,409,400,-0.0292,545.4922,6.8213,0.4212,54.887009,9.806661,108.3,5.845,1.85,335.95,54.888382,9.806377,54.895069,9.793790
1386875580,1,0,545.9,0,0,4,0,409,425,-0.0292,545.4922,6.8213,0.4212,54.886990,9.806658,108.3,5.845,1.85,335.95,54.888382,9.806377,54.895069,9.793790
1386875580,1,0,545.9,0,0,0,0,409,400,-0.0292,545.4922,6.8213,0.4212,54.886971,9.806655,108.3,5.845,1.85,335.95,54.888382,9.806377,54.895069,9.793790
1386875580,1,0,545.9,0,0,4,0,409,425,-0.0292,545.4922,6.8213,0.4212,54.886955,9.806652,108.3,5.845,1.85,335.95,54.888382,9.806377,54.895069,9.793790
1386875581,1,0,545.9,0,0,0,0,409,400,-0.0292,545.4922,6.8213,0.4212,54.886936,9.806648,108.3,5.845,1.85,335.95,54.888382,9.806377,54.895069,9.793790
1386875581,1,0,545.9,0,0,4,0,409,425,-0.0292,545.4922,6.8213,0.4212,54.886917,9.806645,108.3,5.845,1.85,335.95,54.888382,9.806377,54.895069,9.793790
1386875581,1,0,545.9,0,0,0,0,409,400,-0.0292,545.4922,6.8213,0.4212,54.886898,9.806643,108.3,5.845,1.85,335.95,54.888382,9.806377,54.895069,9.793790
1386875582,1,0,545.9,0,0,4,0,409,425,-0.0292,545.4922,6.8213,0.4212,54.886883,9.806640,108.3,5.845,1.85,335.95,54.888382,9.806377,54.895069,9.793790
1386875582,1,0,545.9,0,0,0,0,409,400,-0.0292,545.4922,6.8213,0.4212,54.886864,9.806637,108.3,5.845,1.85,335.95,54.888382,9.806377,54.895069,9.793790
1386875582,1,0,545.9,0,0,4,0,409,425,-0.0292,545.4922,6.8213,0.4212,54.886845,9.806634,108.3,5.845,1.85,335.95,54.888382,9.806377,54.895069,9.793790
1386875582,1,0,545.9,0,0,0,0,409,400,-0.0292,545.4922,6.8213,0.4212,54.886826,9.806631,108.3,5.845,1.85,335.95,54.888382,9.806377,54.895069,9.793790
1386875583,1,0,545.9,0,0,4,0,409,425,-0.0292,545.4922,6.8213,0.4212,54.886810,9.806628,108.3,5.845,1.85,335.95,54.888382,9.806377,54.895069,9.793790
1386875583,1,0,545.9,0,0,0,0,409,400,-0.0292,545.4922,6.8213,0.4212,54.886791,9.806625,108.3,5.845,1.85,335.95,54.888382,9.806377,54.895069,9.793790
1386875583,1,0,545.9,0,0,4,0,409,425,-0.0292,545.4922,6.8213,0.4212,54.886772,9.806623,108.3,5.845,1.85,335.95,54.888382,9.806377,54.895069,9.793790
1386875583,1,0,545.9,0,0,0,0,409,400,-0.0292,545.4922,6.8213,0.4212,54.886753,9.806620,108.3,5.845,1.85,335.95,54.888382,9.806377,54.895069,9.793790
1386875584,1,0,545.9,0,0,4,0,409,425,-0.0292,545.4922,6.8213,0.4212,54.886738,9.806617,108.3,5.845,1.85,335.95,54.888382,9.806377,54.895069,9.793790
1386875584,1,0,545.9,0,0,0,0,409,400,-0.0292,545.4922,6.8213,0.4212,54.886719,9.806614,108.3,5.845,1.85,335.95,54.888382,9.806377,54.895069,9.793790
1386875584,1,0,545.9,0,0,4,0,409,425,-0.0292,545.4922,6.8213,0.4212,54.886700,9.806611,108.3,5.845,1.85,335.95,54.888382,9.806377,54.895069,9.793790
1386875584,1,0,545.9,0,0,0,0,409,400,-0.0292,545.4922,6.8213,0.4212,54.886684,9.806607,108.3,5.845,1.85,335.95,54.888382,9.806377,54.895069,9.793790
1386875585,1,0,545.9,0,0,4,0,409,425,-0.0292,545.4922,6.8213,0.4212,54.886665,9.806603,108.3,5.845,1.85,335.95,54.888382,9.806377,54.895069,9.793790
1386875585,1,0,545.9,0,0,0,0,409,400,-0.0292,545.4922,6.8213,0.4212,54.886646,9.806601,108.3,5.845,1.85,335.95,54.888382,9.806377,54.895069,9.793790
1386875585,1,0,545.9,0,0,4,0,409,425,-0.0292,545.4922,6.8213,0.4212,54.886627,9.806598,108.3,5.845,1.85,335.95,54.888382,9.806377,54.895069,9.793790
1386875585,1,0,545.9,0,0,0,0,409,400,-0.0292,545.4922,6.8213,0.4212,54.886612,9.806595,108.3,5.845,1.85,335.95,54.888382,9.806377,54.895069,9.793790
1386875586,1,0,545.9,0,0,4,0,409,425,-0.0292,545.4922,6.8213,0.4212,54.886593,9.806592,108.3,5.845,1.85,335.95,54.888382,9.806377,54.895069,9.793790
1386875586,1,0,545.9,0,0,0,0,409,400,-0.0292,545.4922,6.8213,0.4212,54.886574,9.806589,108.3,5.845,1.85,335.95,54.888382,9.806377,54.895069,9.793790
1386875586,1,0,545.9,0,0,4,0,409,425,-0.0292,545.4922,6.8213,0.4212,54.886555,9.806586,108.3,5.845,1.85,335.95,54.888382,9.806377,54.895069,9.793790
1386875586,1,0,545.9,0,0,0,0,409,400,-0.0292,545.4922,6.8213,0.4212,54.886539,9.806583,108.3,5.845,1.85,335.95,54.888382,9.806377,54.895069,9.793790
1386875587,1,0,545.9,0,0,4,0,409,425,-0.0292,545.4922,6.8213,0.4212,54.886520,9.806581,108.3,5.845,1.85,335.95,54.888382,9.806377,54.895069,9.793790
1386875587,1,0,545.9,0,0,0,0,409,400,-0.0292,545.4922,6.8213,0.4212,54.886501,9.806578,108.3,5.845,1.85,335.95,54.888382,9.806377,54.895069,9.793790
1386875587,1,0,545.9,0,0,4,0,409,425,-0.0292,545.4922,6.8213,0.4212,54.886482,9.806575,108.3,5.845,1.85,335.95,54.888382,9.806377,54.895069,9.793790
1386875587,1,0,545.9,0,0,0,0,409,400,-0.0292,545.4922,6.8213,0.4212,54.886467,9.806572,108.3,5.845,1.85,335.95,54.888382,9.806377,54.895069,9.793790
1386875588,1,0,545.9,0,0,4,0,409,425,-0.0292,545.4922,6.8213,0.4212,54.886448,9.806569,108.3,5.845,1.85,335.95,54.888382,9.806377,54.895069,9.793790
1386875588,1,0,545.9,0,0,0,0,409,400,-0.0292,545.4922,6.8213,0.4212,54.886429,9.806566,108.3,5.845,1.85,335.95,54.888382,9.806377,54.895069,9.793790
1386875588,1,0,545.9,0,0,4,0,409,425,-0.0292,545.4922,6.8213,0.4212,54.886414,9.806562,108.3,5.845,1.85,335.95,54.888382,9.806377,54.895069,9.793790
1386875588,1,0,545.9,0,0,0,0,409,400,-0.0292,545.4922,6.8213,0.4212,54.886395,9.806560,108.3,5.845,1.85,335.95,54.888382,9.806377,54.895069,9.793790
1386875589,1,0,545.9,0,0,4,0,409,425,-0.0292,545.4922,6.8213,0.4212,54.886375,9.806557,108.3,5.845,1.85,335.95,54.888382,9.806377,54.895069,9.793790
1386875589,1,0,545.9,0,0,0,0,409,400,-0.0292,545.4922,6.8213,0.4212,54.886356,9.806554,108.3,5.845,1.85,335.95,54.888382,9.806377,54.895069,9.793790
1386875589,1,0,545.9,0,0,4,0,409,425,-0.0292,545.4922,6.8213,0.4212,54.886341,9.806551,108.3,5.845,1.85,335.95,54.888382,9.806377,54.895069,9.793790
1386875589,1,0,545.9,0,0,0,0,409,400,-0.0292,545.4922,6.8213,0.4212,54.886322,9.806548,108.3,5.845,1.85,335.95,54.888382,9.806377,54.895069,9.793790
1386875590,1,0,545.9,0,0,4,0,409,425,-0.0292,545.4922,6.8213,0.4212,54.886303,9.806545,108.3,5.845,1.85,335.95,54.888382,9.806377,54.895069,9.793790
1386875590,1,0,545.9,0,0,0,0,409,400,-0.0292,545.4922,6.8213,0.4212,54.886284,9.806542,108.3,5.845,1.85,335.95,54.888382,9.806377,54.895069,9.793790
1386875590,1,0,545.9,0,0,4,0,409,425,-0.0292,545.4922,6.8213,0.4212,54.886269,9.806540,108.3,5.845,1.85,335.95,54.888382,9.806377,54.895069,9.793790
1386875590,1,0,545.9,0,0,0,0,409,400,-0.0292,545.4922,6.8213,0.4212,54.886250,9.806537,108.3,5.845,1.85,335.95,54.888382,9.806377,54.895069,9.793790
1386875591,1,0,545.9,0,0,4,0,409,425,-0.0292,545.4922,6.8213,0.4212,54.886230,9.806534,108.3,5.845,1.85,335.95,54.888382,9.806377,54.895069,9.793790
1386875591,1,0,545.9,0,0,0,0,409,400,-0.0292,545.4922,6.8213,0.4212,54.886211,9.806531,108.3,5.845,1.85,335.95,54.888382,9.806377,54.895069,9.793790
1386875591,1,0,545.9,0,0,4,0,409,425,-0.0292,545.4922,6.8213,0.4212,54.886196,9.806528,108.3,5.845,1.85,335.95,54.888382,9.806377,54.895069,9.793790
1386875591,1,0,545.9,0,0,0,0,409,400,-0.0292,545.4922,6.8213,0.4212,54.886177,9.806525,108.3,5.845,1.85,335.95,54.888382,9.806377,54.895069,9.793790
1386875592,1,0,545.9,0,0,4,0,409,425,-0.0292,545.4922,6.8213,0.4212,54.886158,9.806521,108.3,5.845,1.85,335.95,54.888382,9.806377,54.895069,9.793790
1386875592,1,0,545.9,0,0,0,0,409,400,-0.0292,545.4922,6.8213,0.4212,54.886143,9.806518,108.3,5.845,1.85,335.95,54.888382,9.806377,54.895069,9.793790
1386875592,1,0,545.9,0,0,4,0,409,425,-0.0292,545.4922,6.8213,0.4212,54.886124,9.806515,108.3,5.845,1.85,335.95,54.888382,9.806377,54.895069,9.793790
1386875592,1,0,545.9,0,0,0,0,409,400,-0.0292,545.4922,6.8213,0.4212,54.886105,9.806512,108.3,5.845,1.85,335.95,54.888382,9.806377,54.895069,9.793790
1386875593,1,0,545.9,0,0,4,0,409,425,-0.0292,545.4922,6.8213,0.4212,54.886086,9.806509,108.3,5.845,1.85,335.95,54.888382,9.806377,54.895069,9.793790
1386875593,1,0,545.9,0,0,0,0,409,400,-0.0292,545.4922,6.8213,0.4212,54.886070,9.806506,108.3,5.845,1.85,335.95,54.888382,9.806377,54.895069,9.793790
1386875593,1,0,545.9,0,0,4,0,409,425,-0.0292,545.4922,6.8213,0.4212,54.886051,9.806503,108.3,5.845,1.85,335.95,54.888382,9.806377,54.895069,9.793790
1386875593,1,0,545.9,0,0,0,0,409,400,-0.0292,545.4922,6.8213,0.4212,54.886032,9.806500,108.3,5.845,1.85,335.95,54.888382,9.806377,54.895069,9.793790
1386875594,1,0,545.9,0,0,4,0,409,425,-0.0292,545.4922,6.8213,0.4212,54.886013,9.806498,108.3,5.845,1.85,335.95,54.888382,9.806377,54.895069,9.793790
1386875594,1,0,545.9,0,0,0,0,409,400,-0.0292,545.4922,6.8213,0.4212,54.885998,9.806495,108.3,5.845,1.85,335.95,54.888382,9.806377,54.895069,9.793790
1386875594,0,0,545.9,0,0,0,0,409,400,-0.0292,545.4922,6.8213,0.4212,54.885998,9.806495,108.3,5.845,1.85,335.95,54.888382,9.806377,54.895069,9.793790
1386875594,0,0,545.9,0,0,0,0,409,400,-0.0292,545.4922,6.8213,0.4212,54.885998,9.806495,108.3,5.845,1.85,335.95,54.888382,9.806377,54.895069,9.793790
1386875595,0,0,545.9,0,0,0,0,409,400,-0.0292,545.4922,6.8213,0.4212,54.885998,9.806495,108.3,5.845,1.85,335.95,54.888382,9.806377,54.895069,9.793790
1386875595,0,0,545.9,0,0,0,0,409,400,-0.0292,545.4922,6.8213,0.4212,54.885998,9.806495,108.3,5.845,1.85,335.95,54.888382,9.806377,54.895069,9.793790
1386875595,0,0,545.9,0,0,0,0,409,400,-0.0292,545.4922,6.8213,0.4212,54.885998,9.806495,108.3,5.845,1.85,335.95,54.888382,9.806377,54.895069,9.793790
1386875595,0,0,545.9,0,0,0,0,409,400,-0.0292,545.4922,6.8213,0.4212,54.885998,9.806495,108.3,5.845,1.85,335.95,54.888382,9.806377,54.895069,9.793790
1386875596,0,0,545.9,0,0,0,0,409,400,-0.0292,545.4922,6.8213,0.4212,54.885998,9.806495,108.3,5.845,1.85,335.95,54.888382,9.806377,54.895069,9.793790
1386875596,0,0,545.9,0,0,0,0,409,400,-0.0292,545.4922,6.8213,0.4212,54.885998,9.806495,108.3,5.845,1.85,335.95,54.888382,9.806377,54.895069,9.793790
1386875596,0,0,545.9,0,0,0,0,409,400,-0.0292,545.4922,6.8213,0.4212,54.885998,9.806495,108.3,5.845,1.85,335.95,54.888382,9.806377,54.895069,9.793790
1386875596,0,0,545.9,0,0,0,0,409,400,-0.0292,545.4922,6.8213,0.4212,54.885998,9.806495,108.3,5.845,1.85,335.95,54.888382,9.806377,54.895069,9.793790
1386875597,0,0,545.9,0,0,0,0,409,400,-0.0292,545.4922,6.8213,0.4212,54.885998,9.806495,108.3,5.845,1.85,335.95,54.888382,9.806377,54.895069,9.793790
1386875597,0,0,545.9,0,0,0,0,409,400,-0.0292,545.4922,6.8213,0.4212,54.885998,9.806495,108.3,5.845,1.85,335.95,54.888382,9.806377,54.895069,9.793790
1386875597,0,0,545.9,0,0,0,0,409,400,-0.0292,545.4922,6.8213,0.4212,54.885998,9.806495,108.3,5.845,1.85,335.95,54.888382,9.806377,54.895069,9.793790
1386875597,0,0,545.9,0,0,0,0,409,400,-0.0292,545.4922,6.8213,0.4212,54.885998,9.806495,108.3,5.845,1.85,335.95,54.888382,9.806377,54.895069,9.793790
1386875598,0,0,545.9,0,0,0,0,409,400,-0.0292,545.4922,6.8213,0.4212,54.885998,9.806495,108.3,5.845,1.85,335.95,54.888382,9.806377,54.895069,9.793790
1386875598,0,0,545.9,0,0,0,0,409,400,-0.0292,545.4922,6.8213,0.4212,54.885998,9.806495,108.3,5.845,1.85,335.95,54.888382,9.806377,54.895069,9.793790
1386875598,0,0,545.9,0,0,0,0,409,400,-0.0292,545.4922,6.8213,0.4212,54.885998,9.806495,108.3,5.845,1.85,335.95,54.888382,9.806377,54.895069,9.793790
1386875598,0,0,545.9,0,0,0,0,409,400,-0.0292,545.4922,6.8213,0.4212,54.885998,9.806495,108.3,5.845,1.85,335.95,54.888382,9.806377,54.895069,9.793790
1386875599,0,0,545.9,0,0,0,0,409,400,-0.0292,545.4922,6.8213,0.4212,54.885998,9.806495,108.3,5.845,1.85,335.95,54.888382,9.806377,54.895069,9.793790
1386875599,0,0,545.9,0,0,0,0,409,400,-0.0292,545.4922,6.8213,0.4212,54.885998,9.806495,108.3,5.845,1.85,335.95,54.888382,9.806377,54.895069,9.793790
1386875599,0,0,545.9,0,0,0,0,409,400,-0.0292,545.4922,6.8213,0.4212,54.885998,9.806495,108.3,5.845,1.85,335.95,54.888382,9.806377,54.895069,9.793790
1386875599,0,0,545.9,0,0,0,0,409,400,-0.0292,545.4922,6.8213,0.4212,54.885998,9.806495,108.3,5.845,1.85,335.95,54.888382,9.806377,54.895069,9.793790
1386875600,0,0,545.9,0,0,0,0,409,400,-0.0292,545.4922,6.8213,0.4212,54.885998,9.806495,108.3,5.845,1.85,335.95,54.888382,9.806377,54.895069,9.793790
1386875600,0,0,545.9,0,0,0,0,409,400,-0.0292,545.4922,6.8213,0.4212,54.885998,9.806495,108.3,5.845,1.85,335.95,54.888382,9.806377,54.895069,9.793790
1386875600,0,0,545.9,0,0,0,0,409,400,-0.0292,545.4922,6.8213,0.4212,54.885998,9.806495,108.3,5.845,1.85,335.95,54.888382,9.806377,54.895069,9.793790
1386875600,0,0,545.9,0,0,0,0,409,400,-0.0292,545.4922,6.8213,0.4212,54.885998,9.806495,108.3,5.845,1.85,335.95,54.888382,9.806377,54.895069,9.793790
1386875601,0,0,545.9,0,0,0,0,409,400,-0.0292,545.4922,6.8213,0.4212,54.885998,9.806495,108.3,5.845,1.85,335.95,54.888382,9.806377,54.895069,9.793790
1386875601,0,0,545.9,0,0,0,0,409,400,-0.0292,545.4922,6.8213,0.4212,54.885998,9.806495,108.3,5.845,1.85,335.95,54.888382,9.806377,54.895069,9.793790
1386875601,0,0,545.9,0,0,0,0,409,400,-0.0292,545.4922,6.8213,0.4212,54.885998,9.806495,108.3,5.845,1.85,335.95,54.888382,9.806377,54.895069,9.793790
1386875601,0,0,545.9,0,0,0,0,409,400,-0.0292,545.4922,6.8213,0.4212,54.885998,9.806495,108.3,5.845,1.85,335.95,54.888382,9.806377,54.895069,9.793790
1386875602,0,0,545.9,0,0,0,0,409,400,-0.0292,545.4922,6.8213,0.4212,54.885998,9.806495,108.3,5.845,1.85,335.95,54.888382,9.806377,54.895069,9.793790
1386875602,0,0,545.9,0,0,0,0,409,400,-0.0292,545.4922,6.8213,0.4212,54.885998,9.806495,108.3,5.845,1.85,335.95,54.888382,9.806377,54.895069,9.793790
1386875602,0,0,545.9,0,0,0,0,409,400,-0.0292,545.4922,6.8213,0.4212,54.885998,9.806495,108.3,5.845,1.85,335.95,54.888382,9.806377,54.895069,9.793790
1386875602,0,0,545.9,0,0,0,0,409,400,-0.0292,545.4922,6.8213,0.4212,54.885998,9.806495,108.3,5.845,1.85,335.95,54.888382,9.806377,54.895069,9.793790
1386875603,0,0,545.9,0,0,0,0,409,400,-0.0292,545.4922,6.8213,0.4212,54.885998,9.806495,108.3,5.845,1.85,335.95,54.888382,9.806377,54.895069,9.793790
1386875603,0,0,545.9,0,0,0,0,409,400,-0.0292,545.4922,6.8213,0.4212,54.885998,9.806495,108.3,5.845,1.85,335.95,54.888382,9.806377,54.895069,9.793790
1386875603,0,0,545.9,0,0,0,0,409,400,-0.0292,545.4922,6.8213,0.4212,54.885998,9.806495,108.3,5.845,1.85,335.95,54.888382,9.806377,54.895069,9.793790
1386875603,0,0,545.9,0,0,0,0,409,400,-0.0292,545.4922,6.8213,0.4212,54.885998,9.806495,108.3,5.845,1.85,335.95,54.888382,9.806377,54.895069,9.793790
1386875604,0,0,545.9,0,0,0,0,409,400,-0.0292,545.4922,6.8213,0.4212,54.885998,9.806495,108.3,5.845,1.85,335.95,54.888382,9.806377,54.895069,9.793790
1386875604,0,0,545.9,0,0,0,0,409,400,-0.0292,545.4922,6.8213,0.4212,54.885998,9.806495,108.3,5.845,1.85,335.95,54.888382,9.806377,54.895069,9.793790
1386875604,0,0,545.9,0,0,0,0,409,400,-0.0292,545.4922,6.8213,0.4212,54.885998,9.806495,108.3,5.845,1.85,335.95,54.888382,9.806377,54.895069,9.793790
1386875604,0,0,545.9,0,0,0,0,409,400,-0.0292,545.4922,6.8213,0.4212,54.885998,9.806495,108.3,5.845,1.85,335.95,54.888382,9.806377,54.895069,9.793790
1386875605,0,0,545.9,0,0,0,0,409,400,-0.0292,545.4922,6.8213,0.4212,54.885998,9.806495,108.3,5.845,1.85,335.95,54.888382,9.806377,54.895069,9.793790
1386875605,0,0,545.9,0,0,0,0,409,400,-0.0292,545.4922,6.8213,0.4212,54.885998,9.806495,108.3,5.845,1.85,335.95,54.888382,9.806377,54.895069,9.793790
1386875605,0,0,545.9,0,0,0,0,409,400,-0.0292,545.4922,6.8213,0.4212,54.885998,9.806495,108.3,5.845,1.85,335.95,54.888382,9.806377,54.895069,9.793790
1386875605,0,0,545.9,0,0,0,0,409,400,-0.0292,545.4922,6.8213,0.4212,54.885998,9.806495,108.3,5.845,1.85,335.95,54.888382,9.806377,54.895069,9.793790
1386875606,0,0,545.9,0,0,0,0,409,400,-0.0292,545.4922,6.8213,0.4212,54.885998,9.806495,108.3,5.845,1.85,335.95,54.888382,9.806377,54.895069,9.793790
1386875606,0,0,545.9,0,0,0,0,409,400,-0.0292,545.4922,6.8213,0.4212,54.885998,9.806495,108.3,5.845,1.85,335.95,54.888382,9.806377,54.895069,9.793790
1386875606,0,0,545.9,0,0,0,0,409,400,-0.0292,545.4922,6.8213,0.4212,54.885998,9.806495,108.3,5.845,1.85,335.95,54.888382,9.806377,54.895069,9.793790
1386875606,0,0,545.9,0,0,0,0,409,400,-0.0292,545.4922,6.8213,0.4212,54.885998,9.806495,108.3,5.845,1.85,335.95,54.888382,9.806377,54.895069,9.793790
1386875607,0,0,545.9,0,0,0,0,409,400,-0.0292,545.4922,6.8213,0.4212,54.885998,9.806495,108.3,5.845,1.85,335.95,54.888382,9.806377,54.895069,9.793790
1386875607,0,0,545.9,0,0,0,0,409,400,-0.0292,545.4922,6.8213,0.4212,54.885998,9.806495,108.3,5.845,1.85,335.95,54.888382,9.806377,54.895069,9.793790
1386875607,0,0,545.9,0,0,0,0,409,400,-0.0292,545.4922,6.8213,0.4212,54.885998,9.806495,108.3,5.845,1.85,335.95,54.888382,9.806377,54.895069,9.793790
1386875607,0,0,545.9,0,0,0,0,409,400,-0.0292,545.4922,6.8213,0.4212,54.885998,9.806495,108.3,5.845,1.85,335.95,54.888382,9.806377,54.895069,9.793790
1386875608,0,0,545.9,0,0,0,0,409,400,-0.0292,545.4922,6.8213,0.4212,54.885998,9.806495,108.3,5.845,1.85,335.95,54.888382,9.806377,54.895069,9.793790
1386875608,0,0,545.9,0,0,0,0,409,400,-0.0292,545.4922,6.8213,0.4212,54.885998,9.806495,108.3,5.845,1.85,335.95,54.888382,9.806377,54.895069,9.793790
1386875608,0,0,545.9,0,0,0,0,409,400,-0.0292,545.4922,6.8213,0.4212,54.885998,9.806495,108.3,5.845,1.85,335.95,54.888382,9.806377,54.895069,9.793790
1386875608,0,0,545.9,0,0,0,0,409,400,-0.0292,545.4922,6.8213,0.4212,54.885998,9.806495,108.3,5.845,1.85,335.95,54.888382,9.806377,54.895069,9.793790
1386875609,0,0,545.9,0,0,0,0,409,400,-0.0292,545.4922,6.8213,0.4212,54.885998,9.806495,108.3,5.845,1.85,335.95,54.888382,9.806377,54.895069,9.793790
1386875609,0,0,545.9,0,0,0,0,409,400,-0.0292,545.4922,6.8213,0.4212,54.885998,9.806495,108.3,5.845,1.85,335.95,54.888382,9.806377,54.895069,9.793790
1386875609,0,0,545.9,0,0,0,0,409,400,-0.0292,545.4922,6.8213,0.4212,54.885998,9.806495,108.3,5.845,1.85,335.95,54.888382,9.806377,54.895069,9.793790
1386875609,0,0,545.9,0,0,0,0,409,400,-0.0292,545.4922,6.8213,0.4212,54.885998,9.806495,108.3,5.845,1.85,335.95,54.888382,9.806377,54.895069,9.793790
1386875610,0,0,545.9,0,0,0,0,409,400,-0.0292,545.4922,6.8213,0.4212,54.885998,9.806495,108.3,5.845,1.85,335.95,54.888382,9.806377,54.895069,9.793790
1386875610,0,0,545.9,0,0,0,0,409,400,-0.0292,545.4922,6.8213,0.4212,54.885998,9.806495,108.3,5.845,1.85,335.95,54.888382,9.806377,54.895069,9.793790
1386875610,0,0,545.9,0,0,0,0,409,400,-0.0292,545.4922,6.8213,0.4212,54.885998,9.806495,108.3,5.845,1.85,335.95,54.888382,9.806377,54.895069,9.793790
1386875610,0,0,545.9,0,0,0,0,409,400,-0.0292,545.4922,6.8213,0.4212,54.885998,9.806495,108.3,5.845,1.85,335.95,54.888382,9.806377,54.895069,9.793790
1386875611,0,0,545.9,0,0,0,0,409,400,-0.0292,545.4922,6.8213,0.4212,54.885998,9.806495,108.3,5.845,1.85,335.95,54.888382,9.806377,54.895069,9.793790
1386875611,0,0,545.9,0,0,0,0,409,400,-0.0292,545.4922,6.8213,0.4212,54.885998,9.806495,108.3,5.845,1.85,335.95,54.888382,9.806377,54.895069,9.793790
1386875611,0,0,545.9,0,0,0,0,409,400,-0.0292,545.4922,6.8213,0.4212,54.885998,9.806495,108.3,5.845,1.85,335.95,54.888382,9.806377,54.895069,9.793790
1386875611,0,0,545.9,0,0,0,0,409,400,-0.0292,545.4922,6.8213,0.4212,54.885998,9.806495,108.3,5.845,1.85,335.95,54.888382,9.806377,54.895069,9.793790
1386875612,0,0,545.9,0,0,0,0,409,400,-0.0292,545.4922,6.8213,0.4212,54.885998,9.806495,108.3,5.845,1.85,335.95,54.888382,9.806377,54.895069,9.793790
1386875612,0,0,545.9,0,0,0,0,409,400,-0.0292,545.4922,6.8213,0.4212,54.885998,9.806495,108.3,5.845,1.85,335.95,54.888382,9.806377,54.895069,9.793790
1386875612,0,0,545.9,0,0,0,0,409,400,-0.0292,545.4922,6.8213,0.4212,54.885998,9.806495,108.3,5.845,1.85,335.95,54.888382,9.806377,54.895069,9.793790
1386875612,0,0,545.9,0,0,0,0,409,400,-0.0292,545.4922,6.8213,0.4212,54.885998,9.806495,108.3,5.845,1.85,335.95,54.888382,9.806377,54.895069,9.793790
1386875613,0,0,545.9,0,0,0,0,409,400,-0.0292,545.4922,6.8213,0.4212,54.885998,9.806495,108.3,5.845,1.85,335.95,54.888382,9.806377,54.895069,9.793790
1386875613,0,0,545.9,0,0,0,0,409,400,-0.0292,545.4922,6.8213,0.4212,54.885998,9.806495,108.3,5.845,1.85,335.95,54.888382,9.806377,54.895069,9.793790
1386875613,0,0,545.9,0,0,0,0,409,400,-0.0292,545.4922,6.8213,0.4212,54.885998,9.806495,108.3,5.845,1.85,335.95,54.888382,9.806377,54.895069,9.793790
1386875613,0,0,545.9,0,0,0,0,409,400,-0.0292,545.4922,6.8213,0.4212,54.885998,9.806495,108.3,5.845,1.85,335.95,54.888382,9.806377,54.895069,9.793790
1386875614,0,0,545.9,0,0,0,0,409,400,-0.0292,545.4922,6.8213,0.4212,54.885998,9.806495,108.3,5.845,1.85,335.95,54.888382,9.806377,54.895069,9.793790
1386875614,0,0,545.9,0,0,0,0,409,400,-0.0292,545.4922,6.8213,0.4212,54.885998,9.806495,108.3,5.845,1.85,335.95,54.888382,9.806377,54.895069,9.793790
1386875614,0,0,545.9,0,0,0,0,409,400,-0.0292,545.4922,6.8213,0.4212,54.885998,9.806495,108.3,5.845,1.85,335.95,54.888382,9.806377,54.895069,9.793790
1386875614,0,0,545.9,0,0,0,0,409,400,-0.0292,545.4922,6.8213,0.4212,54.885998,9.806495,108.3,5.845,1.85,335.95,54.888382,9.806377,54.895069,9.793790
1386875615,0,0,545.9,0,0,0,0,409,400,-0.0292,545.4922,6.8213,0.4212,54.885998,9.806495,108.3,5.845,1.85,335.95,54.888382,9.806377,54.895069,9.793790
1386875615,0,0,545.9,0,0,0,0,409,400,-0.0292,545.4922,6.8213,0.4212,54.885998,9.806495,108.3,5.845,1.85,335.95,54.888382,9.806377,54.895069,9.793790
1386875615,0,0,545.9,0,0,0,0,409,400,-0.0292,545.4922,6.8213,0.4212,54.885998,9.806495,108.3,5.845,1.85,335.95,54.888382,9.806377,54.895069,9.793790
1386875615,0,0,545.9,0,0,0,0,409,400,-0.0292,545.4922,6.8213,0.4212,54.885998,9.806495,108.3,5.845,1.85,335.95,54.888382,9.806377,54.895069,9.793790
1386875616,0,0,545.9,0,0,0,0,409,400,-0.0292,545.4922,6.8213,0.4212,54.885998,9.806495,108.3,5.845,1.85,335.95,54.888382,9.806377,54.895069,9.793790
1386875616,0,0,545.9,0,0,0,0,409,400,-0.0292,545.4922,6.8213,0.4212,54.885998,9.806495,108.3,5.845,1.85,335.95,54.888382,9.806377,54.895069,9.793790
1386875616,0,0,545.9,0,0,0,0,409,400,-0.0292,545.4922,6.8213,0.4212,54.885998,9.806495,108.3,5.845,1.85,335.95,54.888382,9.806377,54.895069,9.793790
1386875616,0,0,545.9,0,0,0,0,409,400,-0.0292,545.4922,6.8213,0.4212,54.885998,9.806495,108.3,5.845,1.85,335.95,54.888382,9.806377,54.895069,9.793790
1386875617,0,0,545.9,0,0,0,0,409,400,-0.0292,545.4922,6.8213,0.4212,54.885998,9.806495,108.3,5.845,1.85,335.95,54.888382,9.806377,54.895069,9.793790
1386875617,0,0,545.9,0,0,0,0,409,400,-0.0292,545.4922,6.8213,0.4212,54.885998,9.806495,108.3,5.845,1.85,335.95,54.888382,9.806377,54.895069,9.793790
1386875617,0,0,545.9,0,0,0,0,409,400,-0.0292,545.4922,6.8213,0.4212,54.885998,9.806495,108.3,5.845,1.85,335.95,54.888382,9.806377,54.895069,9.793790
1386875617,0,0,545.9,0,0,0,0,409,400,-0.0292,545.4922,6.8213,0.4212,54.885998,9.806495,108.3,5.845,1.85,335.95,54.888382,9.806377,54.895069,9.793790
1386875618,0,0,545.9,0,0,0,0,409,400,-0.0292,545.4922,6.8213,0.4212,54.885998,9.806495,108.3,5.845,1.85,335.95,54.888382,9.806377,54.895069,9.793790
1386875618,0,0,545.9,0,0,0,0,409,400,-0.0292,545.4922,6.8213,0.4212,54.885998,9.806495,108.3,5.845,1.85,335.95,54.888382,9.806377,54.895069,9.793790
1386875618,0,0,545.9,0,0,0,0,409,400,-0.0292,545.4922,6.8213,0.4212,54.885998,9.806495,108.3,5.845,1.85,335.95,54.888382,9.806377,54.895069,9.793790
1386875618,0,0,545.9,0,0,0,0,409,400,-0.0292,545.4922,6.8213,0.4212,54.885998,9.806495,108.3,5.845,1.85,335.95,54.888382,9.806377,54.895069,9.793790
1386875619,0,0,545.9,0,0,0,0,409,400,-0.0292,545.4922,6.8213,0.4212,54.885998,9.806495,108.3,5.845,1.85,335.95,54.888382,9.806377,54.895069,9.793790
1386875619,0,0,545.9,0,0,0,0,409,400,-0.0292,545.4922,6.8213,0.4212,54.885998,9.806495,108.3,5.845,1.85,335.95,54.888382,9.806377,54.895069,9.793790
1386875619,0,0,545.9,0,0,0,0,409,400,-0.0292,545.4922,6.8213,0.4212,54.885998,9.806495,108.3,5.845,1.85,335.95,54.888382,9.806377,54.895069,9.793790
1386875619,0,0,545.9,0,0,0,0,409,400,-0.0292,545.4922,6.8213,0.4212,54.885998,9.806495,108.3,5.845,1.85,335.95,54.888382,9.806377,54.895069,9.793790
1386875620,0,0,545.9,0,0,0,0,409,400,-0.0292,545.4922,6.8213,0.4212,54.885998,9.806495,108.3,5.845,1.85,335.95,54.888382,9.806377,54.895069,9.793790
1386875620,0,0,545.9,0,0,0,0,409,400,-0.0292,545.4922,6.8213,0.4212,54.885998,9.806495,108.3,5.845,1.85,335.95,54.888382,9.806377,54.895069,9.793790
1386875620,0,0,545.9,0,0,0,0,409,400,-0.0292,545.4922,6.8213,0.4212,54.885998,9.806495,108.3,5.845,1.85,335.95,54.888382,9.806377,54.895069,9.793790
