MCU_timestamp,Navigation_System,Manual_Control,Guidance_Heading,Manual_Ctrl_Rudder,Rudder_Desired_Angle,Rudder_Feedback,Manual_Ctrl_Sail,Sail_Desired_Pos,Sail_Feedback,Rate,Heading,Pitch,Roll,Latitude,Longitude,COG,SOG,Wind_Speed,Wind_Angle,Point_Start_Lat,Point_Start_Lon,Point_End_Lat,Point_End_Lon
1386922754,0,0,0.0,0,0,0,0,0,0,-0.0292,-2400.3774,6.8213,0.4212,54.895233,9.797958,108.3,5.845,1.85,335.95,0.000000,0.000000,0.000000,0.000000
1386922754,0,0,0.0,0,0,0,0,0,0,-0.0292,-2400.3774,6.8213,0.4212,54.895233,9.797958,108.3,5.845,1.85,335.95,0.000000,0.000000,0.000000,0.000000
1386922754,0,0,0.0,0,0,0,0,0,0,-0.0292,-2400.3774,6.8213,0.4212,54.895233,9.797958,108.3,5.845,1.85,335.95,0.000000,0.000000,0.000000,0.000000
1386922754,0,0,0.0,0,0,0,0,0,0,-0.0292,-2400.3774,6.8213,0.4212,54.895233,9.797958,108.3,5.845,1.85,335.95,0.000000,0.000000,0.000000,0.000000
1386922755,0,0,0.0,0,0,0,0,0,0,-0.0292,-2400.3774,6.8213,0.4212,54.895233,9.797958,108.3,5.845,1.85,335.95,0.000000,0.000000,0.000000,0.000000
1386922755,0,0,0.0,0,0,0,0,0,0,-0.0292,-2400.3774,6.8213,0.4212,54.895233,9.797958,108.3,5.845,1.85,335.95,0.000000,0.000000,0.000000,0.000000
1386922755,0,0,0.0,0,0,0,0,0,0,-0.0292,-2400.3774,6.8213,0.4212,54.895233,9.797958,108.3,5.845,1.85,335.95,0.000000,0.000000,0.000000,0.000000
1386922755,0,0,0.0,0,0,0,0,0,0,-0.0292,-2400.3774,6.8213,0.4212,54.895233,9.797958,108.3,5.845,1.85,335.95,0.000000,0.000000,0.000000,0.000000
1386922756,0,0,0.0,0,0,0,0,0,0,-0.0292,-2400.3774,6.8213,0.4212,54.895233,9.797958,108.3,5.845,1.85,335.95,0.000000,0.000000,0.000000,0.000000
1386922756,0,0,0.0,0,0,0,0,0,0,-0.0292,-2400.3774,6.8213,0.4212,54.895233,9.797958,108.3,5.845,1.85,335.95,0.000000,0.000000,0.000000,0.000000
1386922756,0,0,0.0,0,0,0,0,0,0,-0.0292,-2400.3774,6.8213,0.4212,54.895233,9.797958,108.3,5.845,1.85,335.95,0.000000,0.000000,0.000000,0.000000
1386922756,0,0,0.0,0,0,0,0,0,0,-0.0292,-2400.3774,6.8213,0.4212,54.895233,9.797958,108.3,5.845,1.85,335.95,0.000000,0.000000,0.000000,0.000000
1386922757,0,0,0.0,0,0,0,0,0,0,-0.0292,-2400.3774,6.8213,0.4212,54.895233,9.797958,108.3,5.845,1.85,335.95,0.000000,0.000000,0.000000,0.000000
1386922757,0,0,0.0,0,0,0,0,0,0,-0.0292,-2400.3774,6.8213,0.4212,54.895233,9.797958,108.3,5.845,1.85,335.95,0.000000,0.000000,0.000000,0.000000
1386922757,0,0,0.0,0,0,0,0,0,0,-0.0292,-2400.3774,6.8213,0.4212,54.895233,9.797958,108.3,5.845,1.85,335.95,0.000000,0.000000,0.000000,0.000000
1386922757,0,0,0.0,0,0,0,0,0,0,-0.0292,-2400.3774,6.8213,0.4212,54.895233,9.797958,108.3,5.845,1.85,335.95,0.000000,0.000000,0.000000,0.000000
1386922758,0,0,0.0,0,0,0,0,0,0,-0.0292,-2400.3774,6.8213,0.4212,54.895233,9.797958,108.3,5.845,1.85,335.95,0.000000,0.000000,0.000000,0.000000
1386922758,0,0,0.0,0,0,0,0,0,0,-0.0292,-2400.3774,6.8213,0.4212,54.895233,9.797958,108.3,5.845,1.85,335.95,0.000000,0.000000,0.000000,0.000000
1386922758,0,0,0.0,0,0,0,0,0,0,-0.0292,-2400.3774,6.8213,0.4212,54.895233,9.797958,108.3,5.845,1.85,335.95,0.000000,0.000000,0.000000,0.000000
1386922758,0,0,0.0,0,0,0,0,0,0,-0.0292,-2400.3774,6.8213,0.4212,54.896763,9.792670,108.3,5.845,1.85,335.95,0.000000,0.000000,0.000000,0.000000
1386922759,0,0,0.0,0,0,0,0,0,0,-0.0292,-2400.3774,6.8213,0.4212,54.896763,9.792670,108.3,5.845,1.85,335.95,0.000000,0.000000,0.000000,0.000000
1386922759,0,0,0.0,0,0,0,0,0,0,-0.0292,-2400.3774,6.8213,0.4212,54.896763,9.792670,108.3,5.845,1.85,335.95,0.000000,0.000000,0.000000,0.000000
1386922759,0,0,0.0,0,0,0,0,0,0,-0.0292,-2400.3774,6.8213,0.4212,54.896763,9.792670,108.3,5.845,1.85,335.95,0.000000,0.000000,0.000000,0.000000
1386922759,0,0,0.0,0,0,0,0,0,0,-0.0292,-2400.3774,6.8213,0.4212,54.896763,9.792670,108.3,5.845,1.85,335.95,0.000000,0.000000,0.000000,0.000000
1386922760,0,0,0.0,0,0,0,0,0,0,-0.0292,-2400.3774,6.8213,0.4212,54.896763,9.792670,108.3,5.845,1.85,335.95,0.000000,0.000000,0.000000,0.000000
1386922760,0,0,0.0,0,0,0,0,0,0,-0.0292,-2400.3774,6.8213,0.4212,54.896763,9.792670,108.3,5.845,1.85,335.95,0.000000,0.000000,0.000000,0.000000
1386922760,4,0,0.0,0,0,0,0,0,0,-0.0292,-2400.3774,6.8213,0.4212,54.896763,9.792670,108.3,5.845,1.85,335.95,0.000000,0.000000,0.000000,0.000000
1386922760,1,0,485.9,0,-6,-4,0,713,750,-0.0292,-2398.7773,6.8213,0.4212,54.896755,9.792697,108.3,5.845,1.85,335.95,54.896763,9.792670,54.895069,9.793790
1386922761,1,0,485.9,0,-5,-8,0,713,700,-0.0292,-2397.4441,6.8213,0.4212,54.896748,9.792724,108.3,5.845,1.85,335.95,54.896763,9.792670,54.895069,9.793790
1386922761,1,0,485.9,0,-3,-4,0,0,650,-0.0292,-2396.6440,6.8213,0.4212,54.896736,9.792749,108.3,5.845,1.85,335.95,54.896763,9.792670,54.895069,9.793790
1386922761,1,0,485.9,0,-3,0,0,0,600,-0.0292,-2395.8440,6.8213,0.4212,54.896729,9.792775,108.3,5.845,1.85,335.95,54.896763,9.792670,54.895069,9.793790
1386922761,1,0,485.9,0,-2,-4,0,0,550,-0.0292,-2395.3105,6.8213,0.4212,54.896717,9.792801,108.3,5.845,1.85,335.95,54.896763,9.792670,54.895069,9.793790
1386922762,1,0,485.9,0,-1,0,0,0,500,-0.0292,-2395.0439,6.8213,0.4212,54.896706,9.792827,108.3,5.845,1.85,335.95,54.896763,9.792670,54.895069,9.793790
1386922762,1,0,485.9,0,-1,-4,0,0,450,-0.0292,-2394.7773,6.8213,0.4212,54.896694,9.792852,108.3,5.845,1.85,335.95,54.896763,9.792670,54.895069,9.793790
1386922762,1,0,485.9,0,-1,0,0,0,400,-0.0292,-2394.5107,6.8213,0.4212,54.896683,9.792877,108.3,5.845,1.85,335.95,54.896763,9.792670,54.895069,9.793790
1386922762,1,0,485.9,0,0,4,0,0,350,-0.0292,-2394.5107,6.8213,0.4212,54.896671,9.792903,108.3,5.845,1.85,335.95,54.896763,9.792670,54.895069,9.793790
1386922763,1,0,485.9,0,0,0,0,0,300,-0.0292,-2394.5107,6.8213,0.4212,54.896660,9.792928,108.3,5.845,1.85,335.95,54.896763,9.792670,54.895069,9.793790
1386922763,1,0,485.9,0,0,4,0,0,250,-0.0292,-2394.5107,6.8213,0.4212,54.896648,9.792953,108.3,5.845,1.85,335.95,54.896763,9.792670,54.895069,9.793790
1386922763,1,0,485.9,0,0,0,0,0,200,-0.0292,-2394.5107,6.8213,0.4212,54.896637,9.792979,108.3,5.845,1.85,335.95,54.896763,9.792670,54.895069,9.793790
1386922763,1,0,485.9,0,0,4,0,0,150,-0.0292,-2394.5107,6.8213,0.4212,54.896629,9.793004,108.3,5.845,1.85,335.95,54.896763,9.792670,54.895069,9.793790
1386922764,1,0,485.9,0,0,0,0,0,100,-0.0292,-2394.5107,6.8213,0.4212,54.896618,9.793030,108.3,5.845,1.85,335.95,54.896763,9.792670,54.895069,9.793790
1386922764,1,0,485.9,0,0,4,0,0,50,-0.0292,-2394.5107,6.8213,0.4212,54.896610,9.793055,108.3,5.845,1.85,335.95,54.896763,9.792670,54.895069,9.793790
1386922764,1,0,485.9,0,0,0,0,0,0,-0.0292,-2394.5107,6.8213,0.4212,54.896599,9.793080,108.3,5.845,1.85,335.95,54.896763,9.792670,54.895069,9.793790
1386922764,1,0,485.9,0,0,4,0,0,0,-0.0292,-2394.5107,6.8213,0.4212,54.896587,9.793106,108.3,5.845,1.85,335.95,54.896763,9.792670,54.895069,9.793790
1386922765,1,0,545.9,0,-35,0,0,0,0,-0.0292,-2385.1775,6.8213,0.4212,54.896576,9.793128,108.3,5.845,1.85,335.95,54.896763,9.792670,54.895069,9.793790
1386922765,1,0,545.9,0,-35,-4,0,0,0,-0.0292,-2375.8442,6.8213,0.4212,54.896561,9.793146,108.3,5.845,1.85,335.95,54.896763,9.792670,54.895069,9.793790
1386922765,1,0,545.9,0,-35,-8,0,0,0,-0.0292,-2366.5110,6.8213,0.4212,54.896545,9.793159,108.3,5.845,1.85,335.95,54.896763,9.792670,54.895069,9.793790
1386922765,1,0,545.9,0,-32,-12,0,0,0,-0.0292,-2357.9775,6.8213,0.4212,54.896526,9.793169,108.3,5.845,1.85,335.95,54.896763,9.792670,54.895069,9.793790
1386922766,1,0,545.9,0,-24,-16,0,0,0,-0.0292,-2351.5776,6.8213,0.4212,54.896507,9.793176,108.3,5.845,1.85,335.95,54.896763,9.792670,54.895069,9.793790
1386922766,1,0,545.9,0,-18,-20,0,0,0,-0.0292,-2346.7776,6.8213,0.4212,54.896488,9.793180,108.3,5.845,1.85,335.95,54.896763,9.792670,54.895069,9.793790
1386922766,1,0,545.9,0,-13,-16,0,0,0,-0.0292,-2343.3110,6.8213,0.4212,54.896473,9.793181,108.3,5.845,1.85,335.95,54.896763,9.792670,54.895069,9.793790
1386922766,1,0,545.9,0,-9,-12,0,0,0,-0.0292,-2340.9111,6.8213,0.4212,54.896454,9.793182,108.3,5.845,1.85,335.95,54.896763,9.792670,54.895069,9.793790
1386922767,1,0,545.9,0,-7,-8,0,0,0,-0.0292,-2339.0444,6.8213,0.4212,54.896435,9.793182,108.3,5.845,1.85,335.95,54.896763,9.792670,54.895069,9.793790
1386922767,1,0,545.9,0,-5,-4,0,0,0,-0.0292,-2337.7112,6.8213,0.4212,54.896416,9.793181,108.3,5.845,1.85,335.95,54.896763,9.792670,54.895069,9.793790
1386922767,1,0,545.9,0,-4,0,0,713,50,-0.0292,-2336.6445,6.8213,0.4212,54.896400,9.793180,108.3,5.845,1.85,335.95,54.896763,9.792670,54.895069,9.793790
1386922767,1,0,545.9,0,-3,-4,0,713,100,-0.0292,-2335.8445,6.8213,0.4212,54.896381,9.793178,108.3,5.845,1.85,335.95,54.896763,9.792670,54.895069,9.793790
1386922768,1,0,545.9,0,-2,0,0,713,150,-0.0292,-2335.3110,6.8213,0.4212,54.896362,9.793176,108.3,5.845,1.85,335.95,54.896763,9.792670,54.895069,9.793790
1386922768,1,0,545.9,0,-1,-4,0,713,200,-0.0292,-2335.0444,6.8213,0.4212,54.896343,9.793173,108.3,5.845,1.85,335.95,54.896763,9.792670,54.895069,9.793790
1386922768,1,0,545.9,0,-1,0,0,713,250,-0.0292,-2334.7778,6.8213,0.4212,54.896328,9.793170,108.3,5.845,1.85,335.95,54.896763,9.792670,54.895069,9.793790
1386922768,1,0,545.9,0,-1,-4,0,713,300,-0.0292,-2334.5112,6.8213,0.4212,54.896309,9.793167,108.3,5.845,1.85,335.95,54.896763,9.792670,54.895069,9.793790
1386922769,1,0,545.9,0,0,0,0,713,350,-0.0292,-2334.5112,6.8213,0.4212,54.896290,9.793164,108.3,5.845,1.85,335.95,54.896763,9.792670,54.895069,9.793790
1386922769,1,0,545.9,0,0,4,0,713,400,-0.0292,-2334.5112,6.8213,0.4212,54.896271,9.793161,108.3,5.845,1.85,335.95,54.896763,9.792670,54.895069,9.793790
1386922769,1,0,545.9,0,0,0,0,713,450,-0.0292,-2334.5112,6.8213,0.4212,54.896255,9.793159,108.3,5.845,1.85,335.95,54.896763,9.792670,54.895069,9.793790
1386922769,1,0,545.9,0,0,4,0,713,500,-0.0292,-2334.5112,6.8213,0.4212,54.896236,9.793156,108.3,5.845,1.85,335.95,54.896763,9.792670,54.895069,9.793790
1386922770,1,0,545.9,0,0,0,0,713,550,-0.0292,-2334.5112,6.8213,0.4212,54.896217,9.793153,108.3,5.845,1.85,335.95,54.896763,9.792670,54.895069,9.793790
1386922770,1,0,545.9,0,0,4,0,713,600,-0.0292,-2334.5112,6.8213,0.4212,54.896202,9.793150,108.3,5.845,1.85,335.95,54.896763,9.792670,54.895069,9.793790
1386922770,1,0,545.9,0,0,0,0,713,650,-0.0292,-2334.5112,6.8213,0.4212,54.896183,9.793146,108.3,5.845,1.85,335.95,54.896763,9.792670,54.895069,9.793790
1386922770,1,0,545.9,0,0,4,0,713,700,-0.0292,-2334.5112,6.8213,0.4212,54.896164,9.793142,108.3,5.845,1.85,335.95,54.896763,9.792670,54.895069,9.793790
1386922771,1,0,545.9,0,0,0,0,713,750,-0.0292,-2334.5112,6.8213,0.4212,54.896145,9.793139,108.3,5.845,1.85,335.95,54.896763,9.792670,54.895069,9.793790
1386922771,1,0,545.9,0,0,4,0,713,700,-0.0292,-2334.5112,6.8213,0.4212,54.896130,9.793137,108.3,5.845,1.85,335.95,54.896763,9.792670,54.895069,9.793790
1386922771,1,0,545.9,0,0,0,0,713,750,-0.0292,-2334.5112,6.8213,0.4212,54.896111,9.793134,108.3,5.845,1.85,335.95,54.896763,9.792670,54.895069,9.793790
1386922772,1,0,545.9,0,0,4,0,713,700,-0.0292,-2334.5112,6.8213,0.4212,54.896091,9.793131,108.3,5.845,1.85,335.95,54.896763,9.792670,54.895069,9.793790
1386922772,1,0,545.9,0,0,0,0,713,750,-0.0292,-2334.5112,6.8213,0.4212,54.896072,9.793128,108.3,5.845,1.85,335.95,54.896763,9.792670,54.895069,9.793790
1386922772,1,0,545.9,0,0,4,0,713,700,-0.0292,-2334.5112,6.8213,0.4212,54.896057,9.793125,108.3,5.845,1.85,335.95,54.896763,9.792670,54.895069,9.793790
1386922772,1,0,545.9,0,0,0,0,713,750,-0.0292,-2334.5112,6.8213,0.4212,54.896038,9.793122,108.3,5.845,1.85,335.95,54.896763,9.792670,54.895069,9.793790
1386922773,1,0,545.9,0,0,4,0,713,700,-0.0292,-2334.5112,6.8213,0.4212,54.896019,9.793119,108.3,5.845,1.85,335.95,54.896763,9.792670,54.895069,9.793790
1386922773,1,0,545.9,0,0,0,0,713,750,-0.0292,-2334.5112,6.8213,0.4212,54.896000,9.793117,108.3,5.845,1.85,335.95,54.896763,9.792670,54.895069,9.793790
1386922773,1,0,545.9,0,0,4,0,713,700,-0.0292,-2334.5112,6.8213,0.4212,54.895985,9.793114,108.3,5.845,1.85,335.95,54.896763,9.792670,54.895069,9.793790
1386922773,1,0,545.9,0,0,0,0,713,750,-0.0292,-2334.5112,6.8213,0.4212,54.895966,9.793111,108.3,5.845,1.85,335.95,54.896763,9.792670,54.895069,9.793790
1386922774,1,0,545.9,0,0,4,0,713,700,-0.0292,-2334.5112,6.8213,0.4212,54.895947,9.793108,108.3,5.845,1.85,335.95,54.896763,9.792670,54.895069,9.793790
1386922774,1,0,545.9,0,0,0,0,713,750,-0.0292,-2334.5112,6.8213,0.4212,54.895931,9.793104,108.3,5.845,1.85,335.95,54.896763,9.792670,54.895069,9.793790
1386922774,1,0,545.9,0,0,4,0,713,700,-0.0292,-2334.5112,6.8213,0.4212,54.895912,9.793100,108.3,5.845,1.85,335.95,54.896763,9.792670,54.895069,9.793790
1386922774,1,0,545.9,0,0,0,0,713,750,-0.0292,-2334.5112,6.8213,0.4212,54.895893,9.793097,108.3,5.845,1.85,335.95,54.896763,9.792670,54.895069,9.793790
1386922775,1,0,545.9,0,0,4,0,713,700,-0.0292,-2334.5112,6.8213,0.4212,54.895874,9.793095,108.3,5.845,1.85,335.95,54.896763,9.792670,54.895069,9.793790
1386922775,1,0,545.9,0,0,0,0,713,750,-0.0292,-2334.5112,6.8213,0.4212,54.895859,9.793092,108.3,5.845,1.85,335.95,54.896763,9.792670,54.895069,9.793790
1386922775,1,0,545.9,0,0,4,0,713,700,-0.0292,-2334.5112,6.8213,0.4212,54.895840,9.793089,108.3,5.845,1.85,335.95,54.896763,9.792670,54.895069,9.793790
1386922775,1,0,545.9,0,0,0,0,713,750,-0.0292,-2334.5112,6.8213,0.4212,54.895821,9.793086,108.3,5.845,1.85,335.95,54.896763,9.792670,54.895069,9.793790
1386922776,1,0,545.9,0,0,4,0,713,700,-0.0292,-2334.5112,6.8213,0.4212,54.895802,9.793083,108.3,5.845,1.85,335.95,54.896763,9.792670,54.895069,9.793790
1386922776,1,0,545.9,0,0,0,0,713,750,-0.0292,-2334.5112,6.8213,0.4212,54.895786,9.793080,108.3,5.845,1.85,335.95,54.896763,9.792670,54.895069,9.793790
1386922776,1,0,545.9,0,0,4,0,713,700,-0.0292,-2334.5112,6.8213,0.4212,54.895767,9.793077,108.3,5.845,1.85,335.95,54.896763,9.792670,54.895069,9.793790
1386922776,1,0,545.9,0,0,0,0,713,750,-0.0292,-2334.5112,6.8213,0.4212,54.895748,9.793075,108.3,5.845,1.85,335.95,54.896763,9.792670,54.895069,9.793790
1386922777,1,0,545.9,0,0,4,0,713,700,-0.0292,-2334.5112,6.8213,0.4212,54.895729,9.793072,108.3,5.845,1.85,335.95,54.896763,9.792670,54.895069,9.793790
1386922777,1,0,545.9,0,0,0,0,713,750,-0.0292,-2334.5112,6.8213,0.4212,54.895714,9.793069,108.3,5.845,1.85,335.95,54.896763,9.792670,54.895069,9.793790
1386922777,1,0,545.9,0,0,4,0,713,700,-0.0292,-2334.5112,6.8213,0.4212,54.895695,9.793066,108.3,5.845,1.85,335.95,54.896763,9.792670,54.895069,9.793790
1386922777,1,0,545.9,0,0,0,0,713,750,-0.0292,-2334.5112,6.8213,0.4212,54.895676,9.793063,108.3,5.845,1.85,335.95,54.896763,9.792670,54.895069,9.793790
1386922778,1,0,545.9,0,0,4,0,713,700,-0.0292,-2334.5112,6.8213,0.4212,54.895657,9.793059,108.3,5.845,1.85,335.95,54.896763,9.792670,54.895069,9.793790
1386922778,1,0,545.9,0,0,0,0,713,750,-0.0292,-2334.5112,6.8213,0.4212,54.895641,9.793056,108.3,5.845,1.85,335.95,54.896763,9.792670,54.895069,9.793790
1386922778,1,0,545.9,0,0,4,0,713,700,-0.0292,-2334.5112,6.8213,0.4212,54.895622,9.793054,108.3,5.845,1.85,335.95,54.896763,9.792670,54.895069,9.793790
1386922778,1,0,545.9,0,0,0,0,713,750,-0.0292,-2334.5112,6.8213,0.4212,54.895603,9.793051,108.3,5.845,1.85,335.95,54.896763,9.792670,54.895069,9.793790
1386922779,1,0,545.9,0,0,4,0,713,700,-0.0292,-2334.5112,6.8213,0.4212,54.895588,9.793048,108.3,5.845,1.85,335.95,54.896763,9.792670,54.895069,9.793790
1386922779,1,0,545.9,0,0,0,0,713,750,-0.0292,-2334.5112,6.8213,0.4212,54.895569,9.793045,108.3,5.845,1.85,335.95,54.896763,9.792670,54.895069,9.793790
1386922779,1,0,545.9,0,0,4,0,713,700,-0.0292,-2334.5112,6.8213,0.4212,54.895550,9.793042,108.3,5.845,1.85,335.95,54.896763,9.792670,54.895069,9.793790
1386922779,1,0,545.9,0,0,0,0,713,750,-0.0292,-2334.5112,6.8213,0.4212,54.895531,9.793039,108.3,5.845,1.85,335.95,54.896763,9.792670,54.895069,9.793790
1386922780,1,0,545.9,0,0,4,0,713,700,-0.0292,-2334.5112,6.8213,0.4212,54.895515,9.793036,108.3,5.845,1.85,335.95,54.896763,9.792670,54.895069,9.793790
1386922780,1,0,545.9,0,0,0,0,713,750,-0.0292,-2334.5112,6.8213,0.4212,54.895496,9.793034,108.3,5.845,1.85,335.95,54.896763,9.792670,54.895069,9.793790
1386922780,1,0,545.9,0,0,4,0,713,700,-0.0292,-2334.5112,6.8213,0.4212,54.895477,9.793031,108.3,5.845,1.85,335.95,54.896763,9.792670,54.895069,9.793790
1386922780,1,0,545.9,0,0,0,0,713,750,-0.0292,-2334.5112,6.8213,0.4212,54.895458,9.793028,108.3,5.845,1.85,335.95,54.896763,9.792670,54.895069,9.793790
1386922781,1,0,545.9,0,0,4,0,713,700,-0.0292,-2334.5112,6.8213,0.4212,54.895443,9.793025,108.3,5.845,1.85,335.95,54.896763,9.792670,54.895069,9.793790
1386922781,1,0,545.9,0,0,0,0,713,750,-0.0292,-2334.5112,6.8213,0.4212,54.895424,9.793022,108.3,5.845,1.85,335.95,54.896763,9.792670,54.895069,9.793790
1386922781,1,0,545.9,0,0,4,0,713,700,-0.0292,-2334.5112,6.8213,0.4212,54.895405,9.793018,108.3,5.845,1.85,335.95,54.896763,9.792670,54.895069,9.793790
1386922781,1,0,545.9,0,0,0,0,713,750,-0.0292,-2334.5112,6.8213,0.4212,54.895386,9.793015,108.3,5.845,1.85,335.95,54.896763,9.792670,54.895069,9.793790
1386922782,1,0,545.9,0,0,4,0,713,700,-0.0292,-2334.5112,6.8213,0.4212,54.895370,9.793012,108.3,5.845,1.85,335.95,54.896763,9.792670,54.895069,9.793790
1386922782,1,0,545.9,0,0,0,0,0,650,-0.0292,-2334.5112,6.8213,0.4212,54.895351,9.793009,108.3,5.845,1.85,335.95,54.896763,9.792670,54.895069,9.793790
1386922782,1,0,545.9,0,0,4,0,0,600,-0.0292,-2334.5112,6.8213,0.4212,54.895332,9.793006,108.3,5.845,1.85,335.95,54.896763,9.792670,54.895069,9.793790
1386922782,1,0,545.9,0,0,0,0,0,550,-0.0292,-2334.5112,6.8213,0.4212,54.895317,9.793003,108.3,5.845,1.85,335.95,54.896763,9.792670,54.895069,9.793790
1386922783,1,0,545.9,0,0,4,0,0,500,-0.0292,-2334.5112,6.8213,0.4212,54.895298,9.793000,108.3,5.845,1.85,335.95,54.896763,9.792670,54.895069,9.793790
1386922783,1,0,545.9,0,0,0,0,0,450,-0.0292,-2334.5112,6.8213,0.4212,54.895279,9.792997,108.3,5.845,1.85,335.95,54.896763,9.792670,54.895069,9.793790
1386922783,1,0,545.9,0,0,4,0,0,400,-0.0292,-2334.5112,6.8213,0.4212,54.895260,9.792994,108.3,5.845,1.85,335.95,54.896763,9.792670,54.895069,9.793790
1386922783,1,0,545.9,0,0,0,0,0,350,-0.0292,-2334.5112,6.8213,0.4212,54.895245,9.792992,108.3,5.845,1.85,335.95,54.896763,9.792670,54.895069,9.793790
1386922784,1,0,545.9,0,0,4,0,0,300,-0.0292,-2334.5112,6.8213,0.4212,54.895226,9.792989,108.3,5.845,1.85,335.95,54.896763,9.792670,54.895069,9.793790
1386922784,1,0,545.9,0,0,0,0,0,250,-0.0292,-2334.5112,6.8213,0.4212,54.895206,9.792986,108.3,5.845,1.85,335.95,54.896763,9.792670,54.895069,9.793790
1386922784,1,0,545.9,0,0,4,0,0,200,-0.0292,-2334.5112,6.8213,0.4212,54.895187,9.792983,108.3,5.845,1.85,335.95,54.896763,9.792670,54.895069,9.793790
1386922784,1,0,545.9,0,0,0,0,0,150,-0.0292,-2334.5112,6.8213,0.4212,54.895172,9.792980,108.3,5.845,1.85,335.95,54.896763,9.792670,54.895069,9.793790
1386922785,1,0,545.9,0,0,4,0,0,100,-0.0292,-2334.5112,6.8213,0.4212,54.895153,9.792977,108.3,5.845,1.85,335.95,54.896763,9.792670,54.895069,9.793790
1386922785,1,0,545.9,0,0,0,0,0,50,-0.0292,-2334.5112,6.8213,0.4212,54.895134,9.792974,108.3,5.845,1.85,335.95,54.896763,9.792670,54.895069,9.793790
1386922785,1,0,545.9,0,0,4,0,0,0,-0.0292,-2334.5112,6.8213,0.4212,54.895115,9.792971,108.3,5.845,1.85,335.95,54.896763,9.792670,54.895069,9.793790
1386922785,1,0,545.9,0,0,0,0,0,0,-0.0292,-2334.5112,6.8213,0.4212,54.895100,9.792968,108.3,5.845,1.85,335.95,54.896763,9.792670,54.895069,9.793790
1386922786,1,0,485.9,0,35,4,0,0,0,-0.0292,-2343.8445,6.8213,0.4212,54.895081,9.792971,108.3,5.845,1.85,335.95,54.896763,9.792670,54.895069,9.793790
1386922786,1,0,485.9,0,35,8,0,0,0,-0.0292,-2353.1777,6.8213,0.4212,54.895061,9.792978,108.3,5.845,1.85,335.95,54.896763,9.792670,54.895069,9.793790
1386922786,1,0,485.9,0,35,12,0,0,0,-0.0292,-2362.5110,6.8213,0.4212,54.895046,9.792990,108.3,5.845,1.85,335.95,54.896763,9.792670,54.895069,9.793790
1386922786,1,0,485.9,0,32,16,0,0,0,-0.0292,-2371.0444,6.8213,0.4212,54.895027,9.793006,108.3,5.845,1.85,335.95,54.896763,9.792670,54.895069,9.793790
1386922787,1,0,485.9,0,23,20,0,0,0,-0.0292,-2377.1777,6.8213,0.4212,54.895012,9.793025,108.3,5.845,1.85,335.95,54.896763,9.792670,54.895069,9.793790
1386922787,1,0,485.9,0,17,16,0,0,0,-0.0292,-2381.7112,6.8213,0.4212,54.895000,9.793045,108.3,5.845,1.85,335.95,54.896763,9.792670,54.895069,9.793790
1386922787,1,0,485.9,0,12,12,0,0,0,-0.0292,-2384.9111,6.8213,0.4212,54.894985,9.793067,108.3,5.845,1.85,335.95,54.896763,9.792670,54.895069,9.793790
1386922787,1,0,485.9,0,9,8,0,0,0,-0.0292,-2387.3110,6.8213,0.4212,54.894974,9.793090,108.3,5.845,1.85,335.95,54.896763,9.792670,54.895069,9.793790
1386922788,1,0,485.9,0,7,4,0,0,0,-0.0292,-2389.1777,6.8213,0.4212,54.894958,9.793114,108.3,5.845,1.85,335.95,54.896763,9.792670,54.895069,9.793790
1386922788,1,0,485.9,0,5,8,0,0,0,-0.0292,-2390.5110,6.8213,0.4212,54.894947,9.793138,108.3,5.845,1.85,335.95,54.896763,9.792670,54.895069,9.793790
1386922788,1,0,485.9,0,4,4,0,713,50,-0.0292,-2391.5776,6.8213,0.4212,54.894936,9.793162,108.3,5.845,1.85,335.95,54.896763,9.792670,54.895069,9.793790
1386922788,1,0,485.9,0,2,0,0,713,100,-0.0292,-2392.1111,6.8213,0.4212,54.894924,9.793187,108.3,5.845,1.85,335.95,54.896763,9.792670,54.895069,9.793790
1386922789,1,0,485.9,0,2,4,0,713,150,-0.0292,-2392.6445,6.8213,0.4212,54.894913,9.793212,108.3,5.845,1.85,335.95,54.896763,9.792670,54.895069,9.793790
1386922789,1,0,485.9,0,1,0,0,713,200,-0.0292,-2392.9111,6.8213,0.4212,54.894901,9.793237,108.3,5.845,1.85,335.95,54.896763,9.792670,54.895069,9.793790
1386922789,1,0,485.9,0,1,4,0,713,250,-0.0292,-2393.1777,6.8213,0.4212,54.894890,9.793262,108.3,5.845,1.85,335.95,54.896763,9.792670,54.895069,9.793790
1386922789,1,0,485.9,0,1,0,0,713,300,-0.0292,-2393.4443,6.8213,0.4212,54.894878,9.793286,108.3,5.845,1.85,335.95,54.896763,9.792670,54.895069,9.793790
1386922790,1,0,485.9,0,1,4,0,713,350,-0.0292,-2393.7109,6.8213,0.4212,54.894867,9.793311,108.3,5.845,1.85,335.95,54.896763,9.792670,54.895069,9.793790
1386922790,1,0,485.2,0,1,0,0,713,400,-0.0292,-2393.9775,6.8213,0.4212,54.894859,9.793337,108.3,5.845,1.85,335.95,54.896763,9.792670,54.895069,9.793790
1386922790,1,0,411.3,0,35,4,0,713,450,-0.0292,-2403.3108,6.8213,0.4212,54.894852,9.793365,108.3,5.845,1.85,335.95,54.896763,9.792670,54.895069,9.793790
1386922790,1,0,390.9,0,35,8,0,713,500,-0.0292,-2412.6440,6.8213,0.4212,54.894844,9.793394,108.3,5.845,1.85,335.95,54.896763,9.792670,54.895069,9.793790
1386922791,1,0,390.9,0,35,12,0,870,550,-0.0292,-2421.9773,6.8213,0.4212,54.894844,9.793426,108.3,5.845,1.85,335.95,54.896763,9.792670,54.895069,9.793790
1386922791,1,0,390.9,0,35,16,0,870,600,-0.0292,-2431.3105,6.8213,0.4212,54.894848,9.793457,108.3,5.845,1.85,335.95,54.896763,9.792670,54.895069,9.793790
1386922791,1,0,390.9,0,35,20,0,754,650,-0.0292,-2440.6438,6.8213,0.4212,54.894848,9.793488,108.3,5.845,1.85,335.95,54.896763,9.792670,54.895069,9.793790
1386922791,1,0,390.9,0,35,24,0,612,600,-0.0292,-2449.9771,6.8213,0.4212,54.894852,9.793517,108.3,5.845,1.85,335.95,54.896763,9.792670,54.895069,9.793790
1386922792,1,0,390.9,0,35,28,0,464,550,-0.0292,-2459.3103,6.8213,0.4212,54.894859,9.793545,108.3,5.845,1.85,335.95,54.896763,9.792670,54.895069,9.793790
1386922792,1,0,390.9,0,30,32,0,315,500,-0.0292,-2467.3103,6.8213,0.4212,54.894871,9.793570,108.3,5.845,1.85,335.95,54.896763,9.792670,54.895069,9.793790
1386922792,1,0,390.9,0,22,28,0,194,450,-0.0292,-2473.1770,6.8213,0.4212,54.894886,9.793592,108.3,5.845,1.85,335.95,54.896763,9.792670,54.895069,9.793790
1386922792,1,0,390.9,0,16,24,0,114,400,-0.0292,-2477.4436,6.8213,0.4212,54.894901,9.793613,108.3,5.845,1.85,335.95,54.896763,9.792670,54.895069,9.793790
1386922793,1,0,390.9,0,12,20,0,65,350,-0.0292,-2480.6436,6.8213,0.4212,54.894913,9.793633,108.3,5.845,1.85,335.95,54.896763,9.792670,54.895069,9.793790
1386922793,1,0,390.9,0,8,16,0,35,300,-0.0292,-2482.7769,6.8213,0.4212,54.894928,9.793653,108.3,5.845,1.85,335.95,54.896763,9.792670,54.895069,9.793790
1386922793,1,0,390.9,0,6,12,0,20,250,-0.0292,-2484.3770,6.8213,0.4212,54.894943,9.793671,108.3,5.845,1.85,335.95,54.896763,9.792670,54.895069,9.793790
1386922793,1,0,390.9,0,5,8,0,11,200,-0.0292,-2485.7102,6.8213,0.4212,54.894958,9.793688,108.3,5.845,1.85,335.95,54.896763,9.792670,54.895069,9.793790
1386922794,1,0,390.9,0,3,4,0,5,150,-0.0292,-2486.5103,6.8213,0.4212,54.894974,9.793705,108.3,5.845,1.85,335.95,54.896763,9.792670,54.895069,9.793790
1386922794,1,0,390.9,0,3,0,0,3,100,-0.0292,-2487.3103,6.8213,0.4212,54.894989,9.793721,108.3,5.845,1.85,335.95,54.896763,9.792670,54.895069,9.793790
1386922794,1,0,390.9,0,2,4,0,1,50,-0.0292,-2487.8438,6.8213,0.4212,54.895004,9.793737,108.3,5.845,1.85,335.95,54.896763,9.792670,54.895069,9.793790
1386922794,1,0,390.9,0,1,0,0,0,0,-0.0292,-2488.1104,6.8213,0.4212,54.895020,9.793755,108.3,5.845,1.85,335.95,54.896763,9.792670,54.895069,9.793790
1386922795,1,0,390.9,0,1,4,0,0,0,-0.0292,-2488.3770,6.8213,0.4212,54.895039,9.793771,108.3,5.845,1.85,335.95,54.896763,9.792670,54.895069,9.793790
1386922795,1,0,390.9,0,1,0,0,0,0,-0.0292,-2488.6436,6.8213,0.4212,54.895054,9.793787,108.3,5.845,1.85,335.95,54.895069,9.793790,54.895348,9.797490
1386922795,1,0,442.2,0,-35,-4,0,0,0,-0.0292,-2479.3103,6.8213,0.4212,54.895065,9.793808,108.3,5.845,1.85,335.95,54.895069,9.793790,54.895348,9.797490
1386922795,1,0,442.5,0,-35,-8,0,47,50,-0.0292,-2469.9771,6.8213,0.4212,54.895077,9.793832,108.3,5.845,1.85,335.95,54.895069,9.793790,54.895348,9.797490
1386922796,1,0,442.7,0,-33,-12,0,156,100,-0.0292,-2461.1770,6.8213,0.4212,54.895084,9.793858,108.3,5.845,1.85,335.95,54.895069,9.793790,54.895348,9.797490
1386922796,1,0,442.9,0,-24,-16,0,286,150,-0.0292,-2454.7771,6.8213,0.4212,54.895092,9.793886,108.3,5.845,1.85,335.95,54.895069,9.793790,54.895348,9.797490
1386922796,1,0,443.0,0,-18,-20,0,387,200,-0.0292,-2449.9771,6.8213,0.4212,54.895100,9.793916,108.3,5.845,1.85,335.95,54.895069,9.793790,54.895348,9.797490
1386922796,1,0,443.2,0,-13,-16,0,464,250,-0.0292,-2446.5105,6.8213,0.4212,54.895103,9.793946,108.3,5.845,1.85,335.95,54.895069,9.793790,54.895348,9.797490
1386922797,1,0,443.2,0,-10,-12,0,519,300,-0.0292,-2443.8438,6.8213,0.4212,54.895107,9.793977,108.3,5.845,1.85,335.95,54.895069,9.793790,54.895348,9.797490
1386922797,1,0,443.3,0,-7,-8,0,561,350,-0.0292,-2441.9771,6.8213,0.4212,54.895111,9.794007,108.3,5.845,1.85,335.95,54.895069,9.793790,54.895348,9.797490
1386922797,1,0,443.3,0,-5,-4,0,591,400,-0.0292,-2440.6438,6.8213,0.4212,54.895115,9.794038,108.3,5.845,1.85,335.95,54.895069,9.793790,54.895348,9.797490
1386922797,1,0,443.4,0,-4,0,0,612,450,-0.0292,-2439.5771,6.8213,0.4212,54.895119,9.794069,108.3,5.845,1.85,335.95,54.895069,9.793790,54.895348,9.797490
1386922798,1,0,443.4,0,-3,-4,0,628,500,-0.0292,-2438.7771,6.8213,0.4212,54.895119,9.794100,108.3,5.845,1.85,335.95,54.895069,9.793790,54.895348,9.797490
1386922798,1,0,443.3,0,-2,0,0,641,550,-0.0292,-2438.2437,6.8213,0.4212,54.895119,9.794130,108.3,5.845,1.85,335.95,54.895069,9.793790,54.895348,9.797490
1386922798,1,0,443.3,0,-2,-4,0,649,600,-0.0292,-2437.7102,6.8213,0.4212,54.895119,9.794162,108.3,5.845,1.85,335.95,54.895069,9.793790,54.895348,9.797490
1386922798,1,0,443.2,0,-1,0,0,657,650,-0.0292,-2437.4436,6.8213,0.4212,54.895119,9.794193,108.3,5.845,1.85,335.95,54.895069,9.793790,54.895348,9.797490
1386922799,1,0,443.2,0,-1,-4,0,661,700,-0.0292,-2437.1770,6.8213,0.4212,54.895119,9.794224,108.3,5.845,1.85,335.95,54.895069,9.793790,54.895348,9.797490
1386922799,1,0,443.1,0,0,0,0,665,650,-0.0292,-2437.1770,6.8213,0.4212,54.895119,9.794254,108.3,5.845,1.85,335.95,54.895069,9.793790,54.895348,9.797490
1386922799,1,0,443.0,0,0,4,0,665,700,-0.0292,-2437.1770,6.8213,0.4212,54.895119,9.794286,108.3,5.845,1.85,335.95,54.895069,9.793790,54.895348,9.797490
1386922799,1,0,443.0,0,0,0,0,665,650,-0.0292,-2437.1770,6.8213,0.4212,54.895119,9.794317,108.3,5.845,1.85,335.95,54.895069,9.793790,54.895348,9.797490
1386922800,1,0,442.9,0,0,4,0,665,700,-0.0292,-2437.1770,6.8213,0.4212,54.895119,9.794348,108.3,5.845,1.85,335.95,54.895069,9.793790,54.895348,9.797490
1386922800,1,0,442.8,0,0,0,0,665,650,-0.0292,-2437.1770,6.8213,0.4212,54.895119,9.794378,108.3,5.845,1.85,335.95,54.895069,9.793790,54.895348,9.797490
1386922800,1,0,442.8,0,0,4,0,665,700,-0.0292,-2437.1770,6.8213,0.4212,54.895119,9.794410,108.3,5.845,1.85,335.95,54.895069,9.793790,54.895348,9.797490
1386922800,1,0,442.7,0,0,0,0,665,650,-0.0292,-2437.1770,6.8213,0.4212,54.895119,9.794440,108.3,5.845,1.85,335.95,54.895069,9.793790,54.895348,9.797490
1386922801,1,0,442.6,0,0,4,0,665,700,-0.0292,-2437.1770,6.8213,0.4212,54.895119,9.794471,108.3,5.845,1.85,335.95,54.895069,9.793790,54.895348,9.797490
1386922801,1,0,442.5,0,0,0,0,665,650,-0.0292,-2437.1770,6.8213,0.4212,54.895119,9.794502,108.3,5.845,1.85,335.95,54.895069,9.793790,54.895348,9.797490
1386922801,1,0,442.5,0,0,4,0,665,700,-0.0292,-2437.1770,6.8213,0.4212,54.895119,9.794534,108.3,5.845,1.85,335.95,54.895069,9.793790,54.895348,9.797490
1386922801,1,0,442.4,0,0,0,0,665,650,-0.0292,-2437.1770,6.8213,0.4212,54.895119,9.794564,108.3,5.845,1.85,335.95,54.895069,9.793790,54.895348,9.797490
1386922802,1,0,442.3,0,1,4,0,665,700,-0.0292,-2437.4436,6.8213,0.4212,54.895119,9.794595,108.3,5.845,1.85,335.95,54.895069,9.793790,54.895348,9.797490
1386922802,1,0,442.2,0,0,0,0,661,650,-0.0292,-2437.4436,6.8213,0.4212,54.895119,9.794626,108.3,5.845,1.85,335.95,54.895069,9.793790,54.895348,9.797490
1386922802,1,0,442.1,0,0,4,0,661,700,-0.0292,-2437.4436,6.8213,0.4212,54.895119,9.794657,108.3,5.845,1.85,335.95,54.895069,9.793790,54.895348,9.797490
1386922802,1,0,442.1,0,1,0,0,661,650,-0.0292,-2437.7102,6.8213,0.4212,54.895119,9.794687,108.3,5.845,1.85,335.95,54.895069,9.793790,54.895348,9.797490
1386922803,1,0,442.0,0,0,4,0,657,700,-0.0292,-2437.7102,6.8213,0.4212,54.895119,9.794719,108.3,5.845,1.85,335.95,54.895069,9.793790,54.895348,9.797490
1386922803,1,0,441.9,0,0,0,0,657,650,-0.0292,-2437.7102,6.8213,0.4212,54.895119,9.794750,108.3,5.845,1.85,335.95,54.895069,9.793790,54.895348,9.797490
1386922803,1,0,441.8,0,1,4,0,657,700,-0.0292,-2437.9768,6.8213,0.4212,54.895119,9.794781,108.3,5.845,1.85,335.95,54.895069,9.793790,54.895348,9.797490
1386922803,1,0,441.7,0,0,0,0,653,650,-0.0292,-2437.9768,6.8213,0.4212,54.895119,9.794811,108.3,5.845,1.85,335.95,54.895069,9.793790,54.895348,9.797490
1386922804,1,0,441.6,0,0,4,0,653,700,-0.0292,-2437.9768,6.8213,0.4212,54.895119,9.794843,108.3,5.845,1.85,335.95,54.895069,9.793790,54.895348,9.797490
1386922804,1,0,441.5,0,1,0,0,653,650,-0.0292,-2438.2434,6.8213,0.4212,54.895119,9.794873,108.3,5.845,1.85,335.95,54.895069,9.793790,54.895348,9.797490
1386922804,1,0,441.4,0,0,4,0,649,600,-0.0292,-2438.2434,6.8213,0.4212,54.895119,9.794904,108.3,5.845,1.85,335.95,54.895069,9.793790,54.895348,9.797490
1386922804,1,0,441.3,0,0,0,0,649,650,-0.0292,-2438.2434,6.8213,0.4212,54.895119,9.794934,108.3,5.845,1.85,335.95,54.895069,9.793790,54.895348,9.797490
1386922805,1,0,441.2,0,1,4,0,649,600,-0.0292,-2438.5100,6.8213,0.4212,54.895119,9.794966,108.3,5.845,1.85,335.95,54.895069,9.793790,54.895348,9.797490
1386922805,1,0,441.1,0,0,0,0,645,650,-0.0292,-2438.5100,6.8213,0.4212,54.895119,9.794996,108.3,5.845,1.85,335.95,54.895069,9.793790,54.895348,9.797490
1386922805,1,0,441.0,0,1,4,0,645,600,-0.0292,-2438.7766,6.8213,0.4212,54.895119,9.795027,108.3,5.845,1.85,335.95,54.895069,9.793790,54.895348,9.797490
1386922805,1,0,440.9,0,0,0,0,641,650,-0.0292,-2438.7766,6.8213,0.4212,54.895119,9.795058,108.3,5.845,1.85,335.95,54.895069,9.793790,54.895348,9.797490
1386922806,1,0,440.8,0,0,4,0,641,600,-0.0292,-2438.7766,6.8213,0.4212,54.895119,9.795089,108.3,5.845,1.85,335.95,54.895069,9.793790,54.895348,9.797490
1386922806,1,0,440.6,0,1,0,0,641,650,-0.0292,-2439.0432,6.8213,0.4212,54.895119,9.795119,108.3,5.845,1.85,335.95,54.895069,9.793790,54.895348,9.797490
1386922806,1,0,440.5,0,0,4,0,636,600,-0.0292,-2439.0432,6.8213,0.4212,54.895119,9.795150,108.3,5.845,1.85,335.95,54.895069,9.793790,54.895348,9.797490
1386922806,1,0,440.4,0,1,0,0,636,650,-0.0292,-2439.3098,6.8213,0.4212,54.895119,9.795181,108.3,5.845,1.85,335.95,54.895069,9.793790,54.895348,9.797490
1386922807,1,0,440.3,0,0,4,0,632,600,-0.0292,-2439.3098,6.8213,0.4212,54.895119,9.795212,108.3,5.845,1.85,335.95,54.895069,9.793790,54.895348,9.797490
1386922807,1,0,440.2,0,1,0,0,632,650,-0.0292,-2439.5764,6.8213,0.4212,54.895119,9.795242,108.3,5.845,1.85,335.95,54.895069,9.793790,54.895348,9.797490
1386922807,1,0,440.0,0,0,4,0,628,600,-0.0292,-2439.5764,6.8213,0.4212,54.895119,9.795274,108.3,5.845,1.85,335.95,54.895069,9.793790,54.895348,9.797490
1386922807,1,0,439.9,0,1,0,0,628,650,-0.0292,-2439.8430,6.8213,0.4212,54.895119,9.795304,108.3,5.845,1.85,335.95,54.895069,9.793790,54.895348,9.797490
1386922808,1,0,439.7,0,0,4,0,624,600,-0.0292,-2439.8430,6.8213,0.4212,54.895119,9.795335,108.3,5.845,1.85,335.95,54.895069,9.793790,54.895348,9.797490
1386922808,1,0,439.6,0,1,0,0,624,650,-0.0292,-2440.1096,6.8213,0.4212,54.895119,9.795365,108.3,5.845,1.85,335.95,54.895069,9.793790,54.895348,9.797490
1386922808,1,0,439.5,0,0,4,0,620,600,-0.0292,-2440.1096,6.8213,0.4212,54.895119,9.795397,108.3,5.845,1.85,335.95,54.895069,9.793790,54.895348,9.797490
1386922809,1,0,439.3,0,1,0,0,620,650,-0.0292,-2440.3762,6.8213,0.4212,54.895119,9.795427,108.3,5.845,1.85,335.95,54.895069,9.793790,54.895348,9.797490
1386922809,1,0,439.1,0,0,4,0,616,600,-0.0292,-2440.3762,6.8213,0.4212,54.895119,9.795458,108.3,5.845,1.85,335.95,54.895069,9.793790,54.895348,9.797490
1386922809,1,0,439.0,0,1,0,0,616,650,-0.0292,-2440.6428,6.8213,0.4212,54.895119,9.795489,108.3,5.845,1.85,335.95,54.895069,9.793790,54.895348,9.797490
1386922809,1,0,438.8,0,1,4,0,612,600,-0.0292,-2440.9094,6.8213,0.4212,54.895119,9.795520,108.3,5.845,1.85,335.95,54.895069,9.793790,54.895348,9.797490
1386922810,1,0,438.6,0,0,0,0,607,650,-0.0292,-2440.9094,6.8213,0.4212,54.895119,9.795550,108.3,5.845,1.85,335.95,54.895069,9.793790,54.895348,9.797490
1386922810,1,0,438.5,0,1,4,0,607,600,-0.0292,-2441.1760,6.8213,0.4212,54.895119,9.795581,108.3,5.845,1.85,335.95,54.895069,9.793790,54.895348,9.797490
1386922810,1,0,438.3,0,1,0,0,603,650,-0.0292,-2441.4426,6.8213,0.4212,54.895119,9.795611,108.3,5.845,1.85,335.95,54.895069,9.793790,54.895348,9.797490
1386922810,1,0,438.1,0,0,4,0,599,600,-0.0292,-2441.4426,6.8213,0.4212,54.895119,9.795642,108.3,5.845,1.85,335.95,54.895069,9.793790,54.895348,9.797490
1386922811,1,0,437.9,0,1,0,0,599,550,-0.0292,-2441.7092,6.8213,0.4212,54.895119,9.795672,108.3,5.845,1.85,335.95,54.895069,9.793790,54.895348,9.797490
1386922811,1,0,437.7,0,1,4,0,595,600,-0.0292,-2441.9758,6.8213,0.4212,54.895119,9.795703,108.3,5.845,1.85,335.95,54.895069,9.793790,54.895348,9.797490
1386922811,1,0,437.5,0,1,0,0,591,550,-0.0292,-2442.2424,6.8213,0.4212,54.895119,9.795733,108.3,5.845,1.85,335.95,54.895069,9.793790,54.895348,9.797490
1386922811,1,0,437.3,0,0,4,0,587,600,-0.0292,-2442.2424,6.8213,0.4212,54.895119,9.795764,108.3,5.845,1.85,335.95,54.895069,9.793790,54.895348,9.797490
1386922812,1,0,437.1,0,1,0,0,587,550,-0.0292,-2442.5090,6.8213,0.4212,54.895119,9.795794,108.3,5.845,1.85,335.95,54.895069,9.793790,54.895348,9.797490
1386922812,1,0,436.9,0,1,4,0,582,600,-0.0292,-2442.7756,6.8213,0.4212,54.895119,9.795825,108.3,5.845,1.85,335.95,54.895069,9.793790,54.895348,9.797490
1386922812,1,0,436.6,0,1,0,0,578,550,-0.0292,-2443.0422,6.8213,0.4212,54.895123,9.795856,108.3,5.845,1.85,335.95,54.895069,9.793790,54.895348,9.797490
1386922812,1,0,436.6,0,0,4,0,574,600,-0.0292,-2443.0422,6.8213,0.4212,54.895126,9.795886,108.3,5.845,1.85,335.95,54.895069,9.793790,54.895348,9.797490
1386922813,1,0,436.6,0,0,0,0,574,550,-0.0292,-2443.0422,6.8213,0.4212,54.895130,9.795917,108.3,5.845,1.85,335.95,54.895069,9.793790,54.895348,9.797490
1386922813,1,0,436.6,0,0,4,0,574,600,-0.0292,-2443.0422,6.8213,0.4212,54.895134,9.795947,108.3,5.845,1.85,335.95,54.895069,9.793790,54.895348,9.797490
1386922813,1,0,436.5,0,0,0,0,574,550,-0.0292,-2443.0422,6.8213,0.4212,54.895138,9.795978,108.3,5.845,1.85,335.95,54.895069,9.793790,54.895348,9.797490
1386922813,1,0,436.5,0,0,4,0,574,600,-0.0292,-2443.0422,6.8213,0.4212,54.895142,9.796007,108.3,5.845,1.85,335.95,54.895069,9.793790,54.895348,9.797490
1386922814,1,0,436.5,0,0,0,0,574,550,-0.0292,-2443.0422,6.8213,0.4212,54.895149,9.796038,108.3,5.845,1.85,335.95,54.895069,9.793790,54.895348,9.797490
1386922814,1,0,436.7,0,0,4,0,574,600,-0.0292,-2443.0422,6.8213,0.4212,54.895153,9.796068,108.3,5.845,1.85,335.95,54.895069,9.793790,54.895348,9.797490
1386922814,1,0,436.7,0,0,0,0,574,550,-0.0292,-2443.0422,6.8213,0.4212,54.895157,9.796099,108.3,5.845,1.85,335.95,54.895069,9.793790,54.895348,9.797490
1386922814,1,0,436.7,0,0,4,0,574,600,-0.0292,-2443.0422,6.8213,0.4212,54.895161,9.796129,108.3,5.845,1.85,335.95,54.895069,9.793790,54.895348,9.797490
1386922815,1,0,436.6,0,0,0,0,574,550,-0.0292,-2443.0422,6.8213,0.4212,54.895164,9.796160,108.3,5.845,1.85,335.95,54.895069,9.793790,54.895348,9.797490
1386922815,1,0,436.6,0,0,4,0,574,600,-0.0292,-2443.0422,6.8213,0.4212,54.895172,9.796190,108.3,5.845,1.85,335.95,54.895069,9.793790,54.895348,9.797490
1386922815,1,0,436.9,0,0,0,0,574,550,-0.0292,-2443.0422,6.8213,0.4212,54.895176,9.796220,108.3,5.845,1.85,335.95,54.895069,9.793790,54.895348,9.797490
1386922815,1,0,436.9,0,0,4,0,574,600,-0.0292,-2443.0422,6.8213,0.4212,54.895180,9.796250,108.3,5.845,1.85,335.95,54.895069,9.793790,54.895348,9.797490
1386922816,1,0,436.8,0,0,0,0,574,550,-0.0292,-2443.0422,6.8213,0.4212,54.895184,9.796281,108.3,5.845,1.85,335.95,54.895069,9.793790,54.895348,9.797490
1386922816,1,0,436.8,0,0,4,0,574,600,-0.0292,-2443.0422,6.8213,0.4212,54.895187,9.796311,108.3,5.845,1.85,335.95,54.895069,9.793790,54.895348,9.797490
1386922816,1,0,436.8,0,0,0,0,574,550,-0.0292,-2443.0422,6.8213,0.4212,54.895191,9.796342,108.3,5.845,1.85,335.95,54.895069,9.793790,54.895348,9.797490
1386922816,1,0,436.8,0,0,4,0,574,600,-0.0292,-2443.0422,6.8213,0.4212,54.895199,9.796372,108.3,5.845,1.85,335.95,54.895069,9.793790,54.895348,9.797490
1386922817,1,0,437.0,0,0,0,0,574,550,-0.0292,-2443.0422,6.8213,0.4212,54.895203,9.796403,108.3,5.845,1.85,335.95,54.895069,9.793790,54.895348,9.797490
1386922817,1,0,437.0,0,0,4,0,574,600,-0.0292,-2443.0422,6.8213,0.4212,54.895206,9.796433,108.3,5.845,1.85,335.95,54.895069,9.793790,54.895348,9.797490
1386922817,1,0,437.0,0,0,0,0,574,550,-0.0292,-2443.0422,6.8213,0.4212,54.895210,9.796464,108.3,5.845,1.85,335.95,54.895069,9.793790,54.895348,9.797490
1386922817,1,0,437.0,0,0,4,0,574,600,-0.0292,-2443.0422,6.8213,0.4212,54.895214,9.796494,108.3,5.845,1.85,335.95,54.895069,9.793790,54.895348,9.797490
1386922818,1,0,437.0,0,0,0,0,574,550,-0.0292,-2443.0422,6.8213,0.4212,54.895222,9.796524,108.3,5.845,1.85,335.95,54.895069,9.793790,54.895348,9.797490
1386922818,1,0,437.3,0,0,4,0,574,600,-0.0292,-2443.0422,6.8213,0.4212,54.895226,9.796555,108.3,5.845,1.85,335.95,54.895069,9.793790,54.895348,9.797490
1386922818,1,0,437.3,0,0,0,0,574,550,-0.0292,-2443.0422,6.8213,0.4212,54.895229,9.796585,108.3,5.845,1.85,335.95,54.895069,9.793790,54.895348,9.797490
1386922818,1,0,437.3,0,0,4,0,574,600,-0.0292,-2443.0422,6.8213,0.4212,54.895233,9.796616,108.3,5.845,1.85,335.95,54.895069,9.793790,54.895348,9.797490
1386922819,1,0,437.3,0,0,0,0,574,550,-0.0292,-2443.0422,6.8213,0.4212,54.895237,9.796646,108.3,5.845,1.85,335.95,54.895069,9.793790,54.895348,9.797490
1386922819,1,0,437.2,0,0,4,0,574,600,-0.0292,-2443.0422,6.8213,0.4212,54.895241,9.796677,108.3,5.845,1.85,335.95,54.895069,9.793790,54.895348,9.797490
1386922819,1,0,437.2,0,0,0,0,574,550,-0.0292,-2443.0422,6.8213,0.4212,54.895248,9.796707,108.3,5.845,1.85,335.95,54.895069,9.793790,54.895348,9.797490
1386922819,1,0,437.7,0,-1,-4,0,574,600,-0.0292,-2442.7756,6.8213,0.4212,54.895252,9.796737,108.3,5.845,1.85,335.95,54.895069,9.793790,54.895348,9.797490
1386922820,1,0,437.7,0,0,0,0,578,550,-0.0292,-2442.7756,6.8213,0.4212,54.895256,9.796767,108.3,5.845,1.85,335.95,54.895069,9.793790,54.895348,9.797490
1386922820,1,0,437.7,0,0,4,0,578,600,-0.0292,-2442.7756,6.8213,0.4212,54.895260,9.796798,108.3,5.845,1.85,335.95,54.895069,9.793790,54.895348,9.797490
1386922820,1,0,437.6,0,0,0,0,578,550,-0.0292,-2442.7756,6.8213,0.4212,54.895264,9.796828,108.3,5.845,1.85,335.95,54.895069,9.793790,54.895348,9.797490
1386922820,1,0,437.6,0,0,4,0,578,600,-0.0292,-2442.7756,6.8213,0.4212,54.895271,9.796859,108.3,5.845,1.85,335.95,54.895069,9.793790,54.895348,9.797490
1386922821,1,0,438.2,0,-1,0,0,578,550,-0.0292,-2442.5090,6.8213,0.4212,54.895275,9.796889,108.3,5.845,1.85,335.95,54.895069,9.793790,54.895348,9.797490
1386922821,1,0,438.2,0,-1,-4,0,582,600,-0.0292,-2442.2424,6.8213,0.4212,54.895279,9.796920,108.3,5.845,1.85,335.95,54.895069,9.793790,54.895348,9.797490
1386922821,1,0,438.2,0,0,0,0,587,550,-0.0292,-2442.2424,6.8213,0.4212,54.895283,9.796950,108.3,5.845,1.85,335.95,54.895069,9.793790,54.895348,9.797490
1386922821,1,0,438.3,0,-1,-4,0,587,600,-0.0292,-2441.9758,6.8213,0.4212,54.895287,9.796981,108.3,5.845,1.85,335.95,54.895069,9.793790,54.895348,9.797490
1386922822,1,0,438.3,0,0,0,0,591,550,-0.0292,-2441.9758,6.8213,0.4212,54.895290,9.797011,108.3,5.845,1.85,335.95,54.895069,9.793790,54.895348,9.797490
1386922822,1,0,438.3,0,0,4,0,591,600,-0.0292,-2441.9758,6.8213,0.4212,54.895290,9.797042,108.3,5.845,1.85,335.95,54.895069,9.793790,54.895348,9.797490
1386922822,1,0,437.6,0,0,0,0,591,550,-0.0292,-2441.9758,6.8213,0.4212,54.895290,9.797072,108.3,5.845,1.85,335.95,54.895069,9.793790,54.895348,9.797490
1386922822,1,0,436.7,0,1,4,0,591,600,-0.0292,-2442.2424,6.8213,0.4212,54.895290,9.797103,108.3,5.845,1.85,335.95,54.895069,9.793790,54.895348,9.797490
1386922823,1,0,435.7,0,2,0,0,587,550,-0.0292,-2442.7759,6.8213,0.4212,54.895290,9.797133,108.3,5.845,1.85,335.95,54.895069,9.793790,54.895348,9.797490
1386922823,1,0,434.5,0,3,4,0,578,600,-0.0292,-2443.5759,6.8213,0.4212,54.895294,9.797163,108.3,5.845,1.85,335.95,54.895069,9.793790,54.895348,9.797490
1386922823,1,0,434.2,0,2,0,0,566,550,-0.0292,-2444.1094,6.8213,0.4212,54.895298,9.797194,108.3,5.845,1.85,335.95,54.895069,9.793790,54.895348,9.797490
1386922823,1,0,433.9,0,2,4,0,557,600,-0.0292,-2444.6428,6.8213,0.4212,54.895302,9.797224,108.3,5.845,1.85,335.95,54.895069,9.793790,54.895348,9.797490
1386922824,1,0,433.4,0,2,0,0,549,550,-0.0292,-2445.1763,6.8213,0.4212,54.895306,9.797254,108.3,5.845,1.85,335.95,54.895069,9.793790,54.895348,9.797490
1386922824,1,0,433.0,0,2,4,0,540,500,-0.0292,-2445.7097,6.8213,0.4212,54.895309,9.797284,108.3,5.845,1.85,335.95,54.895069,9.793790,54.895348,9.797490
1386922824,1,0,432.3,0,2,0,0,532,550,-0.0292,-2446.2432,6.8213,0.4212,54.895317,9.797314,108.3,5.845,1.85,335.95,54.895069,9.793790,54.895348,9.797490
1386922824,1,0,433.4,0,0,4,0,523,500,-0.0292,-2446.2432,6.8213,0.4212,54.895321,9.797343,108.3,5.845,1.85,335.95,54.895069,9.793790,54.895348,9.797490
1386922825,1,0,432.6,0,1,0,0,523,550,-0.0292,-2446.5098,6.8213,0.4212,54.895325,9.797374,108.3,5.845,1.85,335.95,54.895069,9.793790,54.895348,9.797490
1386922825,1,0,431.2,0,2,4,0,519,500,-0.0292,-2447.0432,6.8213,0.4212,54.895329,9.797403,108.3,5.845,1.85,335.95,54.895069,9.793790,54.895348,9.797490
1386922825,1,0,429.2,0,4,8,0,511,550,-0.0292,-2448.1099,6.8213,0.4212,54.895336,9.797433,108.3,5.845,1.85,335.95,54.895069,9.793790,54.895348,9.797490
1386922825,1,0,430.9,0,1,4,0,494,500,-0.0292,-2448.3765,6.8213,0.4212,54.895344,9.797462,108.3,5.845,1.85,335.95,54.895348,9.797490,54.894039,9.801540
1386922826,1,0,478.9,0,-35,0,0,489,450,-0.0292,-2439.0432,6.8213,0.4212,54.895344,9.797494,108.3,5.845,1.85,335.95,54.895348,9.797490,54.894039,9.801540
1386922826,1,0,479.1,0,-35,-4,0,636,500,-0.0292,-2429.7100,6.8213,0.4212,54.895344,9.797525,108.3,5.845,1.85,335.95,54.895348,9.797490,54.894039,9.801540
1386922826,1,0,479.3,0,-29,-8,0,777,550,-0.0292,-2421.9766,6.8213,0.4212,54.895340,9.797556,108.3,5.845,1.85,335.95,54.895348,9.797490,54.894039,9.801540
1386922826,1,0,479.4,0,-21,-12,0,870,600,-0.0292,-2416.3765,6.8213,0.4212,54.895332,9.797586,108.3,5.845,1.85,335.95,54.895348,9.797490,54.894039,9.801540
1386922827,1,0,479.5,0,-16,-16,0,870,650,-0.0292,-2412.1099,6.8213,0.4212,54.895329,9.797616,108.3,5.845,1.85,335.95,54.895348,9.797490,54.894039,9.801540
1386922827,1,0,479.6,0,-12,-12,0,870,700,-0.0292,-2408.9099,6.8213,0.4212,54.895321,9.797645,108.3,5.845,1.85,335.95,54.895348,9.797490,54.894039,9.801540
1386922827,1,0,479.6,0,-9,-8,0,713,750,-0.0292,-2406.5100,6.8213,0.4212,54.895313,9.797673,108.3,5.845,1.85,335.95,54.895348,9.797490,54.894039,9.801540
1386922827,1,0,479.7,0,-6,-4,0,713,700,-0.0292,-2404.9099,6.8213,0.4212,54.895309,9.797702,108.3,5.845,1.85,335.95,54.895348,9.797490,54.894039,9.801540
1386922828,1,0,479.8,0,-5,-8,0,713,750,-0.0292,-2403.5767,6.8213,0.4212,54.895302,9.797729,108.3,5.845,1.85,335.95,54.895348,9.797490,54.894039,9.801540
1386922828,1,0,479.8,0,-3,-4,0,713,700,-0.0292,-2402.7766,6.8213,0.4212,54.895294,9.797758,108.3,5.845,1.85,335.95,54.895348,9.797490,54.894039,9.801540
1386922828,1,0,479.8,0,-3,0,0,713,750,-0.0292,-2401.9766,6.8213,0.4212,54.895283,9.797786,108.3,5.845,1.85,335.95,54.895348,9.797490,54.894039,9.801540
1386922828,1,0,479.8,0,-2,-4,0,713,700,-0.0292,-2401.4431,6.8213,0.4212,54.895275,9.797812,108.3,5.845,1.85,335.95,54.895348,9.797490,54.894039,9.801540
1386922829,1,0,479.8,0,-1,0,0,713,750,-0.0292,-2401.1765,6.8213,0.4212,54.895267,9.797840,108.3,5.845,1.85,335.95,54.895348,9.797490,54.894039,9.801540
1386922829,1,0,479.8,0,-1,-4,0,713,700,-0.0292,-2400.9099,6.8213,0.4212,54.895256,9.797868,108.3,5.845,1.85,335.95,54.895348,9.797490,54.894039,9.801540
1386922829,1,0,479.8,0,-1,0,0,713,750,-0.0292,-2400.6433,6.8213,0.4212,54.895248,9.797894,108.3,5.845,1.85,335.95,54.895348,9.797490,54.894039,9.801540
1386922829,1,0,479.8,0,0,4,0,713,700,-0.0292,-2400.6433,6.8213,0.4212,54.895237,9.797922,108.3,5.845,1.85,335.95,54.895348,9.797490,54.894039,9.801540
1386922830,1,0,479.8,0,0,0,0,713,750,-0.0292,-2400.6433,6.8213,0.4212,54.895229,9.797949,108.3,5.845,1.85,335.95,54.895348,9.797490,54.894039,9.801540
1386922830,1,0,479.8,0,0,4,0,713,700,-0.0292,-2400.6433,6.8213,0.4212,54.895222,9.797976,108.3,5.845,1.85,335.95,54.895348,9.797490,54.894039,9.801540
1386922830,1,0,479.8,0,0,0,0,713,750,-0.0292,-2400.6433,6.8213,0.4212,54.895210,9.798003,108.3,5.845,1.85,335.95,54.895348,9.797490,54.894039,9.801540
1386922830,1,0,479.8,0,0,4,0,713,700,-0.0292,-2400.6433,6.8213,0.4212,54.895203,9.798030,108.3,5.845,1.85,335.95,54.895348,9.797490,54.894039,9.801540
1386922831,1,0,479.8,0,0,0,0,713,750,-0.0292,-2400.6433,6.8213,0.4212,54.895195,9.798058,108.3,5.845,1.85,335.95,54.895348,9.797490,54.894039,9.801540
1386922831,1,0,479.8,0,0,4,0,713,700,-0.0292,-2400.6433,6.8213,0.4212,54.895184,9.798085,108.3,5.845,1.85,335.95,54.895348,9.797490,54.894039,9.801540
1386922831,1,0,479.8,0,0,0,0,713,750,-0.0292,-2400.6433,6.8213,0.4212,54.895176,9.798112,108.3,5.845,1.85,335.95,54.895348,9.797490,54.894039,9.801540
1386922831,1,0,479.8,0,0,4,0,713,700,-0.0292,-2400.6433,6.8213,0.4212,54.895168,9.798140,108.3,5.845,1.85,335.95,54.895348,9.797490,54.894039,9.801540
1386922832,1,0,479.8,0,0,0,0,713,750,-0.0292,-2400.6433,6.8213,0.4212,54.895157,9.798167,108.3,5.845,1.85,335.95,54.895348,9.797490,54.894039,9.801540
1386922832,1,0,479.8,0,0,4,0,713,700,-0.0292,-2400.6433,6.8213,0.4212,54.895149,9.798194,108.3,5.845,1.85,335.95,54.895348,9.797490,54.894039,9.801540
1386922832,1,0,479.8,0,0,0,0,713,750,-0.0292,-2400.6433,6.8213,0.4212,54.895138,9.798222,108.3,5.845,1.85,335.95,54.895348,9.797490,54.894039,9.801540
1386922832,1,0,479.8,0,0,4,0,713,700,-0.0292,-2400.6433,6.8213,0.4212,54.895130,9.798248,108.3,5.845,1.85,335.95,54.895348,9.797490,54.894039,9.801540
1386922833,1,0,479.8,0,0,0,0,713,750,-0.0292,-2400.6433,6.8213,0.4212,54.895123,9.798275,108.3,5.845,1.85,335.95,54.895348,9.797490,54.894039,9.801540
1386922833,1,0,479.8,0,0,4,0,713,700,-0.0292,-2400.6433,6.8213,0.4212,54.895111,9.798303,108.3,5.845,1.85,335.95,54.895348,9.797490,54.894039,9.801540
1386922833,1,0,479.8,0,0,0,0,713,750,-0.0292,-2400.6433,6.8213,0.4212,54.895103,9.798329,108.3,5.845,1.85,335.95,54.895348,9.797490,54.894039,9.801540
1386922833,1,0,479.8,0,0,4,0,713,700,-0.0292,-2400.6433,6.8213,0.4212,54.895096,9.798357,108.3,5.845,1.85,335.95,54.895348,9.797490,54.894039,9.801540
1386922834,1,0,479.8,0,0,0,0,713,750,-0.0292,-2400.6433,6.8213,0.4212,54.895084,9.798385,108.3,5.845,1.85,335.95,54.895348,9.797490,54.894039,9.801540
1386922834,1,0,479.8,0,0,4,0,713,700,-0.0292,-2400.6433,6.8213,0.4212,54.895077,9.798411,108.3,5.845,1.85,335.95,54.895348,9.797490,54.894039,9.801540
1386922834,1,0,479.8,0,0,0,0,713,750,-0.0292,-2400.6433,6.8213,0.4212,54.895065,9.798439,108.3,5.845,1.85,335.95,54.895348,9.797490,54.894039,9.801540
1386922834,1,0,479.8,0,0,4,0,713,700,-0.0292,-2400.6433,6.8213,0.4212,54.895058,9.798467,108.3,5.845,1.85,335.95,54.895348,9.797490,54.894039,9.801540
1386922835,1,0,479.8,0,0,0,0,713,750,-0.0292,-2400.6433,6.8213,0.4212,54.895050,9.798493,108.3,5.845,1.85,335.95,54.895348,9.797490,54.894039,9.801540
1386922835,1,0,479.8,0,0,4,0,713,700,-0.0292,-2400.6433,6.8213,0.4212,54.895039,9.798521,108.3,5.845,1.85,335.95,54.895348,9.797490,54.894039,9.801540
1386922835,1,0,479.8,0,0,0,0,713,750,-0.0292,-2400.6433,6.8213,0.4212,54.895031,9.798548,108.3,5.845,1.85,335.95,54.895348,9.797490,54.894039,9.801540
1386922835,1,0,479.8,0,0,4,0,713,700,-0.0292,-2400.6433,6.8213,0.4212,54.895023,9.798574,108.3,5.845,1.85,335.95,54.895348,9.797490,54.894039,9.801540
1386922836,1,0,479.8,0,0,0,0,713,750,-0.0292,-2400.6433,6.8213,0.4212,54.895012,9.798602,108.3,5.845,1.85,335.95,54.895348,9.797490,54.894039,9.801540
1386922836,1,0,479.8,0,0,4,0,713,700,-0.0292,-2400.6433,6.8213,0.4212,54.895004,9.798629,108.3,5.845,1.85,335.95,54.895348,9.797490,54.894039,9.801540
1386922836,1,0,479.8,0,0,0,0,713,750,-0.0292,-2400.6433,6.8213,0.4212,54.894997,9.798656,108.3,5.845,1.85,335.95,54.895348,9.797490,54.894039,9.801540
1386922836,1,0,479.8,0,0,4,0,713,700,-0.0292,-2400.6433,6.8213,0.4212,54.894985,9.798684,108.3,5.845,1.85,335.95,54.895348,9.797490,54.894039,9.801540
1386922837,1,0,479.8,0,0,0,0,713,750,-0.0292,-2400.6433,6.8213,0.4212,54.894978,9.798711,108.3,5.845,1.85,335.95,54.895348,9.797490,54.894039,9.801540
1386922837,1,0,479.8,0,0,4,0,713,700,-0.0292,-2400.6433,6.8213,0.4212,54.894966,9.798738,108.3,5.845,1.85,335.95,54.895348,9.797490,54.894039,9.801540
1386922837,1,0,479.8,0,0,0,0,713,750,-0.0292,-2400.6433,6.8213,0.4212,54.894958,9.798765,108.3,5.845,1.85,335.95,54.895348,9.797490,54.894039,9.801540
1386922837,1,0,479.8,0,0,4,0,713,700,-0.0292,-2400.6433,6.8213,0.4212,54.894951,9.798792,108.3,5.845,1.85,335.95,54.895348,9.797490,54.894039,9.801540
1386922838,1,0,479.8,0,0,0,0,713,750,-0.0292,-2400.6433,6.8213,0.4212,54.894939,9.798820,108.3,5.845,1.85,335.95,54.895348,9.797490,54.894039,9.801540
1386922838,1,0,479.8,0,0,4,0,713,700,-0.0292,-2400.6433,6.8213,0.4212,54.894932,9.798846,108.3,5.845,1.85,335.95,54.895348,9.797490,54.894039,9.801540
1386922838,1,0,479.8,0,0,0,0,713,750,-0.0292,-2400.6433,6.8213,0.4212,54.894924,9.798874,108.3,5.845,1.85,335.95,54.895348,9.797490,54.894039,9.801540
1386922838,1,0,479.8,0,0,4,0,713,700,-0.0292,-2400.6433,6.8213,0.4212,54.894913,9.798902,108.3,5.845,1.85,335.95,54.895348,9.797490,54.894039,9.801540
1386922839,1,0,479.8,0,0,0,0,713,750,-0.0292,-2400.6433,6.8213,0.4212,54.894905,9.798928,108.3,5.845,1.85,335.95,54.895348,9.797490,54.894039,9.801540
1386922839,1,0,479.8,0,0,4,0,713,700,-0.0292,-2400.6433,6.8213,0.4212,54.894894,9.798956,108.3,5.845,1.85,335.95,54.895348,9.797490,54.894039,9.801540
1386922839,1,0,479.7,0,0,0,0,713,750,-0.0292,-2400.6433,6.8213,0.4212,54.894886,9.798984,108.3,5.845,1.85,335.95,54.895348,9.797490,54.894039,9.801540
1386922839,1,0,479.8,0,0,4,0,713,700,-0.0292,-2400.6433,6.8213,0.4212,54.894878,9.799010,108.3,5.845,1.85,335.95,54.895348,9.797490,54.894039,9.801540
1386922840,1,0,479.8,0,0,0,0,713,750,-0.0292,-2400.6433,6.8213,0.4212,54.894867,9.799038,108.3,5.845,1.85,335.95,54.895348,9.797490,54.894039,9.801540
1386922840,1,0,479.8,0,0,4,0,713,700,-0.0292,-2400.6433,6.8213,0.4212,54.894859,9.799065,108.3,5.845,1.85,335.95,54.895348,9.797490,54.894039,9.801540
1386922840,1,0,479.8,0,0,0,0,713,750,-0.0292,-2400.6433,6.8213,0.4212,54.894852,9.799091,108.3,5.845,1.85,335.95,54.895348,9.797490,54.894039,9.801540
1386922840,1,0,479.8,0,0,4,0,713,700,-0.0292,-2400.6433,6.8213,0.4212,54.894840,9.799119,108.3,5.845,1.85,335.95,54.895348,9.797490,54.894039,9.801540
1386922841,1,0,479.8,0,0,0,0,713,750,-0.0292,-2400.6433,6.8213,0.4212,54.894833,9.799146,108.3,5.845,1.85,335.95,54.895348,9.797490,54.894039,9.801540
1386922841,1,0,479.8,0,0,4,0,713,700,-0.0292,-2400.6433,6.8213,0.4212,54.894825,9.799173,108.3,5.845,1.85,335.95,54.895348,9.797490,54.894039,9.801540
1386922841,1,0,479.8,0,0,0,0,713,750,-0.0292,-2400.6433,6.8213,0.4212,54.894814,9.799201,108.3,5.845,1.85,335.95,54.895348,9.797490,54.894039,9.801540
1386922841,1,0,479.8,0,0,4,0,713,700,-0.0292,-2400.6433,6.8213,0.4212,54.894806,9.799228,108.3,5.845,1.85,335.95,54.895348,9.797490,54.894039,9.801540
1386922842,1,0,479.8,0,0,0,0,713,750,-0.0292,-2400.6433,6.8213,0.4212,54.894794,9.799255,108.3,5.845,1.85,335.95,54.895348,9.797490,54.894039,9.801540
1386922842,1,0,479.7,0,0,4,0,713,700,-0.0292,-2400.6433,6.8213,0.4212,54.894787,9.799283,108.3,5.845,1.85,335.95,54.895348,9.797490,54.894039,9.801540
1386922842,1,0,479.8,0,0,0,0,713,750,-0.0292,-2400.6433,6.8213,0.4212,54.894779,9.799310,108.3,5.845,1.85,335.95,54.895348,9.797490,54.894039,9.801540
1386922842,1,0,479.8,0,0,4,0,713,700,-0.0292,-2400.6433,6.8213,0.4212,54.894768,9.799337,108.3,5.845,1.85,335.95,54.895348,9.797490,54.894039,9.801540
1386922843,1,0,479.8,0,0,0,0,713,750,-0.0292,-2400.6433,6.8213,0.4212,54.894760,9.799364,108.3,5.845,1.85,335.95,54.895348,9.797490,54.894039,9.801540
1386922843,1,0,479.8,0,0,4,0,713,700,-0.0292,-2400.6433,6.8213,0.4212,54.894753,9.799391,108.3,5.845,1.85,335.95,54.895348,9.797490,54.894039,9.801540
1386922843,1,0,479.8,0,0,0,0,713,750,-0.0292,-2400.6433,6.8213,0.4212,54.894741,9.799418,108.3,5.845,1.85,335.95,54.895348,9.797490,54.894039,9.801540
1386922843,1,0,479.8,0,0,4,0,713,700,-0.0292,-2400.6433,6.8213,0.4212,54.894733,9.799445,108.3,5.845,1.85,335.95,54.895348,9.797490,54.894039,9.801540
1386922844,1,0,479.8,0,0,0,0,713,750,-0.0292,-2400.6433,6.8213,0.4212,54.894726,9.799473,108.3,5.845,1.85,335.95,54.895348,9.797490,54.894039,9.801540
1386922844,1,0,479.9,0,0,4,0,713,700,-0.0292,-2400.6433,6.8213,0.4212,54.894714,9.799500,108.3,5.845,1.85,335.95,54.895348,9.797490,54.894039,9.801540
1386922844,1,0,479.8,0,0,0,0,713,750,-0.0292,-2400.6433,6.8213,0.4212,54.894707,9.799527,108.3,5.845,1.85,335.95,54.895348,9.797490,54.894039,9.801540
1386922844,1,0,479.8,0,0,4,0,713,700,-0.0292,-2400.6433,6.8213,0.4212,54.894695,9.799555,108.3,5.845,1.85,335.95,54.895348,9.797490,54.894039,9.801540
1386922845,1,0,479.7,0,0,0,0,713,750,-0.0292,-2400.6433,6.8213,0.4212,54.894688,9.799582,108.3,5.845,1.85,335.95,54.895348,9.797490,54.894039,9.801540
1386922845,1,0,479.8,0,0,4,0,713,700,-0.0292,-2400.6433,6.8213,0.4212,54.894680,9.799609,108.3,5.845,1.85,335.95,54.895348,9.797490,54.894039,9.801540
1386922845,1,0,479.8,0,0,0,0,713,750,-0.0292,-2400.6433,6.8213,0.4212,54.894669,9.799637,108.3,5.845,1.85,335.95,54.895348,9.797490,54.894039,9.801540
1386922845,1,0,479.7,0,0,4,0,713,700,-0.0292,-2400.6433,6.8213,0.4212,54.894661,9.799664,108.3,5.845,1.85,335.95,54.895348,9.797490,54.894039,9.801540
1386922846,1,0,479.8,0,0,0,0,713,750,-0.0292,-2400.6433,6.8213,0.4212,54.894653,9.799690,108.3,5.845,1.85,335.95,54.895348,9.797490,54.894039,9.801540
1386922846,1,0,479.8,0,0,4,0,713,700,-0.0292,-2400.6433,6.8213,0.4212,54.894642,9.799718,108.3,5.845,1.85,335.95,54.895348,9.797490,54.894039,9.801540
1386922846,1,0,479.8,0,0,0,0,713,750,-0.0292,-2400.6433,6.8213,0.4212,54.894634,9.799745,108.3,5.845,1.85,335.95,54.895348,9.797490,54.894039,9.801540
1386922846,1,0,479.8,0,0,4,0,713,700,-0.0292,-2400.6433,6.8213,0.4212,54.894623,9.799772,108.3,5.845,1.85,335.95,54.895348,9.797490,54.894039,9.801540
1386922847,1,0,479.7,0,0,0,0,713,750,-0.0292,-2400.6433,6.8213,0.4212,54.894615,9.799800,108.3,5.845,1.85,335.95,54.895348,9.797490,54.894039,9.801540
1386922847,1,0,479.8,0,0,4,0,713,700,-0.0292,-2400.6433,6.8213,0.4212,54.894608,9.799827,108.3,5.845,1.85,335.95,54.895348,9.797490,54.894039,9.801540
1386922847,1,0,479.8,0,0,0,0,713,750,-0.0292,-2400.6433,6.8213,0.4212,54.894596,9.799854,108.3,5.845,1.85,335.95,54.895348,9.797490,54.894039,9.801540
1386922847,1,0,479.7,0,0,4,0,713,700,-0.0292,-2400.6433,6.8213,0.4212,54.894588,9.799882,108.3,5.845,1.85,335.95,54.895348,9.797490,54.894039,9.801540
1386922848,1,0,479.8,0,0,0,0,713,750,-0.0292,-2400.6433,6.8213,0.4212,54.894581,9.799909,108.3,5.845,1.85,335.95,54.895348,9.797490,54.894039,9.801540
1386922848,1,0,479.8,0,0,4,0,713,700,-0.0292,-2400.6433,6.8213,0.4212,54.894569,9.799936,108.3,5.845,1.85,335.95,54.895348,9.797490,54.894039,9.801540
1386922848,1,0,479.7,0,0,0,0,713,750,-0.0292,-2400.6433,6.8213,0.4212,54.894562,9.799963,108.3,5.845,1.85,335.95,54.895348,9.797490,54.894039,9.801540
1386922848,1,0,479.8,0,0,4,0,713,700,-0.0292,-2400.6433,6.8213,0.4212,54.894554,9.799990,108.3,5.845,1.85,335.95,54.895348,9.797490,54.894039,9.801540
1386922849,1,0,479.9,0,0,0,0,713,750,-0.0292,-2400.6433,6.8213,0.4212,54.894543,9.800017,108.3,5.845,1.85,335.95,54.895348,9.797490,54.894039,9.801540
1386922849,1,0,479.7,0,0,4,0,713,700,-0.0292,-2400.6433,6.8213,0.4212,54.894535,9.800044,108.3,5.845,1.85,335.95,54.895348,9.797490,54.894039,9.801540
1386922849,1,0,479.8,0,0,0,0,713,750,-0.0292,-2400.6433,6.8213,0.4212,54.894524,9.800072,108.3,5.845,1.85,335.95,54.895348,9.797490,54.894039,9.801540
1386922849,1,0,479.7,0,0,4,0,713,700,-0.0292,-2400.6433,6.8213,0.4212,54.894516,9.800099,108.3,5.845,1.85,335.95,54.895348,9.797490,54.894039,9.801540
1386922850,1,0,479.8,0,0,0,0,713,750,-0.0292,-2400.6433,6.8213,0.4212,54.894508,9.800126,108.3,5.845,1.85,335.95,54.895348,9.797490,54.894039,9.801540
1386922850,1,0,479.8,0,0,4,0,713,700,-0.0292,-2400.6433,6.8213,0.4212,54.894497,9.800154,108.3,5.845,1.85,335.95,54.895348,9.797490,54.894039,9.801540
1386922850,1,0,479.7,0,0,0,0,713,750,-0.0292,-2400.6433,6.8213,0.4212,54.894489,9.800181,108.3,5.845,1.85,335.95,54.895348,9.797490,54.894039,9.801540
1386922850,1,0,479.8,0,0,4,0,713,700,-0.0292,-2400.6433,6.8213,0.4212,54.894482,9.800208,108.3,5.845,1.85,335.95,54.895348,9.797490,54.894039,9.801540
1386922851,1,0,479.9,0,0,0,0,713,750,-0.0292,-2400.6433,6.8213,0.4212,54.894470,9.800236,108.3,5.845,1.85,335.95,54.895348,9.797490,54.894039,9.801540
1386922851,1,0,479.7,0,0,4,0,713,700,-0.0292,-2400.6433,6.8213,0.4212,54.894463,9.800262,108.3,5.845,1.85,335.95,54.895348,9.797490,54.894039,9.801540
1386922851,1,0,479.8,0,0,0,0,713,750,-0.0292,-2400.6433,6.8213,0.4212,54.894451,9.800289,108.3,5.845,1.85,335.95,54.895348,9.797490,54.894039,9.801540
1386922851,1,0,479.6,0,0,4,0,713,700,-0.0292,-2400.6433,6.8213,0.4212,54.894444,9.800317,108.3,5.845,1.85,335.95,54.895348,9.797490,54.894039,9.801540
1386922852,1,0,479.7,0,0,0,0,713,750,-0.0292,-2400.6433,6.8213,0.4212,54.894436,9.800344,108.3,5.845,1.85,335.95,54.895348,9.797490,54.894039,9.801540
1386922852,1,0,479.8,0,0,4,0,713,700,-0.0292,-2400.6433,6.8213,0.4212,54.894424,9.800371,108.3,5.845,1.85,335.95,54.895348,9.797490,54.894039,9.801540
1386922852,1,0,479.7,0,0,0,0,713,750,-0.0292,-2400.6433,6.8213,0.4212,54.894417,9.800399,108.3,5.845,1.85,335.95,54.895348,9.797490,54.894039,9.801540
1386922852,1,0,479.8,0,0,4,0,713,700,-0.0292,-2400.6433,6.8213,0.4212,54.894409,9.800426,108.3,5.845,1.85,335.95,54.895348,9.797490,54.894039,9.801540
1386922853,1,0,479.8,0,0,0,0,713,750,-0.0292,-2400.6433,6.8213,0.4212,54.894398,9.800453,108.3,5.845,1.85,335.95,54.895348,9.797490,54.894039,9.801540
1386922853,1,0,479.7,0,0,4,0,713,700,-0.0292,-2400.6433,6.8213,0.4212,54.894390,9.800480,108.3,5.845,1.85,335.95,54.895348,9.797490,54.894039,9.801540
