MCU_timestamp,Navigation_System,Manual_Control,Guidance_Heading,Manual_Ctrl_Rudder,Rudder_Desired_Angle,Rudder_Feedback,Manual_Ctrl_Sail,Sail_Desired_Pos,Sail_Feedback,Rate,Heading,Pitch,Roll,Latitude,Longitude,COG,SOG,Wind_Speed,Wind_Angle,Point_Start_Lat,Point_Start_Lon,Point_End_Lat,Point_End_Lon
1386876595,1,0,485.9,0,0,4,0,409,400,-0.0292,486.2925,6.8213,0.4212,54.879715,9.818040,108.3,5.845,1.85,335.95,54.879726,9.818015,0.000000,0.000000
1386876595,1,0,485.9,0,0,0,0,409,425,-0.0292,486.2925,6.8213,0.4212,54.879704,9.818066,108.3,5.845,1.85,335.95,54.879726,9.818015,0.000000,0.000000
1386876596,1,0,485.9,0,0,4,0,409,400,-0.0292,486.2925,6.8213,0.4212,54.879692,9.818090,108.3,5.845,1.85,335.95,54.879726,9.818015,0.000000,0.000000
1386876596,1,0,485.9,0,0,0,0,409,425,-0.0292,486.2925,6.8213,0.4212,54.879684,9.818116,108.3,5.845,1.85,335.95,54.879726,9.818015,0.000000,0.000000
1386876596,1,0,485.9,0,0,4,0,409,400,-0.0292,486.2925,6.8213,0.4212,54.879673,9.818141,108.3,5.845,1.85,335.95,54.879726,9.818015,0.000000,0.000000
1386876596,1,0,485.9,0,0,0,0,409,425,-0.0292,486.2925,6.8213,0.4212,54.879662,9.818166,108.3,5.845,1.85,335.95,54.879726,9.818015,0.000000,0.000000
1386876597,1,0,485.9,0,0,4,0,409,400,-0.0292,486.2925,6.8213,0.4212,54.879650,9.818192,108.3,5.845,1.85,335.95,54.879726,9.818015,0.000000,0.000000
1386876597,1,0,485.9,0,0,0,0,409,425,-0.0292,486.2925,6.8213,0.4212,54.879639,9.818216,108.3,5.845,1.85,335.95,54.879726,9.818015,0.000000,0.000000
1386876597,1,0,485.9,0,0,4,0,409,400,-0.0292,486.2925,6.8213,0.4212,54.879627,9.818242,108.3,5.845,1.85,335.95,54.879726,9.818015,0.000000,0.000000
1386876597,1,0,485.9,0,0,0,0,409,425,-0.0292,486.2925,6.8213,0.4212,54.879616,9.818267,108.3,5.845,1.85,335.95,54.879726,9.818015,0.000000,0.000000
1386876598,1,0,485.9,0,0,4,0,409,400,-0.0292,486.2925,6.8213,0.4212,54.879604,9.818292,108.3,5.845,1.85,335.95,54.879726,9.818015,0.000000,0.000000
1386876598,1,0,485.9,0,0,0,0,409,425,-0.0292,486.2925,6.8213,0.4212,54.879593,9.818316,108.3,5.845,1.85,335.95,54.879726,9.818015,0.000000,0.000000
1386876598,1,0,485.9,0,0,4,0,409,400,-0.0292,486.2925,6.8213,0.4212,54.879581,9.818341,108.3,5.845,1.85,335.95,54.879726,9.818015,0.000000,0.000000
1386876598,1,0,485.9,0,0,0,0,409,425,-0.0292,486.2925,6.8213,0.4212,54.879570,9.818367,108.3,5.845,1.85,335.95,54.879726,9.818015,0.000000,0.000000
1386876599,1,0,485.9,0,0,4,0,409,400,-0.0292,486.2925,6.8213,0.4212,54.879562,9.818392,108.3,5.845,1.85,335.95,54.879726,9.818015,0.000000,0.000000
1386876599,1,0,485.9,0,0,0,0,409,425,-0.0292,486.2925,6.8213,0.4212,54.879551,9.818418,108.3,5.845,1.85,335.95,54.879726,9.818015,0.000000,0.000000
1386876599,1,0,485.9,0,0,4,0,409,400,-0.0292,486.2925,6.8213,0.4212,54.879539,9.818442,108.3,5.845,1.85,335.95,54.879726,9.818015,0.000000,0.000000
1386876599,1,0,485.9,0,0,0,0,409,425,-0.0292,486.2925,6.8213,0.4212,54.879528,9.818467,108.3,5.845,1.85,335.95,54.879726,9.818015,0.000000,0.000000
1386876600,1,0,485.9,0,0,4,0,409,400,-0.0292,486.2925,6.8213,0.4212,54.879517,9.818493,108.3,5.845,1.85,335.95,54.879726,9.818015,0.000000,0.000000
1386876600,1,0,485.9,0,0,0,0,409,425,-0.0292,486.2925,6.8213,0.4212,54.879505,9.818518,108.3,5.845,1.85,335.95,54.879726,9.818015,0.000000,0.000000
1386876600,1,0,485.9,0,0,4,0,0,400,-0.0292,486.2925,6.8213,0.4212,54.879494,9.818543,108.3,5.845,1.85,335.95,54.879726,9.818015,0.000000,0.000000
1386876600,1,0,485.9,0,0,0,0,0,375,-0.0292,486.2925,6.8213,0.4212,54.879482,9.818568,108.3,5.845,1.85,335.95,54.879726,9.818015,0.000000,0.000000
1386876601,1,0,485.9,0,0,4,0,0,350,-0.0292,486.2925,6.8213,0.4212,54.879471,9.818593,108.3,5.845,1.85,335.95,54.879726,9.818015,0.000000,0.000000
1386876601,1,0,485.9,0,0,0,0,0,325,-0.0292,486.2925,6.8213,0.4212,54.879463,9.818619,108.3,5.845,1.85,335.95,54.879726,9.818015,0.000000,0.000000
1386876601,1,0,485.9,0,0,4,0,0,300,-0.0292,486.2925,6.8213,0.4212,54.879452,9.818644,108.3,5.845,1.85,335.95,54.879726,9.818015,0.000000,0.000000
1386876601,1,0,485.9,0,0,0,0,0,275,-0.0292,486.2925,6.8213,0.4212,54.879440,9.818669,108.3,5.845,1.85,335.95,54.879726,9.818015,0.000000,0.000000
1386876602,1,0,485.9,0,0,4,0,0,250,-0.0292,486.2925,6.8213,0.4212,54.879429,9.818694,108.3,5.845,1.85,335.95,54.879726,9.818015,0.000000,0.000000
1386876602,1,0,485.9,0,0,0,0,0,225,-0.0292,486.2925,6.8213,0.4212,54.879417,9.818720,108.3,5.845,1.85,335.95,54.879726,9.818015,0.000000,0.000000
1386876602,1,0,485.9,0,0,4,0,0,200,-0.0292,486.2925,6.8213,0.4212,54.879406,9.818745,108.3,5.845,1.85,335.95,54.879726,9.818015,0.000000,0.000000
1386876602,1,0,485.9,0,0,0,0,0,175,-0.0292,486.2925,6.8213,0.4212,54.879395,9.818769,108.3,5.845,1.85,335.95,54.879726,9.818015,0.000000,0.000000
1386876603,1,0,485.9,0,0,4,0,0,150,-0.0292,486.2925,6.8213,0.4212,54.879383,9.818795,108.3,5.845,1.85,335.95,54.879726,9.818015,0.000000,0.000000
1386876603,1,0,485.9,0,0,0,0,0,125,-0.0292,486.2925,6.8213,0.4212,54.879372,9.818820,108.3,5.845,1.85,335.95,54.879726,9.818015,0.000000,0.000000
1386876603,1,0,485.9,0,0,4,0,0,100,-0.0292,486.2925,6.8213,0.4212,54.879360,9.818846,108.3,5.845,1.85,335.95,54.879726,9.818015,0.000000,0.000000
1386876603,1,0,485.9,0,0,0,0,0,75,-0.0292,486.2925,6.8213,0.4212,54.879349,9.818871,108.3,5.845,1.85,335.95,54.879726,9.818015,0.000000,0.000000
1386876604,1,0,485.9,0,0,4,0,0,50,-0.0292,486.2925,6.8213,0.4212,54.879341,9.818895,108.3,5.845,1.85,335.95,54.879726,9.818015,0.000000,0.000000
1386876604,1,0,485.9,0,0,0,0,0,25,-0.0292,486.2925,6.8213,0.4212,54.879330,9.818921,108.3,5.845,1.85,335.95,54.879726,9.818015,0.000000,0.000000
1386876604,1,0,485.9,0,0,4,0,0,0,-0.0292,486.2925,6.8213,0.4212,54.879318,9.818946,108.3,5.845,1.85,335.95,54.879726,9.818015,0.000000,0.000000
1386876604,1,0,485.9,0,0,0,0,0,25,-0.0292,486.2925,6.8213,0.4212,54.879307,9.818972,108.3,5.845,1.85,335.95,54.879726,9.818015,0.000000,0.000000
1386876605,1,0,545.9,0,-35,-4,0,0,0,-0.0292,495.6259,6.8213,0.4212,54.879292,9.818994,108.3,5.845,1.85,335.95,54.879726,9.818015,0.000000,0.000000
1386876605,1,0,545.9,0,-35,-8,0,0,25,-0.0292,504.9592,6.8213,0.4212,54.879276,9.819012,108.3,5.845,1.85,335.95,54.879726,9.818015,0.000000,0.000000
1386876605,1,0,545.9,0,-35,-12,0,0,0,-0.0292,514.2925,6.8213,0.4212,54.879261,9.819025,108.3,5.845,1.85,335.95,54.879726,9.818015,0.000000,0.000000
1386876605,1,0,545.9,0,-32,-16,0,0,25,-0.0292,522.8259,6.8213,0.4212,54.879242,9.819035,108.3,5.845,1.85,335.95,54.879726,9.818015,0.000000,0.000000
1386876606,1,0,545.9,0,-23,-20,0,0,0,-0.0292,528.9592,6.8213,0.4212,54.879223,9.819041,108.3,5.845,1.85,335.95,54.879726,9.818015,0.000000,0.000000
1386876606,1,0,545.9,0,-17,-16,0,0,25,-0.0292,533.4926,6.8213,0.4212,54.879208,9.819044,108.3,5.845,1.85,335.95,54.879726,9.818015,0.000000,0.000000
1386876606,1,0,545.9,0,-12,-12,0,0,0,-0.0292,536.6926,6.8213,0.4212,54.879189,9.819046,108.3,5.845,1.85,335.95,54.879726,9.818015,0.000000,0.000000
1386876606,1,0,545.9,0,-9,-8,0,0,25,-0.0292,539.0926,6.8213,0.4212,54.879169,9.819046,108.3,5.845,1.85,335.95,54.879726,9.818015,0.000000,0.000000
1386876607,1,0,545.9,0,-7,-4,0,409,50,-0.0292,540.9592,6.8213,0.4212,54.879150,9.819045,108.3,5.845,1.85,335.95,54.879726,9.818015,0.000000,0.000000
1386876607,1,0,545.9,0,-5,-8,0,409,75,-0.0292,542.2925,6.8213,0.4212,54.879135,9.819043,108.3,5.845,1.85,335.95,54.879726,9.818015,0.000000,0.000000
1386876607,1,0,545.9,0,-4,-4,0,409,100,-0.0292,543.3592,6.8213,0.4212,54.879116,9.819041,108.3,5.845,1.85,335.95,54.879726,9.818015,0.000000,0.000000
1386876607,1,0,545.9,0,-3,0,0,409,125,-0.0292,544.1592,6.8213,0.4212,54.879097,9.819038,108.3,5.845,1.85,335.95,54.879726,9.818015,0.000000,0.000000
1386876608,1,0,545.9,0,-2,-4,0,409,150,-0.0292,544.6925,6.8213,0.4212,54.879078,9.819036,108.3,5.845,1.85,335.95,54.879726,9.818015,0.000000,0.000000
1386876608,1,0,545.9,0,-1,0,0,409,175,-0.0292,544.9592,6.8213,0.4212,54.879063,9.819034,108.3,5.845,1.85,335.95,54.879726,9.818015,0.000000,0.000000
1386876608,1,0,545.9,0,-1,-4,0,409,200,-0.0292,545.2258,6.8213,0.4212,54.879044,9.819031,108.3,5.845,1.85,335.95,54.879726,9.818015,0.000000,0.000000
1386876608,1,0,545.9,0,-1,0,0,409,225,-0.0292,545.4925,6.8213,0.4212,54.879025,9.819028,108.3,5.845,1.85,335.95,54.879726,9.818015,0.000000,0.000000
1386876609,1,0,545.9,0,0,4,0,409,250,-0.0292,545.4925,6.8213,0.4212,54.879005,9.819025,108.3,5.845,1.85,335.95,54.879726,9.818015,0.000000,0.000000
1386876609,1,0,545.9,0,0,0,0,409,275,-0.0292,545.4925,6.8213,0.4212,54.878990,9.819022,108.3,5.845,1.85,335.95,54.879726,9.818015,0.000000,0.000000
1386876609,1,0,545.9,0,0,4,0,409,300,-0.0292,545.4925,6.8213,0.4212,54.878971,9.819019,108.3,5.845,1.85,335.95,54.879726,9.818015,0.000000,0.000000
1386876609,1,0,545.9,0,0,0,0,409,325,-0.0292,545.4925,6.8213,0.4212,54.878952,9.819016,108.3,5.845,1.85,335.95,54.879726,9.818015,0.000000,0.000000
1386876610,1,0,545.9,0,0,4,0,409,350,-0.0292,545.4925,6.8213,0.4212,54.878937,9.819014,108.3,5.845,1.85,335.95,54.879726,9.818015,0.000000,0.000000
1386876610,1,0,545.9,0,0,0,0,409,375,-0.0292,545.4925,6.8213,0.4212,54.878918,9.819011,108.3,5.845,1.85,335.95,54.879726,9.818015,0.000000,0.000000
1386876610,1,0,545.9,0,0,4,0,0,350,-0.0292,545.4925,6.8213,0.4212,54.878899,9.819008,108.3,5.845,1.85,335.95,54.879726,9.818015,0.000000,0.000000
1386876610,1,0,545.9,0,0,0,0,0,325,-0.0292,545.4925,6.8213,0.4212,54.878880,9.819005,108.3,5.845,1.85,335.95,54.879726,9.818015,0.000000,0.000000
1386876611,1,0,545.9,0,0,4,0,0,300,-0.0292,545.4925,6.8213,0.4212,54.878864,9.819002,108.3,5.845,1.85,335.95,54.879726,9.818015,0.000000,0.000000
1386876611,1,0,545.9,0,0,0,0,0,275,-0.0292,545.4925,6.8213,0.4212,54.878845,9.818999,108.3,5.845,1.85,335.95,54.879726,9.818015,0.000000,0.000000
1386876611,1,0,545.9,0,0,4,0,0,250,-0.0292,545.4925,6.8213,0.4212,54.878826,9.818995,108.3,5.845,1.85,335.95,54.879726,9.818015,0.000000,0.000000
1386876611,1,0,545.9,0,0,0,0,0,225,-0.0292,545.4925,6.8213,0.4212,54.878807,9.818992,108.3,5.845,1.85,335.95,54.879726,9.818015,0.000000,0.000000
1386876612,1,0,545.9,0,0,4,0,0,200,-0.0292,545.4925,6.8213,0.4212,54.878792,9.818989,108.3,5.845,1.85,335.95,54.879726,9.818015,0.000000,0.000000
1386876612,1,0,545.9,0,0,0,0,0,175,-0.0292,545.4925,6.8213,0.4212,54.878773,9.818986,108.3,5.845,1.85,335.95,54.879726,9.818015,0.000000,0.000000
1386876612,1,0,545.9,0,0,4,0,0,150,-0.0292,545.4925,6.8213,0.4212,54.878754,9.818983,108.3,5.845,1.85,335.95,54.879726,9.818015,0.000000,0.000000
1386876612,1,0,545.9,0,0,0,0,0,125,-0.0292,545.4925,6.8213,0.4212,54.878735,9.818980,108.3,5.845,1.85,335.95,54.879726,9.818015,0.000000,0.000000
1386876613,1,0,545.9,0,0,4,0,0,100,-0.0292,545.4925,6.8213,0.4212,54.878719,9.818977,108.3,5.845,1.85,335.95,54.879726,9.818015,0.000000,0.000000
1386876613,1,0,545.9,0,0,0,0,0,75,-0.0292,545.4925,6.8213,0.4212,54.878700,9.818974,108.3,5.845,1.85,335.95,54.879726,9.818015,0.000000,0.000000
1386876613,1,0,545.9,0,0,4,0,0,50,-0.0292,545.4925,6.8213,0.4212,54.878681,9.818972,108.3,5.845,1.85,335.95,54.879726,9.818015,0.000000,0.000000
1386876614,1,0,545.9,0,0,0,0,0,25,-0.0292,545.4925,6.8213,0.4212,54.878662,9.818969,108.3,5.845,1.85,335.95,54.879726,9.818015,0.000000,0.000000
1386876614,1,0,545.9,0,0,4,0,0,0,-0.0292,545.4925,6.8213,0.4212,54.878647,9.818966,108.3,5.845,1.85,335.95,54.879726,9.818015,0.000000,0.000000
1386876614,1,0,545.9,0,0,0,0,0,25,-0.0292,545.4925,6.8213,0.4212,54.878628,9.818963,108.3,5.845,1.85,335.95,54.879726,9.818015,0.000000,0.000000
1386876614,1,0,485.9,0,35,4,0,0,0,-0.0292,536.1592,6.8213,0.4212,54.878609,9.818965,108.3,5.845,1.85,335.95,54.879726,9.818015,0.000000,0.000000
1386876615,1,0,485.9,0,35,8,0,0,25,-0.0292,526.8259,6.8213,0.4212,54.878593,9.818972,108.3,5.845,1.85,335.95,54.879726,9.818015,0.000000,0.000000
1386876615,1,0,485.9,0,35,12,0,0,0,-0.0292,517.4926,6.8213,0.4212,54.878574,9.818983,108.3,5.845,1.85,335.95,54.879726,9.818015,0.000000,0.000000
1386876615,1,0,485.9,0,32,16,0,0,25,-0.0292,508.9592,6.8213,0.4212,54.878559,9.818999,108.3,5.845,1.85,335.95,54.879726,9.818015,0.000000,0.000000
1386876615,1,0,485.9,0,23,20,0,0,0,-0.0292,502.8259,6.8213,0.4212,54.878544,9.819017,108.3,5.845,1.85,335.95,54.879726,9.818015,0.000000,0.000000
1386876616,1,0,485.9,0,17,16,0,0,25,-0.0292,498.2926,6.8213,0.4212,54.878529,9.819038,108.3,5.845,1.85,335.95,54.879726,9.818015,0.000000,0.000000
1386876616,1,0,485.9,0,12,12,0,0,0,-0.0292,495.0926,6.8213,0.4212,54.878517,9.819060,108.3,5.845,1.85,335.95,54.879726,9.818015,0.000000,0.000000
1386876616,1,0,485.9,0,9,8,0,0,25,-0.0292,492.6926,6.8213,0.4212,54.878502,9.819083,108.3,5.845,1.85,335.95,54.879726,9.818015,0.000000,0.000000
1386876616,1,0,485.9,0,7,4,0,409,50,-0.0292,490.8259,6.8213,0.4212,54.878490,9.819106,108.3,5.845,1.85,335.95,54.879726,9.818015,0.000000,0.000000
1386876617,1,0,485.9,0,5,8,0,409,75,-0.0292,489.4926,6.8213,0.4212,54.878479,9.819130,108.3,5.845,1.85,335.95,54.879726,9.818015,0.000000,0.000000
1386876617,1,0,485.9,0,4,4,0,409,100,-0.0292,488.4259,6.8213,0.4212,54.878468,9.819154,108.3,5.845,1.85,335.95,54.879726,9.818015,0.000000,0.000000
1386876617,1,0,485.9,0,2,0,0,409,125,-0.0292,487.8925,6.8213,0.4212,54.878460,9.819179,108.3,5.845,1.85,335.95,54.879726,9.818015,0.000000,0.000000
1386876617,1,0,485.9,0,2,4,0,409,150,-0.0292,487.3592,6.8213,0.4212,54.878448,9.819203,108.3,5.845,1.85,335.95,54.879726,9.818015,0.000000,0.000000
1386876618,1,0,485.9,0,1,0,0,409,175,-0.0292,487.0926,6.8213,0.4212,54.878437,9.819228,108.3,5.845,1.85,335.95,54.879726,9.818015,0.000000,0.000000
1386876618,1,0,485.9,0,1,4,0,409,200,-0.0292,486.8259,6.8213,0.4212,54.878426,9.819253,108.3,5.845,1.85,335.95,54.879726,9.818015,0.000000,0.000000
1386876618,1,0,485.9,0,1,0,0,409,225,-0.0292,486.5592,6.8213,0.4212,54.878414,9.819278,108.3,5.845,1.85,335.95,54.879726,9.818015,0.000000,0.000000
1386876618,1,0,485.9,0,1,4,0,409,250,-0.0292,486.2926,6.8213,0.4212,54.878407,9.819303,108.3,5.845,1.85,335.95,54.879726,9.818015,0.000000,0.000000
1386876619,1,0,485.9,0,0,0,0,409,275,-0.0292,486.2926,6.8213,0.4212,54.878395,9.819327,108.3,5.845,1.85,335.95,54.879726,9.818015,0.000000,0.000000
1386876619,1,0,485.9,0,0,4,0,409,300,-0.0292,486.2926,6.8213,0.4212,54.878384,9.819353,108.3,5.845,1.85,335.95,54.879726,9.818015,0.000000,0.000000
1386876619,1,0,485.9,0,0,0,0,409,325,-0.0292,486.2926,6.8213,0.4212,54.878372,9.819378,108.3,5.845,1.85,335.95,54.879726,9.818015,0.000000,0.000000
1386876619,1,0,485.9,0,0,4,0,409,350,-0.0292,486.2926,6.8213,0.4212,54.878361,9.819404,108.3,5.845,1.85,335.95,54.879726,9.818015,0.000000,0.000000
