MCU_timestamp,Navigation_System,Manual_Control,Guidance_Heading,Manual_Ctrl_Rudder,Rudder_Desired_Angle,Rudder_Feedback,Manual_Ctrl_Sail,Sail_Desired_Pos,Sail_Feedback,Rate,Heading,Pitch,Roll,Latitude,Longitude,COG,SOG,Wind_Speed,Wind_Angle,Point_Start_Lat,Point_Start_Lon,Point_End_Lat,Point_End_Lon
1386958118,1,0,150.0,0,1,4,0,713,450,-0.0292,5190.8257,6.8213,0.4212,54.892937,9.795228,108.3,5.845,1.85,0.00,54.892956,9.795213,0.000000,0.000000
1386958118,1,0,150.0,0,1,0,0,0,400,-0.0292,5190.5591,6.8213,0.4212,54.892921,9.795243,108.3,5.845,1.85,0.00,54.892956,9.795213,0.000000,0.000000
1386958118,1,0,150.0,0,1,4,0,0,350,-0.0292,5190.2925,6.8213,0.4212,54.892906,9.795259,108.3,5.845,1.85,0.00,54.892956,9.795213,0.000000,0.000000
1386958118,1,0,150.0,0,0,0,0,0,300,-0.0292,5190.2925,6.8213,0.4212,54.892887,9.795275,108.3,5.845,1.85,0.00,54.892956,9.795213,0.000000,0.000000
1386958119,1,0,150.0,0,0,4,0,0,250,-0.0292,5190.2925,6.8213,0.4212,54.892872,9.795290,108.3,5.845,1.85,0.00,54.892956,9.795213,0.000000,0.000000
1386958119,1,0,150.0,0,0,0,0,0,200,-0.0292,5190.2925,6.8213,0.4212,54.892857,9.795305,108.3,5.845,1.85,0.00,54.892956,9.795213,0.000000,0.000000
1386958119,1,0,150.0,0,0,4,0,0,150,-0.0292,5190.2925,6.8213,0.4212,54.892838,9.795321,108.3,5.845,1.85,0.00,54.892956,9.795213,0.000000,0.000000
1386958119,1,0,150.0,0,0,0,0,0,100,-0.0292,5190.2925,6.8213,0.4212,54.892822,9.795336,108.3,5.845,1.85,0.00,54.892956,9.795213,0.000000,0.000000
1386958120,1,0,150.0,0,0,4,0,0,50,-0.0292,5190.2925,6.8213,0.4212,54.892807,9.795351,108.3,5.845,1.85,0.00,54.892956,9.795213,0.000000,0.000000
1386958120,1,0,150.0,0,0,0,0,0,0,-0.0292,5190.2925,6.8213,0.4212,54.892788,9.795366,108.3,5.845,1.85,0.00,54.892956,9.795213,0.000000,0.000000
1386958120,1,0,150.0,0,0,4,0,0,0,-0.0292,5190.2925,6.8213,0.4212,54.892773,9.795382,108.3,5.845,1.85,0.00,54.892956,9.795213,0.000000,0.000000
1386958120,1,0,210.0,0,-35,0,0,0,0,-0.0292,5199.6260,6.8213,0.4212,54.892757,9.795393,108.3,5.845,1.85,0.00,54.892956,9.795213,0.000000,0.000000
1386958121,1,0,210.0,0,-35,-4,0,0,0,-0.0292,5208.9595,6.8213,0.4212,54.892738,9.795399,108.3,5.845,1.85,0.00,54.892956,9.795213,0.000000,0.000000
1386958121,1,0,210.0,0,-35,-8,0,0,0,-0.0292,5218.2930,6.8213,0.4212,54.892719,9.795400,108.3,5.845,1.85,0.00,54.892956,9.795213,0.000000,0.000000
1386958121,1,0,210.0,0,-32,-12,0,0,0,-0.0292,5226.8262,6.8213,0.4212,54.892700,9.795396,108.3,5.845,1.85,0.00,54.892956,9.795213,0.000000,0.000000
1386958121,1,0,210.0,0,-23,-16,0,0,0,-0.0292,5232.9595,6.8213,0.4212,54.892685,9.795389,108.3,5.845,1.85,0.00,54.892956,9.795213,0.000000,0.000000
1386958122,1,0,210.0,0,-17,-20,0,0,0,-0.0292,5237.4927,6.8213,0.4212,54.892666,9.795380,108.3,5.845,1.85,0.00,54.892956,9.795213,0.000000,0.000000
1386958122,1,0,210.0,0,-13,-16,0,0,0,-0.0292,5240.9595,6.8213,0.4212,54.892647,9.795368,108.3,5.845,1.85,0.00,54.892956,9.795213,0.000000,0.000000
1386958122,1,0,210.0,0,-9,-12,0,0,0,-0.0292,5243.3594,6.8213,0.4212,54.892632,9.795356,108.3,5.845,1.85,0.00,54.892956,9.795213,0.000000,0.000000
1386958122,1,0,210.0,0,-7,-8,0,0,0,-0.0292,5245.2261,6.8213,0.4212,54.892616,9.795342,108.3,5.845,1.85,0.00,54.892956,9.795213,0.000000,0.000000
1386958123,1,0,210.0,0,-5,-4,0,0,0,-0.0292,5246.5596,6.8213,0.4212,54.892601,9.795328,108.3,5.845,1.85,0.00,54.892956,9.795213,0.000000,0.000000
1386958123,1,0,210.0,0,-3,0,0,713,50,-0.0292,5247.3594,6.8213,0.4212,54.892586,9.795314,108.3,5.845,1.85,0.00,54.892956,9.795213,0.000000,0.000000
1386958123,1,0,210.0,0,-3,-4,0,713,100,-0.0292,5248.1592,6.8213,0.4212,54.892567,9.795300,108.3,5.845,1.85,0.00,54.892956,9.795213,0.000000,0.000000
1386958123,1,0,210.0,0,-2,0,0,713,150,-0.0292,5248.6924,6.8213,0.4212,54.892551,9.795284,108.3,5.845,1.85,0.00,54.892956,9.795213,0.000000,0.000000
1386958124,1,0,210.0,0,-1,-4,0,713,200,-0.0292,5248.9590,6.8213,0.4212,54.892536,9.795270,108.3,5.845,1.85,0.00,54.892956,9.795213,0.000000,0.000000
1386958124,1,0,210.0,0,-1,0,0,713,250,-0.0292,5249.2256,6.8213,0.4212,54.892517,9.795255,108.3,5.845,1.85,0.00,54.892956,9.795213,0.000000,0.000000
1386958124,1,0,210.0,0,-1,-4,0,713,300,-0.0292,5249.4922,6.8213,0.4212,54.892502,9.795239,108.3,5.845,1.85,0.00,54.892956,9.795213,0.000000,0.000000
1386958124,1,0,210.0,0,-1,0,0,713,350,-0.0292,5249.7588,6.8213,0.4212,54.892487,9.795224,108.3,5.845,1.85,0.00,54.892956,9.795213,0.000000,0.000000
1386958125,1,0,210.0,0,0,4,0,713,400,-0.0292,5249.7588,6.8213,0.4212,54.892467,9.795209,108.3,5.845,1.85,0.00,54.892956,9.795213,0.000000,0.000000
1386958125,1,0,210.0,0,0,0,0,713,450,-0.0292,5249.7588,6.8213,0.4212,54.892452,9.795193,108.3,5.845,1.85,0.00,54.892956,9.795213,0.000000,0.000000
1386958125,1,0,210.0,0,0,4,0,713,500,-0.0292,5249.7588,6.8213,0.4212,54.892437,9.795177,108.3,5.845,1.85,0.00,54.892956,9.795213,0.000000,0.000000
1386958125,1,0,210.0,0,0,0,0,713,550,-0.0292,5249.7588,6.8213,0.4212,54.892422,9.795162,108.3,5.845,1.85,0.00,54.892956,9.795213,0.000000,0.000000
1386958126,1,0,210.0,0,0,4,0,713,600,-0.0292,5249.7588,6.8213,0.4212,54.892406,9.795146,108.3,5.845,1.85,0.00,54.892956,9.795213,0.000000,0.000000
1386958126,1,0,210.0,0,0,0,0,713,650,-0.0292,5249.7588,6.8213,0.4212,54.892391,9.795131,108.3,5.845,1.85,0.00,54.892956,9.795213,0.000000,0.000000
1386958126,1,0,210.0,0,0,4,0,713,700,-0.0292,5249.7588,6.8213,0.4212,54.892372,9.795115,108.3,5.845,1.85,0.00,54.892956,9.795213,0.000000,0.000000
1386958126,1,0,210.0,0,0,0,0,713,750,-0.0292,5249.7588,6.8213,0.4212,54.892357,9.795100,108.3,5.845,1.85,0.00,54.892956,9.795213,0.000000,0.000000
1386958127,1,0,210.0,0,0,4,0,713,700,-0.0292,5249.7588,6.8213,0.4212,54.892342,9.795085,108.3,5.845,1.85,0.00,54.892956,9.795213,0.000000,0.000000
1386958127,1,0,210.0,0,0,0,0,713,750,-0.0292,5249.7588,6.8213,0.4212,54.892323,9.795069,108.3,5.845,1.85,0.00,54.892956,9.795213,0.000000,0.000000
1386958127,1,0,210.0,0,0,4,0,713,700,-0.0292,5249.7588,6.8213,0.4212,54.892307,9.795053,108.3,5.845,1.85,0.00,54.892956,9.795213,0.000000,0.000000
1386958127,1,0,210.0,0,0,0,0,713,750,-0.0292,5249.7588,6.8213,0.4212,54.892292,9.795038,108.3,5.845,1.85,0.00,54.892956,9.795213,0.000000,0.000000
1386958128,1,0,210.0,0,0,4,0,713,700,-0.0292,5249.7588,6.8213,0.4212,54.892273,9.795022,108.3,5.845,1.85,0.00,54.892956,9.795213,0.000000,0.000000
1386958128,1,0,210.0,0,0,0,0,713,750,-0.0292,5249.7588,6.8213,0.4212,54.892258,9.795007,108.3,5.845,1.85,0.00,54.892956,9.795213,0.000000,0.000000
1386958128,1,0,210.0,0,0,4,0,713,700,-0.0292,5249.7588,6.8213,0.4212,54.892242,9.794991,108.3,5.845,1.85,0.00,54.892956,9.795213,0.000000,0.000000
1386958128,1,0,210.0,0,0,0,0,713,750,-0.0292,5249.7588,6.8213,0.4212,54.892223,9.794975,108.3,5.845,1.85,0.00,54.892956,9.795213,0.000000,0.000000
1386958129,1,0,210.0,0,0,4,0,713,700,-0.0292,5249.7588,6.8213,0.4212,54.892208,9.794960,108.3,5.845,1.85,0.00,54.892956,9.795213,0.000000,0.000000
1386958129,1,0,210.0,0,0,0,0,713,750,-0.0292,5249.7588,6.8213,0.4212,54.892193,9.794945,108.3,5.845,1.85,0.00,54.892956,9.795213,0.000000,0.000000
1386958129,1,0,210.0,0,0,4,0,713,700,-0.0292,5249.7588,6.8213,0.4212,54.892174,9.794930,108.3,5.845,1.85,0.00,54.892956,9.795213,0.000000,0.000000
1386958129,1,0,210.0,0,0,0,0,713,750,-0.0292,5249.7588,6.8213,0.4212,54.892159,9.794914,108.3,5.845,1.85,0.00,54.892956,9.795213,0.000000,0.000000
1386958130,1,0,210.0,0,0,4,0,713,700,-0.0292,5249.7588,6.8213,0.4212,54.892143,9.794899,108.3,5.845,1.85,0.00,54.892956,9.795213,0.000000,0.000000
1386958130,1,0,210.0,0,0,0,0,713,750,-0.0292,5249.7588,6.8213,0.4212,54.892124,9.794884,108.3,5.845,1.85,0.00,54.892956,9.795213,0.000000,0.000000
1386958130,1,0,210.0,0,0,4,0,713,700,-0.0292,5249.7588,6.8213,0.4212,54.892109,9.794868,108.3,5.845,1.85,0.00,54.892956,9.795213,0.000000,0.000000
1386958130,1,0,210.0,0,0,0,0,713,750,-0.0292,5249.7588,6.8213,0.4212,54.892094,9.794852,108.3,5.845,1.85,0.00,54.892956,9.795213,0.000000,0.000000
1386958131,1,0,210.0,0,0,4,0,713,700,-0.0292,5249.7588,6.8213,0.4212,54.892075,9.794837,108.3,5.845,1.85,0.00,54.892956,9.795213,0.000000,0.000000
1386958131,1,0,210.0,0,0,0,0,713,750,-0.0292,5249.7588,6.8213,0.4212,54.892059,9.794822,108.3,5.845,1.85,0.00,54.892956,9.795213,0.000000,0.000000
1386958131,1,0,210.0,0,0,4,0,713,700,-0.0292,5249.7588,6.8213,0.4212,54.892044,9.794806,108.3,5.845,1.85,0.00,54.892956,9.795213,0.000000,0.000000
1386958131,1,0,210.0,0,0,0,0,713,750,-0.0292,5249.7588,6.8213,0.4212,54.892025,9.794790,108.3,5.845,1.85,0.00,54.892956,9.795213,0.000000,0.000000
1386958132,1,0,210.0,0,0,4,0,713,700,-0.0292,5249.7588,6.8213,0.4212,54.892010,9.794775,108.3,5.845,1.85,0.00,54.892956,9.795213,0.000000,0.000000
1386958132,1,0,210.0,0,0,0,0,713,750,-0.0292,5249.7588,6.8213,0.4212,54.891994,9.794759,108.3,5.845,1.85,0.00,54.892956,9.795213,0.000000,0.000000
1386958132,1,0,210.0,0,0,4,0,713,700,-0.0292,5249.7588,6.8213,0.4212,54.891979,9.794744,108.3,5.845,1.85,0.00,54.892956,9.795213,0.000000,0.000000
1386958132,1,0,210.0,0,0,0,0,713,750,-0.0292,5249.7588,6.8213,0.4212,54.891964,9.794728,108.3,5.845,1.85,0.00,54.892956,9.795213,0.000000,0.000000
1386958133,1,0,210.0,0,0,4,0,713,700,-0.0292,5249.7588,6.8213,0.4212,54.891949,9.794713,108.3,5.845,1.85,0.00,54.892956,9.795213,0.000000,0.000000
1386958133,1,0,210.0,0,0,0,0,713,750,-0.0292,5249.7588,6.8213,0.4212,54.891930,9.794698,108.3,5.845,1.85,0.00,54.892956,9.795213,0.000000,0.000000
1386958133,1,0,210.0,0,0,4,0,713,700,-0.0292,5249.7588,6.8213,0.4212,54.891914,9.794682,108.3,5.845,1.85,0.00,54.892956,9.795213,0.000000,0.000000
1386958133,1,0,210.0,0,0,0,0,713,750,-0.0292,5249.7588,6.8213,0.4212,54.891899,9.794666,108.3,5.845,1.85,0.00,54.892956,9.795213,0.000000,0.000000
1386958134,1,0,210.0,0,0,4,0,713,700,-0.0292,5249.7588,6.8213,0.4212,54.891880,9.794651,108.3,5.845,1.85,0.00,54.892956,9.795213,0.000000,0.000000
1386958134,1,0,210.0,0,0,0,0,713,750,-0.0292,5249.7588,6.8213,0.4212,54.891865,9.794635,108.3,5.845,1.85,0.00,54.892956,9.795213,0.000000,0.000000
1386958134,1,0,210.0,0,0,4,0,713,700,-0.0292,5249.7588,6.8213,0.4212,54.891850,9.794620,108.3,5.845,1.85,0.00,54.892956,9.795213,0.000000,0.000000
1386958134,1,0,210.0,0,0,0,0,713,750,-0.0292,5249.7588,6.8213,0.4212,54.891830,9.794604,108.3,5.845,1.85,0.00,54.892956,9.795213,0.000000,0.000000
1386958135,1,0,210.0,0,0,4,0,713,700,-0.0292,5249.7588,6.8213,0.4212,54.891815,9.794588,108.3,5.845,1.85,0.00,54.892956,9.795213,0.000000,0.000000
1386958135,1,0,210.0,0,0,0,0,713,750,-0.0292,5249.7588,6.8213,0.4212,54.891800,9.794573,108.3,5.845,1.85,0.00,54.892956,9.795213,0.000000,0.000000
1386958135,1,0,210.0,0,0,4,0,713,700,-0.0292,5249.7588,6.8213,0.4212,54.891781,9.794558,108.3,5.845,1.85,0.00,54.892956,9.795213,0.000000,0.000000
1386958135,1,0,210.0,0,0,0,0,713,750,-0.0292,5249.7588,6.8213,0.4212,54.891766,9.794542,108.3,5.845,1.85,0.00,54.892956,9.795213,0.000000,0.000000
1386958136,1,0,210.0,0,0,4,0,713,700,-0.0292,5249.7588,6.8213,0.4212,54.891750,9.794527,108.3,5.845,1.85,0.00,54.892956,9.795213,0.000000,0.000000
1386958136,1,0,210.0,0,0,0,0,713,750,-0.0292,5249.7588,6.8213,0.4212,54.891731,9.794511,108.3,5.845,1.85,0.00,54.892956,9.795213,0.000000,0.000000
1386958136,1,0,210.0,0,0,4,0,713,700,-0.0292,5249.7588,6.8213,0.4212,54.891716,9.794496,108.3,5.845,1.85,0.00,54.892956,9.795213,0.000000,0.000000
1386958137,1,0,210.0,0,0,0,0,713,750,-0.0292,5249.7588,6.8213,0.4212,54.891701,9.794480,108.3,5.845,1.85,0.00,54.892956,9.795213,0.000000,0.000000
1386958137,1,0,210.0,0,0,4,0,713,700,-0.0292,5249.7588,6.8213,0.4212,54.891682,9.794464,108.3,5.845,1.85,0.00,54.892956,9.795213,0.000000,0.000000
1386958137,1,0,210.0,0,0,0,0,713,750,-0.0292,5249.7588,6.8213,0.4212,54.891666,9.794449,108.3,5.845,1.85,0.00,54.892956,9.795213,0.000000,0.000000
1386958137,1,0,210.0,0,0,4,0,713,700,-0.0292,5249.7588,6.8213,0.4212,54.891651,9.794434,108.3,5.845,1.85,0.00,54.892956,9.795213,0.000000,0.000000
1386958138,1,0,210.0,0,0,0,0,713,750,-0.0292,5249.7588,6.8213,0.4212,54.891632,9.794417,108.3,5.845,1.85,0.00,54.892956,9.795213,0.000000,0.000000
1386958138,1,0,210.0,0,0,4,0,713,700,-0.0292,5249.7588,6.8213,0.4212,54.891617,9.794402,108.3,5.845,1.85,0.00,54.892956,9.795213,0.000000,0.000000
1386958138,1,0,210.0,0,0,0,0,713,750,-0.0292,5249.7588,6.8213,0.4212,54.891602,9.794387,108.3,5.845,1.85,0.00,54.892956,9.795213,0.000000,0.000000
1386958138,1,0,210.0,0,0,4,0,713,700,-0.0292,5249.7588,6.8213,0.4212,54.891582,9.794372,108.3,5.845,1.85,0.00,54.892956,9.795213,0.000000,0.000000
1386958139,1,0,210.0,0,0,0,0,713,750,-0.0292,5249.7588,6.8213,0.4212,54.891567,9.794356,108.3,5.845,1.85,0.00,54.892956,9.795213,0.000000,0.000000
1386958139,1,0,210.0,0,0,4,0,713,700,-0.0292,5249.7588,6.8213,0.4212,54.891552,9.794340,108.3,5.845,1.85,0.00,54.892956,9.795213,0.000000,0.000000
1386958139,1,0,210.0,0,0,0,0,713,750,-0.0292,5249.7588,6.8213,0.4212,54.891533,9.794325,108.3,5.845,1.85,0.00,54.892956,9.795213,0.000000,0.000000
1386958139,1,0,210.0,0,0,4,0,713,700,-0.0292,5249.7588,6.8213,0.4212,54.891518,9.794310,108.3,5.845,1.85,0.00,54.892956,9.795213,0.000000,0.000000
1386958140,1,0,210.0,0,0,0,0,713,750,-0.0292,5249.7588,6.8213,0.4212,54.891502,9.794293,108.3,5.845,1.85,0.00,54.892956,9.795213,0.000000,0.000000
1386958140,1,0,210.0,0,0,4,0,713,700,-0.0292,5249.7588,6.8213,0.4212,54.891487,9.794278,108.3,5.845,1.85,0.00,54.892956,9.795213,0.000000,0.000000
1386958140,1,0,210.0,0,0,0,0,713,750,-0.0292,5249.7588,6.8213,0.4212,54.891472,9.794263,108.3,5.845,1.85,0.00,54.892956,9.795213,0.000000,0.000000
1386958140,1,0,210.0,0,0,4,0,713,700,-0.0292,5249.7588,6.8213,0.4212,54.891457,9.794247,108.3,5.845,1.85,0.00,54.892956,9.795213,0.000000,0.000000
1386958141,1,0,210.0,0,0,0,0,713,750,-0.0292,5249.7588,6.8213,0.4212,54.891438,9.794231,108.3,5.845,1.85,0.00,54.892956,9.795213,0.000000,0.000000
1386958141,1,0,210.0,0,0,4,0,713,700,-0.0292,5249.7588,6.8213,0.4212,54.891422,9.794216,108.3,5.845,1.85,0.00,54.892956,9.795213,0.000000,0.000000
1386958141,1,0,210.0,0,0,0,0,713,750,-0.0292,5249.7588,6.8213,0.4212,54.891407,9.794201,108.3,5.845,1.85,0.00,54.892956,9.795213,0.000000,0.000000
1386958141,1,0,210.0,0,0,4,0,713,700,-0.0292,5249.7588,6.8213,0.4212,54.891388,9.794186,108.3,5.845,1.85,0.00,54.892956,9.795213,0.000000,0.000000
1386958142,1,0,210.0,0,0,0,0,713,750,-0.0292,5249.7588,6.8213,0.4212,54.891373,9.794170,108.3,5.845,1.85,0.00,54.892956,9.795213,0.000000,0.000000
1386958142,1,0,210.0,0,0,4,0,713,700,-0.0292,5249.7588,6.8213,0.4212,54.891357,9.794155,108.3,5.845,1.85,0.00,54.892956,9.795213,0.000000,0.000000
1386958142,1,0,210.0,0,0,0,0,713,750,-0.0292,5249.7588,6.8213,0.4212,54.891338,9.794140,108.3,5.845,1.85,0.00,54.892956,9.795213,0.000000,0.000000
1386958142,1,0,210.0,0,0,4,0,713,700,-0.0292,5249.7588,6.8213,0.4212,54.891323,9.794124,108.3,5.845,1.85,0.00,54.892956,9.795213,0.000000,0.000000
1386958143,1,0,210.0,0,0,0,0,713,750,-0.0292,5249.7588,6.8213,0.4212,54.891308,9.794108,108.3,5.845,1.85,0.00,54.892956,9.795213,0.000000,0.000000
1386958143,1,0,210.0,0,0,4,0,713,700,-0.0292,5249.7588,6.8213,0.4212,54.891289,9.794093,108.3,5.845,1.85,0.00,54.892956,9.795213,0.000000,0.000000
1386958143,1,0,210.0,0,0,0,0,713,750,-0.0292,5249.7588,6.8213,0.4212,54.891273,9.794077,108.3,5.845,1.85,0.00,54.892956,9.795213,0.000000,0.000000
1386958143,1,0,210.0,0,0,4,0,713,700,-0.0292,5249.7588,6.8213,0.4212,54.891258,9.794062,108.3,5.845,1.85,0.00,54.892956,9.795213,0.000000,0.000000
1386958144,1,0,210.0,0,0,0,0,713,750,-0.0292,5249.7588,6.8213,0.4212,54.891239,9.794046,108.3,5.845,1.85,0.00,54.892956,9.795213,0.000000,0.000000
1386958144,1,0,210.0,0,0,4,0,713,700,-0.0292,5249.7588,6.8213,0.4212,54.891224,9.794030,108.3,5.845,1.85,0.00,54.892956,9.795213,0.000000,0.000000
1386958144,1,0,210.0,0,0,0,0,713,750,-0.0292,5249.7588,6.8213,0.4212,54.891209,9.794015,108.3,5.845,1.85,0.00,54.892956,9.795213,0.000000,0.000000
1386958144,1,0,210.0,0,0,4,0,713,700,-0.0292,5249.7588,6.8213,0.4212,54.891190,9.794000,108.3,5.845,1.85,0.00,54.892956,9.795213,0.000000,0.000000
1386958145,1,0,210.0,0,0,0,0,713,750,-0.0292,5249.7588,6.8213,0.4212,54.891174,9.793984,108.3,5.845,1.85,0.00,54.892956,9.795213,0.000000,0.000000
1386958145,1,0,210.0,0,0,4,0,713,700,-0.0292,5249.7588,6.8213,0.4212,54.891159,9.793969,108.3,5.845,1.85,0.00,54.892956,9.795213,0.000000,0.000000
1386958145,1,0,210.0,0,0,0,0,713,750,-0.0292,5249.7588,6.8213,0.4212,54.891140,9.793953,108.3,5.845,1.85,0.00,54.892956,9.795213,0.000000,0.000000
1386958145,1,0,210.0,0,0,4,0,713,700,-0.0292,5249.7588,6.8213,0.4212,54.891125,9.793938,108.3,5.845,1.85,0.00,54.892956,9.795213,0.000000,0.000000
1386958146,1,0,210.0,0,0,0,0,713,750,-0.0292,5249.7588,6.8213,0.4212,54.891109,9.793922,108.3,5.845,1.85,0.00,54.892956,9.795213,0.000000,0.000000
1386958146,1,0,210.0,0,0,4,0,713,700,-0.0292,5249.7588,6.8213,0.4212,54.891090,9.793906,108.3,5.845,1.85,0.00,54.892956,9.795213,0.000000,0.000000
1386958146,1,0,210.0,0,0,0,0,713,750,-0.0292,5249.7588,6.8213,0.4212,54.891075,9.793891,108.3,5.845,1.85,0.00,54.892956,9.795213,0.000000,0.000000
1386958146,1,0,210.0,0,0,4,0,713,700,-0.0292,5249.7588,6.8213,0.4212,54.891060,9.793876,108.3,5.845,1.85,0.00,54.892956,9.795213,0.000000,0.000000
1386958147,1,0,210.0,0,0,0,0,713,750,-0.0292,5249.7588,6.8213,0.4212,54.891045,9.793859,108.3,5.845,1.85,0.00,54.892956,9.795213,0.000000,0.000000
1386958147,1,0,210.0,0,0,4,0,713,700,-0.0292,5249.7588,6.8213,0.4212,54.891029,9.793844,108.3,5.845,1.85,0.00,54.892956,9.795213,0.000000,0.000000
1386958147,1,0,210.0,0,0,0,0,713,750,-0.0292,5249.7588,6.8213,0.4212,54.891014,9.793829,108.3,5.845,1.85,0.00,54.892956,9.795213,0.000000,0.000000
1386958147,1,0,210.0,0,0,4,0,713,700,-0.0292,5249.7588,6.8213,0.4212,54.890995,9.793814,108.3,5.845,1.85,0.00,54.892956,9.795213,0.000000,0.000000
1386958148,1,0,210.0,0,0,0,0,713,750,-0.0292,5249.7588,6.8213,0.4212,54.890980,9.793798,108.3,5.845,1.85,0.00,54.892956,9.795213,0.000000,0.000000
1386958148,1,0,210.0,0,0,4,0,713,700,-0.0292,5249.7588,6.8213,0.4212,54.890965,9.793782,108.3,5.845,1.85,0.00,54.892956,9.795213,0.000000,0.000000
1386958148,1,0,210.0,0,0,0,0,713,750,-0.0292,5249.7588,6.8213,0.4212,54.890945,9.793767,108.3,5.845,1.85,0.00,54.892956,9.795213,0.000000,0.000000
1386958148,1,0,210.0,0,0,4,0,713,700,-0.0292,5249.7588,6.8213,0.4212,54.890930,9.793752,108.3,5.845,1.85,0.00,54.892956,9.795213,0.000000,0.000000
1386958149,1,0,210.0,0,0,0,0,713,750,-0.0292,5249.7588,6.8213,0.4212,54.890915,9.793736,108.3,5.845,1.85,0.00,54.892956,9.795213,0.000000,0.000000
1386958149,1,0,210.0,0,0,4,0,713,700,-0.0292,5249.7588,6.8213,0.4212,54.890896,9.793720,108.3,5.845,1.85,0.00,54.892956,9.795213,0.000000,0.000000
1386958149,1,0,210.0,0,0,0,0,713,750,-0.0292,5249.7588,6.8213,0.4212,54.890881,9.793705,108.3,5.845,1.85,0.00,54.892956,9.795213,0.000000,0.000000
1386958149,1,0,210.0,0,0,4,0,713,700,-0.0292,5249.7588,6.8213,0.4212,54.890865,9.793689,108.3,5.845,1.85,0.00,54.892956,9.795213,0.000000,0.000000
1386958150,1,0,210.0,0,0,0,0,713,750,-0.0292,5249.7588,6.8213,0.4212,54.890846,9.793674,108.3,5.845,1.85,0.00,54.892956,9.795213,0.000000,0.000000
1386958150,1,0,210.0,0,0,4,0,713,700,-0.0292,5249.7588,6.8213,0.4212,54.890831,9.793658,108.3,5.845,1.85,0.00,54.892956,9.795213,0.000000,0.000000
1386958150,1,0,210.0,0,0,0,0,713,750,-0.0292,5249.7588,6.8213,0.4212,54.890816,9.793643,108.3,5.845,1.85,0.00,54.892956,9.795213,0.000000,0.000000
1386958150,1,0,210.0,0,0,4,0,713,700,-0.0292,5249.7588,6.8213,0.4212,54.890797,9.793628,108.3,5.845,1.85,0.00,54.892956,9.795213,0.000000,0.000000
1386958151,1,0,210.0,0,0,0,0,713,750,-0.0292,5249.7588,6.8213,0.4212,54.890781,9.793612,108.3,5.845,1.85,0.00,54.892956,9.795213,0.000000,0.000000
1386958151,1,0,210.0,0,0,4,0,713,700,-0.0292,5249.7588,6.8213,0.4212,54.890766,9.793596,108.3,5.845,1.85,0.00,54.892956,9.795213,0.000000,0.000000
1386958151,1,0,210.0,0,0,0,0,713,750,-0.0292,5249.7588,6.8213,0.4212,54.890747,9.793581,108.3,5.845,1.85,0.00,54.892956,9.795213,0.000000,0.000000
1386958151,1,0,210.0,0,0,4,0,713,700,-0.0292,5249.7588,6.8213,0.4212,54.890732,9.793565,108.3,5.845,1.85,0.00,54.892956,9.795213,0.000000,0.000000
1386958152,1,0,210.0,0,0,0,0,713,750,-0.0292,5249.7588,6.8213,0.4212,54.890717,9.793550,108.3,5.845,1.85,0.00,54.892956,9.795213,0.000000,0.000000
1386958152,1,0,210.0,0,0,4,0,713,700,-0.0292,5249.7588,6.8213,0.4212,54.890697,9.793534,108.3,5.845,1.85,0.00,54.892956,9.795213,0.000000,0.000000
1386958152,1,0,210.0,0,0,0,0,713,750,-0.0292,5249.7588,6.8213,0.4212,54.890682,9.793518,108.3,5.845,1.85,0.00,54.892956,9.795213,0.000000,0.000000
