MCU_timestamp,Navigation_System,Manual_Control,Guidance_Heading,Manual_Ctrl_Rudder,Rudder_Desired_Angle,Rudder_Feedback,Manual_Ctrl_Sail,Sail_Desired_Pos,Sail_Feedback,Rate,Heading,Pitch,Roll,Latitude,Longitude,COG,SOG,Wind_Speed,Wind_Angle,Point_Start_Lat,Point_Start_Lon,Point_End_Lat,Point_End_Lon
1389997930,0,0,0.0,0,0,0,0,0,0,-0.0292,181.2921,6.8213,0.4212,54.890278,9.784663,108.3,5.845,1.85,335.95,0.000000,0.000000,0.000000,0.000000
1389997930,0,0,0.0,0,0,0,0,0,0,-0.0292,181.2921,6.8213,0.4212,54.890278,9.784663,108.3,5.845,1.85,335.95,0.000000,0.000000,0.000000,0.000000
1389997931,0,0,0.0,0,0,0,0,0,0,-0.0292,181.2921,6.8213,0.4212,54.890278,9.784663,108.3,5.845,1.85,335.95,0.000000,0.000000,0.000000,0.000000
1389997931,0,0,0.0,0,0,0,0,0,0,-0.0292,181.2921,6.8213,0.4212,54.890278,9.784663,108.3,5.845,1.85,335.95,0.000000,0.000000,0.000000,0.000000
1389997931,0,0,0.0,0,0,0,0,0,0,-0.0292,181.2921,6.8213,0.4212,54.890278,9.784663,108.3,5.845,1.85,335.95,0.000000,0.000000,0.000000,0.000000
1389997931,0,0,0.0,0,0,0,0,0,0,-0.0292,181.2921,6.8213,0.4212,54.890278,9.784663,108.3,5.845,1.85,335.95,0.000000,0.000000,0.000000,0.000000
1389997932,0,0,0.0,0,0,0,0,0,0,-0.0292,181.2921,6.8213,0.4212,54.890278,9.784663,108.3,5.845,1.85,335.95,0.000000,0.000000,0.000000,0.000000
1389997932,0,0,0.0,0,0,0,0,0,0,-0.0292,181.2921,6.8213,0.4212,54.890278,9.784663,108.3,5.845,1.85,335.95,0.000000,0.000000,0.000000,0.000000
1389997932,0,0,0.0,0,0,0,0,0,0,-0.0292,181.2921,6.8213,0.4212,54.890278,9.784663,108.3,5.845,1.85,335.95,0.000000,0.000000,0.000000,0.000000
1389997932,0,0,0.0,0,0,0,0,0,0,-0.0292,181.2921,6.8213,0.4212,54.890278,9.784663,108.3,5.845,1.85,335.95,0.000000,0.000000,0.000000,0.000000
1389997933,0,0,0.0,0,0,0,0,0,0,-0.0292,181.2921,6.8213,0.4212,54.890278,9.784663,108.3,5.845,1.85,335.95,0.000000,0.000000,0.000000,0.000000
1389997933,0,0,0.0,0,0,0,0,0,0,-0.0292,181.2921,6.8213,0.4212,54.890278,9.784663,108.3,5.845,1.85,335.95,0.000000,0.000000,0.000000,0.000000
1389997933,0,0,0.0,0,0,0,0,0,0,-0.0292,181.2921,6.8213,0.4212,54.890278,9.784663,108.3,5.845,1.85,335.95,0.000000,0.000000,0.000000,0.000000
1389997933,0,0,0.0,0,0,0,0,0,0,-0.0292,181.2921,6.8213,0.4212,54.890278,9.784663,108.3,5.845,1.85,335.95,0.000000,0.000000,0.000000,0.000000
1389997934,0,0,0.0,0,0,0,0,0,0,-0.0292,181.2921,6.8213,0.4212,54.890278,9.784663,108.3,5.845,1.85,335.95,0.000000,0.000000,0.000000,0.000000
1389997934,4,0,0.0,0,0,0,0,0,0,-0.0292,181.2921,6.8213,0.4212,54.890278,9.784663,108.3,5.845,1.85,335.95,0.000000,0.000000,0.000000,0.000000
1389997934,1,0,0.0,0,1,4,0,713,750,-0.0292,180.9588,6.8213,0.4212,54.890259,9.784662,108.3,5.845,1.85,335.95,54.895069,9.793790,54.895348,9.797490
1389997934,1,0,0.0,0,11,8,0,713,700,-0.0292,177.2921,6.8213,0.4212,54.890240,9.784663,108.3,5.845,1.85,335.95,54.895348,9.797490,54.894039,9.801540
1389997935,1,0,0.0,0,7,4,0,713,750,-0.0292,174.9588,6.8213,0.4212,54.890221,9.784665,108.3,5.845,1.85,335.95,54.894039,9.801540,54.893795,9.802299
1389997935,1,0,0.0,0,5,8,0,713,700,-0.0292,173.2921,6.8213,0.4212,54.890205,9.784668,108.3,5.845,1.85,335.95,54.893795,9.802299,54.893364,9.803688
1389997935,1,0,0.0,0,3,4,0,713,750,-0.0292,172.2921,6.8213,0.4212,54.890186,9.784672,108.3,5.845,1.85,335.95,54.893364,9.803688,54.892704,9.801139
1389997935,1,0,0.0,0,2,0,0,713,700,-0.0292,171.6254,6.8213,0.4212,54.890167,9.784677,108.3,5.845,1.85,335.95,54.892704,9.801139,54.891663,9.800174
1389997936,1,0,0.0,0,2,4,0,713,750,-0.0292,170.9587,6.8213,0.4212,54.890152,9.784681,108.3,5.845,1.85,335.95,54.891663,9.800174,54.892929,9.805077
1389997936,1,0,0.0,0,1,0,0,713,700,-0.0292,170.6254,6.8213,0.4212,54.890133,9.784686,108.3,5.845,1.85,335.95,54.892929,9.805077,54.892498,9.806466
1389997936,1,0,0.0,0,1,4,0,713,750,-0.0292,170.2921,6.8213,0.4212,54.890114,9.784692,108.3,5.845,1.85,335.95,54.892498,9.806466,54.891232,9.801563
1389997936,1,0,0.0,0,0,0,0,713,700,-0.0292,170.2921,6.8213,0.4212,54.890095,9.784698,108.3,5.845,1.85,335.95,54.891232,9.801563,54.890800,9.802953
1389997937,1,0,0.0,0,0,4,0,713,750,-0.0292,170.2921,6.8213,0.4212,54.890079,9.784703,108.3,5.845,1.85,335.95,54.890800,9.802953,54.891651,9.806246
1389997937,1,0,0.0,0,0,0,0,713,700,-0.0292,170.2921,6.8213,0.4212,54.890060,9.784708,108.3,5.845,1.85,335.95,54.891651,9.806246,54.890560,9.805087
1389997937,1,0,0.0,0,0,4,0,713,750,-0.0292,170.2921,6.8213,0.4212,54.890041,9.784713,108.3,5.845,1.85,335.95,54.890560,9.805087,54.890366,9.804342
1389997937,1,0,0.0,0,0,0,0,713,700,-0.0292,170.2921,6.8213,0.4212,54.890022,9.784718,108.3,5.845,1.85,335.95,54.890366,9.804342,54.890846,9.801930
1389997938,1,0,0.0,0,0,4,0,713,750,-0.0292,170.2921,6.8213,0.4212,54.890007,9.784722,108.3,5.845,1.85,335.95,54.890846,9.801930,54.889477,9.798280
1389997938,1,0,0.0,0,0,0,0,713,700,-0.0292,170.2921,6.8213,0.4212,54.889988,9.784728,108.3,5.845,1.85,335.95,54.889477,9.798280,54.891819,9.794550
1389997938,1,0,0.0,0,0,4,0,713,750,-0.0292,170.2921,6.8213,0.4212,54.889969,9.784734,108.3,5.845,1.85,335.95,54.891819,9.794550,54.895348,9.797490
1389997938,1,0,0.0,0,0,0,0,713,700,-0.0292,170.2921,6.8213,0.4212,54.889950,9.784739,108.3,5.845,1.85,335.95,54.895348,9.797490,54.895069,9.793790
1389997939,1,0,0.0,0,0,4,0,713,750,-0.0292,170.2921,6.8213,0.4212,54.889935,9.784745,108.3,5.845,1.85,335.95,54.895348,9.797490,54.895069,9.793790
1389997939,3,0,0.0,0,0,0,0,713,700,-0.0292,170.2921,6.8213,0.4212,54.889915,9.784750,108.3,5.845,1.85,335.95,54.895348,9.797490,54.889935,9.784745
1389997939,3,0,0.0,0,0,4,0,713,750,-0.0292,170.2921,6.8213,0.4212,54.889896,9.784755,108.3,5.845,1.85,335.95,54.895348,9.797490,54.889935,9.784745
1389997939,3,0,0.0,0,10,8,0,713,700,-0.0292,166.9588,6.8213,0.4212,54.889881,9.784761,108.3,5.845,1.85,335.95,54.895348,9.797490,54.889935,9.784745
1389997940,3,0,0.0,0,7,4,0,713,750,-0.0292,164.6254,6.8213,0.4212,54.889862,9.784770,108.3,5.845,1.85,335.95,54.895348,9.797490,54.889935,9.784745
1389997940,3,0,0.0,0,5,8,0,0,700,-0.0292,162.9588,6.8213,0.4212,54.889843,9.784780,108.3,5.845,1.85,335.95,54.895348,9.797490,54.889935,9.784745
1389997940,3,0,0.0,0,3,4,0,0,650,-0.0292,161.9588,6.8213,0.4212,54.889828,9.784789,108.3,5.845,1.85,335.95,54.895348,9.797490,54.889935,9.784745
1389997940,3,0,0.0,0,2,0,0,0,600,-0.0292,161.2921,6.8213,0.4212,54.889812,9.784799,108.3,5.845,1.85,335.95,54.895348,9.797490,54.889935,9.784745
1389997941,3,0,0.0,0,1,4,0,0,550,-0.0292,160.9588,6.8213,0.4212,54.889793,9.784808,108.3,5.845,1.85,335.95,54.895348,9.797490,54.889935,9.784745
1389997941,3,0,0.0,0,1,0,0,0,500,-0.0292,160.6254,6.8213,0.4212,54.889778,9.784819,108.3,5.845,1.85,335.95,54.895348,9.797490,54.889935,9.784745
1389997941,3,0,0.0,0,1,4,0,0,450,-0.0292,160.2921,6.8213,0.4212,54.889763,9.784829,108.3,5.845,1.85,335.95,54.895348,9.797490,54.889935,9.784745
1389997941,3,0,0.0,0,0,0,0,0,400,-0.0292,160.2921,6.8213,0.4212,54.889744,9.784841,108.3,5.845,1.85,335.95,54.895348,9.797490,54.889935,9.784745
1389997942,3,0,0.0,0,0,4,0,0,350,-0.0292,160.2921,6.8213,0.4212,54.889729,9.784851,108.3,5.845,1.85,335.95,54.895348,9.797490,54.889935,9.784745
1389997942,3,0,0.0,0,0,0,0,0,300,-0.0292,160.2921,6.8213,0.4212,54.889713,9.784862,108.3,5.845,1.85,335.95,54.895348,9.797490,54.889935,9.784745
1389997942,3,0,0.0,0,0,4,0,0,250,-0.0292,160.2921,6.8213,0.4212,54.889694,9.784872,108.3,5.845,1.85,335.95,54.895348,9.797490,54.889935,9.784745
1389997942,3,0,0.0,0,0,0,0,0,200,-0.0292,160.2921,6.8213,0.4212,54.889679,9.784883,108.3,5.845,1.85,335.95,54.895348,9.797490,54.889935,9.784745
1389997943,3,0,0.0,0,0,4,0,0,150,-0.0292,160.2921,6.8213,0.4212,54.889664,9.784894,108.3,5.845,1.85,335.95,54.895348,9.797490,54.889935,9.784745
1389997943,3,0,0.0,0,0,0,0,0,100,-0.0292,160.2921,6.8213,0.4212,54.889645,9.784904,108.3,5.845,1.85,335.95,54.895348,9.797490,54.889935,9.784745
1389997943,3,0,0.0,0,0,4,0,0,50,-0.0292,160.2921,6.8213,0.4212,54.889626,9.784915,108.3,5.845,1.85,335.95,54.895348,9.797490,54.889935,9.784745
1389997943,3,0,0.0,0,0,0,0,0,0,-0.0292,160.2921,6.8213,0.4212,54.889610,9.784926,108.3,5.845,1.85,335.95,54.895348,9.797490,54.889935,9.784745
1389997944,3,0,0.0,0,0,4,0,0,0,-0.0292,160.2921,6.8213,0.4212,54.889591,9.784937,108.3,5.845,1.85,335.95,54.895348,9.797490,54.889935,9.784745
1389997944,3,0,0.0,0,0,0,0,0,0,-0.0292,160.2921,6.8213,0.4212,54.889572,9.784947,108.3,5.845,1.85,335.95,54.895348,9.797490,54.889935,9.784745
1389997944,3,0,0.0,0,0,4,0,0,0,-0.0292,160.2921,6.8213,0.4212,54.889557,9.784958,108.3,5.845,1.85,335.95,54.895348,9.797490,54.889935,9.784745
1389997944,3,0,0.0,0,10,8,0,0,0,-0.0292,156.9588,6.8213,0.4212,54.889542,9.784970,108.3,5.845,1.85,335.95,54.895348,9.797490,54.889935,9.784745
1389997945,3,0,0.0,0,7,4,0,0,0,-0.0292,154.6254,6.8213,0.4212,54.889523,9.784984,108.3,5.845,1.85,335.95,54.895348,9.797490,54.889935,9.784745
1389997945,3,0,0.0,0,5,8,0,0,0,-0.0292,152.9588,6.8213,0.4212,54.889507,9.784998,108.3,5.845,1.85,335.95,54.895348,9.797490,54.889935,9.784745
1389997945,3,0,0.0,0,3,4,0,0,0,-0.0292,151.9588,6.8213,0.4212,54.889492,9.785013,108.3,5.845,1.85,335.95,54.895348,9.797490,54.889935,9.784745
1389997945,3,0,0.0,0,2,0,0,0,0,-0.0292,151.2921,6.8213,0.4212,54.889477,9.785028,108.3,5.845,1.85,335.95,54.895348,9.797490,54.889935,9.784745
1389997946,3,0,0.0,0,1,4,0,0,0,-0.0292,150.9588,6.8213,0.4212,54.889462,9.785044,108.3,5.845,1.85,335.95,54.895348,9.797490,54.889935,9.784745
1389997946,3,0,0.0,0,1,0,0,0,0,-0.0292,150.6254,6.8213,0.4212,54.889442,9.785060,108.3,5.845,1.85,335.95,54.895348,9.797490,54.889935,9.784745
1389997946,3,0,0.0,0,1,4,0,0,0,-0.0292,150.2921,6.8213,0.4212,54.889427,9.785075,108.3,5.845,1.85,335.95,54.895348,9.797490,54.889935,9.784745
1389997946,3,0,0.0,0,0,0,0,0,0,-0.0292,150.2921,6.8213,0.4212,54.889412,9.785090,108.3,5.845,1.85,335.95,54.895348,9.797490,54.889935,9.784745
1389997947,3,0,0.0,0,0,4,0,0,0,-0.0292,150.2921,6.8213,0.4212,54.889397,9.785106,108.3,5.845,1.85,335.95,54.895348,9.797490,54.889935,9.784745
1389997947,3,0,0.0,0,0,0,0,0,0,-0.0292,150.2921,6.8213,0.4212,54.889381,9.785121,108.3,5.845,1.85,335.95,54.895348,9.797490,54.889935,9.784745
1389997947,3,0,0.0,0,0,4,0,0,0,-0.0292,150.2921,6.8213,0.4212,54.889366,9.785137,108.3,5.845,1.85,335.95,54.895348,9.797490,54.889935,9.784745
1389997947,3,0,0.0,0,0,0,0,0,0,-0.0292,150.2921,6.8213,0.4212,54.889347,9.785152,108.3,5.845,1.85,335.95,54.895348,9.797490,54.889935,9.784745
1389997948,3,0,0.0,0,0,4,0,0,0,-0.0292,150.2921,6.8213,0.4212,54.889332,9.785168,108.3,5.845,1.85,335.95,54.895348,9.797490,54.889935,9.784745
1389997948,3,0,0.0,0,0,0,0,0,0,-0.0292,150.2921,6.8213,0.4212,54.889317,9.785184,108.3,5.845,1.85,335.95,54.895348,9.797490,54.889935,9.784745
1389997948,3,0,0.0,0,0,4,0,0,0,-0.0292,150.2921,6.8213,0.4212,54.889297,9.785199,108.3,5.845,1.85,335.95,54.895348,9.797490,54.889935,9.784745
1389997948,3,0,0.0,0,0,0,0,0,0,-0.0292,150.2921,6.8213,0.4212,54.889282,9.785214,108.3,5.845,1.85,335.95,54.895348,9.797490,54.889935,9.784745
1389997949,3,0,0.0,0,0,4,0,0,0,-0.0292,150.2921,6.8213,0.4212,54.889267,9.785231,108.3,5.845,1.85,335.95,54.895348,9.797490,54.889935,9.784745
1389997949,3,0,0.0,0,0,0,0,0,0,-0.0292,150.2921,6.8213,0.4212,54.889248,9.785246,108.3,5.845,1.85,335.95,54.895348,9.797490,54.889935,9.784745
1389997949,3,0,0.0,0,0,4,0,0,0,-0.0292,150.2921,6.8213,0.4212,54.889233,9.785261,108.3,5.845,1.85,335.95,54.895348,9.797490,54.889935,9.784745
1389997949,3,0,0.0,0,10,8,0,0,0,-0.0292,146.9588,6.8213,0.4212,54.889217,9.785277,108.3,5.845,1.85,335.95,54.895348,9.797490,54.889935,9.784745
1389997950,3,0,0.0,0,7,4,0,0,0,-0.0292,144.6255,6.8213,0.4212,54.889202,9.785295,108.3,5.845,1.85,335.95,54.895348,9.797490,54.889935,9.784745
1389997950,3,0,0.0,0,5,8,0,713,50,-0.0292,142.9588,6.8213,0.4212,54.889187,9.785315,108.3,5.845,1.85,335.95,54.895348,9.797490,54.889935,9.784745
1389997950,3,0,0.0,0,3,4,0,713,100,-0.0292,141.9588,6.8213,0.4212,54.889175,9.785334,108.3,5.845,1.85,335.95,54.895348,9.797490,54.889935,9.784745
1389997950,3,0,0.0,0,2,0,0,713,150,-0.0292,141.2921,6.8213,0.4212,54.889160,9.785354,108.3,5.845,1.85,335.95,54.895348,9.797490,54.889935,9.784745
1389997951,3,0,0.0,0,1,4,0,713,200,-0.0292,140.9588,6.8213,0.4212,54.889149,9.785373,108.3,5.845,1.85,335.95,54.895348,9.797490,54.889935,9.784745
1389997951,3,0,0.0,0,1,0,0,713,250,-0.0292,140.6255,6.8213,0.4212,54.889133,9.785393,108.3,5.845,1.85,335.95,54.895348,9.797490,54.889935,9.784745
1389997951,3,0,0.0,0,1,4,0,713,300,-0.0292,140.2921,6.8213,0.4212,54.889122,9.785413,108.3,5.845,1.85,335.95,54.895348,9.797490,54.889935,9.784745
1389997951,3,0,0.0,0,0,0,0,713,350,-0.0292,140.2921,6.8213,0.4212,54.889107,9.785433,108.3,5.845,1.85,335.95,54.895348,9.797490,54.889935,9.784745
1389997952,3,0,0.0,0,0,4,0,713,400,-0.0292,140.2921,6.8213,0.4212,54.889091,9.785452,108.3,5.845,1.85,335.95,54.895348,9.797490,54.889935,9.784745
1389997952,3,0,0.0,0,0,0,0,713,450,-0.0292,140.2921,6.8213,0.4212,54.889080,9.785472,108.3,5.845,1.85,335.95,54.895348,9.797490,54.889935,9.784745
1389997952,3,0,0.0,0,0,4,0,713,500,-0.0292,140.2921,6.8213,0.4212,54.889065,9.785492,108.3,5.845,1.85,335.95,54.895348,9.797490,54.889935,9.784745
1389997952,3,0,0.0,0,0,0,0,713,550,-0.0292,140.2921,6.8213,0.4212,54.889053,9.785512,108.3,5.845,1.85,335.95,54.895348,9.797490,54.889935,9.784745
1389997953,3,0,0.0,0,0,4,0,713,600,-0.0292,140.2921,6.8213,0.4212,54.889038,9.785532,108.3,5.845,1.85,335.95,54.895348,9.797490,54.889935,9.784745
1389997953,3,0,0.0,0,0,0,0,713,650,-0.0292,140.2921,6.8213,0.4212,54.889027,9.785552,108.3,5.845,1.85,335.95,54.895348,9.797490,54.889935,9.784745
1389997953,3,0,0.0,0,0,4,0,713,700,-0.0292,140.2921,6.8213,0.4212,54.889011,9.785572,108.3,5.845,1.85,335.95,54.895348,9.797490,54.889935,9.784745
1389997953,3,0,0.0,0,0,0,0,713,750,-0.0292,140.2921,6.8213,0.4212,54.889000,9.785592,108.3,5.845,1.85,335.95,54.895348,9.797490,54.889935,9.784745
1389997954,3,0,0.0,0,0,4,0,713,700,-0.0292,140.2921,6.8213,0.4212,54.888985,9.785612,108.3,5.845,1.85,335.95,54.895348,9.797490,54.889935,9.784745
1389997954,3,0,0.0,0,0,0,0,713,750,-0.0292,140.2921,6.8213,0.4212,54.888969,9.785632,108.3,5.845,1.85,335.95,54.895348,9.797490,54.889935,9.784745
1389997954,3,0,0.0,0,0,4,0,713,700,-0.0292,140.2921,6.8213,0.4212,54.888958,9.785652,108.3,5.845,1.85,335.95,54.895348,9.797490,54.889935,9.784745
1389997954,3,0,0.0,0,10,8,0,713,750,-0.0292,136.9588,6.8213,0.4212,54.888947,9.785673,108.3,5.845,1.85,335.95,54.895348,9.797490,54.889935,9.784745
1389997955,3,0,0.0,0,7,4,0,713,700,-0.0292,134.6255,6.8213,0.4212,54.888931,9.785695,108.3,5.845,1.85,335.95,54.895348,9.797490,54.889935,9.784745
1389997955,3,0,0.0,0,5,8,0,713,750,-0.0292,132.9588,6.8213,0.4212,54.888920,9.785718,108.3,5.845,1.85,335.95,54.895348,9.797490,54.889935,9.784745
1389997955,3,0,0.0,0,3,4,0,713,700,-0.0292,131.9588,6.8213,0.4212,54.888908,9.785742,108.3,5.845,1.85,335.95,54.895348,9.797490,54.889935,9.784745
1389997955,3,0,0.0,0,2,0,0,713,750,-0.0292,131.2921,6.8213,0.4212,54.888897,9.785765,108.3,5.845,1.85,335.95,54.895348,9.797490,54.889935,9.784745
1389997956,3,0,0.0,0,1,4,0,713,700,-0.0292,130.9588,6.8213,0.4212,54.888882,9.785789,108.3,5.845,1.85,335.95,54.895348,9.797490,54.889935,9.784745
1389997956,3,0,0.0,0,1,0,0,713,750,-0.0292,130.6255,6.8213,0.4212,54.888870,9.785812,108.3,5.845,1.85,335.95,54.895348,9.797490,54.889935,9.784745
1389997956,3,0,0.0,0,1,4,0,713,700,-0.0292,130.2921,6.8213,0.4212,54.888859,9.785836,108.3,5.845,1.85,335.95,54.895348,9.797490,54.889935,9.784745
1389997956,3,0,0.0,0,0,0,0,713,750,-0.0292,130.2921,6.8213,0.4212,54.888847,9.785860,108.3,5.845,1.85,335.95,54.895348,9.797490,54.889935,9.784745
1389997957,3,0,0.0,0,0,4,0,713,700,-0.0292,130.2921,6.8213,0.4212,54.888832,9.785883,108.3,5.845,1.85,335.95,54.895348,9.797490,54.889935,9.784745
1389997957,3,0,0.0,0,0,0,0,713,750,-0.0292,130.2921,6.8213,0.4212,54.888821,9.785907,108.3,5.845,1.85,335.95,54.895348,9.797490,54.889935,9.784745
1389997957,3,0,0.0,0,0,4,0,713,700,-0.0292,130.2921,6.8213,0.4212,54.888809,9.785931,108.3,5.845,1.85,335.95,54.895348,9.797490,54.889935,9.784745
1389997957,3,0,0.0,0,0,0,0,713,750,-0.0292,130.2921,6.8213,0.4212,54.888798,9.785954,108.3,5.845,1.85,335.95,54.895348,9.797490,54.889935,9.784745
1389997958,3,0,0.0,0,0,4,0,713,700,-0.0292,130.2921,6.8213,0.4212,54.888783,9.785978,108.3,5.845,1.85,335.95,54.895348,9.797490,54.889935,9.784745
1389997958,3,0,0.0,0,0,0,0,713,750,-0.0292,130.2921,6.8213,0.4212,54.888771,9.786002,108.3,5.845,1.85,335.95,54.895348,9.797490,54.889935,9.784745
1389997958,3,0,0.0,0,0,4,0,713,700,-0.0292,130.2921,6.8213,0.4212,54.888760,9.786026,108.3,5.845,1.85,335.95,54.895348,9.797490,54.889935,9.784745
1389997958,3,0,0.0,0,0,0,0,713,750,-0.0292,130.2921,6.8213,0.4212,54.888748,9.786050,108.3,5.845,1.85,335.95,54.895348,9.797490,54.889935,9.784745
1389997959,3,0,0.0,0,0,4,0,713,700,-0.0292,130.2921,6.8213,0.4212,54.888733,9.786074,108.3,5.845,1.85,335.95,54.895348,9.797490,54.889935,9.784745
1389997959,3,0,0.0,0,0,0,0,713,750,-0.0292,130.2921,6.8213,0.4212,54.888721,9.786097,108.3,5.845,1.85,335.95,54.895348,9.797490,54.889935,9.784745
1389997959,3,0,0.0,0,0,4,0,713,700,-0.0292,130.2921,6.8213,0.4212,54.888710,9.786120,108.3,5.845,1.85,335.95,54.895348,9.797490,54.889935,9.784745
1389997959,3,0,0.0,0,10,8,0,713,750,-0.0292,126.9588,6.8213,0.4212,54.888699,9.786145,108.3,5.845,1.85,335.95,54.895348,9.797490,54.889935,9.784745
1389997960,3,0,0.0,0,7,4,0,713,700,-0.0292,124.6255,6.8213,0.4212,54.888691,9.786171,108.3,5.845,1.85,335.95,54.895348,9.797490,54.889935,9.784745
1389997960,3,0,0.0,0,5,8,0,713,750,-0.0292,122.9588,6.8213,0.4212,54.888683,9.786197,108.3,5.845,1.85,335.95,54.895348,9.797490,54.889935,9.784745
1389997960,3,0,0.0,0,3,4,0,713,700,-0.0292,121.9588,6.8213,0.4212,54.888672,9.786223,108.3,5.845,1.85,335.95,54.895348,9.797490,54.889935,9.784745
1389997960,3,0,0.0,0,2,0,0,713,750,-0.0292,121.2921,6.8213,0.4212,54.888664,9.786250,108.3,5.845,1.85,335.95,54.895348,9.797490,54.889935,9.784745
1389997961,3,0,0.0,0,1,4,0,713,700,-0.0292,120.9588,6.8213,0.4212,54.888657,9.786277,108.3,5.845,1.85,335.95,54.895348,9.797490,54.889935,9.784745
1389997961,3,0,0.0,0,1,0,0,713,750,-0.0292,120.6255,6.8213,0.4212,54.888645,9.786304,108.3,5.845,1.85,335.95,54.895348,9.797490,54.889935,9.784745
1389997961,3,0,0.0,0,1,4,0,713,700,-0.0292,120.2921,6.8213,0.4212,54.888638,9.786330,108.3,5.845,1.85,335.95,54.895348,9.797490,54.889935,9.784745
1389997961,3,0,0.0,0,0,0,0,713,750,-0.0292,120.2921,6.8213,0.4212,54.888630,9.786357,108.3,5.845,1.85,335.95,54.895348,9.797490,54.889935,9.784745
1389997962,3,0,0.0,0,0,4,0,713,700,-0.0292,120.2921,6.8213,0.4212,54.888618,9.786384,108.3,5.845,1.85,335.95,54.895348,9.797490,54.889935,9.784745
1389997962,3,0,0.0,0,0,0,0,713,750,-0.0292,120.2921,6.8213,0.4212,54.888611,9.786410,108.3,5.845,1.85,335.95,54.895348,9.797490,54.889935,9.784745
1389997962,3,0,0.0,0,0,4,0,713,700,-0.0292,120.2921,6.8213,0.4212,54.888603,9.786438,108.3,5.845,1.85,335.95,54.895348,9.797490,54.889935,9.784745
1389997962,3,0,0.0,0,0,0,0,713,750,-0.0292,120.2921,6.8213,0.4212,54.888592,9.786465,108.3,5.845,1.85,335.95,54.895348,9.797490,54.889935,9.784745
1389997963,3,0,0.0,0,0,4,0,713,700,-0.0292,120.2921,6.8213,0.4212,54.888584,9.786491,108.3,5.845,1.85,335.95,54.895348,9.797490,54.889935,9.784745
1389997963,3,0,0.0,0,0,0,0,713,750,-0.0292,120.2921,6.8213,0.4212,54.888573,9.786519,108.3,5.845,1.85,335.95,54.895348,9.797490,54.889935,9.784745
1389997963,3,0,0.0,0,0,4,0,713,700,-0.0292,120.2921,6.8213,0.4212,54.888565,9.786546,108.3,5.845,1.85,335.95,54.895348,9.797490,54.889935,9.784745
1389997963,3,0,0.0,0,0,0,0,713,750,-0.0292,120.2921,6.8213,0.4212,54.888557,9.786572,108.3,5.845,1.85,335.95,54.895348,9.797490,54.889935,9.784745
1389997964,3,0,0.0,0,0,4,0,713,700,-0.0292,120.2921,6.8213,0.4212,54.888546,9.786599,108.3,5.845,1.85,335.95,54.895348,9.797490,54.889935,9.784745
1389997964,3,0,0.0,0,0,0,0,713,750,-0.0292,120.2921,6.8213,0.4212,54.888538,9.786626,108.3,5.845,1.85,335.95,54.895348,9.797490,54.889935,9.784745
1389997964,3,0,0.0,0,0,4,0,713,700,-0.0292,120.2921,6.8213,0.4212,54.888531,9.786654,108.3,5.845,1.85,335.95,54.895348,9.797490,54.889935,9.784745
1389997965,3,0,0.0,0,10,8,0,713,750,-0.0292,116.9588,6.8213,0.4212,54.888519,9.786681,108.3,5.845,1.85,335.95,54.895348,9.797490,54.889935,9.784745
1389997965,3,0,0.0,0,7,4,0,713,700,-0.0292,114.6255,6.8213,0.4212,54.888512,9.786709,108.3,5.845,1.85,335.95,54.895348,9.797490,54.889935,9.784745
1389997965,3,0,0.0,0,5,8,0,713,750,-0.0292,112.9588,6.8213,0.4212,54.888504,9.786737,108.3,5.845,1.85,335.95,54.895348,9.797490,54.889935,9.784745
1389997965,3,0,0.0,0,3,4,0,713,700,-0.0292,111.9588,6.8213,0.4212,54.888496,9.786766,108.3,5.845,1.85,335.95,54.895348,9.797490,54.889935,9.784745
1389997966,3,0,0.0,0,2,0,0,713,750,-0.0292,111.2921,6.8213,0.4212,54.888493,9.786795,108.3,5.845,1.85,335.95,54.895348,9.797490,54.889935,9.784745
1389997966,3,0,0.0,0,1,4,0,713,700,-0.0292,110.9588,6.8213,0.4212,54.888485,9.786824,108.3,5.845,1.85,335.95,54.895348,9.797490,54.889935,9.784745
1389997966,3,0,0.0,0,1,0,0,713,750,-0.0292,110.6255,6.8213,0.4212,54.888477,9.786854,108.3,5.845,1.85,335.95,54.895348,9.797490,54.889935,9.784745
1389997966,3,0,0.0,0,1,4,0,870,800,-0.0292,110.2921,6.8213,0.4212,54.888474,9.786882,108.3,5.845,1.85,335.95,54.895348,9.797490,54.889935,9.784745
1389997967,3,0,0.0,0,0,0,0,870,850,-0.0292,110.2921,6.8213,0.4212,54.888470,9.786912,108.3,5.845,1.85,335.95,54.895348,9.797490,54.889935,9.784745
1389997967,3,0,0.0,0,0,4,0,870,900,-0.0292,110.2921,6.8213,0.4212,54.888466,9.786942,108.3,5.845,1.85,335.95,54.895348,9.797490,54.889935,9.784745
1389997967,3,0,0.0,0,0,0,0,870,850,-0.0292,110.2921,6.8213,0.4212,54.888458,9.786970,108.3,5.845,1.85,335.95,54.895348,9.797490,54.889935,9.784745
1389997967,3,0,0.0,0,0,4,0,870,900,-0.0292,110.2921,6.8213,0.4212,54.888451,9.787000,108.3,5.845,1.85,335.95,54.895348,9.797490,54.889935,9.784745
1389997968,3,0,0.0,0,0,0,0,870,850,-0.0292,110.2921,6.8213,0.4212,54.888447,9.787029,108.3,5.845,1.85,335.95,54.895348,9.797490,54.889935,9.784745
1389997968,3,0,0.0,0,0,4,0,870,900,-0.0292,110.2921,6.8213,0.4212,54.888443,9.787059,108.3,5.845,1.85,335.95,54.895348,9.797490,54.889935,9.784745
1389997968,3,0,0.0,0,0,0,0,870,850,-0.0292,110.2921,6.8213,0.4212,54.888435,9.787087,108.3,5.845,1.85,335.95,54.895348,9.797490,54.889935,9.784745
1389997968,3,0,0.0,0,0,4,0,870,900,-0.0292,110.2921,6.8213,0.4212,54.888428,9.787117,108.3,5.845,1.85,335.95,54.895348,9.797490,54.889935,9.784745
1389997969,3,0,0.0,0,0,0,0,870,850,-0.0292,110.2921,6.8213,0.4212,54.888424,9.787147,108.3,5.845,1.85,335.95,54.895348,9.797490,54.889935,9.784745
1389997969,3,0,0.0,0,0,4,0,870,900,-0.0292,110.2921,6.8213,0.4212,54.888420,9.787175,108.3,5.845,1.85,335.95,54.895348,9.797490,54.889935,9.784745
1389997969,3,0,0.0,0,0,0,0,870,850,-0.0292,110.2921,6.8213,0.4212,54.888416,9.787205,108.3,5.845,1.85,335.95,54.895348,9.797490,54.889935,9.784745
1389997969,3,0,0.0,0,0,4,0,870,900,-0.0292,110.2921,6.8213,0.4212,54.888409,9.787234,108.3,5.845,1.85,335.95,54.895348,9.797490,54.889935,9.784745
1389997970,3,0,0.0,0,10,8,0,870,850,-0.0292,106.9588,6.8213,0.4212,54.888401,9.787264,108.3,5.845,1.85,335.95,54.895348,9.797490,54.889935,9.784745
1389997970,3,0,0.0,0,7,4,0,870,900,-0.0292,104.6255,6.8213,0.4212,54.888397,9.787294,108.3,5.845,1.85,335.95,54.895348,9.797490,54.889935,9.784745
1389997970,3,0,0.0,0,5,8,0,870,850,-0.0292,102.9588,6.8213,0.4212,54.888393,9.787325,108.3,5.845,1.85,335.95,54.895348,9.797490,54.889935,9.784745
1389997970,3,0,0.0,0,3,4,0,870,900,-0.0292,101.9588,6.8213,0.4212,54.888390,9.787355,108.3,5.845,1.85,335.95,54.895348,9.797490,54.889935,9.784745
1389997971,3,0,0.0,0,2,0,0,870,850,-0.0292,101.2921,6.8213,0.4212,54.888386,9.787387,108.3,5.845,1.85,335.95,54.895348,9.797490,54.889935,9.784745
1389997971,3,0,0.0,0,1,4,0,870,900,-0.0292,100.9588,6.8213,0.4212,54.888382,9.787417,108.3,5.845,1.85,335.95,54.895348,9.797490,54.889935,9.784745
1389997971,3,0,0.0,0,1,0,0,870,850,-0.0292,100.6255,6.8213,0.4212,54.888378,9.787448,108.3,5.845,1.85,335.95,54.895348,9.797490,54.889935,9.784745
1389997971,3,0,0.0,0,1,4,0,870,900,-0.0292,100.2921,6.8213,0.4212,54.888378,9.787478,108.3,5.845,1.85,335.95,54.895348,9.797490,54.889935,9.784745
1389997972,3,0,0.0,0,0,0,0,870,850,-0.0292,100.2921,6.8213,0.4212,54.888378,9.787510,108.3,5.845,1.85,335.95,54.895348,9.797490,54.889935,9.784745
1389997972,3,0,0.0,0,0,4,0,870,900,-0.0292,100.2921,6.8213,0.4212,54.888378,9.787540,108.3,5.845,1.85,335.95,54.895348,9.797490,54.889935,9.784745
1389997972,3,0,0.0,0,0,0,0,870,850,-0.0292,100.2921,6.8213,0.4212,54.888378,9.787571,108.3,5.845,1.85,335.95,54.895348,9.797490,54.889935,9.784745
1389997972,3,0,0.0,0,0,4,0,870,900,-0.0292,100.2921,6.8213,0.4212,54.888378,9.787602,108.3,5.845,1.85,335.95,54.895348,9.797490,54.889935,9.784745
1389997973,3,0,0.0,0,0,0,0,870,850,-0.0292,100.2921,6.8213,0.4212,54.888378,9.787633,108.3,5.845,1.85,335.95,54.895348,9.797490,54.889935,9.784745
1389997973,3,0,0.0,0,0,4,0,870,900,-0.0292,100.2921,6.8213,0.4212,54.888378,9.787663,108.3,5.845,1.85,335.95,54.895348,9.797490,54.889935,9.784745
1389997973,3,0,0.0,0,0,0,0,870,850,-0.0292,100.2921,6.8213,0.4212,54.888378,9.787694,108.3,5.845,1.85,335.95,54.895348,9.797490,54.889935,9.784745
1389997973,3,0,0.0,0,0,4,0,870,900,-0.0292,100.2921,6.8213,0.4212,54.888378,9.787725,108.3,5.845,1.85,335.95,54.895348,9.797490,54.889935,9.784745
1389997974,3,0,0.0,0,0,0,0,870,850,-0.0292,100.2921,6.8213,0.4212,54.888378,9.787756,108.3,5.845,1.85,335.95,54.895348,9.797490,54.889935,9.784745
1389997974,3,0,0.0,0,0,4,0,870,900,-0.0292,100.2921,6.8213,0.4212,54.888378,9.787786,108.3,5.845,1.85,335.95,54.895348,9.797490,54.889935,9.784745
1389997974,3,0,0.0,0,0,0,0,870,850,-0.0292,100.2921,6.8213,0.4212,54.888378,9.787818,108.3,5.845,1.85,335.95,54.895348,9.797490,54.889935,9.784745
1389997974,3,0,0.0,0,0,4,0,870,900,-0.0292,100.2921,6.8213,0.4212,54.888378,9.787848,108.3,5.845,1.85,335.95,54.895348,9.797490,54.889935,9.784745
1389997975,3,0,0.0,0,10,8,0,870,850,-0.0292,96.9588,6.8213,0.4212,54.888378,9.787879,108.3,5.845,1.85,335.95,54.895348,9.797490,54.889935,9.784745
1389997975,3,0,0.0,0,7,4,0,870,900,-0.0292,94.6255,6.8213,0.4212,54.888378,9.787910,108.3,5.845,1.85,335.95,54.895348,9.797490,54.889935,9.784745
1389997975,3,0,0.0,0,5,8,0,840,850,-0.0292,92.9588,6.8213,0.4212,54.888378,9.787941,108.3,5.845,1.85,335.95,54.895348,9.797490,54.889935,9.784745
1389997975,3,0,0.0,0,3,4,0,817,800,-0.0292,91.9588,6.8213,0.4212,54.888378,9.787972,108.3,5.845,1.85,335.95,54.895348,9.797490,54.889935,9.784745
1389997976,3,0,0.0,0,2,0,0,802,850,-0.0292,91.2921,6.8213,0.4212,54.888378,9.788004,108.3,5.845,1.85,335.95,54.895348,9.797490,54.889935,9.784745
1389997976,3,0,0.0,0,1,4,0,793,800,-0.0292,90.9588,6.8213,0.4212,54.888378,9.788034,108.3,5.845,1.85,335.95,54.895348,9.797490,54.889935,9.784745
1389997976,3,0,0.0,0,1,0,0,788,750,-0.0292,90.6255,6.8213,0.4212,54.888378,9.788066,108.3,5.845,1.85,335.95,54.895348,9.797490,54.889935,9.784745
1389997976,3,0,0.0,0,1,4,0,783,800,-0.0292,90.2921,6.8213,0.4212,54.888382,9.788097,108.3,5.845,1.85,335.95,54.895348,9.797490,54.889935,9.784745
1389997977,3,0,0.0,0,0,0,0,778,750,-0.0292,90.2921,6.8213,0.4212,54.888382,9.788128,108.3,5.845,1.85,335.95,54.895348,9.797490,54.889935,9.784745
1389997977,3,0,0.0,0,0,4,0,778,800,-0.0292,90.2921,6.8213,0.4212,54.888382,9.788159,108.3,5.845,1.85,335.95,54.895348,9.797490,54.889935,9.784745
1389997977,3,0,0.0,0,0,0,0,778,750,-0.0292,90.2921,6.8213,0.4212,54.888382,9.788191,108.3,5.845,1.85,335.95,54.895348,9.797490,54.889935,9.784745
1389997977,3,0,0.0,0,0,4,0,778,800,-0.0292,90.2921,6.8213,0.4212,54.888382,9.788222,108.3,5.845,1.85,335.95,54.895348,9.797490,54.889935,9.784745
1389997978,3,0,0.0,0,0,0,0,778,750,-0.0292,90.2921,6.8213,0.4212,54.888382,9.788253,108.3,5.845,1.85,335.95,54.895348,9.797490,54.889935,9.784745
1389997978,3,0,0.0,0,0,4,0,778,800,-0.0292,90.2921,6.8213,0.4212,54.888382,9.788284,108.3,5.845,1.85,335.95,54.895348,9.797490,54.889935,9.784745
1389997978,3,0,0.0,0,0,0,0,778,750,-0.0292,90.2921,6.8213,0.4212,54.888382,9.788316,108.3,5.845,1.85,335.95,54.895348,9.797490,54.889935,9.784745
1389997978,3,0,0.0,0,0,4,0,778,800,-0.0292,90.2921,6.8213,0.4212,54.888382,9.788347,108.3,5.845,1.85,335.95,54.895348,9.797490,54.889935,9.784745
1389997979,3,0,0.0,0,0,0,0,778,750,-0.0292,90.2921,6.8213,0.4212,54.888382,9.788378,108.3,5.845,1.85,335.95,54.895348,9.797490,54.889935,9.784745
1389997979,3,0,0.0,0,0,4,0,778,800,-0.0292,90.2921,6.8213,0.4212,54.888382,9.788409,108.3,5.845,1.85,335.95,54.895348,9.797490,54.889935,9.784745
1389997979,3,0,0.0,0,0,0,0,778,750,-0.0292,90.2921,6.8213,0.4212,54.888382,9.788441,108.3,5.845,1.85,335.95,54.895348,9.797490,54.889935,9.784745
1389997979,3,0,0.0,0,0,4,0,778,800,-0.0292,90.2921,6.8213,0.4212,54.888382,9.788471,108.3,5.845,1.85,335.95,54.895348,9.797490,54.889935,9.784745
1389997980,3,0,0.0,0,10,8,0,778,750,-0.0292,86.9588,6.8213,0.4212,54.888382,9.788503,108.3,5.845,1.85,335.95,54.895348,9.797490,54.889935,9.784745
1389997980,3,0,0.0,0,7,4,0,729,700,-0.0292,84.6254,6.8213,0.4212,54.888382,9.788534,108.3,5.845,1.85,335.95,54.895348,9.797490,54.889935,9.784745
1389997980,3,0,0.0,0,5,8,0,693,650,-0.0292,82.9588,6.8213,0.4212,54.888382,9.788565,108.3,5.845,1.85,335.95,54.895348,9.797490,54.889935,9.784745
1389997980,3,0,0.0,0,3,4,0,668,700,-0.0292,81.9588,6.8213,0.4212,54.888382,9.788595,108.3,5.845,1.85,335.95,54.895348,9.797490,54.889935,9.784745
1389997981,3,0,0.0,0,2,0,0,652,650,-0.0292,81.2921,6.8213,0.4212,54.888382,9.788627,108.3,5.845,1.85,335.95,54.895348,9.797490,54.889935,9.784745
1389997981,3,0,0.0,0,1,4,0,642,600,-0.0292,80.9588,6.8213,0.4212,54.888382,9.788657,108.3,5.845,1.85,335.95,54.895348,9.797490,54.889935,9.784745
1389997981,3,0,0.0,0,1,0,0,637,650,-0.0292,80.6254,6.8213,0.4212,54.888382,9.788688,108.3,5.845,1.85,335.95,54.895348,9.797490,54.889935,9.784745
1389997981,3,0,0.0,0,1,4,0,632,600,-0.0292,80.2921,6.8213,0.4212,54.888382,9.788718,108.3,5.845,1.85,335.95,54.895348,9.797490,54.889935,9.784745
1389997982,3,0,0.0,0,0,0,0,627,650,-0.0292,80.2921,6.8213,0.4212,54.888382,9.788749,108.3,5.845,1.85,335.95,54.895348,9.797490,54.889935,9.784745
1389997982,3,0,0.0,0,0,4,0,627,600,-0.0292,80.2921,6.8213,0.4212,54.888382,9.788779,108.3,5.845,1.85,335.95,54.895348,9.797490,54.889935,9.784745
1389997982,3,0,0.0,0,0,0,0,627,650,-0.0292,80.2921,6.8213,0.4212,54.888382,9.788810,108.3,5.845,1.85,335.95,54.895348,9.797490,54.889935,9.784745
1389997982,3,0,0.0,0,0,4,0,627,600,-0.0292,80.2921,6.8213,0.4212,54.888382,9.788841,108.3,5.845,1.85,335.95,54.895348,9.797490,54.889935,9.784745
1389997983,3,0,0.0,0,0,0,0,627,650,-0.0292,80.2921,6.8213,0.4212,54.888382,9.788872,108.3,5.845,1.85,335.95,54.895348,9.797490,54.889935,9.784745
1389997983,3,0,0.0,0,0,4,0,627,600,-0.0292,80.2921,6.8213,0.4212,54.888382,9.788902,108.3,5.845,1.85,335.95,54.895348,9.797490,54.889935,9.784745
1389997983,3,0,0.0,0,0,0,0,627,650,-0.0292,80.2921,6.8213,0.4212,54.888382,9.788933,108.3,5.845,1.85,335.95,54.895348,9.797490,54.889935,9.784745
1389997983,3,0,0.0,0,0,4,0,627,600,-0.0292,80.2921,6.8213,0.4212,54.888382,9.788963,108.3,5.845,1.85,335.95,54.895348,9.797490,54.889935,9.784745
1389997984,3,0,0.0,0,0,0,0,627,650,-0.0292,80.2921,6.8213,0.4212,54.888382,9.788994,108.3,5.845,1.85,335.95,54.895348,9.797490,54.889935,9.784745
1389997984,3,0,0.0,0,0,4,0,627,600,-0.0292,80.2921,6.8213,0.4212,54.888382,9.789024,108.3,5.845,1.85,335.95,54.895348,9.797490,54.889935,9.784745
1389997984,3,0,0.0,0,0,0,0,627,650,-0.0292,80.2921,6.8213,0.4212,54.888382,9.789056,108.3,5.845,1.85,335.95,54.895348,9.797490,54.889935,9.784745
1389997984,3,0,0.0,0,0,4,0,627,600,-0.0292,80.2921,6.8213,0.4212,54.888382,9.789086,108.3,5.845,1.85,335.95,54.895348,9.797490,54.889935,9.784745
1389997985,3,0,0.0,0,10,8,0,627,650,-0.0292,76.9588,6.8213,0.4212,54.888386,9.789117,108.3,5.845,1.85,335.95,54.895348,9.797490,54.889935,9.784745
1389997985,3,0,0.0,0,7,4,0,574,600,-0.0292,74.6254,6.8213,0.4212,54.888390,9.789146,108.3,5.845,1.85,335.95,54.895348,9.797490,54.889935,9.784745
1389997985,3,0,0.0,0,5,8,0,538,550,-0.0292,72.9588,6.8213,0.4212,54.888393,9.789177,108.3,5.845,1.85,335.95,54.895348,9.797490,54.889935,9.784745
1389997985,3,0,0.0,0,3,4,0,511,500,-0.0292,71.9588,6.8213,0.4212,54.888401,9.789207,108.3,5.845,1.85,335.95,54.895348,9.797490,54.889935,9.784745
1389997986,3,0,0.0,0,2,0,0,495,450,-0.0292,71.2921,6.8213,0.4212,54.888409,9.789236,108.3,5.845,1.85,335.95,54.895348,9.797490,54.889935,9.784745
1389997986,3,0,0.0,0,1,4,0,485,500,-0.0292,70.9588,6.8213,0.4212,54.888412,9.789266,108.3,5.845,1.85,335.95,54.895348,9.797490,54.889935,9.784745
1389997986,3,0,0.0,0,1,0,0,479,450,-0.0292,70.6254,6.8213,0.4212,54.888416,9.789295,108.3,5.845,1.85,335.95,54.895348,9.797490,54.889935,9.784745
1389997986,3,0,0.0,0,1,4,0,474,500,-0.0292,70.2921,6.8213,0.4212,54.888424,9.789324,108.3,5.845,1.85,335.95,54.895348,9.797490,54.889935,9.784745
1389997987,3,0,0.0,0,0,0,0,469,450,-0.0292,70.2921,6.8213,0.4212,54.888432,9.789353,108.3,5.845,1.85,335.95,54.895348,9.797490,54.889935,9.784745
1389997987,3,0,0.0,0,0,4,0,469,500,-0.0292,70.2921,6.8213,0.4212,54.888435,9.789383,108.3,5.845,1.85,335.95,54.895348,9.797490,54.889935,9.784745
1389997987,3,0,0.0,0,0,0,0,469,450,-0.0292,70.2921,6.8213,0.4212,54.888439,9.789412,108.3,5.845,1.85,335.95,54.895348,9.797490,54.889935,9.784745
1389997987,3,0,0.0,0,0,4,0,469,500,-0.0292,70.2921,6.8213,0.4212,54.888447,9.789442,108.3,5.845,1.85,335.95,54.895348,9.797490,54.889935,9.784745
1389997988,3,0,0.0,0,0,0,0,469,450,-0.0292,70.2921,6.8213,0.4212,54.888454,9.789472,108.3,5.845,1.85,335.95,54.895348,9.797490,54.889935,9.784745
1389997988,3,0,0.0,0,0,4,0,469,500,-0.0292,70.2921,6.8213,0.4212,54.888458,9.789501,108.3,5.845,1.85,335.95,54.895348,9.797490,54.889935,9.784745
1389997988,3,0,0.0,0,0,0,0,469,450,-0.0292,70.2921,6.8213,0.4212,54.888462,9.789531,108.3,5.845,1.85,335.95,54.895348,9.797490,54.889935,9.784745
1389997988,3,0,0.0,0,0,4,0,469,500,-0.0292,70.2921,6.8213,0.4212,54.888466,9.789560,108.3,5.845,1.85,335.95,54.895348,9.797490,54.889935,9.784745
1389997989,3,0,0.0,0,0,0,0,469,450,-0.0292,70.2921,6.8213,0.4212,54.888474,9.789590,108.3,5.845,1.85,335.95,54.895348,9.797490,54.889935,9.784745
1389997989,3,0,0.0,0,0,4,0,469,500,-0.0292,70.2921,6.8213,0.4212,54.888481,9.789618,108.3,5.845,1.85,335.95,54.895348,9.797490,54.889935,9.784745
1389997989,3,0,0.0,0,0,0,0,469,450,-0.0292,70.2921,6.8213,0.4212,54.888485,9.789648,108.3,5.845,1.85,335.95,54.895348,9.797490,54.889935,9.784745
1389997989,3,0,0.0,0,0,4,0,469,500,-0.0292,70.2921,6.8213,0.4212,54.888489,9.789678,108.3,5.845,1.85,335.95,54.895348,9.797490,54.889935,9.784745
1389997990,3,0,0.0,0,10,8,0,469,450,-0.0292,66.9588,6.8213,0.4212,54.888496,9.789706,108.3,5.845,1.85,335.95,54.895348,9.797490,54.889935,9.784745
1389997990,3,0,0.0,0,7,4,0,415,400,-0.0292,64.6254,6.8213,0.4212,54.888504,9.789735,108.3,5.845,1.85,335.95,54.895348,9.797490,54.889935,9.784745
1389997990,3,0,0.0,0,5,8,0,378,350,-0.0292,62.9588,6.8213,0.4212,54.888512,9.789762,108.3,5.845,1.85,335.95,54.895348,9.797490,54.889935,9.784745
1389997990,3,0,0.0,0,3,4,0,352,400,-0.0292,61.9588,6.8213,0.4212,54.888519,9.789789,108.3,5.845,1.85,335.95,54.895348,9.797490,54.889935,9.784745
1389997991,3,0,0.0,0,2,0,0,336,350,-0.0292,61.2921,6.8213,0.4212,54.888531,9.789817,108.3,5.845,1.85,335.95,54.895348,9.797490,54.889935,9.784745
1389997991,3,0,0.0,0,1,4,0,325,300,-0.0292,60.9588,6.8213,0.4212,54.888538,9.789844,108.3,5.845,1.85,335.95,54.895348,9.797490,54.889935,9.784745
1389997991,3,0,0.0,0,1,0,0,320,350,-0.0292,60.6254,6.8213,0.4212,54.888546,9.789871,108.3,5.845,1.85,335.95,54.895348,9.797490,54.889935,9.784745
1389997991,3,0,0.0,0,1,4,0,315,300,-0.0292,60.2921,6.8213,0.4212,54.888557,9.789899,108.3,5.845,1.85,335.95,54.895348,9.797490,54.889935,9.784745
1389997992,3,0,0.0,0,0,0,0,310,350,-0.0292,60.2921,6.8213,0.4212,54.888565,9.789926,108.3,5.845,1.85,335.95,54.895348,9.797490,54.889935,9.784745
1389997992,3,0,0.0,0,0,4,0,310,300,-0.0292,60.2921,6.8213,0.4212,54.888573,9.789953,108.3,5.845,1.85,335.95,54.895348,9.797490,54.889935,9.784745
1389997992,3,0,0.0,0,0,0,0,310,350,-0.0292,60.2921,6.8213,0.4212,54.888584,9.789980,108.3,5.845,1.85,335.95,54.895348,9.797490,54.889935,9.784745
1389997992,3,0,0.0,0,0,4,0,310,300,-0.0292,60.2921,6.8213,0.4212,54.888592,9.790007,108.3,5.845,1.85,335.95,54.895348,9.797490,54.889935,9.784745
1389997993,3,0,0.0,0,0,0,0,310,350,-0.0292,60.2921,6.8213,0.4212,54.888603,9.790034,108.3,5.845,1.85,335.95,54.895348,9.797490,54.889935,9.784745
1389997993,3,0,0.0,0,0,4,0,310,300,-0.0292,60.2921,6.8213,0.4212,54.888611,9.790061,108.3,5.845,1.85,335.95,54.895348,9.797490,54.889935,9.784745
1389997993,3,0,0.0,0,0,0,0,310,350,-0.0292,60.2921,6.8213,0.4212,54.888618,9.790088,108.3,5.845,1.85,335.95,54.895348,9.797490,54.889935,9.784745
1389997993,3,0,0.0,0,0,4,0,310,300,-0.0292,60.2921,6.8213,0.4212,54.888630,9.790115,108.3,5.845,1.85,335.95,54.895348,9.797490,54.889935,9.784745
1389997994,3,0,0.0,0,0,0,0,310,350,-0.0292,60.2921,6.8213,0.4212,54.888638,9.790142,108.3,5.845,1.85,335.95,54.895348,9.797490,54.889935,9.784745
1389997994,3,0,0.0,0,0,4,0,310,300,-0.0292,60.2921,6.8213,0.4212,54.888645,9.790170,108.3,5.845,1.85,335.95,54.895348,9.797490,54.889935,9.784745
1389997994,3,0,0.0,0,0,0,0,310,350,-0.0292,60.2921,6.8213,0.4212,54.888657,9.790197,108.3,5.845,1.85,335.95,54.895348,9.797490,54.889935,9.784745
1389997994,3,0,0.0,0,0,4,0,310,300,-0.0292,60.2921,6.8213,0.4212,54.888664,9.790224,108.3,5.845,1.85,335.95,54.895348,9.797490,54.889935,9.784745
1389997995,3,0,0.0,0,10,8,0,310,350,-0.0292,56.9588,6.8213,0.4212,54.888676,9.790251,108.3,5.845,1.85,335.95,54.895348,9.797490,54.889935,9.784745
1389997995,3,0,0.0,0,7,4,0,258,300,-0.0292,54.6254,6.8213,0.4212,54.888683,9.790277,108.3,5.845,1.85,335.95,54.895348,9.797490,54.889935,9.784745
1389997995,3,0,0.0,0,5,8,0,223,250,-0.0292,52.9588,6.8213,0.4212,54.888695,9.790301,108.3,5.845,1.85,335.95,54.895348,9.797490,54.889935,9.784745
1389997995,3,0,0.0,0,3,4,0,198,200,-0.0292,51.9588,6.8213,0.4212,54.888706,9.790326,108.3,5.845,1.85,335.95,54.895348,9.797490,54.889935,9.784745
1389997996,3,0,0.0,0,2,0,0,184,150,-0.0292,51.2921,6.8213,0.4212,54.888718,9.790350,108.3,5.845,1.85,335.95,54.895348,9.797490,54.889935,9.784745
1389997996,3,0,0.0,0,1,4,0,174,200,-0.0292,50.9588,6.8213,0.4212,54.888729,9.790375,108.3,5.845,1.85,335.95,54.895348,9.797490,54.889935,9.784745
1389997996,3,0,0.0,0,1,0,0,170,150,-0.0292,50.6254,6.8213,0.4212,54.888741,9.790399,108.3,5.845,1.85,335.95,54.895348,9.797490,54.889935,9.784745
1389997996,3,0,0.0,0,1,4,0,165,200,-0.0292,50.2921,6.8213,0.4212,54.888752,9.790423,108.3,5.845,1.85,335.95,54.895348,9.797490,54.889935,9.784745
1389997997,3,0,0.0,0,0,0,0,160,150,-0.0292,50.2921,6.8213,0.4212,54.888763,9.790447,108.3,5.845,1.85,335.95,54.895348,9.797490,54.889935,9.784745
1389997997,3,0,0.0,0,0,4,0,160,200,-0.0292,50.2921,6.8213,0.4212,54.888775,9.790471,108.3,5.845,1.85,335.95,54.895348,9.797490,54.889935,9.784745
1389997997,3,0,0.0,0,0,0,0,160,150,-0.0292,50.2921,6.8213,0.4212,54.888786,9.790495,108.3,5.845,1.85,335.95,54.895348,9.797490,54.889935,9.784745
1389997997,3,0,0.0,0,0,4,0,160,200,-0.0292,50.2921,6.8213,0.4212,54.888798,9.790519,108.3,5.845,1.85,335.95,54.895348,9.797490,54.889935,9.784745
1389997998,3,0,0.0,0,0,0,0,160,150,-0.0292,50.2921,6.8213,0.4212,54.888805,9.790543,108.3,5.845,1.85,335.95,54.895348,9.797490,54.889935,9.784745
1389997998,3,0,0.0,0,0,4,0,160,200,-0.0292,50.2921,6.8213,0.4212,54.888817,9.790566,108.3,5.845,1.85,335.95,54.895348,9.797490,54.889935,9.784745
1389997998,3,0,0.0,0,0,0,0,160,150,-0.0292,50.2921,6.8213,0.4212,54.888828,9.790591,108.3,5.845,1.85,335.95,54.895348,9.797490,54.889935,9.784745
1389997999,3,0,0.0,0,0,4,0,160,200,-0.0292,50.2921,6.8213,0.4212,54.888840,9.790615,108.3,5.845,1.85,335.95,54.895348,9.797490,54.889935,9.784745
1389997999,3,0,0.0,0,0,0,0,160,150,-0.0292,50.2921,6.8213,0.4212,54.888851,9.790640,108.3,5.845,1.85,335.95,54.895348,9.797490,54.889935,9.784745
1389997999,3,0,0.0,0,0,4,0,160,200,-0.0292,50.2921,6.8213,0.4212,54.888863,9.790664,108.3,5.845,1.85,335.95,54.895348,9.797490,54.889935,9.784745
1389997999,3,0,0.0,0,0,0,0,160,150,-0.0292,50.2921,6.8213,0.4212,54.888874,9.790688,108.3,5.845,1.85,335.95,54.895348,9.797490,54.889935,9.784745
1389998000,3,0,0.0,0,0,4,0,160,200,-0.0292,50.2921,6.8213,0.4212,54.888885,9.790711,108.3,5.845,1.85,335.95,54.895348,9.797490,54.889935,9.784745
1389998000,3,0,0.0,0,10,8,0,160,150,-0.0292,46.9588,6.8213,0.4212,54.888897,9.790734,108.3,5.845,1.85,335.95,54.895348,9.797490,54.889935,9.784745
1389998000,3,0,0.0,0,7,4,0,116,100,-0.0292,44.6254,6.8213,0.4212,54.888908,9.790756,108.3,5.845,1.85,335.95,54.895348,9.797490,54.889935,9.784745
1389998000,3,0,0.0,0,5,8,0,88,50,-0.0292,42.9588,6.8213,0.4212,54.888920,9.790777,108.3,5.845,1.85,335.95,54.895348,9.797490,54.889935,9.784745
1389998001,3,0,0.0,0,3,4,0,70,100,-0.0292,41.9588,6.8213,0.4212,54.888935,9.790798,108.3,5.845,1.85,335.95,54.895348,9.797490,54.889935,9.784745
1389998001,3,0,0.0,0,2,0,0,59,50,-0.0292,41.2921,6.8213,0.4212,54.888950,9.790818,108.3,5.845,1.85,335.95,54.895348,9.797490,54.889935,9.784745
1389998001,3,0,0.0,0,1,4,0,53,100,-0.0292,40.9588,6.8213,0.4212,54.888962,9.790839,108.3,5.845,1.85,335.95,54.895348,9.797490,54.889935,9.784745
1389998001,3,0,0.0,0,1,0,0,50,50,-0.0292,40.6254,6.8213,0.4212,54.888977,9.790859,108.3,5.845,1.85,335.95,54.895348,9.797490,54.889935,9.784745
1389998002,3,0,0.0,0,1,4,0,47,0,-0.0292,40.2921,6.8213,0.4212,54.888988,9.790879,108.3,5.845,1.85,335.95,54.895348,9.797490,54.889935,9.784745
1389998002,3,0,0.0,0,0,0,0,44,50,-0.0292,40.2921,6.8213,0.4212,54.889004,9.790899,108.3,5.845,1.85,335.95,54.895348,9.797490,54.889935,9.784745
1389998002,3,0,0.0,0,0,4,0,44,0,-0.0292,40.2921,6.8213,0.4212,54.889015,9.790919,108.3,5.845,1.85,335.95,54.895348,9.797490,54.889935,9.784745
1389998002,3,0,0.0,0,0,0,0,44,50,-0.0292,40.2921,6.8213,0.4212,54.889030,9.790939,108.3,5.845,1.85,335.95,54.895348,9.797490,54.889935,9.784745
1389998003,3,0,0.0,0,0,4,0,44,0,-0.0292,40.2921,6.8213,0.4212,54.889046,9.790959,108.3,5.845,1.85,335.95,54.895348,9.797490,54.889935,9.784745
1389998003,3,0,0.0,0,0,0,0,44,50,-0.0292,40.2921,6.8213,0.4212,54.889057,9.790980,108.3,5.845,1.85,335.95,54.895348,9.797490,54.889935,9.784745
1389998003,3,0,0.0,0,0,4,0,44,0,-0.0292,40.2921,6.8213,0.4212,54.889072,9.791000,108.3,5.845,1.85,335.95,54.895348,9.797490,54.889935,9.784745
1389998003,3,0,0.0,0,0,0,0,44,50,-0.0292,40.2921,6.8213,0.4212,54.889084,9.791021,108.3,5.845,1.85,335.95,54.895348,9.797490,54.889935,9.784745
1389998004,3,0,0.0,0,0,4,0,44,0,-0.0292,40.2921,6.8213,0.4212,54.889099,9.791041,108.3,5.845,1.85,335.95,54.895348,9.797490,54.889935,9.784745
1389998004,3,0,0.0,0,0,0,0,44,50,-0.0292,40.2921,6.8213,0.4212,54.889111,9.791062,108.3,5.845,1.85,335.95,54.895348,9.797490,54.889935,9.784745
1389998004,3,0,0.0,0,0,4,0,44,0,-0.0292,40.2921,6.8213,0.4212,54.889126,9.791082,108.3,5.845,1.85,335.95,54.895348,9.797490,54.889935,9.784745
1389998004,3,0,0.0,0,0,0,0,44,50,-0.0292,40.2921,6.8213,0.4212,54.889137,9.791103,108.3,5.845,1.85,335.95,54.895348,9.797490,54.889935,9.784745
1389998005,3,0,0.0,0,0,4,0,44,0,-0.0292,40.2921,6.8213,0.4212,54.889153,9.791123,108.3,5.845,1.85,335.95,54.895348,9.797490,54.889935,9.784745
1389998005,3,0,0.0,0,10,8,0,44,50,-0.0292,36.9588,6.8213,0.4212,54.889168,9.791142,108.3,5.845,1.85,335.95,54.895348,9.797490,54.889935,9.784745
1389998005,3,0,0.0,0,7,4,0,19,0,-0.0292,34.6254,6.8213,0.4212,54.889179,9.791160,108.3,5.845,1.85,335.95,54.895348,9.797490,54.889935,9.784745
1389998005,3,0,0.0,0,5,8,0,7,50,-0.0292,32.9588,6.8213,0.4212,54.889194,9.791177,108.3,5.845,1.85,335.95,54.895348,9.797490,54.889935,9.784745
1389998006,3,0,0.0,0,3,4,0,2,0,-0.0292,31.9588,6.8213,0.4212,54.889210,9.791193,108.3,5.845,1.85,335.95,54.895348,9.797490,54.889935,9.784745
1389998006,3,0,0.0,0,2,0,0,1,50,-0.0292,31.2921,6.8213,0.4212,54.889225,9.791209,108.3,5.845,1.85,335.95,54.895348,9.797490,54.889935,9.784745
1389998006,3,0,0.0,0,1,4,0,0,0,-0.0292,30.9588,6.8213,0.4212,54.889240,9.791225,108.3,5.845,1.85,335.95,54.895348,9.797490,54.889935,9.784745
1389998006,3,0,0.0,0,1,0,0,0,0,-0.0292,30.6254,6.8213,0.4212,54.889252,9.791241,108.3,5.845,1.85,335.95,54.895348,9.797490,54.889935,9.784745
1389998007,3,0,0.0,0,1,4,0,0,0,-0.0292,30.2921,6.8213,0.4212,54.889267,9.791257,108.3,5.845,1.85,335.95,54.895348,9.797490,54.889935,9.784745
1389998007,3,0,0.0,0,0,0,0,0,0,-0.0292,30.2921,6.8213,0.4212,54.889282,9.791273,108.3,5.845,1.85,335.95,54.895348,9.797490,54.889935,9.784745
1389998007,3,0,0.0,0,0,4,0,0,0,-0.0292,30.2921,6.8213,0.4212,54.889297,9.791288,108.3,5.845,1.85,335.95,54.895348,9.797490,54.889935,9.784745
1389998007,3,0,0.0,0,0,0,0,0,0,-0.0292,30.2921,6.8213,0.4212,54.889313,9.791305,108.3,5.845,1.85,335.95,54.895348,9.797490,54.889935,9.784745
1389998008,3,0,0.0,0,0,4,0,0,0,-0.0292,30.2921,6.8213,0.4212,54.889332,9.791320,108.3,5.845,1.85,335.95,54.895348,9.797490,54.889935,9.784745
1389998008,3,0,0.0,0,0,0,0,0,0,-0.0292,30.2921,6.8213,0.4212,54.889347,9.791335,108.3,5.845,1.85,335.95,54.895348,9.797490,54.889935,9.784745
1389998008,3,0,0.0,0,0,4,0,0,0,-0.0292,30.2921,6.8213,0.4212,54.889362,9.791351,108.3,5.845,1.85,335.95,54.895348,9.797490,54.889935,9.784745
1389998008,3,0,0.0,0,0,0,0,0,0,-0.0292,30.2921,6.8213,0.4212,54.889381,9.791367,108.3,5.845,1.85,335.95,54.895348,9.797490,54.889935,9.784745
1389998009,3,0,0.0,0,0,4,0,0,0,-0.0292,30.2921,6.8213,0.4212,54.889397,9.791383,108.3,5.845,1.85,335.95,54.895348,9.797490,54.889935,9.784745
1389998009,3,0,0.0,0,0,0,0,0,0,-0.0292,30.2921,6.8213,0.4212,54.889412,9.791399,108.3,5.845,1.85,335.95,54.895348,9.797490,54.889935,9.784745
1389998009,3,0,0.0,0,0,4,0,0,0,-0.0292,30.2921,6.8213,0.4212,54.889431,9.791414,108.3,5.845,1.85,335.95,54.895348,9.797490,54.889935,9.784745
1389998009,3,0,0.0,0,0,0,0,0,0,-0.0292,30.2921,6.8213,0.4212,54.889446,9.791430,108.3,5.845,1.85,335.95,54.895348,9.797490,54.889935,9.784745
1389998010,3,0,0.0,0,0,4,0,0,0,-0.0292,30.2921,6.8213,0.4212,54.889462,9.791447,108.3,5.845,1.85,335.95,54.895348,9.797490,54.889935,9.784745
1389998010,3,0,0.0,0,10,8,0,0,0,-0.0292,26.9588,6.8213,0.4212,54.889477,9.791461,108.3,5.845,1.85,335.95,54.895348,9.797490,54.889935,9.784745
1389998010,3,0,0.0,0,7,4,0,0,0,-0.0292,24.6254,6.8213,0.4212,54.889492,9.791474,108.3,5.845,1.85,335.95,54.895348,9.797490,54.889935,9.784745
1389998010,3,0,0.0,0,5,8,0,0,0,-0.0292,22.9588,6.8213,0.4212,54.889507,9.791486,108.3,5.845,1.85,335.95,54.895348,9.797490,54.889935,9.784745
1389998011,3,0,0.0,0,3,4,0,0,0,-0.0292,21.9588,6.8213,0.4212,54.889526,9.791497,108.3,5.845,1.85,335.95,54.895348,9.797490,54.889935,9.784745
1389998011,3,0,0.0,0,2,0,0,0,0,-0.0292,21.2921,6.8213,0.4212,54.889545,9.791509,108.3,5.845,1.85,335.95,54.895348,9.797490,54.889935,9.784745
1389998011,3,0,0.0,0,1,4,0,0,0,-0.0292,20.9588,6.8213,0.4212,54.889561,9.791520,108.3,5.845,1.85,335.95,54.895348,9.797490,54.889935,9.784745
1389998011,3,0,0.0,0,1,0,0,0,0,-0.0292,20.6254,6.8213,0.4212,54.889576,9.791531,108.3,5.845,1.85,335.95,54.895348,9.797490,54.889935,9.784745
1389998012,3,0,0.0,0,1,4,0,0,0,-0.0292,20.2921,6.8213,0.4212,54.889595,9.791541,108.3,5.845,1.85,335.95,54.895348,9.797490,54.889935,9.784745
1389998012,3,0,0.0,0,0,0,0,0,0,-0.0292,20.2921,6.8213,0.4212,54.889610,9.791552,108.3,5.845,1.85,335.95,54.895348,9.797490,54.889935,9.784745
1389998012,3,0,0.0,0,0,4,0,0,0,-0.0292,20.2921,6.8213,0.4212,54.889626,9.791563,108.3,5.845,1.85,335.95,54.895348,9.797490,54.889935,9.784745
1389998012,3,0,0.0,0,0,0,0,0,0,-0.0292,20.2921,6.8213,0.4212,54.889645,9.791574,108.3,5.845,1.85,335.95,54.895348,9.797490,54.889935,9.784745
1389998013,3,0,0.0,0,0,4,0,0,0,-0.0292,20.2921,6.8213,0.4212,54.889660,9.791584,108.3,5.845,1.85,335.95,54.895348,9.797490,54.889935,9.784745
1389998013,3,0,0.0,0,0,0,0,0,0,-0.0292,20.2921,6.8213,0.4212,54.889675,9.791595,108.3,5.845,1.85,335.95,54.895348,9.797490,54.889935,9.784745
1389998013,3,0,0.0,0,0,4,0,0,0,-0.0292,20.2921,6.8213,0.4212,54.889694,9.791606,108.3,5.845,1.85,335.95,54.895348,9.797490,54.889935,9.784745
1389998013,3,0,0.0,0,0,0,0,0,0,-0.0292,20.2921,6.8213,0.4212,54.889709,9.791616,108.3,5.845,1.85,335.95,54.895348,9.797490,54.889935,9.784745
1389998014,3,0,0.0,0,0,4,0,0,0,-0.0292,20.2921,6.8213,0.4212,54.889725,9.791627,108.3,5.845,1.85,335.95,54.895348,9.797490,54.889935,9.784745
1389998014,3,0,0.0,0,0,0,0,0,0,-0.0292,20.2921,6.8213,0.4212,54.889744,9.791637,108.3,5.845,1.85,335.95,54.895348,9.797490,54.889935,9.784745
1389998014,3,0,0.0,0,0,4,0,0,0,-0.0292,20.2921,6.8213,0.4212,54.889759,9.791649,108.3,5.845,1.85,335.95,54.895348,9.797490,54.889935,9.784745
1389998014,3,0,0.0,0,0,0,0,0,0,-0.0292,20.2921,6.8213,0.4212,54.889774,9.791659,108.3,5.845,1.85,335.95,54.895348,9.797490,54.889935,9.784745
1389998015,3,0,0.0,0,0,4,0,0,0,-0.0292,20.2921,6.8213,0.4212,54.889793,9.791670,108.3,5.845,1.85,335.95,54.895348,9.797490,54.889935,9.784745
1389998015,3,0,0.0,0,10,8,0,0,0,-0.0292,16.9588,6.8213,0.4212,54.889812,9.791679,108.3,5.845,1.85,335.95,54.895348,9.797490,54.889935,9.784745
1389998015,3,0,0.0,0,7,4,0,0,0,-0.0292,14.6254,6.8213,0.4212,54.889828,9.791688,108.3,5.845,1.85,335.95,54.895348,9.797490,54.889935,9.784745
1389998015,3,0,0.0,0,5,8,0,0,0,-0.0292,12.9588,6.8213,0.4212,54.889847,9.791696,108.3,5.845,1.85,335.95,54.895348,9.797490,54.889935,9.784745
1389998016,3,0,0.0,0,3,4,0,0,0,-0.0292,11.9588,6.8213,0.4212,54.889866,9.791701,108.3,5.845,1.85,335.95,54.895348,9.797490,54.889935,9.784745
1389998016,3,0,0.0,0,2,0,0,0,0,-0.0292,11.2921,6.8213,0.4212,54.889885,9.791707,108.3,5.845,1.85,335.95,54.895348,9.797490,54.889935,9.784745
1389998016,3,0,0.0,0,1,4,0,0,0,-0.0292,10.9588,6.8213,0.4212,54.889900,9.791713,108.3,5.845,1.85,335.95,54.895348,9.797490,54.889935,9.784745
1389998016,3,0,0.0,0,1,0,0,0,0,-0.0292,10.6254,6.8213,0.4212,54.889919,9.791718,108.3,5.845,1.85,335.95,54.895348,9.797490,54.889935,9.784745
1389998017,3,0,0.0,0,1,4,0,0,0,-0.0292,10.2921,6.8213,0.4212,54.889938,9.791724,108.3,5.845,1.85,335.95,54.895348,9.797490,54.889935,9.784745
1389998017,3,0,0.0,0,0,0,0,0,0,-0.0292,10.2921,6.8213,0.4212,54.889957,9.791730,108.3,5.845,1.85,335.95,54.895348,9.797490,54.889935,9.784745
1389998017,3,0,0.0,0,0,4,0,0,0,-0.0292,10.2921,6.8213,0.4212,54.889973,9.791736,108.3,5.845,1.85,335.95,54.895348,9.797490,54.889935,9.784745
1389998017,3,0,0.0,0,0,0,0,0,0,-0.0292,10.2921,6.8213,0.4212,54.889992,9.791740,108.3,5.845,1.85,335.95,54.895348,9.797490,54.889935,9.784745
1389998018,3,0,0.0,0,0,4,0,0,0,-0.0292,10.2921,6.8213,0.4212,54.890011,9.791746,108.3,5.845,1.85,335.95,54.895348,9.797490,54.889935,9.784745
1389998018,3,0,0.0,0,0,0,0,0,0,-0.0292,10.2921,6.8213,0.4212,54.890026,9.791752,108.3,5.845,1.85,335.95,54.895348,9.797490,54.889935,9.784745
1389998018,3,0,0.0,0,0,4,0,0,0,-0.0292,10.2921,6.8213,0.4212,54.890045,9.791758,108.3,5.845,1.85,335.95,54.895348,9.797490,54.889935,9.784745
1389998018,3,0,0.0,0,0,0,0,0,0,-0.0292,10.2921,6.8213,0.4212,54.890064,9.791763,108.3,5.845,1.85,335.95,54.895348,9.797490,54.889935,9.784745
1389998019,3,0,0.0,0,0,4,0,0,0,-0.0292,10.2921,6.8213,0.4212,54.890083,9.791769,108.3,5.845,1.85,335.95,54.895348,9.797490,54.889935,9.784745
1389998019,3,0,0.0,0,0,0,0,0,0,-0.0292,10.2921,6.8213,0.4212,54.890099,9.791775,108.3,5.845,1.85,335.95,54.895348,9.797490,54.889935,9.784745
1389998019,3,0,0.0,0,0,4,0,0,0,-0.0292,10.2921,6.8213,0.4212,54.890118,9.791780,108.3,5.845,1.85,335.95,54.895348,9.797490,54.889935,9.784745
1389998019,3,0,0.0,0,0,0,0,0,0,-0.0292,10.2921,6.8213,0.4212,54.890137,9.791784,108.3,5.845,1.85,335.95,54.895348,9.797490,54.889935,9.784745
1389998020,3,0,0.0,0,0,4,0,0,0,-0.0292,10.2921,6.8213,0.4212,54.890156,9.791790,108.3,5.845,1.85,335.95,54.895348,9.797490,54.889935,9.784745
1389998020,3,0,0.0,0,10,8,0,0,0,-0.0292,6.9588,6.8213,0.4212,54.890171,9.791794,108.3,5.845,1.85,335.95,54.895348,9.797490,54.889935,9.784745
1389998020,3,0,0.0,0,7,4,0,0,0,-0.0292,4.6254,6.8213,0.4212,54.890190,9.791797,108.3,5.845,1.85,335.95,54.895348,9.797490,54.889935,9.784745
1389998020,3,0,0.0,0,5,8,0,0,0,-0.0292,2.9588,6.8213,0.4212,54.890209,9.791799,108.3,5.845,1.85,335.95,54.895348,9.797490,54.889935,9.784745
1389998021,3,0,0.0,0,3,4,0,0,0,-0.0292,1.9588,6.8213,0.4212,54.890228,9.791800,108.3,5.845,1.85,335.95,54.895348,9.797490,54.889935,9.784745
1389998021,3,0,0.0,0,2,0,0,0,0,-0.0292,1.2921,6.8213,0.4212,54.890244,9.791800,108.3,5.845,1.85,335.95,54.895348,9.797490,54.889935,9.784745
1389998021,3,0,0.0,0,1,4,0,0,0,-0.0292,0.9588,6.8213,0.4212,54.890263,9.791801,108.3,5.845,1.85,335.95,54.895348,9.797490,54.889935,9.784745
1389998021,3,0,0.0,0,1,0,0,0,0,-0.0292,0.6254,6.8213,0.4212,54.890282,9.791802,108.3,5.845,1.85,335.95,54.895348,9.797490,54.889935,9.784745
1389998022,3,0,0.0,0,1,4,0,0,0,-0.0292,0.2921,6.8213,0.4212,54.890301,9.791802,108.3,5.845,1.85,335.95,54.895348,9.797490,54.889935,9.784745
1389998022,3,0,0.0,0,0,0,0,0,0,-0.0292,0.2921,6.8213,0.4212,54.890316,9.791802,108.3,5.845,1.85,335.95,54.895348,9.797490,54.889935,9.784745
1389998022,3,0,0.0,0,0,4,0,0,0,-0.0292,0.2921,6.8213,0.4212,54.890335,9.791802,108.3,5.845,1.85,335.95,54.895348,9.797490,54.889935,9.784745
1389998022,3,0,0.0,0,0,0,0,0,0,-0.0292,0.2921,6.8213,0.4212,54.890354,9.791802,108.3,5.845,1.85,335.95,54.895348,9.797490,54.889935,9.784745
1389998023,3,0,0.0,0,0,4,0,0,0,-0.0292,0.2921,6.8213,0.4212,54.890369,9.791802,108.3,5.845,1.85,335.95,54.895348,9.797490,54.889935,9.784745
1389998023,3,0,0.0,0,0,0,0,0,0,-0.0292,0.2921,6.8213,0.4212,54.890388,9.791802,108.3,5.845,1.85,335.95,54.895348,9.797490,54.889935,9.784745
1389998023,3,0,0.0,0,0,4,0,0,0,-0.0292,0.2921,6.8213,0.4212,54.890408,9.791802,108.3,5.845,1.85,335.95,54.895348,9.797490,54.889935,9.784745
1389998023,3,0,0.0,0,0,0,0,0,0,-0.0292,0.2921,6.8213,0.4212,54.890427,9.791802,108.3,5.845,1.85,335.95,54.895348,9.797490,54.889935,9.784745
1389998024,3,0,0.0,0,0,4,0,0,0,-0.0292,0.2921,6.8213,0.4212,54.890442,9.791802,108.3,5.845,1.85,335.95,54.895348,9.797490,54.889935,9.784745
1389998024,3,0,0.0,0,0,0,0,0,0,-0.0292,0.2921,6.8213,0.4212,54.890461,9.791802,108.3,5.845,1.85,335.95,54.895348,9.797490,54.889935,9.784745
1389998024,3,0,0.0,0,0,4,0,0,0,-0.0292,0.2921,6.8213,0.4212,54.890480,9.791802,108.3,5.845,1.85,335.95,54.895348,9.797490,54.889935,9.784745
1389998024,3,0,0.0,0,0,0,0,0,0,-0.0292,0.2921,6.8213,0.4212,54.890499,9.791802,108.3,5.845,1.85,335.95,54.895348,9.797490,54.889935,9.784745
1389998025,3,0,0.0,0,0,4,0,0,0,-0.0292,0.2921,6.8213,0.4212,54.890514,9.791802,108.3,5.845,1.85,335.95,54.895348,9.797490,54.889935,9.784745
1389998025,3,0,0.0,0,-10,0,0,0,0,-0.0292,3.6254,6.8213,0.4212,54.890533,9.791804,108.3,5.845,1.85,335.95,54.895348,9.797490,54.889935,9.784745
1389998025,3,0,0.0,0,-6,-4,0,0,0,-0.0292,5.6254,6.8213,0.4212,54.890553,9.791807,108.3,5.845,1.85,335.95,54.895348,9.797490,54.889935,9.784745
1389998025,3,0,0.0,0,-4,0,0,0,0,-0.0292,6.9588,6.8213,0.4212,54.890572,9.791811,108.3,5.845,1.85,335.95,54.895348,9.797490,54.889935,9.784745
1389998026,3,0,0.0,0,-3,-4,0,0,0,-0.0292,7.9588,6.8213,0.4212,54.890587,9.791816,108.3,5.845,1.85,335.95,54.895348,9.797490,54.889935,9.784745
1389998026,3,0,0.0,0,-2,0,0,0,0,-0.0292,8.6254,6.8213,0.4212,54.890606,9.791821,108.3,5.845,1.85,335.95,54.895348,9.797490,54.889935,9.784745
1389998026,3,0,0.0,0,-1,-4,0,0,0,-0.0292,8.9588,6.8213,0.4212,54.890625,9.791825,108.3,5.845,1.85,335.95,54.895348,9.797490,54.889935,9.784745
1389998026,3,0,0.0,0,-1,0,0,0,0,-0.0292,9.2921,6.8213,0.4212,54.890640,9.791830,108.3,5.845,1.85,335.95,54.895348,9.797490,54.889935,9.784745
1389998027,3,0,0.0,0,-1,-4,0,0,0,-0.0292,9.6254,6.8213,0.4212,54.890659,9.791835,108.3,5.845,1.85,335.95,54.895348,9.797490,54.889935,9.784745
1389998027,3,0,0.0,0,0,0,0,0,0,-0.0292,9.6254,6.8213,0.4212,54.890678,9.791840,108.3,5.845,1.85,335.95,54.895348,9.797490,54.889935,9.784745
1389998027,3,0,0.0,0,0,4,0,0,0,-0.0292,9.6254,6.8213,0.4212,54.890697,9.791845,108.3,5.845,1.85,335.95,54.895348,9.797490,54.889935,9.784745
1389998027,3,0,0.0,0,0,0,0,0,0,-0.0292,9.6254,6.8213,0.4212,54.890713,9.791851,108.3,5.845,1.85,335.95,54.895348,9.797490,54.889935,9.784745
1389998028,3,0,0.0,0,0,4,0,0,0,-0.0292,9.6254,6.8213,0.4212,54.890732,9.791857,108.3,5.845,1.85,335.95,54.895348,9.797490,54.889935,9.784745
1389998028,3,0,0.0,0,0,0,0,0,0,-0.0292,9.6254,6.8213,0.4212,54.890751,9.791862,108.3,5.845,1.85,335.95,54.895348,9.797490,54.889935,9.784745
1389998028,3,0,0.0,0,0,4,0,0,0,-0.0292,9.6254,6.8213,0.4212,54.890770,9.791867,108.3,5.845,1.85,335.95,54.895348,9.797490,54.889935,9.784745
1389998028,3,0,0.0,0,0,0,0,0,0,-0.0292,9.6254,6.8213,0.4212,54.890785,9.791872,108.3,5.845,1.85,335.95,54.895348,9.797490,54.889935,9.784745
1389998029,3,0,0.0,0,0,4,0,0,0,-0.0292,9.6254,6.8213,0.4212,54.890804,9.791877,108.3,5.845,1.85,335.95,54.895348,9.797490,54.889935,9.784745
1389998029,3,0,0.0,0,0,0,0,0,0,-0.0292,9.6254,6.8213,0.4212,54.890823,9.791882,108.3,5.845,1.85,335.95,54.895348,9.797490,54.889935,9.784745
1389998029,3,0,0.0,0,0,4,0,0,0,-0.0292,9.6254,6.8213,0.4212,54.890842,9.791886,108.3,5.845,1.85,335.95,54.895348,9.797490,54.889935,9.784745
1389998029,3,0,0.0,0,0,0,0,0,0,-0.0292,9.6254,6.8213,0.4212,54.890858,9.791892,108.3,5.845,1.85,335.95,54.895348,9.797490,54.889935,9.784745
1389998030,3,0,0.0,0,0,4,0,0,0,-0.0292,9.6254,6.8213,0.4212,54.890877,9.791898,108.3,5.845,1.85,335.95,54.895348,9.797490,54.889935,9.784745
1389998030,3,0,0.0,0,-10,0,0,0,0,-0.0292,12.9588,6.8213,0.4212,54.890896,9.791905,108.3,5.845,1.85,335.95,54.895348,9.797490,54.889935,9.784745
1389998030,3,0,0.0,0,-7,-4,0,0,0,-0.0292,15.2921,6.8213,0.4212,54.890911,9.791913,108.3,5.845,1.85,335.95,54.895348,9.797490,54.889935,9.784745
1389998031,3,0,0.0,0,-5,-8,0,0,0,-0.0292,16.9588,6.8213,0.4212,54.890930,9.791922,108.3,5.845,1.85,335.95,54.895348,9.797490,54.889935,9.784745
1389998031,3,0,0.0,0,-3,-4,0,0,0,-0.0292,17.9588,6.8213,0.4212,54.890949,9.791931,108.3,5.845,1.85,335.95,54.895348,9.797490,54.889935,9.784745
1389998031,3,0,0.0,0,-2,0,0,0,0,-0.0292,18.6254,6.8213,0.4212,54.890965,9.791942,108.3,5.845,1.85,335.95,54.895348,9.797490,54.889935,9.784745
1389998031,3,0,0.0,0,-1,-4,0,0,0,-0.0292,18.9588,6.8213,0.4212,54.890980,9.791952,108.3,5.845,1.85,335.95,54.895348,9.797490,54.889935,9.784745
1389998032,3,0,0.0,0,-1,0,0,0,0,-0.0292,19.2921,6.8213,0.4212,54.890999,9.791962,108.3,5.845,1.85,335.95,54.895348,9.797490,54.889935,9.784745
1389998032,3,0,0.0,0,-1,-4,0,0,0,-0.0292,19.6254,6.8213,0.4212,54.891014,9.791972,108.3,5.845,1.85,335.95,54.895348,9.797490,54.889935,9.784745
1389998032,3,0,0.0,0,0,0,0,0,0,-0.0292,19.6254,6.8213,0.4212,54.891029,9.791983,108.3,5.845,1.85,335.95,54.895348,9.797490,54.889935,9.784745
1389998032,3,0,0.0,0,0,4,0,0,0,-0.0292,19.6254,6.8213,0.4212,54.891048,9.791993,108.3,5.845,1.85,335.95,54.895348,9.797490,54.889935,9.784745
1389998033,3,0,0.0,0,0,0,0,0,0,-0.0292,19.6254,6.8213,0.4212,54.891064,9.792004,108.3,5.845,1.85,335.95,54.895348,9.797490,54.889935,9.784745
1389998033,3,0,0.0,0,0,4,0,0,0,-0.0292,19.6254,6.8213,0.4212,54.891079,9.792014,108.3,5.845,1.85,335.95,54.895348,9.797490,54.889935,9.784745
1389998033,3,0,0.0,0,0,0,0,0,0,-0.0292,19.6254,6.8213,0.4212,54.891098,9.792025,108.3,5.845,1.85,335.95,54.895348,9.797490,54.889935,9.784745
1389998033,3,0,0.0,0,0,4,0,0,0,-0.0292,19.6254,6.8213,0.4212,54.891117,9.792035,108.3,5.845,1.85,335.95,54.895348,9.797490,54.889935,9.784745
1389998034,3,0,0.0,0,0,0,0,0,0,-0.0292,19.6254,6.8213,0.4212,54.891132,9.792046,108.3,5.845,1.85,335.95,54.895348,9.797490,54.889935,9.784745
