MCU_timestamp,Navigation_System,Manual_Control,Guidance_Heading,Manual_Ctrl_Rudder,Rudder_Desired_Angle,Rudder_Feedback,Manual_Ctrl_Sail,Sail_Desired_Pos,Sail_Feedback,Rate,Heading,Pitch,Roll,Latitude,Longitude,COG,SOG,Wind_Speed,Wind_Angle,Point_Start_Lat,Point_Start_Lon,Point_End_Lat,Point_End_Lon
1386927371,0,0,0.0,0,0,4,0,0,0,-0.0292,-2753.7004,6.8213,0.4212,54.895893,9.793323,108.3,5.845,1.85,335.95,0.000000,0.000000,0.000000,0.000000
1386927371,0,0,0.0,0,0,4,0,0,0,-0.0292,-2753.7004,6.8213,0.4212,54.895893,9.793323,108.3,5.845,1.85,335.95,0.000000,0.000000,0.000000,0.000000
1386927371,0,0,0.0,0,0,4,0,0,0,-0.0292,-2753.7004,6.8213,0.4212,54.895893,9.793323,108.3,5.845,1.85,335.95,0.000000,0.000000,0.000000,0.000000
1386927372,0,0,0.0,0,0,4,0,0,0,-0.0292,-2753.7004,6.8213,0.4212,54.895893,9.793323,108.3,5.845,1.85,335.95,0.000000,0.000000,0.000000,0.000000
1386927372,0,0,0.0,0,0,4,0,0,0,-0.0292,-2753.7004,6.8213,0.4212,54.895893,9.793323,108.3,5.845,1.85,335.95,0.000000,0.000000,0.000000,0.000000
1386927372,0,0,0.0,0,0,4,0,0,0,-0.0292,-2753.7004,6.8213,0.4212,54.895893,9.793323,108.3,5.845,1.85,335.95,0.000000,0.000000,0.000000,0.000000
1386927372,0,0,0.0,0,0,4,0,0,0,-0.0292,-2753.7004,6.8213,0.4212,54.895893,9.793323,108.3,5.845,1.85,335.95,0.000000,0.000000,0.000000,0.000000
1386927373,0,0,0.0,0,0,4,0,0,0,-0.0292,-2753.7004,6.8213,0.4212,54.895893,9.793323,108.3,5.845,1.85,335.95,0.000000,0.000000,0.000000,0.000000
1386927373,0,0,0.0,0,0,4,0,0,0,-0.0292,-2753.7004,6.8213,0.4212,54.895893,9.793323,108.3,5.845,1.85,335.95,0.000000,0.000000,0.000000,0.000000
1386927373,0,0,0.0,0,0,4,0,0,0,-0.0292,-2753.7004,6.8213,0.4212,54.895893,9.793323,108.3,5.845,1.85,335.95,0.000000,0.000000,0.000000,0.000000
1386927373,0,0,0.0,0,0,4,0,0,0,-0.0292,-2753.7004,6.8213,0.4212,54.895893,9.793323,108.3,5.845,1.85,335.95,0.000000,0.000000,0.000000,0.000000
1386927374,0,0,0.0,0,0,4,0,0,0,-0.0292,-2753.7004,6.8213,0.4212,54.895893,9.793323,108.3,5.845,1.85,335.95,0.000000,0.000000,0.000000,0.000000
1386927374,0,0,0.0,0,0,4,0,0,0,-0.0292,-2753.7004,6.8213,0.4212,54.895893,9.793323,108.3,5.845,1.85,335.95,0.000000,0.000000,0.000000,0.000000
1386927374,0,0,0.0,0,0,4,0,0,0,-0.0292,-2753.7004,6.8213,0.4212,54.895893,9.793323,108.3,5.845,1.85,335.95,0.000000,0.000000,0.000000,0.000000
1386927374,0,0,0.0,0,0,4,0,0,0,-0.0292,-2753.7004,6.8213,0.4212,54.895893,9.793323,108.3,5.845,1.85,335.95,0.000000,0.000000,0.000000,0.000000
1386927375,0,0,0.0,0,0,4,0,0,0,-0.0292,-2753.7004,6.8213,0.4212,54.895893,9.793323,108.3,5.845,1.85,335.95,0.000000,0.000000,0.000000,0.000000
1386927375,0,0,0.0,0,0,4,0,0,0,-0.0292,-2753.7004,6.8213,0.4212,54.895893,9.793323,108.3,5.845,1.85,335.95,0.000000,0.000000,0.000000,0.000000
1386927375,0,0,0.0,0,0,4,0,0,0,-0.0292,-2753.7004,6.8213,0.4212,54.895893,9.793323,108.3,5.845,1.85,335.95,0.000000,0.000000,0.000000,0.000000
1386927375,0,0,0.0,0,0,4,0,0,0,-0.0292,-2753.7004,6.8213,0.4212,54.895893,9.793323,108.3,5.845,1.85,335.95,0.000000,0.000000,0.000000,0.000000
1386927376,0,0,0.0,0,0,4,0,0,0,-0.0292,-2753.7004,6.8213,0.4212,54.895893,9.793323,108.3,5.845,1.85,335.95,0.000000,0.000000,0.000000,0.000000
1386927376,0,0,0.0,0,0,4,0,0,0,-0.0292,-2753.7004,6.8213,0.4212,54.895893,9.793323,108.3,5.845,1.85,335.95,0.000000,0.000000,0.000000,0.000000
1386927376,0,0,0.0,0,0,4,0,0,0,-0.0292,-2753.7004,6.8213,0.4212,54.895893,9.793323,108.3,5.845,1.85,335.95,0.000000,0.000000,0.000000,0.000000
1386927376,0,0,0.0,0,0,4,0,0,0,-0.0292,-2753.7004,6.8213,0.4212,54.895893,9.793323,108.3,5.845,1.85,335.95,0.000000,0.000000,0.000000,0.000000
1386927377,0,0,0.0,0,0,4,0,0,0,-0.0292,-2753.7004,6.8213,0.4212,54.895893,9.793323,108.3,5.845,1.85,335.95,0.000000,0.000000,0.000000,0.000000
1386927377,0,0,0.0,0,0,4,0,0,0,-0.0292,-2753.7004,6.8213,0.4212,54.895893,9.793323,108.3,5.845,1.85,335.95,0.000000,0.000000,0.000000,0.000000
1386927377,0,0,0.0,0,0,4,0,0,0,-0.0292,-2753.7004,6.8213,0.4212,54.895893,9.793323,108.3,5.845,1.85,335.95,0.000000,0.000000,0.000000,0.000000
1386927377,0,0,0.0,0,0,4,0,0,0,-0.0292,-2753.7004,6.8213,0.4212,54.895893,9.793323,108.3,5.845,1.85,335.95,0.000000,0.000000,0.000000,0.000000
1386927378,0,0,0.0,0,0,4,0,0,0,-0.0292,-2753.7004,6.8213,0.4212,54.895893,9.793323,108.3,5.845,1.85,335.95,0.000000,0.000000,0.000000,0.000000
1386927378,0,0,0.0,0,0,4,0,0,0,-0.0292,-2753.7004,6.8213,0.4212,54.895893,9.793323,108.3,5.845,1.85,335.95,0.000000,0.000000,0.000000,0.000000
1386927378,0,0,0.0,0,0,4,0,0,0,-0.0292,-2753.7004,6.8213,0.4212,54.895893,9.793323,108.3,5.845,1.85,335.95,0.000000,0.000000,0.000000,0.000000
1386927378,0,0,0.0,0,0,4,0,0,0,-0.0292,-2753.7004,6.8213,0.4212,54.895893,9.793323,108.3,5.845,1.85,335.95,0.000000,0.000000,0.000000,0.000000
1386927379,0,0,0.0,0,0,4,0,0,0,-0.0292,-2753.7004,6.8213,0.4212,54.895893,9.793323,108.3,5.845,1.85,335.95,0.000000,0.000000,0.000000,0.000000
1386927379,0,0,0.0,0,0,4,0,0,0,-0.0292,-2753.7004,6.8213,0.4212,54.895893,9.793323,108.3,5.845,1.85,335.95,0.000000,0.000000,0.000000,0.000000
1386927379,0,0,0.0,0,0,4,0,0,0,-0.0292,-2753.7004,6.8213,0.4212,54.895893,9.793323,108.3,5.845,1.85,335.95,0.000000,0.000000,0.000000,0.000000
1386927379,0,0,0.0,0,0,4,0,0,0,-0.0292,-2753.7004,6.8213,0.4212,54.895893,9.793323,108.3,5.845,1.85,335.95,0.000000,0.000000,0.000000,0.000000
1386927380,0,0,0.0,0,0,4,0,0,0,-0.0292,-2753.7004,6.8213,0.4212,54.895893,9.793323,108.3,5.845,1.85,335.95,0.000000,0.000000,0.000000,0.000000
1386927380,0,0,0.0,0,0,4,0,0,0,-0.0292,-2753.7004,6.8213,0.4212,54.895893,9.793323,108.3,5.845,1.85,335.95,0.000000,0.000000,0.000000,0.000000
1386927380,0,0,0.0,0,0,4,0,0,0,-0.0292,-2753.7004,6.8213,0.4212,54.895893,9.793323,108.3,5.845,1.85,335.95,0.000000,0.000000,0.000000,0.000000
1386927380,0,0,0.0,0,0,4,0,0,0,-0.0292,-2753.7004,6.8213,0.4212,54.895893,9.793323,108.3,5.845,1.85,335.95,0.000000,0.000000,0.000000,0.000000
1386927381,0,0,0.0,0,0,4,0,0,0,-0.0292,-2753.7004,6.8213,0.4212,54.895893,9.793323,108.3,5.845,1.85,335.95,0.000000,0.000000,0.000000,0.000000
1386927381,0,0,0.0,0,0,4,0,0,0,-0.0292,-2753.7004,6.8213,0.4212,54.895893,9.793323,108.3,5.845,1.85,335.95,0.000000,0.000000,0.000000,0.000000
1386927381,0,0,0.0,0,0,4,0,0,0,-0.0292,-2753.7004,6.8213,0.4212,54.895893,9.793323,108.3,5.845,1.85,335.95,0.000000,0.000000,0.000000,0.000000
1386927381,0,0,0.0,0,0,4,0,0,0,-0.0292,-2753.7004,6.8213,0.4212,54.895893,9.793323,108.3,5.845,1.85,335.95,0.000000,0.000000,0.000000,0.000000
1386927382,0,0,0.0,0,0,4,0,0,0,-0.0292,-2753.7004,6.8213,0.4212,54.895893,9.793323,108.3,5.845,1.85,335.95,0.000000,0.000000,0.000000,0.000000
1386927382,0,0,0.0,0,0,4,0,0,0,-0.0292,-2753.7004,6.8213,0.4212,54.895893,9.793323,108.3,5.845,1.85,335.95,0.000000,0.000000,0.000000,0.000000
1386927382,0,0,0.0,0,0,4,0,0,0,-0.0292,-2753.7004,6.8213,0.4212,54.895893,9.793323,108.3,5.845,1.85,335.95,0.000000,0.000000,0.000000,0.000000
1386927382,0,0,0.0,0,0,4,0,0,0,-0.0292,-2753.7004,6.8213,0.4212,54.895893,9.793323,108.3,5.845,1.85,335.95,0.000000,0.000000,0.000000,0.000000
1386927383,0,0,0.0,0,0,4,0,0,0,-0.0292,-2753.7004,6.8213,0.4212,54.895893,9.793323,108.3,5.845,1.85,335.95,0.000000,0.000000,0.000000,0.000000
1386927383,0,0,0.0,0,0,4,0,0,0,-0.0292,-2753.7004,6.8213,0.4212,54.895893,9.793323,108.3,5.845,1.85,335.95,0.000000,0.000000,0.000000,0.000000
1386927383,0,0,0.0,0,0,4,0,0,0,-0.0292,-2753.7004,6.8213,0.4212,54.895893,9.793323,108.3,5.845,1.85,335.95,0.000000,0.000000,0.000000,0.000000
1386927383,0,0,0.0,0,0,4,0,0,0,-0.0292,-2753.7004,6.8213,0.4212,54.895893,9.793323,108.3,5.845,1.85,335.95,0.000000,0.000000,0.000000,0.000000
1386927384,0,0,0.0,0,0,4,0,0,0,-0.0292,-2753.7004,6.8213,0.4212,54.895893,9.793323,108.3,5.845,1.85,335.95,0.000000,0.000000,0.000000,0.000000
1386927384,0,0,0.0,0,0,4,0,0,0,-0.0292,-2753.7004,6.8213,0.4212,54.895893,9.793323,108.3,5.845,1.85,335.95,0.000000,0.000000,0.000000,0.000000
1386927384,0,0,0.0,0,0,4,0,0,0,-0.0292,-2753.7004,6.8213,0.4212,54.895893,9.793323,108.3,5.845,1.85,335.95,0.000000,0.000000,0.000000,0.000000
1386927384,4,0,0.0,0,0,4,0,0,0,-0.0292,-2753.7004,6.8213,0.4212,54.895893,9.793323,108.3,5.845,1.85,335.95,0.000000,0.000000,0.000000,0.000000
1386927385,1,0,485.9,0,0,0,0,713,750,-0.0292,-2753.7004,6.8213,0.4212,54.895882,9.793347,108.3,5.845,1.85,335.95,54.895893,9.793323,54.895069,9.793790
1386927385,1,0,485.9,0,0,4,0,0,700,-0.0292,-2753.7004,6.8213,0.4212,54.895870,9.793373,108.3,5.845,1.85,335.95,54.895893,9.793323,54.895069,9.793790
1386927385,1,0,485.9,0,0,0,0,0,650,-0.0292,-2753.7004,6.8213,0.4212,54.895859,9.793398,108.3,5.845,1.85,335.95,54.895893,9.793323,54.895069,9.793790
1386927385,1,0,485.9,0,0,4,0,0,600,-0.0292,-2753.7004,6.8213,0.4212,54.895847,9.793424,108.3,5.845,1.85,335.95,54.895893,9.793323,54.895069,9.793790
1386927386,1,0,485.9,0,0,0,0,0,550,-0.0292,-2753.7004,6.8213,0.4212,54.895836,9.793448,108.3,5.845,1.85,335.95,54.895893,9.793323,54.895069,9.793790
1386927386,1,0,485.9,0,0,4,0,0,500,-0.0292,-2753.7004,6.8213,0.4212,54.895824,9.793473,108.3,5.845,1.85,335.95,54.895893,9.793323,54.895069,9.793790
1386927386,1,0,485.9,0,0,0,0,0,450,-0.0292,-2753.7004,6.8213,0.4212,54.895813,9.793499,108.3,5.845,1.85,335.95,54.895893,9.793323,54.895069,9.793790
1386927387,1,0,485.9,0,0,4,0,0,400,-0.0292,-2753.7004,6.8213,0.4212,54.895802,9.793524,108.3,5.845,1.85,335.95,54.895893,9.793323,54.895069,9.793790
1386927387,1,0,485.9,0,0,0,0,0,350,-0.0292,-2753.7004,6.8213,0.4212,54.895794,9.793550,108.3,5.845,1.85,335.95,54.895893,9.793323,54.895069,9.793790
1386927387,1,0,485.9,0,0,4,0,0,300,-0.0292,-2753.7004,6.8213,0.4212,54.895782,9.793574,108.3,5.845,1.85,335.95,54.895893,9.793323,54.895069,9.793790
1386927387,1,0,485.9,0,0,0,0,0,250,-0.0292,-2753.7004,6.8213,0.4212,54.895771,9.793599,108.3,5.845,1.85,335.95,54.895893,9.793323,54.895069,9.793790
1386927388,1,0,485.9,0,0,4,0,0,200,-0.0292,-2753.7004,6.8213,0.4212,54.895760,9.793624,108.3,5.845,1.85,335.95,54.895893,9.793323,54.895069,9.793790
1386927388,1,0,485.9,0,0,0,0,0,150,-0.0292,-2753.7004,6.8213,0.4212,54.895748,9.793649,108.3,5.845,1.85,335.95,54.895893,9.793323,54.895069,9.793790
1386927388,1,0,485.9,0,0,4,0,0,100,-0.0292,-2753.7004,6.8213,0.4212,54.895737,9.793674,108.3,5.845,1.85,335.95,54.895893,9.793323,54.895069,9.793790
1386927388,1,0,485.9,0,0,0,0,0,50,-0.0292,-2753.7004,6.8213,0.4212,54.895725,9.793699,108.3,5.845,1.85,335.95,54.895893,9.793323,54.895069,9.793790
1386927389,1,0,485.9,0,0,4,0,0,0,-0.0292,-2753.7004,6.8213,0.4212,54.895714,9.793725,108.3,5.845,1.85,335.95,54.895893,9.793323,54.895069,9.793790
1386927389,1,0,485.9,0,0,0,0,0,0,-0.0292,-2753.7004,6.8213,0.4212,54.895702,9.793750,108.3,5.845,1.85,335.95,54.895893,9.793323,54.895069,9.793790
1386927389,1,0,545.9,0,-35,-4,0,0,0,-0.0292,-2744.3672,6.8213,0.4212,54.895691,9.793771,108.3,5.845,1.85,335.95,54.895893,9.793323,54.895069,9.793790
1386927389,1,0,545.9,0,-35,-8,0,0,0,-0.0292,-2735.0339,6.8213,0.4212,54.895676,9.793789,108.3,5.845,1.85,335.95,54.895893,9.793323,54.895069,9.793790
1386927390,1,0,545.9,0,-35,-12,0,0,0,-0.0292,-2725.7007,6.8213,0.4212,54.895660,9.793802,108.3,5.845,1.85,335.95,54.895893,9.793323,54.895069,9.793790
1386927390,1,0,545.9,0,-32,-16,0,0,0,-0.0292,-2717.1672,6.8213,0.4212,54.895641,9.793811,108.3,5.845,1.85,335.95,54.895893,9.793323,54.895069,9.793790
1386927390,1,0,545.9,0,-23,-20,0,0,0,-0.0292,-2711.0339,6.8213,0.4212,54.895622,9.793817,108.3,5.845,1.85,335.95,54.895893,9.793323,54.895069,9.793790
1386927390,1,0,545.9,0,-17,-16,0,0,0,-0.0292,-2706.5005,6.8213,0.4212,54.895603,9.793820,108.3,5.845,1.85,335.95,54.895893,9.793323,54.895069,9.793790
1386927391,1,0,545.9,0,-12,-12,0,0,0,-0.0292,-2703.3005,6.8213,0.4212,54.895588,9.793822,108.3,5.845,1.85,335.95,54.895893,9.793323,54.895069,9.793790
1386927391,1,0,545.9,0,-9,-8,0,0,0,-0.0292,-2700.9006,6.8213,0.4212,54.895569,9.793823,108.3,5.845,1.85,335.95,54.895893,9.793323,54.895069,9.793790
1386927391,1,0,545.9,0,-7,-4,0,0,0,-0.0292,-2699.0339,6.8213,0.4212,54.895550,9.793823,108.3,5.845,1.85,335.95,54.895893,9.793323,54.895069,9.793790
1386927391,1,0,545.9,0,-5,-8,0,0,0,-0.0292,-2697.7007,6.8213,0.4212,54.895531,9.793822,108.3,5.845,1.85,335.95,54.895893,9.793323,54.895069,9.793790
1386927392,1,0,545.9,0,-4,-4,0,713,50,-0.0292,-2696.6340,6.8213,0.4212,54.895515,9.793820,108.3,5.845,1.85,335.95,54.895893,9.793323,54.895069,9.793790
1386927392,1,0,545.9,0,-3,0,0,713,100,-0.0292,-2695.8340,6.8213,0.4212,54.895496,9.793818,108.3,5.845,1.85,335.95,54.895893,9.793323,54.895069,9.793790
1386927392,1,0,545.9,0,-2,-4,0,713,150,-0.0292,-2695.3005,6.8213,0.4212,54.895477,9.793817,108.3,5.845,1.85,335.95,54.895893,9.793323,54.895069,9.793790
1386927392,1,0,545.9,0,-1,0,0,713,200,-0.0292,-2695.0339,6.8213,0.4212,54.895458,9.793814,108.3,5.845,1.85,335.95,54.895893,9.793323,54.895069,9.793790
1386927393,1,0,545.9,0,-1,-4,0,713,250,-0.0292,-2694.7673,6.8213,0.4212,54.895443,9.793811,108.3,5.845,1.85,335.95,54.895893,9.793323,54.895069,9.793790
1386927393,1,0,545.9,0,-1,0,0,713,300,-0.0292,-2694.5007,6.8213,0.4212,54.895424,9.793808,108.3,5.845,1.85,335.95,54.895893,9.793323,54.895069,9.793790
1386927393,1,0,545.9,0,0,4,0,713,350,-0.0292,-2694.5007,6.8213,0.4212,54.895405,9.793805,108.3,5.845,1.85,335.95,54.895893,9.793323,54.895069,9.793790
1386927393,1,0,545.9,0,0,0,0,713,400,-0.0292,-2694.5007,6.8213,0.4212,54.895386,9.793802,108.3,5.845,1.85,335.95,54.895893,9.793323,54.895069,9.793790
1386927394,1,0,545.9,0,0,4,0,713,450,-0.0292,-2694.5007,6.8213,0.4212,54.895370,9.793799,108.3,5.845,1.85,335.95,54.895893,9.793323,54.895069,9.793790
1386927394,1,0,545.9,0,0,0,0,713,500,-0.0292,-2694.5007,6.8213,0.4212,54.895351,9.793797,108.3,5.845,1.85,335.95,54.895893,9.793323,54.895069,9.793790
1386927394,1,0,545.9,0,0,4,0,713,550,-0.0292,-2694.5007,6.8213,0.4212,54.895332,9.793794,108.3,5.845,1.85,335.95,54.895893,9.793323,54.895069,9.793790
1386927394,1,0,545.9,0,0,0,0,713,600,-0.0292,-2694.5007,6.8213,0.4212,54.895317,9.793790,108.3,5.845,1.85,335.95,54.895893,9.793323,54.895069,9.793790
1386927395,1,0,545.9,0,0,4,0,713,650,-0.0292,-2694.5007,6.8213,0.4212,54.895298,9.793786,108.3,5.845,1.85,335.95,54.895893,9.793323,54.895069,9.793790
1386927395,1,0,545.9,0,0,0,0,713,700,-0.0292,-2694.5007,6.8213,0.4212,54.895279,9.793783,108.3,5.845,1.85,335.95,54.895893,9.793323,54.895069,9.793790
1386927395,1,0,545.9,0,0,4,0,713,750,-0.0292,-2694.5007,6.8213,0.4212,54.895260,9.793780,108.3,5.845,1.85,335.95,54.895893,9.793323,54.895069,9.793790
1386927395,1,0,545.9,0,0,0,0,713,700,-0.0292,-2694.5007,6.8213,0.4212,54.895245,9.793777,108.3,5.845,1.85,335.95,54.895893,9.793323,54.895069,9.793790
1386927396,1,0,545.9,0,0,4,0,713,750,-0.0292,-2694.5007,6.8213,0.4212,54.895226,9.793775,108.3,5.845,1.85,335.95,54.895893,9.793323,54.895069,9.793790
1386927396,1,0,545.9,0,0,0,0,713,700,-0.0292,-2694.5007,6.8213,0.4212,54.895206,9.793772,108.3,5.845,1.85,335.95,54.895893,9.793323,54.895069,9.793790
1386927396,1,0,545.9,0,0,4,0,713,750,-0.0292,-2694.5007,6.8213,0.4212,54.895187,9.793769,108.3,5.845,1.85,335.95,54.895893,9.793323,54.895069,9.793790
1386927396,1,0,545.9,0,0,0,0,713,700,-0.0292,-2694.5007,6.8213,0.4212,54.895172,9.793766,108.3,5.845,1.85,335.95,54.895893,9.793323,54.895069,9.793790
1386927397,1,0,545.9,0,0,4,0,713,750,-0.0292,-2694.5007,6.8213,0.4212,54.895153,9.793763,108.3,5.845,1.85,335.95,54.895893,9.793323,54.895069,9.793790
1386927397,1,0,545.9,0,0,0,0,713,700,-0.0292,-2694.5007,6.8213,0.4212,54.895134,9.793760,108.3,5.845,1.85,335.95,54.895893,9.793323,54.895069,9.793790
1386927397,1,0,545.9,0,0,4,0,713,750,-0.0292,-2694.5007,6.8213,0.4212,54.895115,9.793757,108.3,5.845,1.85,335.95,54.895893,9.793323,54.895069,9.793790
1386927397,1,0,545.9,0,0,0,0,713,700,-0.0292,-2694.5007,6.8213,0.4212,54.895100,9.793755,108.3,5.845,1.85,335.95,54.895893,9.793323,54.895069,9.793790
1386927398,1,0,545.9,0,0,4,0,713,750,-0.0292,-2694.5007,6.8213,0.4212,54.895081,9.793752,108.3,5.845,1.85,335.95,54.895069,9.793790,54.895348,9.797490
1386927398,1,0,545.9,0,0,0,0,713,700,-0.0292,-2694.5007,6.8213,0.4212,54.895061,9.793748,108.3,5.845,1.85,335.95,54.895069,9.793790,54.895348,9.797490
1386927398,1,0,545.9,0,0,4,0,0,650,-0.0292,-2694.5007,6.8213,0.4212,54.895046,9.793744,108.3,5.845,1.85,335.95,54.895069,9.793790,54.895348,9.797490
1386927398,1,0,545.9,0,0,0,0,0,600,-0.0292,-2694.5007,6.8213,0.4212,54.895027,9.793741,108.3,5.845,1.85,335.95,54.895069,9.793790,54.895348,9.797490
1386927399,1,0,545.9,0,0,4,0,0,550,-0.0292,-2694.5007,6.8213,0.4212,54.895008,9.793738,108.3,5.845,1.85,335.95,54.895069,9.793790,54.895348,9.797490
1386927399,1,0,545.9,0,0,0,0,0,500,-0.0292,-2694.5007,6.8213,0.4212,54.894989,9.793736,108.3,5.845,1.85,335.95,54.895069,9.793790,54.895348,9.797490
1386927399,1,0,545.9,0,0,4,0,0,450,-0.0292,-2694.5007,6.8213,0.4212,54.894974,9.793733,108.3,5.845,1.85,335.95,54.895069,9.793790,54.895348,9.797490
1386927399,1,0,545.9,0,0,0,0,0,400,-0.0292,-2694.5007,6.8213,0.4212,54.894955,9.793730,108.3,5.845,1.85,335.95,54.895069,9.793790,54.895348,9.797490
1386927400,1,0,545.9,0,0,4,0,0,350,-0.0292,-2694.5007,6.8213,0.4212,54.894936,9.793727,108.3,5.845,1.85,335.95,54.895069,9.793790,54.895348,9.797490
1386927400,1,0,545.9,0,0,0,0,0,300,-0.0292,-2694.5007,6.8213,0.4212,54.894917,9.793724,108.3,5.845,1.85,335.95,54.895069,9.793790,54.895348,9.797490
1386927400,1,0,545.9,0,0,4,0,0,250,-0.0292,-2694.5007,6.8213,0.4212,54.894901,9.793721,108.3,5.845,1.85,335.95,54.895069,9.793790,54.895348,9.797490
1386927400,1,0,545.9,0,0,0,0,0,200,-0.0292,-2694.5007,6.8213,0.4212,54.894882,9.793718,108.3,5.845,1.85,335.95,54.895069,9.793790,54.895348,9.797490
1386927401,1,0,545.9,0,0,4,0,0,150,-0.0292,-2694.5007,6.8213,0.4212,54.894863,9.793715,108.3,5.845,1.85,335.95,54.895069,9.793790,54.895348,9.797490
1386927401,1,0,545.9,0,0,0,0,0,100,-0.0292,-2694.5007,6.8213,0.4212,54.894844,9.793713,108.3,5.845,1.85,335.95,54.895069,9.793790,54.895348,9.797490
1386927401,1,0,545.9,0,0,4,0,0,50,-0.0292,-2694.5007,6.8213,0.4212,54.894829,9.793710,108.3,5.845,1.85,335.95,54.895069,9.793790,54.895348,9.797490
1386927401,1,0,545.9,0,0,0,0,0,0,-0.0292,-2694.5007,6.8213,0.4212,54.894810,9.793707,108.3,5.845,1.85,335.95,54.895069,9.793790,54.895348,9.797490
1386927402,1,0,545.9,0,0,4,0,0,0,-0.0292,-2694.5007,6.8213,0.4212,54.894791,9.793703,108.3,5.845,1.85,335.95,54.895069,9.793790,54.895348,9.797490
1386927402,1,0,485.9,0,35,8,0,0,0,-0.0292,-2703.8340,6.8213,0.4212,54.894772,9.793705,108.3,5.845,1.85,335.95,54.895069,9.793790,54.895348,9.797490
1386927402,1,0,485.9,0,35,12,0,0,0,-0.0292,-2713.1672,6.8213,0.4212,54.894756,9.793712,108.3,5.845,1.85,335.95,54.895069,9.793790,54.895348,9.797490
1386927402,1,0,485.9,0,35,16,0,0,0,-0.0292,-2722.5005,6.8213,0.4212,54.894737,9.793723,108.3,5.845,1.85,335.95,54.895069,9.793790,54.895348,9.797490
1386927403,1,0,485.9,0,32,20,0,0,0,-0.0292,-2731.0339,6.8213,0.4212,54.894722,9.793739,108.3,5.845,1.85,335.95,54.895069,9.793790,54.895348,9.797490
1386927403,1,0,485.9,0,23,24,0,0,0,-0.0292,-2737.1672,6.8213,0.4212,54.894711,9.793758,108.3,5.845,1.85,335.95,54.895069,9.793790,54.895348,9.797490
1386927403,1,0,485.9,0,17,20,0,0,0,-0.0292,-2741.7007,6.8213,0.4212,54.894695,9.793779,108.3,5.845,1.85,335.95,54.895069,9.793790,54.895348,9.797490
1386927403,1,0,485.9,0,12,16,0,0,0,-0.0292,-2744.9006,6.8213,0.4212,54.894684,9.793801,108.3,5.845,1.85,335.95,54.895069,9.793790,54.895348,9.797490
1386927404,1,0,485.9,0,9,12,0,0,0,-0.0292,-2747.3005,6.8213,0.4212,54.894672,9.793824,108.3,5.845,1.85,335.95,54.895069,9.793790,54.895348,9.797490
1386927404,1,0,485.9,0,7,8,0,0,0,-0.0292,-2749.1672,6.8213,0.4212,54.894661,9.793848,108.3,5.845,1.85,335.95,54.895069,9.793790,54.895348,9.797490
1386927404,1,0,485.9,0,5,4,0,0,0,-0.0292,-2750.5005,6.8213,0.4212,54.894650,9.793872,108.3,5.845,1.85,335.95,54.895069,9.793790,54.895348,9.797490
1386927404,1,0,485.9,0,4,8,0,713,50,-0.0292,-2751.5671,6.8213,0.4212,54.894642,9.793897,108.3,5.845,1.85,335.95,54.895069,9.793790,54.895348,9.797490
1386927405,1,0,485.9,0,2,4,0,713,100,-0.0292,-2752.1006,6.8213,0.4212,54.894630,9.793921,108.3,5.845,1.85,335.95,54.895069,9.793790,54.895348,9.797490
1386927405,1,0,485.9,0,2,0,0,713,150,-0.0292,-2752.6340,6.8213,0.4212,54.894619,9.793946,108.3,5.845,1.85,335.95,54.895069,9.793790,54.895348,9.797490
1386927405,1,0,485.9,0,1,4,0,713,200,-0.0292,-2752.9006,6.8213,0.4212,54.894608,9.793971,108.3,5.845,1.85,335.95,54.895069,9.793790,54.895348,9.797490
1386927405,1,0,485.9,0,1,0,0,713,250,-0.0292,-2753.1672,6.8213,0.4212,54.894596,9.793996,108.3,5.845,1.85,335.95,54.895069,9.793790,54.895348,9.797490
1386927406,1,0,485.9,0,1,4,0,713,300,-0.0292,-2753.4338,6.8213,0.4212,54.894588,9.794022,108.3,5.845,1.85,335.95,54.895069,9.793790,54.895348,9.797490
1386927406,1,0,485.9,0,1,0,0,713,350,-0.0292,-2753.7004,6.8213,0.4212,54.894577,9.794046,108.3,5.845,1.85,335.95,54.895069,9.793790,54.895348,9.797490
1386927406,1,0,443.0,0,35,4,0,713,400,-0.0292,-2763.0337,6.8213,0.4212,54.894566,9.794074,108.3,5.845,1.85,335.95,54.895069,9.793790,54.895348,9.797490
1386927406,1,0,428.4,0,35,8,0,713,450,-0.0292,-2772.3669,6.8213,0.4212,54.894562,9.794104,108.3,5.845,1.85,335.95,54.895069,9.793790,54.895348,9.797490
1386927407,1,0,428.1,0,35,12,0,870,500,-0.0292,-2781.7002,6.8213,0.4212,54.894558,9.794134,108.3,5.845,1.85,335.95,54.895069,9.793790,54.895348,9.797490
1386927407,1,0,427.9,0,30,16,0,870,550,-0.0292,-2789.7002,6.8213,0.4212,54.894558,9.794165,108.3,5.845,1.85,335.95,54.895069,9.793790,54.895348,9.797490
1386927407,1,0,427.7,0,23,20,0,778,600,-0.0292,-2795.8335,6.8213,0.4212,54.894558,9.794196,108.3,5.845,1.85,335.95,54.895069,9.793790,54.895348,9.797490
1386927407,1,0,427.5,0,17,16,0,686,650,-0.0292,-2800.3669,6.8213,0.4212,54.894562,9.794227,108.3,5.845,1.85,335.95,54.895069,9.793790,54.895348,9.797490
1386927408,1,0,427.4,0,12,12,0,616,600,-0.0292,-2803.5669,6.8213,0.4212,54.894566,9.794257,108.3,5.845,1.85,335.95,54.895069,9.793790,54.895348,9.797490
1386927408,1,0,427.3,0,9,8,0,566,550,-0.0292,-2805.9668,6.8213,0.4212,54.894569,9.794288,108.3,5.845,1.85,335.95,54.895069,9.793790,54.895348,9.797490
1386927408,1,0,427.2,0,7,4,0,528,500,-0.0292,-2807.8335,6.8213,0.4212,54.894577,9.794317,108.3,5.845,1.85,335.95,54.895069,9.793790,54.895348,9.797490
1386927408,1,0,427.2,0,5,8,0,498,450,-0.0292,-2809.1667,6.8213,0.4212,54.894581,9.794347,108.3,5.845,1.85,335.95,54.895069,9.793790,54.895348,9.797490
1386927409,1,0,427.1,0,4,4,0,477,500,-0.0292,-2810.2334,6.8213,0.4212,54.894585,9.794375,108.3,5.845,1.85,335.95,54.895069,9.793790,54.895348,9.797490
1386927409,1,0,427.1,0,3,0,0,460,450,-0.0292,-2811.0334,6.8213,0.4212,54.894588,9.794405,108.3,5.845,1.85,335.95,54.895069,9.793790,54.895348,9.797490
1386927409,1,0,427.0,0,2,4,0,447,400,-0.0292,-2811.5669,6.8213,0.4212,54.894596,9.794434,108.3,5.845,1.85,335.95,54.895069,9.793790,54.895348,9.797490
1386927409,1,0,427.0,0,1,0,0,438,450,-0.0292,-2811.8335,6.8213,0.4212,54.894604,9.794462,108.3,5.845,1.85,335.95,54.895069,9.793790,54.895348,9.797490
1386927410,1,0,427.0,0,1,4,0,434,400,-0.0292,-2812.1001,6.8213,0.4212,54.894608,9.794492,108.3,5.845,1.85,335.95,54.895069,9.793790,54.895348,9.797490
1386927410,1,0,426.9,0,1,0,0,430,450,-0.0292,-2812.3667,6.8213,0.4212,54.894611,9.794520,108.3,5.845,1.85,335.95,54.895069,9.793790,54.895348,9.797490
1386927410,1,0,426.8,0,1,4,0,426,400,-0.0292,-2812.6333,6.8213,0.4212,54.894619,9.794549,108.3,5.845,1.85,335.95,54.895069,9.793790,54.895348,9.797490
1386927410,1,0,426.8,0,1,0,0,421,450,-0.0292,-2812.8999,6.8213,0.4212,54.894627,9.794578,108.3,5.845,1.85,335.95,54.895069,9.793790,54.895348,9.797490
1386927411,1,0,426.8,0,0,4,0,417,400,-0.0292,-2812.8999,6.8213,0.4212,54.894630,9.794606,108.3,5.845,1.85,335.95,54.895069,9.793790,54.895348,9.797490
1386927411,1,0,426.7,0,0,0,0,417,450,-0.0292,-2812.8999,6.8213,0.4212,54.894634,9.794635,108.3,5.845,1.85,335.95,54.895069,9.793790,54.895348,9.797490
1386927411,1,0,426.6,0,0,4,0,417,400,-0.0292,-2812.8999,6.8213,0.4212,54.894642,9.794663,108.3,5.845,1.85,335.95,54.895069,9.793790,54.895348,9.797490
1386927411,1,0,426.7,0,0,0,0,417,450,-0.0292,-2812.8999,6.8213,0.4212,54.894650,9.794692,108.3,5.845,1.85,335.95,54.895069,9.793790,54.895348,9.797490
1386927412,1,0,426.7,0,0,4,0,417,400,-0.0292,-2812.8999,6.8213,0.4212,54.894657,9.794721,108.3,5.845,1.85,335.95,54.895069,9.793790,54.895348,9.797490
1386927412,1,0,426.7,0,0,0,0,417,450,-0.0292,-2812.8999,6.8213,0.4212,54.894665,9.794749,108.3,5.845,1.85,335.95,54.895069,9.793790,54.895348,9.797490
1386927412,1,0,426.7,0,0,4,0,417,400,-0.0292,-2812.8999,6.8213,0.4212,54.894672,9.794778,108.3,5.845,1.85,335.95,54.895069,9.793790,54.895348,9.797490
1386927412,1,0,426.7,0,0,0,0,417,450,-0.0292,-2812.8999,6.8213,0.4212,54.894680,9.794806,108.3,5.845,1.85,335.95,54.895069,9.793790,54.895348,9.797490
1386927413,1,0,426.7,0,0,4,0,417,400,-0.0292,-2812.8999,6.8213,0.4212,54.894684,9.794835,108.3,5.845,1.85,335.95,54.895069,9.793790,54.895348,9.797490
1386927413,1,0,426.6,0,0,0,0,417,450,-0.0292,-2812.8999,6.8213,0.4212,54.894691,9.794864,108.3,5.845,1.85,335.95,54.895069,9.793790,54.895348,9.797490
1386927413,1,0,426.6,0,0,4,0,417,400,-0.0292,-2812.8999,6.8213,0.4212,54.894699,9.794892,108.3,5.845,1.85,335.95,54.895069,9.793790,54.895348,9.797490
1386927413,1,0,426.7,0,0,0,0,417,450,-0.0292,-2812.8999,6.8213,0.4212,54.894707,9.794921,108.3,5.845,1.85,335.95,54.895069,9.793790,54.895348,9.797490
1386927414,1,0,426.7,0,0,4,0,417,400,-0.0292,-2812.8999,6.8213,0.4212,54.894714,9.794950,108.3,5.845,1.85,335.95,54.895069,9.793790,54.895348,9.797490
1386927414,1,0,426.7,0,0,0,0,417,450,-0.0292,-2812.8999,6.8213,0.4212,54.894722,9.794978,108.3,5.845,1.85,335.95,54.895069,9.793790,54.895348,9.797490
1386927414,1,0,426.7,0,0,4,0,417,400,-0.0292,-2812.8999,6.8213,0.4212,54.894730,9.795007,108.3,5.845,1.85,335.95,54.895069,9.793790,54.895348,9.797490
1386927414,1,0,426.7,0,0,0,0,417,450,-0.0292,-2812.8999,6.8213,0.4212,54.894733,9.795035,108.3,5.845,1.85,335.95,54.895069,9.793790,54.895348,9.797490
1386927415,1,0,426.6,0,0,4,0,417,400,-0.0292,-2812.8999,6.8213,0.4212,54.894741,9.795064,108.3,5.845,1.85,335.95,54.895069,9.793790,54.895348,9.797490
1386927415,1,0,426.6,0,0,0,0,417,450,-0.0292,-2812.8999,6.8213,0.4212,54.894749,9.795093,108.3,5.845,1.85,335.95,54.895069,9.793790,54.895348,9.797490
1386927415,1,0,426.6,0,0,4,0,417,400,-0.0292,-2812.8999,6.8213,0.4212,54.894756,9.795121,108.3,5.845,1.85,335.95,54.895069,9.793790,54.895348,9.797490
1386927415,1,0,426.7,0,0,0,0,417,450,-0.0292,-2812.8999,6.8213,0.4212,54.894764,9.795150,108.3,5.845,1.85,335.95,54.895069,9.793790,54.895348,9.797490
1386927416,1,0,426.7,0,0,4,0,417,400,-0.0292,-2812.8999,6.8213,0.4212,54.894772,9.795178,108.3,5.845,1.85,335.95,54.895069,9.793790,54.895348,9.797490
1386927416,1,0,426.7,0,0,0,0,417,450,-0.0292,-2812.8999,6.8213,0.4212,54.894779,9.795207,108.3,5.845,1.85,335.95,54.895069,9.793790,54.895348,9.797490
1386927416,1,0,426.7,0,0,4,0,417,400,-0.0292,-2812.8999,6.8213,0.4212,54.894787,9.795236,108.3,5.845,1.85,335.95,54.895069,9.793790,54.895348,9.797490
1386927416,1,0,426.7,0,0,0,0,417,450,-0.0292,-2812.8999,6.8213,0.4212,54.894794,9.795264,108.3,5.845,1.85,335.95,54.895069,9.793790,54.895348,9.797490
1386927417,1,0,426.8,0,0,4,0,417,400,-0.0292,-2812.8999,6.8213,0.4212,54.894802,9.795293,108.3,5.845,1.85,335.95,54.895069,9.793790,54.895348,9.797490
1386927417,1,0,426.8,0,0,0,0,417,450,-0.0292,-2812.8999,6.8213,0.4212,54.894806,9.795321,108.3,5.845,1.85,335.95,54.895069,9.793790,54.895348,9.797490
1386927417,1,0,426.7,0,0,4,0,417,400,-0.0292,-2812.8999,6.8213,0.4212,54.894814,9.795350,108.3,5.845,1.85,335.95,54.895069,9.793790,54.895348,9.797490
1386927417,1,0,426.7,0,0,0,0,417,450,-0.0292,-2812.8999,6.8213,0.4212,54.894821,9.795379,108.3,5.845,1.85,335.95,54.895069,9.793790,54.895348,9.797490
1386927418,1,0,426.7,0,0,4,0,417,400,-0.0292,-2812.8999,6.8213,0.4212,54.894829,9.795407,108.3,5.845,1.85,335.95,54.895069,9.793790,54.895348,9.797490
1386927418,1,0,426.7,0,0,0,0,417,450,-0.0292,-2812.8999,6.8213,0.4212,54.894836,9.795436,108.3,5.845,1.85,335.95,54.895069,9.793790,54.895348,9.797490
1386927418,1,0,426.7,0,0,4,0,417,400,-0.0292,-2812.8999,6.8213,0.4212,54.894844,9.795465,108.3,5.845,1.85,335.95,54.895069,9.793790,54.895348,9.797490
1386927418,1,0,426.8,0,0,0,0,417,450,-0.0292,-2812.8999,6.8213,0.4212,54.894852,9.795493,108.3,5.845,1.85,335.95,54.895069,9.793790,54.895348,9.797490
1386927419,1,0,426.8,0,0,4,0,417,400,-0.0292,-2812.8999,6.8213,0.4212,54.894855,9.795522,108.3,5.845,1.85,335.95,54.895069,9.793790,54.895348,9.797490
1386927419,1,0,426.6,0,0,0,0,417,450,-0.0292,-2812.8999,6.8213,0.4212,54.894863,9.795550,108.3,5.845,1.85,335.95,54.895069,9.793790,54.895348,9.797490
1386927419,1,0,426.7,0,0,4,0,417,400,-0.0292,-2812.8999,6.8213,0.4212,54.894871,9.795579,108.3,5.845,1.85,335.95,54.895069,9.793790,54.895348,9.797490
1386927419,1,0,426.7,0,0,0,0,417,450,-0.0292,-2812.8999,6.8213,0.4212,54.894878,9.795608,108.3,5.845,1.85,335.95,54.895069,9.793790,54.895348,9.797490
1386927420,1,0,426.7,0,0,4,0,417,400,-0.0292,-2812.8999,6.8213,0.4212,54.894886,9.795636,108.3,5.845,1.85,335.95,54.895069,9.793790,54.895348,9.797490
1386927420,1,0,426.7,0,0,0,0,417,450,-0.0292,-2812.8999,6.8213,0.4212,54.894894,9.795665,108.3,5.845,1.85,335.95,54.895069,9.793790,54.895348,9.797490
1386927420,1,0,426.7,0,0,4,0,417,400,-0.0292,-2812.8999,6.8213,0.4212,54.894901,9.795693,108.3,5.845,1.85,335.95,54.895069,9.793790,54.895348,9.797490
1386927420,1,0,426.8,0,0,0,0,417,450,-0.0292,-2812.8999,6.8213,0.4212,54.894905,9.795722,108.3,5.845,1.85,335.95,54.895069,9.793790,54.895348,9.797490
1386927421,1,0,426.6,0,0,4,0,417,400,-0.0292,-2812.8999,6.8213,0.4212,54.894913,9.795751,108.3,5.845,1.85,335.95,54.895069,9.793790,54.895348,9.797490
1386927421,1,0,426.6,0,0,0,0,417,450,-0.0292,-2812.8999,6.8213,0.4212,54.894920,9.795779,108.3,5.845,1.85,335.95,54.895069,9.793790,54.895348,9.797490
1386927421,1,0,426.7,0,0,4,0,417,400,-0.0292,-2812.8999,6.8213,0.4212,54.894928,9.795808,108.3,5.845,1.85,335.95,54.895069,9.793790,54.895348,9.797490
1386927421,1,0,426.7,0,0,0,0,417,450,-0.0292,-2812.8999,6.8213,0.4212,54.894936,9.795836,108.3,5.845,1.85,335.95,54.895069,9.793790,54.895348,9.797490
1386927422,1,0,426.7,0,0,4,0,417,400,-0.0292,-2812.8999,6.8213,0.4212,54.894943,9.795865,108.3,5.845,1.85,335.95,54.895069,9.793790,54.895348,9.797490
1386927422,1,0,426.7,0,0,0,0,417,450,-0.0292,-2812.8999,6.8213,0.4212,54.894951,9.795894,108.3,5.845,1.85,335.95,54.895069,9.793790,54.895348,9.797490
1386927422,1,0,426.8,0,0,4,0,417,400,-0.0292,-2812.8999,6.8213,0.4212,54.894955,9.795922,108.3,5.845,1.85,335.95,54.895069,9.793790,54.895348,9.797490
1386927422,1,0,426.6,0,1,0,0,417,450,-0.0292,-2813.1665,6.8213,0.4212,54.894962,9.795951,108.3,5.845,1.85,335.95,54.895069,9.793790,54.895348,9.797490
1386927423,1,0,426.6,0,0,4,0,413,400,-0.0292,-2813.1665,6.8213,0.4212,54.894970,9.795979,108.3,5.845,1.85,335.95,54.895069,9.793790,54.895348,9.797490
1386927423,1,0,426.6,0,0,0,0,413,450,-0.0292,-2813.1665,6.8213,0.4212,54.894978,9.796008,108.3,5.845,1.85,335.95,54.895069,9.793790,54.895348,9.797490
1386927423,1,0,426.7,0,0,4,0,413,400,-0.0292,-2813.1665,6.8213,0.4212,54.894985,9.796037,108.3,5.845,1.85,335.95,54.895069,9.793790,54.895348,9.797490
1386927423,1,0,426.7,0,0,0,0,413,450,-0.0292,-2813.1665,6.8213,0.4212,54.894993,9.796065,108.3,5.845,1.85,335.95,54.895069,9.793790,54.895348,9.797490
1386927424,1,0,426.7,0,0,4,0,413,400,-0.0292,-2813.1665,6.8213,0.4212,54.895000,9.796094,108.3,5.845,1.85,335.95,54.895069,9.793790,54.895348,9.797490
1386927424,1,0,426.7,0,0,0,0,413,450,-0.0292,-2813.1665,6.8213,0.4212,54.895008,9.796123,108.3,5.845,1.85,335.95,54.895069,9.793790,54.895348,9.797490
1386927424,1,0,426.8,0,0,4,0,413,400,-0.0292,-2813.1665,6.8213,0.4212,54.895016,9.796151,108.3,5.845,1.85,335.95,54.895069,9.793790,54.895348,9.797490
1386927424,1,0,426.8,0,0,0,0,413,450,-0.0292,-2813.1665,6.8213,0.4212,54.895023,9.796180,108.3,5.845,1.85,335.95,54.895069,9.793790,54.895348,9.797490
1386927425,1,0,426.8,0,0,4,0,413,400,-0.0292,-2813.1665,6.8213,0.4212,54.895027,9.796208,108.3,5.845,1.85,335.95,54.895069,9.793790,54.895348,9.797490
1386927425,1,0,426.6,0,0,0,0,413,450,-0.0292,-2813.1665,6.8213,0.4212,54.895035,9.796237,108.3,5.845,1.85,335.95,54.895069,9.793790,54.895348,9.797490
1386927425,1,0,426.7,0,0,4,0,413,400,-0.0292,-2813.1665,6.8213,0.4212,54.895042,9.796266,108.3,5.845,1.85,335.95,54.895069,9.793790,54.895348,9.797490
1386927425,1,0,426.7,0,0,0,0,413,450,-0.0292,-2813.1665,6.8213,0.4212,54.895050,9.796294,108.3,5.845,1.85,335.95,54.895069,9.793790,54.895348,9.797490
1386927426,1,0,426.7,0,0,4,0,413,400,-0.0292,-2813.1665,6.8213,0.4212,54.895058,9.796323,108.3,5.845,1.85,335.95,54.895069,9.793790,54.895348,9.797490
1386927426,1,0,426.8,0,0,0,0,413,450,-0.0292,-2813.1665,6.8213,0.4212,54.895065,9.796351,108.3,5.845,1.85,335.95,54.895069,9.793790,54.895348,9.797490
1386927426,1,0,426.8,0,0,4,0,413,400,-0.0292,-2813.1665,6.8213,0.4212,54.895073,9.796380,108.3,5.845,1.85,335.95,54.895069,9.793790,54.895348,9.797490
1386927426,1,0,426.8,0,0,0,0,413,450,-0.0292,-2813.1665,6.8213,0.4212,54.895077,9.796409,108.3,5.845,1.85,335.95,54.895069,9.793790,54.895348,9.797490
1386927427,1,0,426.6,0,0,4,0,413,400,-0.0292,-2813.1665,6.8213,0.4212,54.895084,9.796437,108.3,5.845,1.85,335.95,54.895069,9.793790,54.895348,9.797490
1386927427,1,0,426.6,0,0,0,0,413,450,-0.0292,-2813.1665,6.8213,0.4212,54.895092,9.796466,108.3,5.845,1.85,335.95,54.895069,9.793790,54.895348,9.797490
1386927427,1,0,426.7,0,0,4,0,413,400,-0.0292,-2813.1665,6.8213,0.4212,54.895100,9.796494,108.3,5.845,1.85,335.95,54.895069,9.793790,54.895348,9.797490
1386927427,1,0,426.7,0,0,0,0,413,450,-0.0292,-2813.1665,6.8213,0.4212,54.895107,9.796523,108.3,5.845,1.85,335.95,54.895069,9.793790,54.895348,9.797490
1386927428,1,0,426.8,0,0,4,0,413,400,-0.0292,-2813.1665,6.8213,0.4212,54.895115,9.796552,108.3,5.845,1.85,335.95,54.895069,9.793790,54.895348,9.797490
1386927428,1,0,426.8,0,0,0,0,413,450,-0.0292,-2813.1665,6.8213,0.4212,54.895123,9.796580,108.3,5.845,1.85,335.95,54.895069,9.793790,54.895348,9.797490
1386927428,1,0,426.9,0,0,4,0,413,400,-0.0292,-2813.1665,6.8213,0.4212,54.895126,9.796609,108.3,5.845,1.85,335.95,54.895069,9.793790,54.895348,9.797490
1386927428,1,0,426.5,0,0,0,0,413,450,-0.0292,-2813.1665,6.8213,0.4212,54.895134,9.796638,108.3,5.845,1.85,335.95,54.895069,9.793790,54.895348,9.797490
1386927429,1,0,426.6,0,0,4,0,413,400,-0.0292,-2813.1665,6.8213,0.4212,54.895142,9.796666,108.3,5.845,1.85,335.95,54.895069,9.793790,54.895348,9.797490
1386927429,1,0,426.6,0,0,0,0,413,450,-0.0292,-2813.1665,6.8213,0.4212,54.895149,9.796695,108.3,5.845,1.85,335.95,54.895069,9.793790,54.895348,9.797490
1386927429,1,0,426.7,0,0,4,0,413,400,-0.0292,-2813.1665,6.8213,0.4212,54.895157,9.796723,108.3,5.845,1.85,335.95,54.895069,9.793790,54.895348,9.797490
1386927430,1,0,426.7,0,0,0,0,413,450,-0.0292,-2813.1665,6.8213,0.4212,54.895164,9.796752,108.3,5.845,1.85,335.95,54.895069,9.793790,54.895348,9.797490
1386927430,1,0,426.8,0,0,4,0,413,400,-0.0292,-2813.1665,6.8213,0.4212,54.895172,9.796781,108.3,5.845,1.85,335.95,54.895069,9.793790,54.895348,9.797490
1386927430,1,0,426.9,0,0,0,0,413,450,-0.0292,-2813.1665,6.8213,0.4212,54.895180,9.796809,108.3,5.845,1.85,335.95,54.895069,9.793790,54.895348,9.797490
1386927430,1,0,426.9,0,0,4,0,413,400,-0.0292,-2813.1665,6.8213,0.4212,54.895187,9.796838,108.3,5.845,1.85,335.95,54.895069,9.793790,54.895348,9.797490
1386927431,1,0,427.0,0,0,0,0,413,450,-0.0292,-2813.1665,6.8213,0.4212,54.895195,9.796866,108.3,5.845,1.85,335.95,54.895069,9.793790,54.895348,9.797490
1386927431,1,0,427.1,0,0,4,0,413,400,-0.0292,-2813.1665,6.8213,0.4212,54.895199,9.796895,108.3,5.845,1.85,335.95,54.895069,9.793790,54.895348,9.797490
1386927431,1,0,426.6,0,0,0,0,413,450,-0.0292,-2813.1665,6.8213,0.4212,54.895206,9.796924,108.3,5.845,1.85,335.95,54.895069,9.793790,54.895348,9.797490
1386927431,1,0,426.7,0,0,4,0,413,400,-0.0292,-2813.1665,6.8213,0.4212,54.895214,9.796952,108.3,5.845,1.85,335.95,54.895069,9.793790,54.895348,9.797490
1386927432,1,0,426.8,0,0,0,0,413,450,-0.0292,-2813.1665,6.8213,0.4212,54.895222,9.796981,108.3,5.845,1.85,335.95,54.895069,9.793790,54.895348,9.797490
1386927432,1,0,426.9,0,0,4,0,413,400,-0.0292,-2813.1665,6.8213,0.4212,54.895229,9.797009,108.3,5.845,1.85,335.95,54.895069,9.793790,54.895348,9.797490
1386927432,1,0,427.0,0,0,0,0,413,450,-0.0292,-2813.1665,6.8213,0.4212,54.895237,9.797038,108.3,5.845,1.85,335.95,54.895069,9.793790,54.895348,9.797490
1386927432,1,0,427.1,0,0,4,0,413,400,-0.0292,-2813.1665,6.8213,0.4212,54.895245,9.797067,108.3,5.845,1.85,335.95,54.895069,9.793790,54.895348,9.797490
1386927433,1,0,427.2,0,0,0,0,413,450,-0.0292,-2813.1665,6.8213,0.4212,54.895248,9.797095,108.3,5.845,1.85,335.95,54.895069,9.793790,54.895348,9.797490
1386927433,1,0,426.5,0,0,4,0,413,400,-0.0292,-2813.1665,6.8213,0.4212,54.895256,9.797124,108.3,5.845,1.85,335.95,54.895069,9.793790,54.895348,9.797490
1386927433,1,0,426.6,0,0,0,0,413,450,-0.0292,-2813.1665,6.8213,0.4212,54.895264,9.797153,108.3,5.845,1.85,335.95,54.895069,9.793790,54.895348,9.797490
1386927433,1,0,426.8,0,0,4,0,413,400,-0.0292,-2813.1665,6.8213,0.4212,54.895271,9.797181,108.3,5.845,1.85,335.95,54.895069,9.793790,54.895348,9.797490
1386927434,1,0,426.9,0,0,0,0,413,450,-0.0292,-2813.1665,6.8213,0.4212,54.895279,9.797210,108.3,5.845,1.85,335.95,54.895069,9.793790,54.895348,9.797490
1386927434,1,0,427.1,0,0,4,0,413,400,-0.0292,-2813.1665,6.8213,0.4212,54.895287,9.797238,108.3,5.845,1.85,335.95,54.895069,9.793790,54.895348,9.797490
1386927434,1,0,427.3,0,0,0,0,413,450,-0.0292,-2813.1665,6.8213,0.4212,54.895294,9.797267,108.3,5.845,1.85,335.95,54.895069,9.793790,54.895348,9.797490
1386927434,1,0,427.5,0,-1,-4,0,413,400,-0.0292,-2812.8999,6.8213,0.4212,54.895298,9.797296,108.3,5.845,1.85,335.95,54.895069,9.793790,54.895348,9.797490
1386927435,1,0,426.2,0,1,0,0,417,450,-0.0292,-2813.1665,6.8213,0.4212,54.895306,9.797324,108.3,5.845,1.85,335.95,54.895069,9.793790,54.895348,9.797490
1386927435,1,0,426.4,0,0,4,0,413,400,-0.0292,-2813.1665,6.8213,0.4212,54.895313,9.797353,108.3,5.845,1.85,335.95,54.895069,9.793790,54.895348,9.797490
1386927435,1,0,426.6,0,0,0,0,413,450,-0.0292,-2813.1665,6.8213,0.4212,54.895321,9.797381,108.3,5.845,1.85,335.95,54.895069,9.793790,54.895348,9.797490
1386927435,1,0,427.0,0,0,4,0,413,400,-0.0292,-2813.1665,6.8213,0.4212,54.895329,9.797410,108.3,5.845,1.85,335.95,54.895069,9.793790,54.895348,9.797490
1386927436,1,0,427.6,0,-1,0,0,413,450,-0.0292,-2812.8999,6.8213,0.4212,54.895336,9.797439,108.3,5.845,1.85,335.95,54.895069,9.793790,54.895348,9.797490
1386927436,1,0,429.0,0,-2,-4,0,417,400,-0.0292,-2812.3665,6.8213,0.4212,54.895344,9.797467,108.3,5.845,1.85,335.95,54.895348,9.797490,54.894039,9.801540
1386927436,1,0,479.0,0,-35,-8,0,426,450,-0.0292,-2803.0332,6.8213,0.4212,54.895348,9.797498,108.3,5.845,1.85,335.95,54.895348,9.797490,54.894039,9.801540
1386927436,1,0,479.2,0,-35,-12,0,574,500,-0.0292,-2793.7000,6.8213,0.4212,54.895348,9.797529,108.3,5.845,1.85,335.95,54.895348,9.797490,54.894039,9.801540
1386927437,1,0,479.4,0,-33,-16,0,718,550,-0.0292,-2784.8999,6.8213,0.4212,54.895344,9.797560,108.3,5.845,1.85,335.95,54.895348,9.797490,54.894039,9.801540
1386927437,1,0,479.5,0,-24,-20,0,847,600,-0.0292,-2778.5000,6.8213,0.4212,54.895340,9.797591,108.3,5.845,1.85,335.95,54.895348,9.797490,54.894039,9.801540
1386927437,1,0,479.7,0,-18,-16,0,870,650,-0.0292,-2773.7000,6.8213,0.4212,54.895332,9.797622,108.3,5.845,1.85,335.95,54.895348,9.797490,54.894039,9.801540
1386927437,1,0,479.7,0,-13,-12,0,870,700,-0.0292,-2770.2334,6.8213,0.4212,54.895329,9.797651,108.3,5.845,1.85,335.95,54.895348,9.797490,54.894039,9.801540
1386927438,1,0,479.8,0,-10,-8,0,870,750,-0.0292,-2767.5667,6.8213,0.4212,54.895321,9.797680,108.3,5.845,1.85,335.95,54.895348,9.797490,54.894039,9.801540
1386927438,1,0,479.8,0,-7,-4,0,713,700,-0.0292,-2765.7000,6.8213,0.4212,54.895313,9.797709,108.3,5.845,1.85,335.95,54.895348,9.797490,54.894039,9.801540
1386927438,1,0,479.9,0,-6,-8,0,713,750,-0.0292,-2764.0999,6.8213,0.4212,54.895306,9.797736,108.3,5.845,1.85,335.95,54.895348,9.797490,54.894039,9.801540
1386927438,1,0,479.9,0,-4,-4,0,713,700,-0.0292,-2763.0332,6.8213,0.4212,54.895298,9.797764,108.3,5.845,1.85,335.95,54.895348,9.797490,54.894039,9.801540
1386927439,1,0,479.9,0,-3,0,0,713,750,-0.0292,-2762.2332,6.8213,0.4212,54.895290,9.797791,108.3,5.845,1.85,335.95,54.895348,9.797490,54.894039,9.801540
1386927439,1,0,480.0,0,-2,-4,0,713,700,-0.0292,-2761.6997,6.8213,0.4212,54.895279,9.797819,108.3,5.845,1.85,335.95,54.895348,9.797490,54.894039,9.801540
1386927439,1,0,479.9,0,-2,0,0,713,750,-0.0292,-2761.1663,6.8213,0.4212,54.895271,9.797846,108.3,5.845,1.85,335.95,54.895348,9.797490,54.894039,9.801540
1386927439,1,0,480.0,0,-1,-4,0,713,700,-0.0292,-2760.8997,6.8213,0.4212,54.895260,9.797873,108.3,5.845,1.85,335.95,54.895348,9.797490,54.894039,9.801540
1386927440,1,0,479.9,0,-1,0,0,713,750,-0.0292,-2760.6331,6.8213,0.4212,54.895252,9.797900,108.3,5.845,1.85,335.95,54.895348,9.797490,54.894039,9.801540
1386927440,1,0,479.9,0,-1,-4,0,713,700,-0.0292,-2760.3665,6.8213,0.4212,54.895245,9.797928,108.3,5.845,1.85,335.95,54.895348,9.797490,54.894039,9.801540
1386927440,1,0,480.0,0,0,0,0,713,750,-0.0292,-2760.3665,6.8213,0.4212,54.895233,9.797956,108.3,5.845,1.85,335.95,54.895348,9.797490,54.894039,9.801540
1386927440,1,0,479.9,0,0,4,0,713,700,-0.0292,-2760.3665,6.8213,0.4212,54.895226,9.797982,108.3,5.845,1.85,335.95,54.895348,9.797490,54.894039,9.801540
1386927441,1,0,480.0,0,0,0,0,713,750,-0.0292,-2760.3665,6.8213,0.4212,54.895218,9.798010,108.3,5.845,1.85,335.95,54.895348,9.797490,54.894039,9.801540
1386927441,1,0,480.0,0,0,4,0,713,700,-0.0292,-2760.3665,6.8213,0.4212,54.895206,9.798037,108.3,5.845,1.85,335.95,54.895348,9.797490,54.894039,9.801540
1386927441,1,0,479.9,0,0,0,0,713,750,-0.0292,-2760.3665,6.8213,0.4212,54.895199,9.798063,108.3,5.845,1.85,335.95,54.895348,9.797490,54.894039,9.801540
1386927441,1,0,480.0,0,0,4,0,713,700,-0.0292,-2760.3665,6.8213,0.4212,54.895187,9.798091,108.3,5.845,1.85,335.95,54.895348,9.797490,54.894039,9.801540
1386927442,1,0,479.9,0,0,0,0,713,750,-0.0292,-2760.3665,6.8213,0.4212,54.895180,9.798118,108.3,5.845,1.85,335.95,54.895348,9.797490,54.894039,9.801540
1386927442,1,0,479.9,0,0,4,0,713,700,-0.0292,-2760.3665,6.8213,0.4212,54.895172,9.798145,108.3,5.845,1.85,335.95,54.895348,9.797490,54.894039,9.801540
1386927442,1,0,480.0,0,0,0,0,713,750,-0.0292,-2760.3665,6.8213,0.4212,54.895161,9.798173,108.3,5.845,1.85,335.95,54.895348,9.797490,54.894039,9.801540
1386927442,1,0,479.9,0,0,4,0,713,700,-0.0292,-2760.3665,6.8213,0.4212,54.895153,9.798200,108.3,5.845,1.85,335.95,54.895348,9.797490,54.894039,9.801540
1386927443,1,0,480.0,0,0,0,0,713,750,-0.0292,-2760.3665,6.8213,0.4212,54.895145,9.798227,108.3,5.845,1.85,335.95,54.895348,9.797490,54.894039,9.801540
1386927443,1,0,480.0,0,0,4,0,713,700,-0.0292,-2760.3665,6.8213,0.4212,54.895134,9.798254,108.3,5.845,1.85,335.95,54.895348,9.797490,54.894039,9.801540
1386927443,1,0,479.9,0,0,0,0,713,750,-0.0292,-2760.3665,6.8213,0.4212,54.895126,9.798281,108.3,5.845,1.85,335.95,54.895348,9.797490,54.894039,9.801540
1386927443,1,0,480.0,0,0,4,0,713,700,-0.0292,-2760.3665,6.8213,0.4212,54.895115,9.798308,108.3,5.845,1.85,335.95,54.895348,9.797490,54.894039,9.801540
1386927444,1,0,479.9,0,0,0,0,713,750,-0.0292,-2760.3665,6.8213,0.4212,54.895107,9.798335,108.3,5.845,1.85,335.95,54.895348,9.797490,54.894039,9.801540
1386927444,1,0,479.9,0,0,4,0,713,700,-0.0292,-2760.3665,6.8213,0.4212,54.895100,9.798362,108.3,5.845,1.85,335.95,54.895348,9.797490,54.894039,9.801540
1386927444,1,0,480.0,0,0,0,0,713,750,-0.0292,-2760.3665,6.8213,0.4212,54.895088,9.798389,108.3,5.845,1.85,335.95,54.895348,9.797490,54.894039,9.801540
1386927444,1,0,479.9,0,0,4,0,713,700,-0.0292,-2760.3665,6.8213,0.4212,54.895081,9.798416,108.3,5.845,1.85,335.95,54.895348,9.797490,54.894039,9.801540
1386927445,1,0,479.9,0,0,0,0,713,750,-0.0292,-2760.3665,6.8213,0.4212,54.895073,9.798444,108.3,5.845,1.85,335.95,54.895348,9.797490,54.894039,9.801540
1386927445,1,0,480.0,0,0,4,0,713,700,-0.0292,-2760.3665,6.8213,0.4212,54.895061,9.798471,108.3,5.845,1.85,335.95,54.895348,9.797490,54.894039,9.801540
1386927445,1,0,479.9,0,0,0,0,713,750,-0.0292,-2760.3665,6.8213,0.4212,54.895054,9.798498,108.3,5.845,1.85,335.95,54.895348,9.797490,54.894039,9.801540
1386927445,1,0,480.0,0,0,4,0,713,700,-0.0292,-2760.3665,6.8213,0.4212,54.895046,9.798526,108.3,5.845,1.85,335.95,54.895348,9.797490,54.894039,9.801540
1386927446,1,0,480.0,0,0,0,0,713,750,-0.0292,-2760.3665,6.8213,0.4212,54.895035,9.798553,108.3,5.845,1.85,335.95,54.895348,9.797490,54.894039,9.801540
1386927446,1,0,479.9,0,0,4,0,713,700,-0.0292,-2760.3665,6.8213,0.4212,54.895027,9.798579,108.3,5.845,1.85,335.95,54.895348,9.797490,54.894039,9.801540
1386927446,1,0,480.0,0,0,0,0,713,750,-0.0292,-2760.3665,6.8213,0.4212,54.895016,9.798607,108.3,5.845,1.85,335.95,54.895348,9.797490,54.894039,9.801540
1386927446,1,0,479.9,0,0,4,0,713,700,-0.0292,-2760.3665,6.8213,0.4212,54.895008,9.798634,108.3,5.845,1.85,335.95,54.895348,9.797490,54.894039,9.801540
1386927447,1,0,479.9,0,0,0,0,713,750,-0.0292,-2760.3665,6.8213,0.4212,54.895000,9.798660,108.3,5.845,1.85,335.95,54.895348,9.797490,54.894039,9.801540
1386927447,1,0,480.0,0,0,4,0,713,700,-0.0292,-2760.3665,6.8213,0.4212,54.894989,9.798688,108.3,5.845,1.85,335.95,54.895348,9.797490,54.894039,9.801540
1386927447,1,0,479.9,0,0,0,0,713,750,-0.0292,-2760.3665,6.8213,0.4212,54.894981,9.798715,108.3,5.845,1.85,335.95,54.895348,9.797490,54.894039,9.801540
1386927447,1,0,480.0,0,0,4,0,713,700,-0.0292,-2760.3665,6.8213,0.4212,54.894974,9.798742,108.3,5.845,1.85,335.95,54.895348,9.797490,54.894039,9.801540
1386927448,1,0,480.0,0,0,0,0,713,750,-0.0292,-2760.3665,6.8213,0.4212,54.894962,9.798770,108.3,5.845,1.85,335.95,54.895348,9.797490,54.894039,9.801540
1386927448,1,0,479.9,0,0,4,0,713,700,-0.0292,-2760.3665,6.8213,0.4212,54.894955,9.798797,108.3,5.845,1.85,335.95,54.895348,9.797490,54.894039,9.801540
1386927448,1,0,480.0,0,0,0,0,713,750,-0.0292,-2760.3665,6.8213,0.4212,54.894943,9.798824,108.3,5.845,1.85,335.95,54.895348,9.797490,54.894039,9.801540
1386927448,1,0,479.9,0,0,4,0,713,700,-0.0292,-2760.3665,6.8213,0.4212,54.894936,9.798851,108.3,5.845,1.85,335.95,54.895348,9.797490,54.894039,9.801540
1386927449,1,0,479.9,0,0,0,0,713,750,-0.0292,-2760.3665,6.8213,0.4212,54.894928,9.798878,108.3,5.845,1.85,335.95,54.895348,9.797490,54.894039,9.801540
1386927449,1,0,480.0,0,0,4,0,713,700,-0.0292,-2760.3665,6.8213,0.4212,54.894917,9.798905,108.3,5.845,1.85,335.95,54.895348,9.797490,54.894039,9.801540
1386927449,1,0,479.9,0,0,0,0,713,750,-0.0292,-2760.3665,6.8213,0.4212,54.894909,9.798932,108.3,5.845,1.85,335.95,54.895348,9.797490,54.894039,9.801540
1386927449,1,0,480.0,0,0,4,0,713,700,-0.0292,-2760.3665,6.8213,0.4212,54.894901,9.798960,108.3,5.845,1.85,335.95,54.895348,9.797490,54.894039,9.801540
1386927450,1,0,480.0,0,0,0,0,713,750,-0.0292,-2760.3665,6.8213,0.4212,54.894890,9.798987,108.3,5.845,1.85,335.95,54.895348,9.797490,54.894039,9.801540
1386927450,1,0,479.9,0,0,4,0,713,700,-0.0292,-2760.3665,6.8213,0.4212,54.894882,9.799014,108.3,5.845,1.85,335.95,54.895348,9.797490,54.894039,9.801540
1386927450,1,0,480.0,0,0,0,0,713,750,-0.0292,-2760.3665,6.8213,0.4212,54.894875,9.799042,108.3,5.845,1.85,335.95,54.895348,9.797490,54.894039,9.801540
1386927450,1,0,480.0,0,0,4,0,713,700,-0.0292,-2760.3665,6.8213,0.4212,54.894863,9.799068,108.3,5.845,1.85,335.95,54.895348,9.797490,54.894039,9.801540
1386927451,1,0,479.9,0,0,0,0,713,750,-0.0292,-2760.3665,6.8213,0.4212,54.894855,9.799095,108.3,5.845,1.85,335.95,54.895348,9.797490,54.894039,9.801540
1386927451,1,0,480.0,0,0,4,0,713,700,-0.0292,-2760.3665,6.8213,0.4212,54.894844,9.799123,108.3,5.845,1.85,335.95,54.895348,9.797490,54.894039,9.801540
1386927451,1,0,479.9,0,0,0,0,713,750,-0.0292,-2760.3665,6.8213,0.4212,54.894836,9.799150,108.3,5.845,1.85,335.95,54.895348,9.797490,54.894039,9.801540
1386927451,1,0,480.0,0,0,4,0,713,700,-0.0292,-2760.3665,6.8213,0.4212,54.894829,9.799176,108.3,5.845,1.85,335.95,54.895348,9.797490,54.894039,9.801540
1386927452,1,0,480.0,0,0,0,0,713,750,-0.0292,-2760.3665,6.8213,0.4212,54.894817,9.799204,108.3,5.845,1.85,335.95,54.895348,9.797490,54.894039,9.801540
1386927452,1,0,479.9,0,0,4,0,713,700,-0.0292,-2760.3665,6.8213,0.4212,54.894810,9.799231,108.3,5.845,1.85,335.95,54.895348,9.797490,54.894039,9.801540
1386927452,1,0,480.0,0,0,0,0,713,750,-0.0292,-2760.3665,6.8213,0.4212,54.894802,9.799258,108.3,5.845,1.85,335.95,54.895348,9.797490,54.894039,9.801540
1386927452,1,0,480.0,0,0,4,0,713,700,-0.0292,-2760.3665,6.8213,0.4212,54.894791,9.799286,108.3,5.845,1.85,335.95,54.895348,9.797490,54.894039,9.801540
1386927453,1,0,479.9,0,0,0,0,713,750,-0.0292,-2760.3665,6.8213,0.4212,54.894783,9.799313,108.3,5.845,1.85,335.95,54.895348,9.797490,54.894039,9.801540
1386927453,1,0,480.0,0,0,4,0,713,700,-0.0292,-2760.3665,6.8213,0.4212,54.894775,9.799340,108.3,5.845,1.85,335.95,54.895348,9.797490,54.894039,9.801540
1386927453,1,0,480.0,0,0,0,0,713,750,-0.0292,-2760.3665,6.8213,0.4212,54.894764,9.799367,108.3,5.845,1.85,335.95,54.895348,9.797490,54.894039,9.801540
1386927453,1,0,480.0,0,0,4,0,713,700,-0.0292,-2760.3665,6.8213,0.4212,54.894756,9.799394,108.3,5.845,1.85,335.95,54.895348,9.797490,54.894039,9.801540
1386927454,1,0,480.0,0,0,0,0,713,750,-0.0292,-2760.3665,6.8213,0.4212,54.894745,9.799421,108.3,5.845,1.85,335.95,54.895348,9.797490,54.894039,9.801540
1386927454,1,0,479.9,0,0,4,0,713,700,-0.0292,-2760.3665,6.8213,0.4212,54.894737,9.799448,108.3,5.845,1.85,335.95,54.895348,9.797490,54.894039,9.801540
1386927454,1,0,480.0,0,0,0,0,713,750,-0.0292,-2760.3665,6.8213,0.4212,54.894730,9.799475,108.3,5.845,1.85,335.95,54.895348,9.797490,54.894039,9.801540
1386927454,1,0,480.0,0,0,4,0,713,700,-0.0292,-2760.3665,6.8213,0.4212,54.894718,9.799502,108.3,5.845,1.85,335.95,54.895348,9.797490,54.894039,9.801540
1386927455,1,0,479.9,0,0,0,0,713,750,-0.0292,-2760.3665,6.8213,0.4212,54.894711,9.799529,108.3,5.845,1.85,335.95,54.895348,9.797490,54.894039,9.801540
1386927455,1,0,480.0,0,0,4,0,713,700,-0.0292,-2760.3665,6.8213,0.4212,54.894703,9.799557,108.3,5.845,1.85,335.95,54.895348,9.797490,54.894039,9.801540
1386927455,1,0,480.0,0,0,0,0,713,750,-0.0292,-2760.3665,6.8213,0.4212,54.894691,9.799584,108.3,5.845,1.85,335.95,54.895348,9.797490,54.894039,9.801540
1386927455,1,0,480.0,0,0,4,0,713,700,-0.0292,-2760.3665,6.8213,0.4212,54.894684,9.799611,108.3,5.845,1.85,335.95,54.895348,9.797490,54.894039,9.801540
1386927456,1,0,480.0,0,0,0,0,713,750,-0.0292,-2760.3665,6.8213,0.4212,54.894672,9.799639,108.3,5.845,1.85,335.95,54.895348,9.797490,54.894039,9.801540
1386927456,1,0,479.9,0,0,4,0,713,700,-0.0292,-2760.3665,6.8213,0.4212,54.894665,9.799665,108.3,5.845,1.85,335.95,54.895348,9.797490,54.894039,9.801540
1386927456,1,0,480.0,0,0,0,0,713,750,-0.0292,-2760.3665,6.8213,0.4212,54.894657,9.799692,108.3,5.845,1.85,335.95,54.895348,9.797490,54.894039,9.801540
1386927456,1,0,480.0,0,0,4,0,713,700,-0.0292,-2760.3665,6.8213,0.4212,54.894646,9.799720,108.3,5.845,1.85,335.95,54.895348,9.797490,54.894039,9.801540
1386927457,1,0,479.9,0,0,0,0,713,750,-0.0292,-2760.3665,6.8213,0.4212,54.894638,9.799747,108.3,5.845,1.85,335.95,54.895348,9.797490,54.894039,9.801540
1386927457,1,0,480.0,0,0,4,0,713,700,-0.0292,-2760.3665,6.8213,0.4212,54.894630,9.799774,108.3,5.845,1.85,335.95,54.895348,9.797490,54.894039,9.801540
1386927457,1,0,480.1,0,0,0,0,713,750,-0.0292,-2760.3665,6.8213,0.4212,54.894619,9.799802,108.3,5.845,1.85,335.95,54.895348,9.797490,54.894039,9.801540
1386927457,1,0,480.0,0,0,4,0,713,700,-0.0292,-2760.3665,6.8213,0.4212,54.894611,9.799829,108.3,5.845,1.85,335.95,54.895348,9.797490,54.894039,9.801540
1386927458,1,0,480.0,0,0,0,0,713,750,-0.0292,-2760.3665,6.8213,0.4212,54.894604,9.799856,108.3,5.845,1.85,335.95,54.895348,9.797490,54.894039,9.801540
1386927458,1,0,480.1,0,0,4,0,713,700,-0.0292,-2760.3665,6.8213,0.4212,54.894592,9.799883,108.3,5.845,1.85,335.95,54.895348,9.797490,54.894039,9.801540
1386927458,1,0,480.0,0,0,0,0,713,750,-0.0292,-2760.3665,6.8213,0.4212,54.894585,9.799910,108.3,5.845,1.85,335.95,54.895348,9.797490,54.894039,9.801540
1386927458,1,0,480.0,0,0,4,0,713,700,-0.0292,-2760.3665,6.8213,0.4212,54.894573,9.799937,108.3,5.845,1.85,335.95,54.895348,9.797490,54.894039,9.801540
1386927459,1,0,479.9,0,0,0,0,713,750,-0.0292,-2760.3665,6.8213,0.4212,54.894566,9.799964,108.3,5.845,1.85,335.95,54.895348,9.797490,54.894039,9.801540
1386927459,1,0,480.0,0,0,4,0,713,700,-0.0292,-2760.3665,6.8213,0.4212,54.894558,9.799991,108.3,5.845,1.85,335.95,54.895348,9.797490,54.894039,9.801540
1386927459,1,0,480.1,0,0,0,0,713,750,-0.0292,-2760.3665,6.8213,0.4212,54.894547,9.800018,108.3,5.845,1.85,335.95,54.895348,9.797490,54.894039,9.801540
1386927459,1,0,479.9,0,0,4,0,713,700,-0.0292,-2760.3665,6.8213,0.4212,54.894539,9.800045,108.3,5.845,1.85,335.95,54.895348,9.797490,54.894039,9.801540
1386927460,1,0,480.0,0,0,0,0,713,750,-0.0292,-2760.3665,6.8213,0.4212,54.894531,9.800073,108.3,5.845,1.85,335.95,54.895348,9.797490,54.894039,9.801540
1386927460,1,0,480.1,0,0,4,0,713,700,-0.0292,-2760.3665,6.8213,0.4212,54.894520,9.800100,108.3,5.845,1.85,335.95,54.895348,9.797490,54.894039,9.801540
1386927460,1,0,480.0,0,0,0,0,713,750,-0.0292,-2760.3665,6.8213,0.4212,54.894512,9.800127,108.3,5.845,1.85,335.95,54.895348,9.797490,54.894039,9.801540
1386927460,1,0,480.0,0,0,4,0,713,700,-0.0292,-2760.3665,6.8213,0.4212,54.894501,9.800155,108.3,5.845,1.85,335.95,54.895348,9.797490,54.894039,9.801540
1386927461,1,0,479.9,0,0,0,0,713,750,-0.0292,-2760.3665,6.8213,0.4212,54.894493,9.800181,108.3,5.845,1.85,335.95,54.895348,9.797490,54.894039,9.801540
1386927461,1,0,480.0,0,0,4,0,713,700,-0.0292,-2760.3665,6.8213,0.4212,54.894485,9.800208,108.3,5.845,1.85,335.95,54.895348,9.797490,54.894039,9.801540
1386927461,1,0,480.1,0,0,0,0,713,750,-0.0292,-2760.3665,6.8213,0.4212,54.894474,9.800236,108.3,5.845,1.85,335.95,54.895348,9.797490,54.894039,9.801540
1386927461,1,0,479.9,0,0,4,0,713,700,-0.0292,-2760.3665,6.8213,0.4212,54.894466,9.800262,108.3,5.845,1.85,335.95,54.895348,9.797490,54.894039,9.801540
1386927462,1,0,480.0,0,0,0,0,713,750,-0.0292,-2760.3665,6.8213,0.4212,54.894459,9.800289,108.3,5.845,1.85,335.95,54.895348,9.797490,54.894039,9.801540
1386927462,1,0,480.1,0,0,4,0,713,700,-0.0292,-2760.3665,6.8213,0.4212,54.894447,9.800317,108.3,5.845,1.85,335.95,54.895348,9.797490,54.894039,9.801540
1386927462,1,0,480.0,0,0,0,0,713,750,-0.0292,-2760.3665,6.8213,0.4212,54.894440,9.800344,108.3,5.845,1.85,335.95,54.895348,9.797490,54.894039,9.801540
1386927462,1,0,480.0,0,0,4,0,713,700,-0.0292,-2760.3665,6.8213,0.4212,54.894432,9.800371,108.3,5.845,1.85,335.95,54.895348,9.797490,54.894039,9.801540
1386927463,1,0,480.1,0,-1,0,0,713,750,-0.0292,-2760.0999,6.8213,0.4212,54.894421,9.800398,108.3,5.845,1.85,335.95,54.895348,9.797490,54.894039,9.801540
1386927463,1,0,480.0,0,0,4,0,713,700,-0.0292,-2760.0999,6.8213,0.4212,54.894413,9.800425,108.3,5.845,1.85,335.95,54.895348,9.797490,54.894039,9.801540
1386927463,1,0,480.1,0,0,0,0,713,750,-0.0292,-2760.0999,6.8213,0.4212,54.894402,9.800452,108.3,5.845,1.85,335.95,54.895348,9.797490,54.894039,9.801540
1386927463,1,0,479.9,0,0,4,0,713,700,-0.0292,-2760.0999,6.8213,0.4212,54.894394,9.800479,108.3,5.845,1.85,335.95,54.895348,9.797490,54.894039,9.801540
1386927464,1,0,480.0,0,0,0,0,713,750,-0.0292,-2760.0999,6.8213,0.4212,54.894386,9.800506,108.3,5.845,1.85,335.95,54.895348,9.797490,54.894039,9.801540
1386927464,1,0,480.1,0,0,4,0,713,700,-0.0292,-2760.0999,6.8213,0.4212,54.894375,9.800533,108.3,5.845,1.85,335.95,54.895348,9.797490,54.894039,9.801540
1386927464,1,0,479.9,0,0,0,0,713,750,-0.0292,-2760.0999,6.8213,0.4212,54.894367,9.800560,108.3,5.845,1.85,335.95,54.895348,9.797490,54.894039,9.801540
1386927464,1,0,480.0,0,0,4,0,713,700,-0.0292,-2760.0999,6.8213,0.4212,54.894360,9.800588,108.3,5.845,1.85,335.95,54.895348,9.797490,54.894039,9.801540
1386927465,1,0,480.2,0,0,0,0,713,750,-0.0292,-2760.0999,6.8213,0.4212,54.894348,9.800614,108.3,5.845,1.85,335.95,54.895348,9.797490,54.894039,9.801540
1386927465,1,0,480.0,0,0,4,0,713,700,-0.0292,-2760.0999,6.8213,0.4212,54.894341,9.800641,108.3,5.845,1.85,335.95,54.895348,9.797490,54.894039,9.801540
1386927465,1,0,480.1,0,0,0,0,713,750,-0.0292,-2760.0999,6.8213,0.4212,54.894333,9.800669,108.3,5.845,1.85,335.95,54.895348,9.797490,54.894039,9.801540
1386927465,1,0,480.2,0,0,4,0,713,700,-0.0292,-2760.0999,6.8213,0.4212,54.894321,9.800695,108.3,5.845,1.85,335.95,54.895348,9.797490,54.894039,9.801540
1386927466,1,0,480.0,0,0,0,0,713,750,-0.0292,-2760.0999,6.8213,0.4212,54.894314,9.800722,108.3,5.845,1.85,335.95,54.895348,9.797490,54.894039,9.801540
1386927466,1,0,480.1,0,0,4,0,713,700,-0.0292,-2760.0999,6.8213,0.4212,54.894302,9.800750,108.3,5.845,1.85,335.95,54.895348,9.797490,54.894039,9.801540
1386927466,1,0,479.9,0,0,0,0,713,750,-0.0292,-2760.0999,6.8213,0.4212,54.894295,9.800776,108.3,5.845,1.85,335.95,54.895348,9.797490,54.894039,9.801540
1386927466,1,0,480.0,0,0,4,0,713,700,-0.0292,-2760.0999,6.8213,0.4212,54.894287,9.800803,108.3,5.845,1.85,335.95,54.895348,9.797490,54.894039,9.801540
1386927467,1,0,480.2,0,0,0,0,713,750,-0.0292,-2760.0999,6.8213,0.4212,54.894276,9.800831,108.3,5.845,1.85,335.95,54.895348,9.797490,54.894039,9.801540
1386927467,1,0,479.9,0,0,4,0,713,700,-0.0292,-2760.0999,6.8213,0.4212,54.894268,9.800858,108.3,5.845,1.85,335.95,54.895348,9.797490,54.894039,9.801540
1386927467,1,0,480.1,0,0,0,0,713,750,-0.0292,-2760.0999,6.8213,0.4212,54.894260,9.800885,108.3,5.845,1.85,335.95,54.895348,9.797490,54.894039,9.801540
1386927467,1,0,480.3,0,0,4,0,713,700,-0.0292,-2760.0999,6.8213,0.4212,54.894249,9.800912,108.3,5.845,1.85,335.95,54.895348,9.797490,54.894039,9.801540
1386927468,1,0,480.0,0,0,0,0,713,750,-0.0292,-2760.0999,6.8213,0.4212,54.894241,9.800939,108.3,5.845,1.85,335.95,54.895348,9.797490,54.894039,9.801540
1386927468,1,0,480.1,0,0,4,0,713,700,-0.0292,-2760.0999,6.8213,0.4212,54.894230,9.800966,108.3,5.845,1.85,335.95,54.895348,9.797490,54.894039,9.801540
1386927468,1,0,479.9,0,0,0,0,713,750,-0.0292,-2760.0999,6.8213,0.4212,54.894222,9.800993,108.3,5.845,1.85,335.95,54.895348,9.797490,54.894039,9.801540
1386927468,1,0,480.0,0,0,4,0,713,700,-0.0292,-2760.0999,6.8213,0.4212,54.894215,9.801020,108.3,5.845,1.85,335.95,54.895348,9.797490,54.894039,9.801540
1386927469,1,0,480.2,0,0,0,0,713,750,-0.0292,-2760.0999,6.8213,0.4212,54.894203,9.801047,108.3,5.845,1.85,335.95,54.895348,9.797490,54.894039,9.801540
1386927469,1,0,479.9,0,0,4,0,713,700,-0.0292,-2760.0999,6.8213,0.4212,54.894196,9.801074,108.3,5.845,1.85,335.95,54.895348,9.797490,54.894039,9.801540
1386927469,1,0,480.1,0,0,0,0,713,750,-0.0292,-2760.0999,6.8213,0.4212,54.894188,9.801102,108.3,5.845,1.85,335.95,54.895348,9.797490,54.894039,9.801540
1386927469,1,0,480.4,0,0,4,0,713,700,-0.0292,-2760.0999,6.8213,0.4212,54.894176,9.801128,108.3,5.845,1.85,335.95,54.895348,9.797490,54.894039,9.801540
1386927470,1,0,479.9,0,0,0,0,713,750,-0.0292,-2760.0999,6.8213,0.4212,54.894169,9.801155,108.3,5.845,1.85,335.95,54.895348,9.797490,54.894039,9.801540
1386927470,1,0,480.2,0,0,4,0,713,700,-0.0292,-2760.0999,6.8213,0.4212,54.894161,9.801183,108.3,5.845,1.85,335.95,54.895348,9.797490,54.894039,9.801540
1386927470,1,0,480.5,0,-1,0,0,713,750,-0.0292,-2759.8333,6.8213,0.4212,54.894150,9.801209,108.3,5.845,1.85,335.95,54.895348,9.797490,54.894039,9.801540
1386927470,1,0,480.0,0,0,4,0,713,700,-0.0292,-2759.8333,6.8213,0.4212,54.894142,9.801236,108.3,5.845,1.85,335.95,54.895348,9.797490,54.894039,9.801540
1386927471,1,0,480.3,0,0,0,0,713,750,-0.0292,-2759.8333,6.8213,0.4212,54.894131,9.801264,108.3,5.845,1.85,335.95,54.895348,9.797490,54.894039,9.801540
