MCU_timestamp,Navigation_System,Manual_Control,Guidance_Heading,Manual_Ctrl_Rudder,Rudder_Desired_Angle,Rudder_Feedback,Manual_Ctrl_Sail,Sail_Desired_Pos,Sail_Feedback,Rate,Heading,Pitch,Roll,Latitude,Longitude,COG,SOG,Wind_Speed,Wind_Angle,Point_Start_Lat,Point_Start_Lon,Point_End_Lat,Point_End_Lon
1386963820,4,0,0.0,0,0,4,0,0,0,-0.0292,7999.0908,6.8213,0.4212,54.894978,9.792767,108.3,5.845,1.85,30.00,0.000000,0.000000,0.000000,0.000000
1386963821,1,0,85.0,0,-6,0,0,0,150,-0.0292,8001.0908,6.8213,0.4212,54.894978,9.792797,108.3,5.845,1.85,30.00,54.894978,9.792767,54.895069,9.793790
1386963821,1,0,85.0,0,-4,-4,0,0,100,-0.0292,8002.4243,6.8213,0.4212,54.894978,9.792829,108.3,5.845,1.85,30.00,54.894978,9.792767,54.895069,9.793790
1386963821,1,0,85.0,0,-3,0,0,0,50,-0.0292,8003.4243,6.8213,0.4212,54.894978,9.792860,108.3,5.845,1.85,30.00,54.894978,9.792767,54.895069,9.793790
1386963821,1,0,85.0,0,-2,-4,0,0,0,-0.0292,8004.0908,6.8213,0.4212,54.894978,9.792891,108.3,5.845,1.85,30.00,54.894978,9.792767,54.895069,9.793790
1386963822,1,0,85.0,0,-1,0,0,0,0,-0.0292,8004.4243,6.8213,0.4212,54.894978,9.792921,108.3,5.845,1.85,30.00,54.894978,9.792767,54.895069,9.793790
1386963822,1,0,85.0,0,-1,-4,0,0,0,-0.0292,8004.7578,6.8213,0.4212,54.894978,9.792953,108.3,5.845,1.85,30.00,54.894978,9.792767,54.895069,9.793790
1386963822,1,0,85.0,0,0,0,0,0,0,-0.0292,8004.7578,6.8213,0.4212,54.894978,9.792984,108.3,5.845,1.85,30.00,54.894978,9.792767,54.895069,9.793790
1386963822,1,0,85.0,0,0,4,0,0,0,-0.0292,8004.7578,6.8213,0.4212,54.894978,9.793015,108.3,5.845,1.85,30.00,54.894978,9.792767,54.895069,9.793790
1386963823,1,0,85.0,0,0,0,0,0,0,-0.0292,8004.7578,6.8213,0.4212,54.894978,9.793046,108.3,5.845,1.85,30.00,54.894978,9.792767,54.895069,9.793790
1386963823,1,0,85.0,0,0,4,0,0,0,-0.0292,8004.7578,6.8213,0.4212,54.894978,9.793077,108.3,5.845,1.85,30.00,54.894978,9.792767,54.895069,9.793790
1386963823,1,0,85.0,0,0,0,0,0,0,-0.0292,8004.7578,6.8213,0.4212,54.894978,9.793109,108.3,5.845,1.85,30.00,54.894978,9.792767,54.895069,9.793790
1386963823,1,0,85.0,0,0,4,0,0,0,-0.0292,8004.7578,6.8213,0.4212,54.894978,9.793139,108.3,5.845,1.85,30.00,54.894978,9.792767,54.895069,9.793790
1386963824,1,0,85.0,0,0,0,0,0,0,-0.0292,8004.7578,6.8213,0.4212,54.894978,9.793171,108.3,5.845,1.85,30.00,54.894978,9.792767,54.895069,9.793790
1386963824,1,0,85.0,0,0,4,0,0,0,-0.0292,8004.7578,6.8213,0.4212,54.894978,9.793202,108.3,5.845,1.85,30.00,54.894978,9.792767,54.895069,9.793790
1386963824,1,0,85.0,0,0,0,0,0,0,-0.0292,8004.7578,6.8213,0.4212,54.894978,9.793233,108.3,5.845,1.85,30.00,54.894978,9.792767,54.895069,9.793790
1386963824,1,0,85.0,0,0,4,0,0,0,-0.0292,8004.7578,6.8213,0.4212,54.894978,9.793263,108.3,5.845,1.85,30.00,54.894978,9.792767,54.895069,9.793790
1386963825,1,0,85.0,0,0,0,0,0,0,-0.0292,8004.7578,6.8213,0.4212,54.894978,9.793295,108.3,5.845,1.85,30.00,54.894978,9.792767,54.895069,9.793790
1386963825,1,0,85.0,0,0,4,0,0,0,-0.0292,8004.7578,6.8213,0.4212,54.894978,9.793326,108.3,5.845,1.85,30.00,54.894978,9.792767,54.895069,9.793790
1386963825,1,0,85.0,0,0,0,0,0,0,-0.0292,8004.7578,6.8213,0.4212,54.894978,9.793357,108.3,5.845,1.85,30.00,54.894978,9.792767,54.895069,9.793790
1386963825,1,0,85.0,0,0,4,0,0,0,-0.0292,8004.7578,6.8213,0.4212,54.894978,9.793388,108.3,5.845,1.85,30.00,54.894978,9.792767,54.895069,9.793790
1386963826,1,0,85.0,0,0,0,0,0,0,-0.0292,8004.7578,6.8213,0.4212,54.894978,9.793420,108.3,5.845,1.85,30.00,54.894978,9.792767,54.895069,9.793790
1386963826,1,0,85.0,0,0,4,0,0,0,-0.0292,8004.7578,6.8213,0.4212,54.894978,9.793450,108.3,5.845,1.85,30.00,54.894978,9.792767,54.895069,9.793790
1386963826,1,0,85.0,0,0,0,0,0,0,-0.0292,8004.7578,6.8213,0.4212,54.894978,9.793481,108.3,5.845,1.85,30.00,54.894978,9.792767,54.895069,9.793790
1386963826,1,0,85.0,0,0,4,0,0,0,-0.0292,8004.7578,6.8213,0.4212,54.894978,9.793512,108.3,5.845,1.85,30.00,54.894978,9.792767,54.895069,9.793790
1386963827,1,0,85.0,0,0,0,0,0,0,-0.0292,8004.7578,6.8213,0.4212,54.894978,9.793544,108.3,5.845,1.85,30.00,54.894978,9.792767,54.895069,9.793790
1386963827,1,0,85.0,0,0,4,0,0,0,-0.0292,8004.7578,6.8213,0.4212,54.894978,9.793574,108.3,5.845,1.85,30.00,54.894978,9.792767,54.895069,9.793790
1386963827,1,0,85.0,0,0,0,0,0,0,-0.0292,8004.7578,6.8213,0.4212,54.894978,9.793605,108.3,5.845,1.85,30.00,54.894978,9.792767,54.895069,9.793790
1386963827,1,0,85.0,0,0,4,0,0,0,-0.0292,8004.7578,6.8213,0.4212,54.894978,9.793636,108.3,5.845,1.85,30.00,54.894978,9.792767,54.895069,9.793790
1386963828,1,0,85.0,0,0,0,0,0,0,-0.0292,8004.7578,6.8213,0.4212,54.894978,9.793668,108.3,5.845,1.85,30.00,54.894978,9.792767,54.895069,9.793790
1386963828,1,0,85.0,0,0,4,0,0,0,-0.0292,8004.7578,6.8213,0.4212,54.894978,9.793698,108.3,5.845,1.85,30.00,54.894978,9.792767,54.895069,9.793790
1386963828,1,0,85.0,0,0,0,0,0,0,-0.0292,8004.7578,6.8213,0.4212,54.894978,9.793730,108.3,5.845,1.85,30.00,54.894978,9.792767,54.895069,9.793790
1386963828,1,0,85.0,0,0,4,0,0,0,-0.0292,8004.7578,6.8213,0.4212,54.894978,9.793761,108.3,5.845,1.85,30.00,54.894978,9.792767,54.895069,9.793790
1386963829,1,0,85.0,0,0,0,0,0,0,-0.0292,8004.7578,6.8213,0.4212,54.894978,9.793792,108.3,5.845,1.85,30.00,54.894978,9.792767,54.895069,9.793790
1386963829,1,0,85.0,0,0,4,0,0,0,-0.0292,8004.7578,6.8213,0.4212,54.894978,9.793822,108.3,5.845,1.85,30.00,54.894978,9.792767,54.895069,9.793790
1386963829,1,0,85.0,0,0,0,0,0,0,-0.0292,8004.7578,6.8213,0.4212,54.894978,9.793854,108.3,5.845,1.85,30.00,54.894978,9.792767,54.895069,9.793790
1386963829,1,0,85.0,0,0,4,0,0,0,-0.0292,8004.7578,6.8213,0.4212,54.894978,9.793885,108.3,5.845,1.85,30.00,54.894978,9.792767,54.895069,9.793790
1386963830,1,0,85.0,0,0,0,0,0,0,-0.0292,8004.7578,6.8213,0.4212,54.894978,9.793916,108.3,5.845,1.85,30.00,54.894978,9.792767,54.895069,9.793790
1386963830,1,0,85.0,0,0,4,0,0,0,-0.0292,8004.7578,6.8213,0.4212,54.894978,9.793947,108.3,5.845,1.85,30.00,54.894978,9.792767,54.895069,9.793790
1386963830,1,0,85.0,0,0,0,0,0,0,-0.0292,8004.7578,6.8213,0.4212,54.894978,9.793979,108.3,5.845,1.85,30.00,54.894978,9.792767,54.895069,9.793790
1386963830,1,0,85.0,0,0,4,0,0,0,-0.0292,8004.7578,6.8213,0.4212,54.895092,9.793612,108.3,5.845,1.85,30.00,54.894978,9.792767,54.895069,9.793790
1386963831,1,0,85.0,0,0,0,0,0,0,-0.0292,8004.7578,6.8213,0.4212,54.895096,9.793644,108.3,5.845,1.85,30.00,54.894978,9.792767,54.895069,9.793790
1386963831,1,0,107.6,0,-23,-4,0,0,0,-0.0292,8012.4243,6.8213,0.4212,54.895092,9.793675,108.3,5.845,1.85,30.00,54.894978,9.792767,54.895069,9.793790
1386963831,1,0,109.1,0,-17,-8,0,28,50,-0.0292,8018.0908,6.8213,0.4212,54.895092,9.793706,108.3,5.845,1.85,30.00,54.894978,9.792767,54.895069,9.793790
1386963831,1,0,115.2,0,-17,-12,0,81,100,-0.0292,8023.7573,6.8213,0.4212,54.895088,9.793736,108.3,5.845,1.85,30.00,54.894978,9.792767,54.895069,9.793790
1386963832,1,0,121.2,0,-17,-16,0,152,150,-0.0292,8029.4238,6.8213,0.4212,54.895084,9.793765,108.3,5.845,1.85,30.00,54.895069,9.793790,54.895348,9.797490
1386963832,1,0,85.0,0,24,-12,0,234,200,-0.0292,8021.4238,6.8213,0.4212,54.895081,9.793796,108.3,5.845,1.85,30.00,54.895069,9.793790,54.895348,9.797490
1386963832,1,0,85.0,0,16,-8,0,122,150,-0.0292,8016.0903,6.8213,0.4212,54.895077,9.793826,108.3,5.845,1.85,30.00,54.895069,9.793790,54.895348,9.797490
1386963832,1,0,85.0,0,11,-4,0,60,100,-0.0292,8012.4238,6.8213,0.4212,54.895077,9.793858,108.3,5.845,1.85,30.00,54.895069,9.793790,54.895348,9.797490
1386963833,1,0,85.0,0,7,0,0,28,50,-0.0292,8010.0903,6.8213,0.4212,54.895077,9.793889,108.3,5.845,1.85,30.00,54.895069,9.793790,54.895348,9.797490
1386963833,1,0,85.0,0,5,4,0,14,0,-0.0292,8008.4238,6.8213,0.4212,54.895077,9.793921,108.3,5.845,1.85,30.00,54.895069,9.793790,54.895348,9.797490
1386963833,1,0,85.0,0,3,0,0,6,50,-0.0292,8007.4238,6.8213,0.4212,54.895077,9.793951,108.3,5.845,1.85,30.00,54.895069,9.793790,54.895348,9.797490
1386963833,1,0,85.0,0,2,4,0,3,0,-0.0292,8006.7573,6.8213,0.4212,54.895077,9.793983,108.3,5.845,1.85,30.00,54.895069,9.793790,54.895348,9.797490
1386963834,1,0,85.0,0,2,0,0,2,50,-0.0292,8006.0908,6.8213,0.4212,54.895077,9.794014,108.3,5.845,1.85,30.00,54.895069,9.793790,54.895348,9.797490
1386963834,1,0,85.0,0,1,4,0,1,0,-0.0292,8005.7573,6.8213,0.4212,54.895077,9.794044,108.3,5.845,1.85,30.00,54.895069,9.793790,54.895348,9.797490
1386963834,1,0,85.0,0,1,0,0,0,0,-0.0292,8005.4238,6.8213,0.4212,54.895077,9.794076,108.3,5.845,1.85,30.00,54.895069,9.793790,54.895348,9.797490
1386963834,1,0,85.0,0,0,4,0,0,0,-0.0292,8005.4238,6.8213,0.4212,54.895077,9.794107,108.3,5.845,1.85,30.00,54.895069,9.793790,54.895348,9.797490
1386963835,1,0,85.0,0,0,0,0,0,0,-0.0292,8005.4238,6.8213,0.4212,54.895077,9.794139,108.3,5.845,1.85,30.00,54.895069,9.793790,54.895348,9.797490
1386963835,1,0,85.0,0,0,4,0,0,0,-0.0292,8005.4238,6.8213,0.4212,54.895077,9.794169,108.3,5.845,1.85,30.00,54.895069,9.793790,54.895348,9.797490
1386963835,1,0,85.0,0,0,0,0,0,0,-0.0292,8005.4238,6.8213,0.4212,54.895077,9.794201,108.3,5.845,1.85,30.00,54.895069,9.793790,54.895348,9.797490
1386963835,1,0,85.0,0,0,4,0,0,0,-0.0292,8005.4238,6.8213,0.4212,54.895077,9.794232,108.3,5.845,1.85,30.00,54.895069,9.793790,54.895348,9.797490
1386963836,1,0,85.0,0,0,0,0,0,0,-0.0292,8005.4238,6.8213,0.4212,54.895077,9.794263,108.3,5.845,1.85,30.00,54.895069,9.793790,54.895348,9.797490
1386963836,1,0,85.0,0,0,4,0,0,0,-0.0292,8005.4238,6.8213,0.4212,54.895077,9.794293,108.3,5.845,1.85,30.00,54.895069,9.793790,54.895348,9.797490
1386963836,1,0,85.0,0,0,0,0,0,0,-0.0292,8005.4238,6.8213,0.4212,54.895077,9.794325,108.3,5.845,1.85,30.00,54.895069,9.793790,54.895348,9.797490
1386963837,1,0,85.0,0,0,4,0,0,0,-0.0292,8005.4238,6.8213,0.4212,54.895077,9.794356,108.3,5.845,1.85,30.00,54.895069,9.793790,54.895348,9.797490
1386963837,1,0,85.0,0,0,0,0,0,0,-0.0292,8005.4238,6.8213,0.4212,54.895077,9.794387,108.3,5.845,1.85,30.00,54.895069,9.793790,54.895348,9.797490
1386963837,1,0,85.0,0,0,4,0,0,0,-0.0292,8005.4238,6.8213,0.4212,54.895077,9.794418,108.3,5.845,1.85,30.00,54.895069,9.793790,54.895348,9.797490
1386963837,1,0,85.0,0,0,0,0,0,0,-0.0292,8005.4238,6.8213,0.4212,54.895077,9.794450,108.3,5.845,1.85,30.00,54.895069,9.793790,54.895348,9.797490
1386963838,1,0,85.0,0,0,4,0,0,0,-0.0292,8005.4238,6.8213,0.4212,54.895077,9.794481,108.3,5.845,1.85,30.00,54.895069,9.793790,54.895348,9.797490
1386963838,1,0,85.0,0,0,0,0,0,0,-0.0292,8005.4238,6.8213,0.4212,54.895077,9.794512,108.3,5.845,1.85,30.00,54.895069,9.793790,54.895348,9.797490
1386963838,1,0,85.0,0,0,4,0,0,0,-0.0292,8005.4238,6.8213,0.4212,54.895077,9.794543,108.3,5.845,1.85,30.00,54.895069,9.793790,54.895348,9.797490
1386963838,1,0,85.0,0,0,0,0,0,0,-0.0292,8005.4238,6.8213,0.4212,54.895077,9.794575,108.3,5.845,1.85,30.00,54.895069,9.793790,54.895348,9.797490
1386963839,1,0,85.0,0,0,4,0,0,0,-0.0292,8005.4238,6.8213,0.4212,54.895077,9.794605,108.3,5.845,1.85,30.00,54.895069,9.793790,54.895348,9.797490
1386963839,1,0,85.0,0,0,0,0,0,0,-0.0292,8005.4238,6.8213,0.4212,54.895077,9.794636,108.3,5.845,1.85,30.00,54.895069,9.793790,54.895348,9.797490
1386963839,1,0,85.0,0,0,4,0,0,0,-0.0292,8005.4238,6.8213,0.4212,54.895077,9.794667,108.3,5.845,1.85,30.00,54.895069,9.793790,54.895348,9.797490
1386963839,1,0,85.0,0,0,0,0,0,0,-0.0292,8005.4238,6.8213,0.4212,54.895077,9.794699,108.3,5.845,1.85,30.00,54.895069,9.793790,54.895348,9.797490
1386963840,1,0,85.0,0,0,4,0,0,0,-0.0292,8005.4238,6.8213,0.4212,54.895077,9.794729,108.3,5.845,1.85,30.00,54.895069,9.793790,54.895348,9.797490
1386963840,1,0,85.0,0,0,0,0,0,0,-0.0292,8005.4238,6.8213,0.4212,54.895077,9.794761,108.3,5.845,1.85,30.00,54.895069,9.793790,54.895348,9.797490
1386963840,1,0,85.0,0,0,4,0,0,0,-0.0292,8005.4238,6.8213,0.4212,54.895077,9.794792,108.3,5.845,1.85,30.00,54.895069,9.793790,54.895348,9.797490
1386963840,1,0,85.0,0,0,0,0,0,0,-0.0292,8005.4238,6.8213,0.4212,54.895374,9.794642,108.3,5.845,1.85,30.00,54.895069,9.793790,54.895348,9.797490
1386963841,1,0,85.0,0,0,4,0,0,0,-0.0292,8005.4238,6.8213,0.4212,54.895374,9.794674,108.3,5.845,1.85,30.00,54.895069,9.793790,54.895348,9.797490
1386963841,1,0,85.0,0,0,0,0,0,0,-0.0292,8005.4238,6.8213,0.4212,54.895374,9.794705,108.3,5.845,1.85,30.00,54.895069,9.793790,54.895348,9.797490
1386963841,1,0,85.0,0,0,4,0,0,0,-0.0292,8005.4238,6.8213,0.4212,54.895374,9.794737,108.3,5.845,1.85,30.00,54.895069,9.793790,54.895348,9.797490
1386963841,1,0,85.0,0,0,0,0,0,0,-0.0292,8005.4238,6.8213,0.4212,54.895374,9.794767,108.3,5.845,1.85,30.00,54.895069,9.793790,54.895348,9.797490
1386963842,1,0,85.0,0,0,4,0,0,0,-0.0292,8005.4238,6.8213,0.4212,54.895374,9.794799,108.3,5.845,1.85,30.00,54.895069,9.793790,54.895348,9.797490
1386963842,1,0,85.0,0,0,0,0,0,0,-0.0292,8005.4238,6.8213,0.4212,54.895374,9.794830,108.3,5.845,1.85,30.00,54.895069,9.793790,54.895348,9.797490
1386963842,1,0,85.0,0,0,4,0,0,0,-0.0292,8005.4238,6.8213,0.4212,54.895374,9.794861,108.3,5.845,1.85,30.00,54.895069,9.793790,54.895348,9.797490
1386963842,1,0,85.0,0,0,0,0,0,0,-0.0292,8005.4238,6.8213,0.4212,54.895374,9.794891,108.3,5.845,1.85,30.00,54.895069,9.793790,54.895348,9.797490
1386963843,1,0,85.0,0,0,4,0,0,0,-0.0292,8005.4238,6.8213,0.4212,54.895374,9.794923,108.3,5.845,1.85,30.00,54.895069,9.793790,54.895348,9.797490
1386963843,1,0,85.0,0,0,0,0,0,0,-0.0292,8005.4238,6.8213,0.4212,54.895374,9.794954,108.3,5.845,1.85,30.00,54.895069,9.793790,54.895348,9.797490
1386963843,1,0,85.0,0,0,4,0,0,0,-0.0292,8005.4238,6.8213,0.4212,54.895374,9.794985,108.3,5.845,1.85,30.00,54.895069,9.793790,54.895348,9.797490
1386963843,1,0,85.0,0,0,0,0,0,0,-0.0292,8005.4238,6.8213,0.4212,54.895374,9.795016,108.3,5.845,1.85,30.00,54.895069,9.793790,54.895348,9.797490
1386963844,1,0,85.0,0,0,4,0,0,0,-0.0292,8005.4238,6.8213,0.4212,54.895374,9.795048,108.3,5.845,1.85,30.00,54.895069,9.793790,54.895348,9.797490
1386963844,1,0,85.0,0,0,0,0,0,0,-0.0292,8005.4238,6.8213,0.4212,54.895374,9.795078,108.3,5.845,1.85,30.00,54.895069,9.793790,54.895348,9.797490
1386963844,1,0,85.0,0,0,4,0,0,0,-0.0292,8005.4238,6.8213,0.4212,54.895374,9.795109,108.3,5.845,1.85,30.00,54.895069,9.793790,54.895348,9.797490
1386963844,1,0,85.0,0,0,0,0,0,0,-0.0292,8005.4238,6.8213,0.4212,54.895374,9.795140,108.3,5.845,1.85,30.00,54.895069,9.793790,54.895348,9.797490
1386963845,1,0,85.0,0,0,4,0,0,0,-0.0292,8005.4238,6.8213,0.4212,54.895374,9.795172,108.3,5.845,1.85,30.00,54.895069,9.793790,54.895348,9.797490
1386963845,1,0,85.0,0,0,0,0,0,0,-0.0292,8005.4238,6.8213,0.4212,54.895374,9.795202,108.3,5.845,1.85,30.00,54.895069,9.793790,54.895348,9.797490
1386963845,1,0,85.0,0,0,4,0,0,0,-0.0292,8005.4238,6.8213,0.4212,54.895374,9.795234,108.3,5.845,1.85,30.00,54.895069,9.793790,54.895348,9.797490
1386963845,1,0,85.0,0,0,0,0,0,0,-0.0292,8005.4238,6.8213,0.4212,54.895374,9.795265,108.3,5.845,1.85,30.00,54.895069,9.793790,54.895348,9.797490
1386963846,1,0,85.0,0,0,4,0,0,0,-0.0292,8005.4238,6.8213,0.4212,54.895374,9.795297,108.3,5.845,1.85,30.00,54.895069,9.793790,54.895348,9.797490
1386963846,1,0,85.0,0,0,0,0,0,0,-0.0292,8005.4238,6.8213,0.4212,54.895374,9.795327,108.3,5.845,1.85,30.00,54.895069,9.793790,54.895348,9.797490
1386963846,1,0,85.0,0,0,4,0,0,0,-0.0292,8005.4238,6.8213,0.4212,54.895374,9.795359,108.3,5.845,1.85,30.00,54.895069,9.793790,54.895348,9.797490
1386963846,1,0,85.0,0,0,0,0,0,0,-0.0292,8005.4238,6.8213,0.4212,54.895374,9.795390,108.3,5.845,1.85,30.00,54.895069,9.793790,54.895348,9.797490
1386963847,1,0,85.0,0,0,4,0,0,0,-0.0292,8005.4238,6.8213,0.4212,54.895374,9.795421,108.3,5.845,1.85,30.00,54.895069,9.793790,54.895348,9.797490
1386963847,1,0,85.0,0,0,0,0,0,0,-0.0292,8005.4238,6.8213,0.4212,54.895374,9.795451,108.3,5.845,1.85,30.00,54.895069,9.793790,54.895348,9.797490
1386963847,1,0,85.0,0,0,4,0,0,0,-0.0292,8005.4238,6.8213,0.4212,54.895374,9.795483,108.3,5.845,1.85,30.00,54.895069,9.793790,54.895348,9.797490
1386963847,1,0,85.0,0,0,0,0,0,0,-0.0292,8005.4238,6.8213,0.4212,54.895374,9.795514,108.3,5.845,1.85,30.00,54.895069,9.793790,54.895348,9.797490
1386963848,1,0,85.0,0,0,4,0,0,0,-0.0292,8005.4238,6.8213,0.4212,54.895374,9.795545,108.3,5.845,1.85,30.00,54.895069,9.793790,54.895348,9.797490
1386963848,1,0,85.0,0,0,0,0,0,0,-0.0292,8005.4238,6.8213,0.4212,54.895374,9.795576,108.3,5.845,1.85,30.00,54.895069,9.793790,54.895348,9.797490
1386963848,1,0,85.0,0,0,4,0,0,0,-0.0292,8005.4238,6.8213,0.4212,54.895374,9.795608,108.3,5.845,1.85,30.00,54.895069,9.793790,54.895348,9.797490
1386963848,1,0,85.0,0,0,0,0,0,0,-0.0292,8005.4238,6.8213,0.4212,54.895374,9.795639,108.3,5.845,1.85,30.00,54.895069,9.793790,54.895348,9.797490
1386963849,1,0,85.0,0,0,4,0,0,0,-0.0292,8005.4238,6.8213,0.4212,54.895374,9.795670,108.3,5.845,1.85,30.00,54.895069,9.793790,54.895348,9.797490
1386963849,1,0,85.0,0,0,0,0,0,0,-0.0292,8005.4238,6.8213,0.4212,54.895374,9.795701,108.3,5.845,1.85,30.00,54.895069,9.793790,54.895348,9.797490
1386963849,1,0,85.0,0,0,4,0,0,0,-0.0292,8005.4238,6.8213,0.4212,54.895374,9.795732,108.3,5.845,1.85,30.00,54.895069,9.793790,54.895348,9.797490
1386963849,1,0,85.0,0,0,0,0,0,0,-0.0292,8005.4238,6.8213,0.4212,54.895374,9.795763,108.3,5.845,1.85,30.00,54.895069,9.793790,54.895348,9.797490
1386963850,1,0,85.0,0,0,4,0,0,0,-0.0292,8005.4238,6.8213,0.4212,54.895374,9.795794,108.3,5.845,1.85,30.00,54.895069,9.793790,54.895348,9.797490
1386963850,1,0,85.0,0,0,0,0,0,0,-0.0292,8005.4238,6.8213,0.4212,54.895374,9.795825,108.3,5.845,1.85,30.00,54.895069,9.793790,54.895348,9.797490
1386963850,1,0,85.0,0,0,4,0,0,0,-0.0292,8005.4238,6.8213,0.4212,54.895374,9.795856,108.3,5.845,1.85,30.00,54.895069,9.793790,54.895348,9.797490
1386963850,1,0,85.0,0,0,0,0,0,0,-0.0292,8005.4238,6.8213,0.4212,54.895374,9.795887,108.3,5.845,1.85,30.00,54.895069,9.793790,54.895348,9.797490
1386963851,1,0,85.0,0,0,4,0,0,0,-0.0292,8005.4238,6.8213,0.4212,54.895374,9.795918,108.3,5.845,1.85,30.00,54.895069,9.793790,54.895348,9.797490
1386963851,1,0,85.0,0,0,0,0,0,0,-0.0292,8005.4238,6.8213,0.4212,54.895374,9.795950,108.3,5.845,1.85,30.00,54.895069,9.793790,54.895348,9.797490
1386963851,1,0,85.0,0,0,4,0,0,0,-0.0292,8005.4238,6.8213,0.4212,54.895374,9.795981,108.3,5.845,1.85,30.00,54.895069,9.793790,54.895348,9.797490
1386963851,1,0,85.0,0,0,0,0,0,0,-0.0292,8005.4238,6.8213,0.4212,54.895374,9.796012,108.3,5.845,1.85,30.00,54.895069,9.793790,54.895348,9.797490
1386963852,1,0,85.0,0,0,4,0,0,0,-0.0292,8005.4238,6.8213,0.4212,54.895374,9.796043,108.3,5.845,1.85,30.00,54.895069,9.793790,54.895348,9.797490
1386963852,1,0,85.0,0,0,0,0,0,0,-0.0292,8005.4238,6.8213,0.4212,54.895374,9.796075,108.3,5.845,1.85,30.00,54.895069,9.793790,54.895348,9.797490
1386963852,1,0,85.0,0,0,4,0,0,0,-0.0292,8005.4238,6.8213,0.4212,54.895374,9.796105,108.3,5.845,1.85,30.00,54.895069,9.793790,54.895348,9.797490
1386963852,1,0,85.0,0,0,0,0,0,0,-0.0292,8005.4238,6.8213,0.4212,54.895374,9.796136,108.3,5.845,1.85,30.00,54.895069,9.793790,54.895348,9.797490
1386963853,1,0,85.0,0,0,4,0,0,0,-0.0292,8005.4238,6.8213,0.4212,54.895374,9.796167,108.3,5.845,1.85,30.00,54.895069,9.793790,54.895348,9.797490
1386963853,1,0,85.0,0,0,0,0,0,0,-0.0292,8005.4238,6.8213,0.4212,54.895374,9.796199,108.3,5.845,1.85,30.00,54.895069,9.793790,54.895348,9.797490
1386963853,1,0,85.0,0,0,4,0,0,0,-0.0292,8005.4238,6.8213,0.4212,54.895374,9.796229,108.3,5.845,1.85,30.00,54.895069,9.793790,54.895348,9.797490
1386963853,1,0,85.0,0,0,0,0,0,0,-0.0292,8005.4238,6.8213,0.4212,54.895374,9.796261,108.3,5.845,1.85,30.00,54.895069,9.793790,54.895348,9.797490
1386963854,1,0,85.0,0,0,4,0,0,0,-0.0292,8005.4238,6.8213,0.4212,54.895374,9.796292,108.3,5.845,1.85,30.00,54.895069,9.793790,54.895348,9.797490
1386963854,1,0,85.0,0,0,0,0,0,0,-0.0292,8005.4238,6.8213,0.4212,54.895374,9.796324,108.3,5.845,1.85,30.00,54.895069,9.793790,54.895348,9.797490
1386963854,1,0,85.0,0,0,4,0,0,0,-0.0292,8005.4238,6.8213,0.4212,54.895374,9.796354,108.3,5.845,1.85,30.00,54.895069,9.793790,54.895348,9.797490
1386963854,1,0,85.0,0,0,0,0,0,0,-0.0292,8005.4238,6.8213,0.4212,54.895374,9.796386,108.3,5.845,1.85,30.00,54.895069,9.793790,54.895348,9.797490
1386963855,1,0,85.0,0,0,4,0,0,0,-0.0292,8005.4238,6.8213,0.4212,54.895374,9.796417,108.3,5.845,1.85,30.00,54.895069,9.793790,54.895348,9.797490
1386963855,1,0,85.0,0,0,0,0,0,0,-0.0292,8005.4238,6.8213,0.4212,54.895374,9.796448,108.3,5.845,1.85,30.00,54.895069,9.793790,54.895348,9.797490
1386963855,1,0,85.0,0,0,4,0,0,0,-0.0292,8005.4238,6.8213,0.4212,54.895374,9.796478,108.3,5.845,1.85,30.00,54.895069,9.793790,54.895348,9.797490
1386963855,1,0,85.0,0,0,0,0,0,0,-0.0292,8005.4238,6.8213,0.4212,54.895374,9.796510,108.3,5.845,1.85,30.00,54.895069,9.793790,54.895348,9.797490
1386963856,1,0,85.0,0,0,4,0,0,0,-0.0292,8005.4238,6.8213,0.4212,54.895374,9.796541,108.3,5.845,1.85,30.00,54.895069,9.793790,54.895348,9.797490
1386963856,1,0,85.0,0,0,0,0,0,0,-0.0292,8005.4238,6.8213,0.4212,54.895374,9.796572,108.3,5.845,1.85,30.00,54.895069,9.793790,54.895348,9.797490
1386963856,1,0,85.0,0,0,4,0,0,0,-0.0292,8005.4238,6.8213,0.4212,54.895374,9.796603,108.3,5.845,1.85,30.00,54.895069,9.793790,54.895348,9.797490
1386963856,1,0,85.0,0,0,0,0,0,0,-0.0292,8005.4238,6.8213,0.4212,54.895374,9.796635,108.3,5.845,1.85,30.00,54.895069,9.793790,54.895348,9.797490
1386963857,1,0,85.0,0,0,4,0,0,0,-0.0292,8005.4238,6.8213,0.4212,54.895374,9.796666,108.3,5.845,1.85,30.00,54.895069,9.793790,54.895348,9.797490
1386963857,1,0,85.0,0,0,0,0,0,0,-0.0292,8005.4238,6.8213,0.4212,54.895374,9.796697,108.3,5.845,1.85,30.00,54.895069,9.793790,54.895348,9.797490
1386963857,1,0,85.0,0,0,4,0,0,0,-0.0292,8005.4238,6.8213,0.4212,54.895374,9.796728,108.3,5.845,1.85,30.00,54.895069,9.793790,54.895348,9.797490
1386963857,1,0,85.0,0,0,0,0,0,0,-0.0292,8005.4238,6.8213,0.4212,54.895374,9.796760,108.3,5.845,1.85,30.00,54.895069,9.793790,54.895348,9.797490
1386963858,1,0,85.0,0,0,4,0,0,0,-0.0292,8005.4238,6.8213,0.4212,54.895374,9.796790,108.3,5.845,1.85,30.00,54.895069,9.793790,54.895348,9.797490
1386963858,1,0,85.0,0,0,0,0,0,0,-0.0292,8005.4238,6.8213,0.4212,54.895374,9.796821,108.3,5.845,1.85,30.00,54.895069,9.793790,54.895348,9.797490
1386963858,1,0,85.0,0,0,4,0,0,0,-0.0292,8005.4238,6.8213,0.4212,54.895374,9.796852,108.3,5.845,1.85,30.00,54.895069,9.793790,54.895348,9.797490
1386963858,1,0,85.0,0,0,0,0,0,0,-0.0292,8005.4238,6.8213,0.4212,54.895374,9.796884,108.3,5.845,1.85,30.00,54.895069,9.793790,54.895348,9.797490
1386963859,1,0,85.0,0,0,4,0,0,0,-0.0292,8005.4238,6.8213,0.4212,54.895374,9.796914,108.3,5.845,1.85,30.00,54.895069,9.793790,54.895348,9.797490
1386963859,1,0,85.0,0,0,0,0,0,0,-0.0292,8005.4238,6.8213,0.4212,54.895374,9.796946,108.3,5.845,1.85,30.00,54.895069,9.793790,54.895348,9.797490
1386963859,1,0,85.0,0,0,4,0,0,0,-0.0292,8005.4238,6.8213,0.4212,54.895374,9.796977,108.3,5.845,1.85,30.00,54.895069,9.793790,54.895348,9.797490
1386963859,1,0,85.0,0,0,0,0,0,0,-0.0292,8005.4238,6.8213,0.4212,54.895374,9.797009,108.3,5.845,1.85,30.00,54.895069,9.793790,54.895348,9.797490
1386963860,1,0,85.0,0,0,4,0,0,0,-0.0292,8005.4238,6.8213,0.4212,54.895374,9.797039,108.3,5.845,1.85,30.00,54.895069,9.793790,54.895348,9.797490
1386963860,1,0,85.0,0,0,0,0,0,0,-0.0292,8005.4238,6.8213,0.4212,54.895374,9.797071,108.3,5.845,1.85,30.00,54.895069,9.793790,54.895348,9.797490
1386963860,1,0,85.0,0,0,4,0,0,0,-0.0292,8005.4238,6.8213,0.4212,54.895374,9.797102,108.3,5.845,1.85,30.00,54.895069,9.793790,54.895348,9.797490
1386963860,1,0,85.0,0,0,0,0,0,0,-0.0292,8005.4238,6.8213,0.4212,54.895374,9.797132,108.3,5.845,1.85,30.00,54.895069,9.793790,54.895348,9.797490
1386963861,1,0,85.0,0,0,4,0,0,0,-0.0292,8005.4238,6.8213,0.4212,54.895374,9.797163,108.3,5.845,1.85,30.00,54.895069,9.793790,54.895348,9.797490
1386963861,1,0,85.0,0,0,0,0,0,0,-0.0292,8005.4238,6.8213,0.4212,54.895374,9.797194,108.3,5.845,1.85,30.00,54.895069,9.793790,54.895348,9.797490
1386963861,1,0,85.0,0,0,4,0,0,0,-0.0292,8005.4238,6.8213,0.4212,54.895374,9.797226,108.3,5.845,1.85,30.00,54.895069,9.793790,54.895348,9.797490
1386963861,1,0,85.0,0,0,0,0,0,0,-0.0292,8005.4238,6.8213,0.4212,54.895374,9.797256,108.3,5.845,1.85,30.00,54.895069,9.793790,54.895348,9.797490
1386963862,1,0,85.0,0,0,4,0,0,0,-0.0292,8005.4238,6.8213,0.4212,54.895374,9.797288,108.3,5.845,1.85,30.00,54.895069,9.793790,54.895348,9.797490
1386963862,1,0,85.0,0,0,0,0,0,0,-0.0292,8005.4238,6.8213,0.4212,54.895374,9.797319,108.3,5.845,1.85,30.00,54.895069,9.793790,54.895348,9.797490
1386963862,1,0,105.1,0,-20,-4,0,0,0,-0.0292,8012.0903,6.8213,0.4212,54.895374,9.797351,108.3,5.845,1.85,30.00,54.895069,9.793790,54.895348,9.797490
1386963862,1,0,108.3,0,-16,-8,0,26,50,-0.0292,8017.4238,6.8213,0.4212,54.895370,9.797381,108.3,5.845,1.85,30.00,54.895069,9.793790,54.895348,9.797490
1386963863,1,0,110.0,0,-13,-12,0,74,100,-0.0292,8021.7573,6.8213,0.4212,54.895367,9.797412,108.3,5.845,1.85,30.00,54.895069,9.793790,54.895348,9.797490
1386963863,1,0,112.9,0,-11,-8,0,126,150,-0.0292,8025.4238,6.8213,0.4212,54.895359,9.797442,108.3,5.845,1.85,30.00,54.895069,9.793790,54.895348,9.797490
1386963863,1,0,112.5,0,-7,-4,0,176,200,-0.0292,8027.7573,6.8213,0.4212,54.895355,9.797472,108.3,5.845,1.85,30.00,54.895348,9.797490,54.894039,9.801540
1386963863,1,0,119.2,0,-11,-8,0,209,250,-0.0292,8031.4238,6.8213,0.4212,54.895348,9.797502,108.3,5.845,1.85,30.00,54.895348,9.797490,54.894039,9.801540
1386963864,1,0,119.2,0,-8,-4,0,264,300,-0.0292,8034.0903,6.8213,0.4212,54.895340,9.797530,108.3,5.845,1.85,30.00,54.895348,9.797490,54.894039,9.801540
1386963864,1,0,119.3,0,-5,-8,0,306,350,-0.0292,8035.7568,6.8213,0.4212,54.895329,9.797558,108.3,5.845,1.85,30.00,54.895348,9.797490,54.894039,9.801540
1386963864,1,0,119.2,0,-3,-4,0,332,300,-0.0292,8036.7568,6.8213,0.4212,54.895321,9.797586,108.3,5.845,1.85,30.00,54.895348,9.797490,54.894039,9.801540
1386963864,1,0,119.3,0,-3,0,0,348,350,-0.0292,8037.7568,6.8213,0.4212,54.895309,9.797614,108.3,5.845,1.85,30.00,54.895348,9.797490,54.894039,9.801540
1386963865,1,0,119.2,0,-1,-4,0,363,400,-0.0292,8038.0903,6.8213,0.4212,54.895302,9.797642,108.3,5.845,1.85,30.00,54.895348,9.797490,54.894039,9.801540
1386963865,1,0,119.2,0,-1,0,0,369,350,-0.0292,8038.4238,6.8213,0.4212,54.895294,9.797669,108.3,5.845,1.85,30.00,54.895348,9.797490,54.894039,9.801540
1386963865,1,0,119.3,0,-1,-4,0,374,400,-0.0292,8038.7573,6.8213,0.4212,54.895283,9.797697,108.3,5.845,1.85,30.00,54.895348,9.797490,54.894039,9.801540
1386963865,1,0,119.2,0,0,0,0,379,350,-0.0292,8038.7573,6.8213,0.4212,54.895275,9.797724,108.3,5.845,1.85,30.00,54.895348,9.797490,54.894039,9.801540
1386963866,1,0,119.2,0,0,4,0,379,400,-0.0292,8038.7573,6.8213,0.4212,54.895267,9.797751,108.3,5.845,1.85,30.00,54.895348,9.797490,54.894039,9.801540
1386963866,1,0,119.3,0,-1,0,0,379,350,-0.0292,8039.0908,6.8213,0.4212,54.895256,9.797779,108.3,5.845,1.85,30.00,54.895348,9.797490,54.894039,9.801540
1386963866,1,0,119.2,0,0,4,0,385,400,-0.0292,8039.0908,6.8213,0.4212,54.895248,9.797806,108.3,5.845,1.85,30.00,54.895348,9.797490,54.894039,9.801540
1386963866,1,0,119.2,0,0,0,0,385,350,-0.0292,8039.0908,6.8213,0.4212,54.895237,9.797833,108.3,5.845,1.85,30.00,54.895348,9.797490,54.894039,9.801540
1386963867,1,0,119.2,0,0,4,0,385,400,-0.0292,8039.0908,6.8213,0.4212,54.895229,9.797860,108.3,5.845,1.85,30.00,54.895348,9.797490,54.894039,9.801540
1386963867,1,0,119.2,0,0,0,0,385,350,-0.0292,8039.0908,6.8213,0.4212,54.895222,9.797888,108.3,5.845,1.85,30.00,54.895348,9.797490,54.894039,9.801540
1386963867,1,0,119.2,0,0,4,0,385,400,-0.0292,8039.0908,6.8213,0.4212,54.895210,9.797915,108.3,5.845,1.85,30.00,54.895348,9.797490,54.894039,9.801540
1386963868,1,0,119.2,0,0,0,0,385,350,-0.0292,8039.0908,6.8213,0.4212,54.895203,9.797942,108.3,5.845,1.85,30.00,54.895348,9.797490,54.894039,9.801540
1386963868,1,0,119.2,0,0,4,0,385,400,-0.0292,8039.0908,6.8213,0.4212,54.895195,9.797970,108.3,5.845,1.85,30.00,54.895348,9.797490,54.894039,9.801540
1386963868,1,0,119.2,0,0,0,0,385,350,-0.0292,8039.0908,6.8213,0.4212,54.895184,9.797997,108.3,5.845,1.85,30.00,54.895348,9.797490,54.894039,9.801540
1386963868,1,0,119.2,0,0,4,0,385,400,-0.0292,8039.0908,6.8213,0.4212,54.895176,9.798024,108.3,5.845,1.85,30.00,54.895348,9.797490,54.894039,9.801540
1386963869,1,0,119.2,0,0,0,0,385,350,-0.0292,8039.0908,6.8213,0.4212,54.895168,9.798052,108.3,5.845,1.85,30.00,54.895348,9.797490,54.894039,9.801540
1386963869,1,0,119.2,0,0,4,0,385,400,-0.0292,8039.0908,6.8213,0.4212,54.895157,9.798079,108.3,5.845,1.85,30.00,54.895348,9.797490,54.894039,9.801540
1386963869,1,0,119.2,0,0,0,0,385,350,-0.0292,8039.0908,6.8213,0.4212,54.895149,9.798106,108.3,5.845,1.85,30.00,54.895348,9.797490,54.894039,9.801540
1386963869,1,0,119.2,0,0,4,0,385,400,-0.0292,8039.0908,6.8213,0.4212,54.895138,9.798134,108.3,5.845,1.85,30.00,54.895348,9.797490,54.894039,9.801540
1386963870,1,0,119.1,0,0,0,0,385,350,-0.0292,8039.0908,6.8213,0.4212,54.895130,9.798161,108.3,5.845,1.85,30.00,54.895348,9.797490,54.894039,9.801540
1386963870,1,0,119.2,0,0,4,0,385,400,-0.0292,8039.0908,6.8213,0.4212,54.895123,9.798188,108.3,5.845,1.85,30.00,54.895348,9.797490,54.894039,9.801540
1386963870,1,0,119.2,0,0,0,0,385,350,-0.0292,8039.0908,6.8213,0.4212,54.895111,9.798216,108.3,5.845,1.85,30.00,54.895348,9.797490,54.894039,9.801540
1386963870,1,0,119.1,0,0,4,0,385,400,-0.0292,8039.0908,6.8213,0.4212,54.895103,9.798243,108.3,5.845,1.85,30.00,54.895348,9.797490,54.894039,9.801540
1386963871,1,0,119.2,0,0,0,0,385,350,-0.0292,8039.0908,6.8213,0.4212,54.895096,9.798270,108.3,5.845,1.85,30.00,54.895348,9.797490,54.894039,9.801540
1386963871,1,0,119.2,0,0,4,0,385,400,-0.0292,8039.0908,6.8213,0.4212,54.895084,9.798298,108.3,5.845,1.85,30.00,54.895348,9.797490,54.894039,9.801540
1386963871,1,0,119.1,0,0,0,0,385,350,-0.0292,8039.0908,6.8213,0.4212,54.895077,9.798325,108.3,5.845,1.85,30.00,54.895348,9.797490,54.894039,9.801540
1386963871,1,0,119.1,0,0,4,0,385,400,-0.0292,8039.0908,6.8213,0.4212,54.895065,9.798352,108.3,5.845,1.85,30.00,54.895348,9.797490,54.894039,9.801540
1386963872,1,0,119.1,0,0,0,0,385,350,-0.0292,8039.0908,6.8213,0.4212,54.895058,9.798380,108.3,5.845,1.85,30.00,54.895348,9.797490,54.894039,9.801540
1386963872,1,0,119.1,0,0,4,0,385,400,-0.0292,8039.0908,6.8213,0.4212,54.895050,9.798407,108.3,5.845,1.85,30.00,54.895348,9.797490,54.894039,9.801540
1386963872,1,0,119.1,0,0,0,0,385,350,-0.0292,8039.0908,6.8213,0.4212,54.895039,9.798434,108.3,5.845,1.85,30.00,54.895348,9.797490,54.894039,9.801540
1386963872,1,0,119.1,0,0,4,0,385,400,-0.0292,8039.0908,6.8213,0.4212,54.895031,9.798461,108.3,5.845,1.85,30.00,54.895348,9.797490,54.894039,9.801540
1386963873,1,0,119.1,0,0,0,0,385,350,-0.0292,8039.0908,6.8213,0.4212,54.895023,9.798489,108.3,5.845,1.85,30.00,54.895348,9.797490,54.894039,9.801540
1386963873,1,0,119.1,0,0,4,0,385,400,-0.0292,8039.0908,6.8213,0.4212,54.895012,9.798516,108.3,5.845,1.85,30.00,54.895348,9.797490,54.894039,9.801540
1386963873,1,0,119.1,0,0,0,0,385,350,-0.0292,8039.0908,6.8213,0.4212,54.895004,9.798543,108.3,5.845,1.85,30.00,54.895348,9.797490,54.894039,9.801540
1386963873,1,0,119.1,0,0,4,0,385,400,-0.0292,8039.0908,6.8213,0.4212,54.894997,9.798571,108.3,5.845,1.85,30.00,54.895348,9.797490,54.894039,9.801540
1386963874,1,0,119.1,0,0,0,0,385,350,-0.0292,8039.0908,6.8213,0.4212,54.894985,9.798598,108.3,5.845,1.85,30.00,54.895348,9.797490,54.894039,9.801540
1386963874,1,0,119.1,0,0,4,0,385,400,-0.0292,8039.0908,6.8213,0.4212,54.894978,9.798625,108.3,5.845,1.85,30.00,54.895348,9.797490,54.894039,9.801540
1386963874,1,0,119.1,0,0,0,0,385,350,-0.0292,8039.0908,6.8213,0.4212,54.894966,9.798653,108.3,5.845,1.85,30.00,54.895348,9.797490,54.894039,9.801540
1386963874,1,0,119.0,0,0,4,0,385,400,-0.0292,8039.0908,6.8213,0.4212,54.894958,9.798680,108.3,5.845,1.85,30.00,54.895348,9.797490,54.894039,9.801540
1386963875,1,0,119.1,0,0,0,0,385,350,-0.0292,8039.0908,6.8213,0.4212,54.894951,9.798707,108.3,5.845,1.85,30.00,54.895348,9.797490,54.894039,9.801540
1386963875,1,0,119.1,0,0,4,0,385,400,-0.0292,8039.0908,6.8213,0.4212,54.894939,9.798735,108.3,5.845,1.85,30.00,54.895348,9.797490,54.894039,9.801540
1386963875,1,0,119.0,0,0,0,0,385,350,-0.0292,8039.0908,6.8213,0.4212,54.894932,9.798761,108.3,5.845,1.85,30.00,54.895348,9.797490,54.894039,9.801540
1386963875,1,0,119.0,0,0,4,0,385,400,-0.0292,8039.0908,6.8213,0.4212,54.894924,9.798788,108.3,5.845,1.85,30.00,54.895348,9.797490,54.894039,9.801540
1386963876,1,0,119.1,0,0,0,0,385,350,-0.0292,8039.0908,6.8213,0.4212,54.894913,9.798816,108.3,5.845,1.85,30.00,54.895348,9.797490,54.894039,9.801540
1386963876,1,0,119.0,0,0,4,0,385,400,-0.0292,8039.0908,6.8213,0.4212,54.894905,9.798842,108.3,5.845,1.85,30.00,54.895348,9.797490,54.894039,9.801540
1386963876,1,0,119.0,0,0,0,0,385,350,-0.0292,8039.0908,6.8213,0.4212,54.894897,9.798870,108.3,5.845,1.85,30.00,54.895348,9.797490,54.894039,9.801540
1386963876,1,0,119.1,0,0,4,0,385,400,-0.0292,8039.0908,6.8213,0.4212,54.894886,9.798898,108.3,5.845,1.85,30.00,54.895348,9.797490,54.894039,9.801540
1386963877,1,0,119.0,0,0,0,0,385,350,-0.0292,8039.0908,6.8213,0.4212,54.894878,9.798924,108.3,5.845,1.85,30.00,54.895348,9.797490,54.894039,9.801540
1386963877,1,0,119.0,0,0,4,0,385,400,-0.0292,8039.0908,6.8213,0.4212,54.894867,9.798952,108.3,5.845,1.85,30.00,54.895348,9.797490,54.894039,9.801540
1386963877,1,0,118.9,0,0,0,0,385,350,-0.0292,8039.0908,6.8213,0.4212,54.894859,9.798980,108.3,5.845,1.85,30.00,54.895348,9.797490,54.894039,9.801540
1386963877,1,0,119.0,0,0,4,0,385,400,-0.0292,8039.0908,6.8213,0.4212,54.894852,9.799006,108.3,5.845,1.85,30.00,54.895348,9.797490,54.894039,9.801540
1386963878,1,0,119.0,0,0,0,0,385,350,-0.0292,8039.0908,6.8213,0.4212,54.894840,9.799034,108.3,5.845,1.85,30.00,54.895348,9.797490,54.894039,9.801540
1386963878,1,0,118.9,0,0,4,0,385,400,-0.0292,8039.0908,6.8213,0.4212,54.894833,9.799061,108.3,5.845,1.85,30.00,54.895348,9.797490,54.894039,9.801540
1386963878,1,0,118.9,0,0,0,0,385,350,-0.0292,8039.0908,6.8213,0.4212,54.894825,9.799088,108.3,5.845,1.85,30.00,54.895348,9.797490,54.894039,9.801540
1386963878,1,0,119.0,0,0,4,0,385,400,-0.0292,8039.0908,6.8213,0.4212,54.894814,9.799116,108.3,5.845,1.85,30.00,54.895348,9.797490,54.894039,9.801540
1386963879,1,0,118.9,0,0,0,0,385,350,-0.0292,8039.0908,6.8213,0.4212,54.894806,9.799143,108.3,5.845,1.85,30.00,54.895348,9.797490,54.894039,9.801540
1386963879,1,0,118.9,0,0,4,0,385,400,-0.0292,8039.0908,6.8213,0.4212,54.894794,9.799170,108.3,5.845,1.85,30.00,54.895348,9.797490,54.894039,9.801540
1386963879,1,0,118.8,0,0,0,0,385,350,-0.0292,8039.0908,6.8213,0.4212,54.894787,9.799198,108.3,5.845,1.85,30.00,54.895348,9.797490,54.894039,9.801540
1386963879,1,0,118.9,0,0,4,0,385,400,-0.0292,8039.0908,6.8213,0.4212,54.894779,9.799225,108.3,5.845,1.85,30.00,54.895348,9.797490,54.894039,9.801540
1386963880,1,0,118.9,0,0,0,0,385,350,-0.0292,8039.0908,6.8213,0.4212,54.894768,9.799253,108.3,5.845,1.85,30.00,54.895348,9.797490,54.894039,9.801540
1386963880,1,0,118.8,0,0,4,0,385,400,-0.0292,8039.0908,6.8213,0.4212,54.894760,9.799280,108.3,5.845,1.85,30.00,54.895348,9.797490,54.894039,9.801540
1386963880,1,0,118.9,0,0,0,0,385,350,-0.0292,8039.0908,6.8213,0.4212,54.894753,9.799307,108.3,5.845,1.85,30.00,54.895348,9.797490,54.894039,9.801540
1386963880,1,0,118.9,0,0,4,0,385,400,-0.0292,8039.0908,6.8213,0.4212,54.894741,9.799335,108.3,5.845,1.85,30.00,54.895348,9.797490,54.894039,9.801540
1386963881,1,0,118.8,0,0,0,0,385,350,-0.0292,8039.0908,6.8213,0.4212,54.894733,9.799361,108.3,5.845,1.85,30.00,54.895348,9.797490,54.894039,9.801540
1386963881,1,0,118.8,0,0,4,0,385,400,-0.0292,8039.0908,6.8213,0.4212,54.894726,9.799389,108.3,5.845,1.85,30.00,54.895348,9.797490,54.894039,9.801540
1386963881,1,0,118.9,0,0,0,0,385,350,-0.0292,8039.0908,6.8213,0.4212,54.894714,9.799417,108.3,5.845,1.85,30.00,54.895348,9.797490,54.894039,9.801540
1386963881,1,0,118.8,0,0,4,0,385,400,-0.0292,8039.0908,6.8213,0.4212,54.894707,9.799443,108.3,5.845,1.85,30.00,54.895348,9.797490,54.894039,9.801540
1386963882,1,0,118.8,0,0,0,0,385,350,-0.0292,8039.0908,6.8213,0.4212,54.894695,9.799471,108.3,5.845,1.85,30.00,54.895348,9.797490,54.894039,9.801540
1386963882,1,0,118.7,0,0,4,0,385,400,-0.0292,8039.0908,6.8213,0.4212,54.894688,9.799499,108.3,5.845,1.85,30.00,54.895348,9.797490,54.894039,9.801540
1386963882,1,0,118.8,0,0,0,0,385,350,-0.0292,8039.0908,6.8213,0.4212,54.894680,9.799525,108.3,5.845,1.85,30.00,54.895348,9.797490,54.894039,9.801540
1386963882,1,0,118.8,0,0,4,0,385,400,-0.0292,8039.0908,6.8213,0.4212,54.894669,9.799553,108.3,5.845,1.85,30.00,54.895348,9.797490,54.894039,9.801540
1386963883,1,0,118.7,0,0,0,0,385,350,-0.0292,8039.0908,6.8213,0.4212,54.894661,9.799581,108.3,5.845,1.85,30.00,54.895348,9.797490,54.894039,9.801540
1386963883,1,0,118.7,0,0,4,0,385,400,-0.0292,8039.0908,6.8213,0.4212,54.894653,9.799607,108.3,5.845,1.85,30.00,54.895348,9.797490,54.894039,9.801540
1386963883,1,0,118.8,0,0,0,0,385,350,-0.0292,8039.0908,6.8213,0.4212,54.894642,9.799635,108.3,5.845,1.85,30.00,54.895348,9.797490,54.894039,9.801540
1386963883,1,0,118.7,0,0,4,0,385,400,-0.0292,8039.0908,6.8213,0.4212,54.894634,9.799662,108.3,5.845,1.85,30.00,54.895348,9.797490,54.894039,9.801540
1386963884,1,0,118.7,0,0,0,0,385,350,-0.0292,8039.0908,6.8213,0.4212,54.894623,9.799688,108.3,5.845,1.85,30.00,54.895348,9.797490,54.894039,9.801540
1386963884,1,0,118.6,0,1,4,0,385,400,-0.0292,8038.7573,6.8213,0.4212,54.894615,9.799716,108.3,5.845,1.85,30.00,54.895348,9.797490,54.894039,9.801540
1386963884,1,0,118.6,0,0,0,0,379,350,-0.0292,8038.7573,6.8213,0.4212,54.894608,9.799743,108.3,5.845,1.85,30.00,54.895348,9.797490,54.894039,9.801540
1386963884,1,0,118.7,0,0,4,0,379,400,-0.0292,8038.7573,6.8213,0.4212,54.894596,9.799770,108.3,5.845,1.85,30.00,54.895348,9.797490,54.894039,9.801540
1386963885,1,0,118.5,0,0,0,0,379,350,-0.0292,8038.7573,6.8213,0.4212,54.894588,9.799798,108.3,5.845,1.85,30.00,54.895348,9.797490,54.894039,9.801540
1386963885,1,0,118.6,0,0,4,0,379,400,-0.0292,8038.7573,6.8213,0.4212,54.894581,9.799825,108.3,5.845,1.85,30.00,54.895348,9.797490,54.894039,9.801540
1386963885,1,0,118.6,0,0,0,0,379,350,-0.0292,8038.7573,6.8213,0.4212,54.894569,9.799852,108.3,5.845,1.85,30.00,54.895348,9.797490,54.894039,9.801540
1386963885,1,0,118.5,0,0,4,0,379,400,-0.0292,8038.7573,6.8213,0.4212,54.894562,9.799880,108.3,5.845,1.85,30.00,54.895348,9.797490,54.894039,9.801540
1386963886,1,0,118.5,0,0,0,0,379,350,-0.0292,8038.7573,6.8213,0.4212,54.894554,9.799907,108.3,5.845,1.85,30.00,54.895348,9.797490,54.894039,9.801540
1386963886,1,0,118.6,0,0,4,0,379,400,-0.0292,8038.7573,6.8213,0.4212,54.894543,9.799934,108.3,5.845,1.85,30.00,54.895348,9.797490,54.894039,9.801540
1386963886,1,0,118.5,0,0,0,0,379,350,-0.0292,8038.7573,6.8213,0.4212,54.894535,9.799962,108.3,5.845,1.85,30.00,54.895348,9.797490,54.894039,9.801540
1386963886,1,0,118.5,0,0,4,0,379,400,-0.0292,8038.7573,6.8213,0.4212,54.894524,9.799989,108.3,5.845,1.85,30.00,54.895348,9.797490,54.894039,9.801540
1386963887,1,0,118.4,0,0,0,0,379,350,-0.0292,8038.7573,6.8213,0.4212,54.894516,9.800016,108.3,5.845,1.85,30.00,54.895348,9.797490,54.894039,9.801540
1386963887,1,0,118.4,0,0,4,0,379,400,-0.0292,8038.7573,6.8213,0.4212,54.894508,9.800043,108.3,5.845,1.85,30.00,54.895348,9.797490,54.894039,9.801540
1386963887,1,0,118.4,0,0,0,0,379,350,-0.0292,8038.7573,6.8213,0.4212,54.894497,9.800071,108.3,5.845,1.85,30.00,54.895348,9.797490,54.894039,9.801540
1386963887,1,0,118.3,0,0,4,0,379,400,-0.0292,8038.7573,6.8213,0.4212,54.894489,9.800098,108.3,5.845,1.85,30.00,54.895348,9.797490,54.894039,9.801540
1386963888,1,0,118.3,0,0,0,0,379,350,-0.0292,8038.7573,6.8213,0.4212,54.894482,9.800125,108.3,5.845,1.85,30.00,54.895348,9.797490,54.894039,9.801540
1386963888,1,0,118.4,0,0,4,0,379,400,-0.0292,8038.7573,6.8213,0.4212,54.894470,9.800153,108.3,5.845,1.85,30.00,54.895348,9.797490,54.894039,9.801540
1386963888,1,0,118.2,0,1,0,0,379,350,-0.0292,8038.4238,6.8213,0.4212,54.894463,9.800180,108.3,5.845,1.85,30.00,54.895348,9.797490,54.894039,9.801540
1386963888,1,0,118.3,0,0,4,0,374,400,-0.0292,8038.4238,6.8213,0.4212,54.894455,9.800207,108.3,5.845,1.85,30.00,54.895348,9.797490,54.894039,9.801540
1386963889,1,0,118.3,0,0,0,0,374,350,-0.0292,8038.4238,6.8213,0.4212,54.894444,9.800235,108.3,5.845,1.85,30.00,54.895348,9.797490,54.894039,9.801540
1386963889,1,0,118.2,0,0,4,0,374,400,-0.0292,8038.4238,6.8213,0.4212,54.894436,9.800262,108.3,5.845,1.85,30.00,54.895348,9.797490,54.894039,9.801540
1386963889,1,0,118.2,0,0,0,0,374,350,-0.0292,8038.4238,6.8213,0.4212,54.894424,9.800289,108.3,5.845,1.85,30.00,54.895348,9.797490,54.894039,9.801540
1386963889,1,0,118.0,0,0,4,0,374,400,-0.0292,8038.4238,6.8213,0.4212,54.894417,9.800317,108.3,5.845,1.85,30.00,54.895348,9.797490,54.894039,9.801540
1386963890,1,0,118.1,0,0,0,0,374,350,-0.0292,8038.4238,6.8213,0.4212,54.894409,9.800344,108.3,5.845,1.85,30.00,54.895348,9.797490,54.894039,9.801540
1386963890,1,0,118.1,0,0,4,0,374,400,-0.0292,8038.4238,6.8213,0.4212,54.894398,9.800372,108.3,5.845,1.85,30.00,54.895348,9.797490,54.894039,9.801540
1386963890,1,0,117.9,0,0,0,0,374,350,-0.0292,8038.4238,6.8213,0.4212,54.894390,9.800400,108.3,5.845,1.85,30.00,54.895348,9.797490,54.894039,9.801540
1386963890,1,0,118.0,0,0,4,0,374,400,-0.0292,8038.4238,6.8213,0.4212,54.894382,9.800427,108.3,5.845,1.85,30.00,54.895348,9.797490,54.894039,9.801540
1386963891,1,0,118.1,0,0,0,0,374,350,-0.0292,8038.4238,6.8213,0.4212,54.894371,9.800455,108.3,5.845,1.85,30.00,54.895348,9.797490,54.894039,9.801540
1386963891,1,0,117.9,0,1,4,0,374,400,-0.0292,8038.0903,6.8213,0.4212,54.894363,9.800483,108.3,5.845,1.85,30.00,54.895348,9.797490,54.894039,9.801540
1386963891,1,0,117.9,0,0,0,0,369,350,-0.0292,8038.0903,6.8213,0.4212,54.894356,9.800510,108.3,5.845,1.85,30.00,54.895348,9.797490,54.894039,9.801540
1386963891,1,0,118.0,0,0,4,0,369,400,-0.0292,8038.0903,6.8213,0.4212,54.894344,9.800538,108.3,5.845,1.85,30.00,54.895348,9.797490,54.894039,9.801540
1386963892,1,0,117.8,0,0,0,0,369,350,-0.0292,8038.0903,6.8213,0.4212,54.894337,9.800566,108.3,5.845,1.85,30.00,54.895348,9.797490,54.894039,9.801540
1386963892,1,0,117.8,0,0,4,0,369,400,-0.0292,8038.0903,6.8213,0.4212,54.894325,9.800592,108.3,5.845,1.85,30.00,54.895348,9.797490,54.894039,9.801540
1386963892,1,0,117.5,0,1,0,0,369,350,-0.0292,8037.7568,6.8213,0.4212,54.894318,9.800620,108.3,5.845,1.85,30.00,54.895348,9.797490,54.894039,9.801540
1386963892,1,0,117.6,0,0,4,0,363,400,-0.0292,8037.7568,6.8213,0.4212,54.894310,9.800648,108.3,5.845,1.85,30.00,54.895348,9.797490,54.894039,9.801540
1386963893,1,0,117.7,0,0,0,0,363,350,-0.0292,8037.7568,6.8213,0.4212,54.894299,9.800674,108.3,5.845,1.85,30.00,54.895348,9.797490,54.894039,9.801540
1386963893,1,0,117.4,0,0,4,0,363,400,-0.0292,8037.7568,6.8213,0.4212,54.894291,9.800702,108.3,5.845,1.85,30.00,54.895348,9.797490,54.894039,9.801540
1386963893,1,0,117.4,0,0,0,0,363,350,-0.0292,8037.7568,6.8213,0.4212,54.894283,9.800730,108.3,5.845,1.85,30.00,54.895348,9.797490,54.894039,9.801540
1386963893,1,0,117.5,0,0,4,0,363,400,-0.0292,8037.7568,6.8213,0.4212,54.894272,9.800757,108.3,5.845,1.85,30.00,54.895348,9.797490,54.894039,9.801540
1386963894,1,0,117.2,0,1,0,0,363,350,-0.0292,8037.4233,6.8213,0.4212,54.894264,9.800785,108.3,5.845,1.85,30.00,54.895348,9.797490,54.894039,9.801540
1386963894,1,0,117.2,0,0,4,0,358,400,-0.0292,8037.4233,6.8213,0.4212,54.894257,9.800813,108.3,5.845,1.85,30.00,54.895348,9.797490,54.894039,9.801540
1386963894,1,0,117.3,0,0,0,0,358,350,-0.0292,8037.4233,6.8213,0.4212,54.894249,9.800840,108.3,5.845,1.85,30.00,54.895348,9.797490,54.894039,9.801540
1386963894,1,0,117.4,0,0,4,0,358,400,-0.0292,8037.4233,6.8213,0.4212,54.894241,9.800868,108.3,5.845,1.85,30.00,54.895348,9.797490,54.894039,9.801540
1386963895,1,0,117.5,0,0,0,0,358,350,-0.0292,8037.4233,6.8213,0.4212,54.894234,9.800896,108.3,5.845,1.85,30.00,54.895348,9.797490,54.894039,9.801540
1386963895,1,0,117.5,0,0,4,0,358,400,-0.0292,8037.4233,6.8213,0.4212,54.894222,9.800923,108.3,5.845,1.85,30.00,54.895348,9.797490,54.894039,9.801540
1386963895,1,0,117.2,0,0,0,0,358,350,-0.0292,8037.4233,6.8213,0.4212,54.894215,9.800951,108.3,5.845,1.85,30.00,54.895348,9.797490,54.894039,9.801540
1386963895,1,0,117.2,0,0,4,0,358,400,-0.0292,8037.4233,6.8213,0.4212,54.894207,9.800979,108.3,5.845,1.85,30.00,54.895348,9.797490,54.894039,9.801540
1386963896,1,0,117.3,0,0,0,0,358,350,-0.0292,8037.4233,6.8213,0.4212,54.894199,9.801006,108.3,5.845,1.85,30.00,54.895348,9.797490,54.894039,9.801540
1386963896,1,0,117.4,0,0,4,0,358,400,-0.0292,8037.4233,6.8213,0.4212,54.894192,9.801034,108.3,5.845,1.85,30.00,54.895348,9.797490,54.894039,9.801540
1386963896,1,0,117.5,0,0,0,0,358,350,-0.0292,8037.4233,6.8213,0.4212,54.894184,9.801062,108.3,5.845,1.85,30.00,54.895348,9.797490,54.894039,9.801540
1386963896,1,0,117.6,0,0,4,0,358,400,-0.0292,8037.4233,6.8213,0.4212,54.894173,9.801089,108.3,5.845,1.85,30.00,54.895348,9.797490,54.894039,9.801540
1386963897,1,0,117.1,0,0,0,0,358,350,-0.0292,8037.4233,6.8213,0.4212,54.894165,9.801117,108.3,5.845,1.85,30.00,54.895348,9.797490,54.894039,9.801540
1386963897,1,0,117.2,0,0,4,0,358,400,-0.0292,8037.4233,6.8213,0.4212,54.894157,9.801146,108.3,5.845,1.85,30.00,54.895348,9.797490,54.894039,9.801540
1386963897,1,0,117.4,0,0,0,0,358,350,-0.0292,8037.4233,6.8213,0.4212,54.894150,9.801173,108.3,5.845,1.85,30.00,54.895348,9.797490,54.894039,9.801540
1386963898,1,0,117.5,0,0,4,0,358,400,-0.0292,8037.4233,6.8213,0.4212,54.894142,9.801201,108.3,5.845,1.85,30.00,54.895348,9.797490,54.894039,9.801540
1386963898,1,0,117.7,0,0,0,0,358,350,-0.0292,8037.4233,6.8213,0.4212,54.894135,9.801229,108.3,5.845,1.85,30.00,54.895348,9.797490,54.894039,9.801540
1386963898,1,0,117.9,0,0,4,0,358,400,-0.0292,8037.4233,6.8213,0.4212,54.894123,9.801256,108.3,5.845,1.85,30.00,54.895348,9.797490,54.894039,9.801540
1386963898,1,0,117.0,0,0,0,0,358,350,-0.0292,8037.4233,6.8213,0.4212,54.894115,9.801284,108.3,5.845,1.85,30.00,54.895348,9.797490,54.894039,9.801540
1386963899,1,0,117.2,0,0,4,0,358,400,-0.0292,8037.4233,6.8213,0.4212,54.894108,9.801311,108.3,5.845,1.85,30.00,54.895348,9.797490,54.894039,9.801540
1386963899,1,0,117.4,0,0,0,0,358,350,-0.0292,8037.4233,6.8213,0.4212,54.894100,9.801339,108.3,5.845,1.85,30.00,54.895348,9.797490,54.894039,9.801540
1386963899,1,0,117.7,0,0,4,0,358,400,-0.0292,8037.4233,6.8213,0.4212,54.894093,9.801367,108.3,5.845,1.85,30.00,54.895348,9.797490,54.894039,9.801540
1386963899,1,0,118.0,0,-1,0,0,358,350,-0.0292,8037.7568,6.8213,0.4212,54.894085,9.801394,108.3,5.845,1.85,30.00,54.895348,9.797490,54.894039,9.801540
1386963900,1,0,118.5,0,-1,-4,0,363,400,-0.0292,8038.0903,6.8213,0.4212,54.894077,9.801422,108.3,5.845,1.85,30.00,54.895348,9.797490,54.894039,9.801540
1386963900,1,0,119.1,0,-1,0,0,369,350,-0.0292,8038.4238,6.8213,0.4212,54.894070,9.801449,108.3,5.845,1.85,30.00,54.895348,9.797490,54.894039,9.801540
1386963900,1,0,119.9,0,-2,-4,0,374,400,-0.0292,8039.0903,6.8213,0.4212,54.894062,9.801476,108.3,5.845,1.85,30.00,54.895348,9.797490,54.894039,9.801540
1386963900,1,0,121.8,0,-3,0,0,385,350,-0.0292,8040.0903,6.8213,0.4212,54.894051,9.801503,108.3,5.845,1.85,30.00,54.894039,9.801540,54.892338,9.806957
1386963901,1,0,118.5,0,2,4,0,401,400,-0.0292,8039.4238,6.8213,0.4212,54.894043,9.801531,108.3,5.845,1.85,30.00,54.894039,9.801540,54.892338,9.806957
1386963901,1,0,118.5,0,1,0,0,390,350,-0.0292,8039.0903,6.8213,0.4212,54.894032,9.801558,108.3,5.845,1.85,30.00,54.894039,9.801540,54.892338,9.806957
1386963901,1,0,118.5,0,1,4,0,385,400,-0.0292,8038.7568,6.8213,0.4212,54.894024,9.801585,108.3,5.845,1.85,30.00,54.894039,9.801540,54.892338,9.806957
1386963901,1,0,118.5,0,0,0,0,379,350,-0.0292,8038.7568,6.8213,0.4212,54.894016,9.801613,108.3,5.845,1.85,30.00,54.894039,9.801540,54.892338,9.806957
1386963902,1,0,118.5,0,0,4,0,379,400,-0.0292,8038.7568,6.8213,0.4212,54.894005,9.801641,108.3,5.845,1.85,30.00,54.894039,9.801540,54.892338,9.806957
1386963902,1,0,118.5,0,0,0,0,379,350,-0.0292,8038.7568,6.8213,0.4212,54.893997,9.801667,108.3,5.845,1.85,30.00,54.894039,9.801540,54.892338,9.806957
1386963902,1,0,118.5,0,0,4,0,379,400,-0.0292,8038.7568,6.8213,0.4212,54.893990,9.801695,108.3,5.845,1.85,30.00,54.894039,9.801540,54.892338,9.806957
1386963902,1,0,118.5,0,0,0,0,379,350,-0.0292,8038.7568,6.8213,0.4212,54.893978,9.801723,108.3,5.845,1.85,30.00,54.894039,9.801540,54.892338,9.806957
1386963903,1,0,118.4,0,0,4,0,379,400,-0.0292,8038.7568,6.8213,0.4212,54.893970,9.801749,108.3,5.845,1.85,30.00,54.894039,9.801540,54.892338,9.806957
1386963903,1,0,118.4,0,0,0,0,379,350,-0.0292,8038.7568,6.8213,0.4212,54.893963,9.801777,108.3,5.845,1.85,30.00,54.894039,9.801540,54.892338,9.806957
1386963903,1,0,118.5,0,0,4,0,379,400,-0.0292,8038.7568,6.8213,0.4212,54.893951,9.801805,108.3,5.845,1.85,30.00,54.894039,9.801540,54.892338,9.806957
1386963903,1,0,118.4,0,0,0,0,379,350,-0.0292,8038.7568,6.8213,0.4212,54.893944,9.801832,108.3,5.845,1.85,30.00,54.894039,9.801540,54.892338,9.806957
1386963904,1,0,118.4,0,0,4,0,379,400,-0.0292,8038.7568,6.8213,0.4212,54.893932,9.801860,108.3,5.845,1.85,30.00,54.894039,9.801540,54.892338,9.806957
1386963904,1,0,118.4,0,0,0,0,379,350,-0.0292,8038.7568,6.8213,0.4212,54.893925,9.801887,108.3,5.845,1.85,30.00,54.894039,9.801540,54.892338,9.806957
1386963904,1,0,118.4,0,0,4,0,379,400,-0.0292,8038.7568,6.8213,0.4212,54.893917,9.801914,108.3,5.845,1.85,30.00,54.894039,9.801540,54.892338,9.806957
1386963904,1,0,118.4,0,0,0,0,379,350,-0.0292,8038.7568,6.8213,0.4212,54.893906,9.801942,108.3,5.845,1.85,30.00,54.894039,9.801540,54.892338,9.806957
1386963905,1,0,118.4,0,0,4,0,379,400,-0.0292,8038.7568,6.8213,0.4212,54.893898,9.801969,108.3,5.845,1.85,30.00,54.894039,9.801540,54.892338,9.806957
1386963905,1,0,118.4,0,0,0,0,379,350,-0.0292,8038.7568,6.8213,0.4212,54.893890,9.801996,108.3,5.845,1.85,30.00,54.894039,9.801540,54.892338,9.806957
1386963905,1,0,118.4,0,0,4,0,379,400,-0.0292,8038.7568,6.8213,0.4212,54.893879,9.802024,108.3,5.845,1.85,30.00,54.894039,9.801540,54.892338,9.806957
1386963905,1,0,118.4,0,0,0,0,379,350,-0.0292,8038.7568,6.8213,0.4212,54.893871,9.802051,108.3,5.845,1.85,30.00,54.894039,9.801540,54.892338,9.806957
1386963906,1,0,118.4,0,0,4,0,379,400,-0.0292,8038.7568,6.8213,0.4212,54.893860,9.802078,108.3,5.845,1.85,30.00,54.894039,9.801540,54.892338,9.806957
1386963906,1,0,118.3,0,0,0,0,379,350,-0.0292,8038.7568,6.8213,0.4212,54.893852,9.802106,108.3,5.845,1.85,30.00,54.894039,9.801540,54.892338,9.806957
1386963906,1,0,118.3,0,0,4,0,379,400,-0.0292,8038.7568,6.8213,0.4212,54.893845,9.802133,108.3,5.845,1.85,30.00,54.894039,9.801540,54.892338,9.806957
1386963906,1,0,118.4,0,0,0,0,379,350,-0.0292,8038.7568,6.8213,0.4212,54.893833,9.802160,108.3,5.845,1.85,30.00,54.894039,9.801540,54.892338,9.806957
1386963907,1,0,118.3,0,0,4,0,379,400,-0.0292,8038.7568,6.8213,0.4212,54.893826,9.802187,108.3,5.845,1.85,30.00,54.894039,9.801540,54.892338,9.806957
1386963907,1,0,118.3,0,0,0,0,379,350,-0.0292,8038.7568,6.8213,0.4212,54.893818,9.802215,108.3,5.845,1.85,30.00,54.894039,9.801540,54.892338,9.806957
1386963907,1,0,118.3,0,0,4,0,379,400,-0.0292,8038.7568,6.8213,0.4212,54.893806,9.802242,108.3,5.845,1.85,30.00,54.894039,9.801540,54.892338,9.806957
1386963907,1,0,118.3,0,0,0,0,379,350,-0.0292,8038.7568,6.8213,0.4212,54.893799,9.802269,108.3,5.845,1.85,30.00,54.894039,9.801540,54.892338,9.806957
1386963908,1,0,118.3,0,0,4,0,379,400,-0.0292,8038.7568,6.8213,0.4212,54.893791,9.802297,108.3,5.845,1.85,30.00,54.894039,9.801540,54.892338,9.806957
1386963908,1,0,118.3,0,0,0,0,379,350,-0.0292,8038.7568,6.8213,0.4212,54.893780,9.802324,108.3,5.845,1.85,30.00,54.894039,9.801540,54.892338,9.806957
1386963908,1,0,118.3,0,0,4,0,379,400,-0.0292,8038.7568,6.8213,0.4212,54.893772,9.802351,108.3,5.845,1.85,30.00,54.894039,9.801540,54.892338,9.806957
1386963908,1,0,118.3,0,0,0,0,379,350,-0.0292,8038.7568,6.8213,0.4212,54.893761,9.802379,108.3,5.845,1.85,30.00,54.894039,9.801540,54.892338,9.806957
1386963909,1,0,118.2,0,1,4,0,379,400,-0.0292,8038.4233,6.8213,0.4212,54.893753,9.802406,108.3,5.845,1.85,30.00,54.894039,9.801540,54.892338,9.806957
1386963909,1,0,118.3,0,0,0,0,374,350,-0.0292,8038.4233,6.8213,0.4212,54.893745,9.802433,108.3,5.845,1.85,30.00,54.894039,9.801540,54.892338,9.806957
1386963909,1,0,118.3,0,0,4,0,374,400,-0.0292,8038.4233,6.8213,0.4212,54.893734,9.802461,108.3,5.845,1.85,30.00,54.894039,9.801540,54.892338,9.806957
1386963909,1,0,118.2,0,0,0,0,374,350,-0.0292,8038.4233,6.8213,0.4212,54.893726,9.802488,108.3,5.845,1.85,30.00,54.894039,9.801540,54.892338,9.806957
1386963910,1,0,118.2,0,0,4,0,374,400,-0.0292,8038.4233,6.8213,0.4212,54.893719,9.802516,108.3,5.845,1.85,30.00,54.894039,9.801540,54.892338,9.806957
1386963910,1,0,118.3,0,0,0,0,374,350,-0.0292,8038.4233,6.8213,0.4212,54.893707,9.802544,108.3,5.845,1.85,30.00,54.894039,9.801540,54.892338,9.806957
1386963910,1,0,118.2,0,0,4,0,374,400,-0.0292,8038.4233,6.8213,0.4212,54.893700,9.802571,108.3,5.845,1.85,30.00,54.894039,9.801540,54.892338,9.806957
1386963910,1,0,118.2,0,0,0,0,374,350,-0.0292,8038.4233,6.8213,0.4212,54.893692,9.802599,108.3,5.845,1.85,30.00,54.894039,9.801540,54.892338,9.806957
1386963911,1,0,118.2,0,0,4,0,374,400,-0.0292,8038.4233,6.8213,0.4212,54.893681,9.802627,108.3,5.845,1.85,30.00,54.894039,9.801540,54.892338,9.806957
1386963911,1,0,118.2,0,0,0,0,374,350,-0.0292,8038.4233,6.8213,0.4212,54.893673,9.802653,108.3,5.845,1.85,30.00,54.894039,9.801540,54.892338,9.806957
1386963911,1,0,118.2,0,0,4,0,374,400,-0.0292,8038.4233,6.8213,0.4212,54.893661,9.802681,108.3,5.845,1.85,30.00,54.894039,9.801540,54.892338,9.806957
1386963911,1,0,118.1,0,0,0,0,374,350,-0.0292,8038.4233,6.8213,0.4212,54.893654,9.802709,108.3,5.845,1.85,30.00,54.894039,9.801540,54.892338,9.806957
1386963912,1,0,118.2,0,0,4,0,374,400,-0.0292,8038.4233,6.8213,0.4212,54.893646,9.802735,108.3,5.845,1.85,30.00,54.894039,9.801540,54.892338,9.806957
1386963912,1,0,118.2,0,0,0,0,374,350,-0.0292,8038.4233,6.8213,0.4212,54.893635,9.802763,108.3,5.845,1.85,30.00,54.894039,9.801540,54.892338,9.806957
1386963912,1,0,118.1,0,0,4,0,374,400,-0.0292,8038.4233,6.8213,0.4212,54.893627,9.802791,108.3,5.845,1.85,30.00,54.894039,9.801540,54.892338,9.806957
1386963912,1,0,118.1,0,0,0,0,374,350,-0.0292,8038.4233,6.8213,0.4212,54.893620,9.802817,108.3,5.845,1.85,30.00,54.894039,9.801540,54.892338,9.806957
1386963913,1,0,118.2,0,0,4,0,374,400,-0.0292,8038.4233,6.8213,0.4212,54.893608,9.802845,108.3,5.845,1.85,30.00,54.894039,9.801540,54.892338,9.806957
1386963913,1,0,118.1,0,0,0,0,374,350,-0.0292,8038.4233,6.8213,0.4212,54.893600,9.802873,108.3,5.845,1.85,30.00,54.894039,9.801540,54.892338,9.806957
1386963913,1,0,118.1,0,0,4,0,374,400,-0.0292,8038.4233,6.8213,0.4212,54.893593,9.802900,108.3,5.845,1.85,30.00,54.894039,9.801540,54.892338,9.806957
1386963913,1,0,118.1,0,0,0,0,374,350,-0.0292,8038.4233,6.8213,0.4212,54.893585,9.802928,108.3,5.845,1.85,30.00,54.894039,9.801540,54.892338,9.806957
1386963914,1,0,118.1,0,0,4,0,374,400,-0.0292,8038.4233,6.8213,0.4212,54.893578,9.802955,108.3,5.845,1.85,30.00,54.894039,9.801540,54.892338,9.806957
1386963914,1,0,118.2,0,0,0,0,374,350,-0.0292,8038.4233,6.8213,0.4212,54.893570,9.802982,108.3,5.845,1.85,30.00,54.894039,9.801540,54.892338,9.806957
1386963914,1,0,118.2,0,0,4,0,374,400,-0.0292,8038.4233,6.8213,0.4212,54.893559,9.803010,108.3,5.845,1.85,30.00,54.894039,9.801540,54.892338,9.806957
1386963914,1,0,118.1,0,0,0,0,374,350,-0.0292,8038.4233,6.8213,0.4212,54.893551,9.803037,108.3,5.845,1.85,30.00,54.894039,9.801540,54.892338,9.806957
1386963915,1,0,118.1,0,0,4,0,374,400,-0.0292,8038.4233,6.8213,0.4212,54.893539,9.803064,108.3,5.845,1.85,30.00,54.894039,9.801540,54.892338,9.806957
1386963915,1,0,118.1,0,0,0,0,374,350,-0.0292,8038.4233,6.8213,0.4212,54.893532,9.803092,108.3,5.845,1.85,30.00,54.894039,9.801540,54.892338,9.806957
1386963915,0,0,118.1,0,0,0,0,374,350,-0.0292,8038.4233,6.8213,0.4212,54.893532,9.803092,108.3,5.845,1.85,30.00,54.894039,9.801540,54.892338,9.806957
1386963915,0,0,118.1,0,0,0,0,374,350,-0.0292,8038.4233,6.8213,0.4212,54.893532,9.803092,108.3,5.845,1.85,30.00,54.894039,9.801540,54.892338,9.806957
1386963916,0,0,118.1,0,0,0,0,374,350,-0.0292,8038.4233,6.8213,0.4212,54.893532,9.803092,108.3,5.845,1.85,30.00,54.894039,9.801540,54.892338,9.806957
1386963916,0,0,118.1,0,0,0,0,374,350,-0.0292,8038.4233,6.8213,0.4212,54.893532,9.803092,108.3,5.845,1.85,30.00,54.894039,9.801540,54.892338,9.806957
1386963916,0,0,118.1,0,0,0,0,374,350,-0.0292,8038.4233,6.8213,0.4212,54.893532,9.803092,108.3,5.845,1.85,30.00,54.894039,9.801540,54.892338,9.806957
1386963916,0,0,118.1,0,0,0,0,374,350,-0.0292,8038.4233,6.8213,0.4212,54.893532,9.803092,108.3,5.845,1.85,30.00,54.894039,9.801540,54.892338,9.806957
1386963917,0,0,118.1,0,0,0,0,374,350,-0.0292,8038.4233,6.8213,0.4212,54.893532,9.803092,108.3,5.845,1.85,30.00,54.894039,9.801540,54.892338,9.806957
1386963917,0,0,118.1,0,0,0,0,374,350,-0.0292,8038.4233,6.8213,0.4212,54.893532,9.803092,108.3,5.845,1.85,30.00,54.894039,9.801540,54.892338,9.806957
1386963917,0,0,118.1,0,0,0,0,374,350,-0.0292,8038.4233,6.8213,0.4212,54.893532,9.803092,108.3,5.845,1.85,30.00,54.894039,9.801540,54.892338,9.806957
1386963917,0,0,118.1,0,0,0,0,374,350,-0.0292,8038.4233,6.8213,0.4212,54.893532,9.803092,108.3,5.845,1.85,30.00,54.894039,9.801540,54.892338,9.806957
1386963918,0,0,118.1,0,0,0,0,374,350,-0.0292,8038.4233,6.8213,0.4212,54.893532,9.803092,108.3,5.845,1.85,30.00,54.894039,9.801540,54.892338,9.806957
1386963918,0,0,118.1,0,0,0,0,374,350,-0.0292,8038.4233,6.8213,0.4212,54.893532,9.803092,108.3,5.845,1.85,30.00,54.894039,9.801540,54.892338,9.806957
1386963918,0,0,118.1,0,0,0,0,374,350,-0.0292,8038.4233,6.8213,0.4212,54.893532,9.803092,108.3,5.845,1.85,30.00,54.894039,9.801540,54.892338,9.806957
1386963918,0,0,118.1,0,0,0,0,374,350,-0.0292,8038.4233,6.8213,0.4212,54.893532,9.803092,108.3,5.845,1.85,30.00,54.894039,9.801540,54.892338,9.806957
1386963919,0,0,118.1,0,0,0,0,374,350,-0.0292,8038.4233,6.8213,0.4212,54.893532,9.803092,108.3,5.845,1.85,30.00,54.894039,9.801540,54.892338,9.806957
1386963919,0,0,118.1,0,0,0,0,374,350,-0.0292,8038.4233,6.8213,0.4212,54.893532,9.803092,108.3,5.845,1.85,30.00,54.894039,9.801540,54.892338,9.806957
1386963919,0,0,118.1,0,0,0,0,374,350,-0.0292,8038.4233,6.8213,0.4212,54.893532,9.803092,108.3,5.845,1.85,30.00,54.894039,9.801540,54.892338,9.806957
1386963919,0,0,118.1,0,0,0,0,374,350,-0.0292,8038.4233,6.8213,0.4212,54.893532,9.803092,108.3,5.845,1.85,30.00,54.894039,9.801540,54.892338,9.806957
1386963920,0,0,118.1,0,0,0,0,374,350,-0.0292,8038.4233,6.8213,0.4212,54.893532,9.803092,108.3,5.845,1.85,30.00,54.894039,9.801540,54.892338,9.806957
1386963920,0,0,118.1,0,0,0,0,374,350,-0.0292,8038.4233,6.8213,0.4212,54.893532,9.803092,108.3,5.845,1.85,30.00,54.894039,9.801540,54.892338,9.806957
1386963920,0,0,118.1,0,0,0,0,374,350,-0.0292,8038.4233,6.8213,0.4212,54.893532,9.803092,108.3,5.845,1.85,30.00,54.894039,9.801540,54.892338,9.806957
1386963920,0,0,118.1,0,0,0,0,374,350,-0.0292,8038.4233,6.8213,0.4212,54.893532,9.803092,108.3,5.845,1.85,30.00,54.894039,9.801540,54.892338,9.806957
1386963921,0,0,118.1,0,0,0,0,374,350,-0.0292,8038.4233,6.8213,0.4212,54.893532,9.803092,108.3,5.845,1.85,30.00,54.894039,9.801540,54.892338,9.806957
1386963921,0,0,118.1,0,0,0,0,374,350,-0.0292,8038.4233,6.8213,0.4212,54.893532,9.803092,108.3,5.845,1.85,30.00,54.894039,9.801540,54.892338,9.806957
1386963921,0,0,118.1,0,0,0,0,374,350,-0.0292,8038.4233,6.8213,0.4212,54.893532,9.803092,108.3,5.845,1.85,30.00,54.894039,9.801540,54.892338,9.806957
1386963921,0,0,118.1,0,0,0,0,374,350,-0.0292,8038.4233,6.8213,0.4212,54.893532,9.803092,108.3,5.845,1.85,30.00,54.894039,9.801540,54.892338,9.806957
1386963922,0,0,118.1,0,0,0,0,374,350,-0.0292,8038.4233,6.8213,0.4212,54.893532,9.803092,108.3,5.845,1.85,30.00,54.894039,9.801540,54.892338,9.806957
1386963922,0,0,118.1,0,0,0,0,374,350,-0.0292,8038.4233,6.8213,0.4212,54.893532,9.803092,108.3,5.845,1.85,30.00,54.894039,9.801540,54.892338,9.806957
1386963922,0,0,118.1,0,0,0,0,374,350,-0.0292,8038.4233,6.8213,0.4212,54.893532,9.803092,108.3,5.845,1.85,30.00,54.894039,9.801540,54.892338,9.806957
