MCU_timestamp,Navigation_System,Manual_Control,Guidance_Heading,Manual_Ctrl_Rudder,Rudder_Desired_Angle,Rudder_Feedback,Manual_Ctrl_Sail,Sail_Desired_Pos,Sail_Feedback,Rate,Heading,Pitch,Roll,Latitude,Longitude,COG,SOG,Wind_Speed,Wind_Angle,Point_Start_Lat,Point_Start_Lon,Point_End_Lat,Point_End_Lon
1386865763,0,0,0.0,0,0,0,0,0,0,-0.0292,-384.3748,6.8213,0.4212,54.898712,9.793711,108.3,5.845,1.85,335.95,0.000000,0.000000,0.000000,0.000000
1386865763,0,0,0.0,0,0,0,0,0,0,-0.0292,-384.3748,6.8213,0.4212,54.898712,9.793711,108.3,5.845,1.85,335.95,0.000000,0.000000,0.000000,0.000000
1386865764,0,0,0.0,0,0,0,0,0,0,-0.0292,-384.3748,6.8213,0.4212,54.898712,9.793711,108.3,5.845,1.85,335.95,0.000000,0.000000,0.000000,0.000000
1386865764,0,0,0.0,0,0,0,0,0,0,-0.0292,-384.3748,6.8213,0.4212,54.898712,9.793711,108.3,5.845,1.85,335.95,0.000000,0.000000,0.000000,0.000000
1386865764,0,0,0.0,0,0,0,0,0,0,-0.0292,-384.3748,6.8213,0.4212,54.898712,9.793711,108.3,5.845,1.85,335.95,0.000000,0.000000,0.000000,0.000000
1386865764,0,0,0.0,0,0,0,0,0,0,-0.0292,-384.3748,6.8213,0.4212,54.898712,9.793711,108.3,5.845,1.85,335.95,0.000000,0.000000,0.000000,0.000000
1386865765,0,0,0.0,0,0,0,0,0,0,-0.0292,-384.3748,6.8213,0.4212,54.898712,9.793711,108.3,5.845,1.85,335.95,0.000000,0.000000,0.000000,0.000000
1386865765,0,0,0.0,0,0,0,0,0,0,-0.0292,-384.3748,6.8213,0.4212,54.898712,9.793711,108.3,5.845,1.85,335.95,0.000000,0.000000,0.000000,0.000000
1386865765,0,0,0.0,0,0,0,0,0,0,-0.0292,-384.3748,6.8213,0.4212,54.898712,9.793711,108.3,5.845,1.85,335.95,0.000000,0.000000,0.000000,0.000000
1386865765,0,0,0.0,0,0,0,0,0,0,-0.0292,-384.3748,6.8213,0.4212,54.898712,9.793711,108.3,5.845,1.85,335.95,0.000000,0.000000,0.000000,0.000000
1386865766,0,0,0.0,0,0,0,0,0,0,-0.0292,-384.3748,6.8213,0.4212,54.898712,9.793711,108.3,5.845,1.85,335.95,0.000000,0.000000,0.000000,0.000000
1386865766,0,0,0.0,0,0,0,0,0,0,-0.0292,-384.3748,6.8213,0.4212,54.898712,9.793711,108.3,5.845,1.85,335.95,0.000000,0.000000,0.000000,0.000000
1386865766,0,0,0.0,0,0,0,0,0,0,-0.0292,-384.3748,6.8213,0.4212,54.898712,9.793711,108.3,5.845,1.85,335.95,0.000000,0.000000,0.000000,0.000000
1386865766,0,0,0.0,0,0,0,0,0,0,-0.0292,-384.3748,6.8213,0.4212,54.898712,9.793711,108.3,5.845,1.85,335.95,0.000000,0.000000,0.000000,0.000000
1386865767,0,0,0.0,0,0,0,0,0,0,-0.0292,-384.3748,6.8213,0.4212,54.898712,9.793711,108.3,5.845,1.85,335.95,0.000000,0.000000,0.000000,0.000000
1386865767,0,0,0.0,0,0,0,0,0,0,-0.0292,-384.3748,6.8213,0.4212,54.898712,9.793711,108.3,5.845,1.85,335.95,0.000000,0.000000,0.000000,0.000000
1386865767,0,0,0.0,0,0,0,0,0,0,-0.0292,-384.3748,6.8213,0.4212,54.898712,9.793711,108.3,5.845,1.85,335.95,0.000000,0.000000,0.000000,0.000000
1386865767,0,0,0.0,0,0,0,0,0,0,-0.0292,-384.3748,6.8213,0.4212,54.898712,9.793711,108.3,5.845,1.85,335.95,0.000000,0.000000,0.000000,0.000000
1386865768,0,0,0.0,0,0,0,0,0,0,-0.0292,-384.3748,6.8213,0.4212,54.898712,9.793711,108.3,5.845,1.85,335.95,0.000000,0.000000,0.000000,0.000000
1386865768,0,0,0.0,0,0,0,0,0,0,-0.0292,-384.3748,6.8213,0.4212,54.898712,9.793711,108.3,5.845,1.85,335.95,0.000000,0.000000,0.000000,0.000000
1386865768,0,0,0.0,0,0,0,0,0,0,-0.0292,-384.3748,6.8213,0.4212,54.898712,9.793711,108.3,5.845,1.85,335.95,0.000000,0.000000,0.000000,0.000000
1386865768,0,0,0.0,0,0,0,0,0,0,-0.0292,-384.3748,6.8213,0.4212,54.898712,9.793711,108.3,5.845,1.85,335.95,0.000000,0.000000,0.000000,0.000000
1386865769,0,0,0.0,0,0,0,0,0,0,-0.0292,-384.3748,6.8213,0.4212,54.898712,9.793711,108.3,5.845,1.85,335.95,0.000000,0.000000,0.000000,0.000000
1386865769,4,0,0.0,0,0,0,0,0,0,-0.0292,-384.3748,6.8213,0.4212,54.898712,9.793711,108.3,5.845,1.85,335.95,0.000000,0.000000,0.000000,0.000000
1386865769,1,0,485.9,0,-35,-4,0,0,25,-0.0292,-375.0415,6.8213,0.4212,54.898727,9.793702,108.3,5.845,1.85,335.95,54.898712,9.793711,54.895069,9.793790
1386865769,1,0,485.9,0,-35,-8,0,0,0,-0.0292,-365.7082,6.8213,0.4212,54.898746,9.793699,108.3,5.845,1.85,335.95,54.898712,9.793711,54.895069,9.793790
1386865770,1,0,485.9,0,-35,-12,0,0,25,-0.0292,-356.3748,6.8213,0.4212,54.898766,9.793701,108.3,5.845,1.85,335.95,54.898712,9.793711,54.895069,9.793790
1386865770,1,0,485.9,0,-35,-16,0,0,0,-0.0292,-347.0415,6.8213,0.4212,54.898781,9.793709,108.3,5.845,1.85,335.95,54.898712,9.793711,54.895069,9.793790
1386865770,1,0,485.9,0,-35,-20,0,0,25,-0.0292,-337.7081,6.8213,0.4212,54.898800,9.793720,108.3,5.845,1.85,335.95,54.898712,9.793711,54.895069,9.793790
1386865770,1,0,485.9,0,-35,-24,0,0,0,-0.0292,-328.3748,6.8213,0.4212,54.898815,9.793736,108.3,5.845,1.85,335.95,54.898712,9.793711,54.895069,9.793790
1386865771,1,0,485.9,0,-35,-28,0,0,25,-0.0292,-319.0414,6.8213,0.4212,54.898827,9.793757,108.3,5.845,1.85,335.95,54.898712,9.793711,54.895069,9.793790
1386865771,1,0,485.9,0,-35,-32,0,28,50,-0.0292,-309.7081,6.8213,0.4212,54.898838,9.793781,108.3,5.845,1.85,335.95,54.898712,9.793711,54.895069,9.793790
1386865771,1,0,485.9,0,-35,-36,0,92,75,-0.0292,-300.3748,6.8213,0.4212,54.898846,9.793809,108.3,5.845,1.85,335.95,54.898712,9.793711,54.895069,9.793790
1386865771,1,0,485.9,0,-35,-32,0,171,100,-0.0292,-291.0414,6.8213,0.4212,54.898853,9.793839,108.3,5.845,1.85,335.95,54.898712,9.793711,54.895069,9.793790
1386865772,1,0,485.9,0,-35,-36,0,257,125,-0.0292,-281.7081,6.8213,0.4212,54.898857,9.793869,108.3,5.845,1.85,335.95,54.898712,9.793711,54.895069,9.793790
1386865772,1,0,485.9,0,-35,-32,0,342,150,-0.0292,-272.3747,6.8213,0.4212,54.898857,9.793900,108.3,5.845,1.85,335.95,54.898712,9.793711,54.895069,9.793790
1386865772,1,0,485.9,0,-35,-36,0,424,175,-0.0292,-263.0414,6.8213,0.4212,54.898853,9.793932,108.3,5.845,1.85,335.95,54.898712,9.793711,54.895069,9.793790
1386865772,1,0,485.9,0,-29,-32,0,501,200,-0.0292,-255.3080,6.8213,0.4212,54.898849,9.793962,108.3,5.845,1.85,335.95,54.898712,9.793711,54.895069,9.793790
1386865773,1,0,485.9,0,-21,-28,0,561,225,-0.0292,-249.7080,6.8213,0.4212,54.898846,9.793990,108.3,5.845,1.85,335.95,54.898712,9.793711,54.895069,9.793790
1386865773,1,0,485.9,0,-16,-24,0,578,250,-0.0292,-245.4414,6.8213,0.4212,54.898838,9.794019,108.3,5.845,1.85,335.95,54.898712,9.793711,54.895069,9.793790
1386865773,1,0,485.9,0,-11,-20,0,409,275,-0.0292,-242.5080,6.8213,0.4212,54.898830,9.794046,108.3,5.845,1.85,335.95,54.898712,9.793711,54.895069,9.793790
1386865773,1,0,485.9,0,-8,-16,0,409,300,-0.0292,-240.3747,6.8213,0.4212,54.898823,9.794073,108.3,5.845,1.85,335.95,54.898712,9.793711,54.895069,9.793790
1386865774,1,0,485.9,0,-6,-12,0,409,325,-0.0292,-238.7747,6.8213,0.4212,54.898815,9.794100,108.3,5.845,1.85,335.95,54.898712,9.793711,54.895069,9.793790
1386865774,1,0,485.9,0,-5,-8,0,409,350,-0.0292,-237.4414,6.8213,0.4212,54.898804,9.794126,108.3,5.845,1.85,335.95,54.898712,9.793711,54.895069,9.793790
1386865774,1,0,485.9,0,-3,-4,0,0,325,-0.0292,-236.6414,6.8213,0.4212,54.898796,9.794152,108.3,5.845,1.85,335.95,54.898712,9.793711,54.895069,9.793790
1386865774,1,0,485.9,0,-3,0,0,0,300,-0.0292,-235.8414,6.8213,0.4212,54.898785,9.794178,108.3,5.845,1.85,335.95,54.898712,9.793711,54.895069,9.793790
1386865775,1,0,485.9,0,-2,-4,0,0,275,-0.0292,-235.3080,6.8213,0.4212,54.898773,9.794203,108.3,5.845,1.85,335.95,54.898712,9.793711,54.895069,9.793790
1386865775,1,0,485.9,0,-1,0,0,0,250,-0.0292,-235.0414,6.8213,0.4212,54.898762,9.794229,108.3,5.845,1.85,335.95,54.898712,9.793711,54.895069,9.793790
1386865775,1,0,485.9,0,-1,-4,0,0,225,-0.0292,-234.7747,6.8213,0.4212,54.898750,9.794253,108.3,5.845,1.85,335.95,54.898712,9.793711,54.895069,9.793790
1386865775,1,0,485.9,0,-1,0,0,0,200,-0.0292,-234.5080,6.8213,0.4212,54.898739,9.794279,108.3,5.845,1.85,335.95,54.898712,9.793711,54.895069,9.793790
