MCU_timestamp,Navigation_System,Manual_Control,Guidance_Heading,Manual_Ctrl_Rudder,Rudder_Desired_Angle,Rudder_Feedback,Manual_Ctrl_Sail,Sail_Desired_Pos,Sail_Feedback,Rate,Heading,Pitch,Roll,Latitude,Longitude,COG,SOG,Wind_Speed,Wind_Angle,Point_Start_Lat,Point_Start_Lon,Point_End_Lat,Point_End_Lon
1387090255,0,0,0.0,0,0,20,0,0,0,-0.0292,95.6255,6.8213,0.4212,54.896885,9.784269,108.3,5.845,1.85,335.95,0.000000,0.000000,0.000000,0.000000
1387090256,0,0,0.0,0,0,20,0,0,0,-0.0292,95.6255,6.8213,0.4212,54.896885,9.784269,108.3,5.845,1.85,335.95,0.000000,0.000000,0.000000,0.000000
1387090256,0,0,0.0,0,0,20,0,0,0,-0.0292,95.6255,6.8213,0.4212,54.896885,9.784269,108.3,5.845,1.85,335.95,0.000000,0.000000,0.000000,0.000000
1387090256,0,0,0.0,0,0,20,0,0,0,-0.0292,95.6255,6.8213,0.4212,54.896885,9.784269,108.3,5.845,1.85,335.95,0.000000,0.000000,0.000000,0.000000
1387090256,0,0,0.0,0,0,20,0,0,0,-0.0292,95.6255,6.8213,0.4212,54.896885,9.784269,108.3,5.845,1.85,335.95,0.000000,0.000000,0.000000,0.000000
1387090257,0,0,0.0,0,0,20,0,0,0,-0.0292,95.6255,6.8213,0.4212,54.896885,9.784269,108.3,5.845,1.85,335.95,0.000000,0.000000,0.000000,0.000000
1387090257,0,0,0.0,0,0,20,0,0,0,-0.0292,95.6255,6.8213,0.4212,54.896885,9.784269,108.3,5.845,1.85,335.95,0.000000,0.000000,0.000000,0.000000
1387090257,0,0,0.0,0,0,20,0,0,0,-0.0292,95.6255,6.8213,0.4212,54.896885,9.784269,108.3,5.845,1.85,335.95,0.000000,0.000000,0.000000,0.000000
1387090257,0,0,0.0,0,0,20,0,0,0,-0.0292,95.6255,6.8213,0.4212,54.896885,9.784269,108.3,5.845,1.85,335.95,0.000000,0.000000,0.000000,0.000000
1387090258,0,0,0.0,0,0,20,0,0,0,-0.0292,95.6255,6.8213,0.4212,54.896885,9.784269,108.3,5.845,1.85,335.95,0.000000,0.000000,0.000000,0.000000
1387090258,0,0,0.0,0,0,20,0,0,0,-0.0292,95.6255,6.8213,0.4212,54.896885,9.784269,108.3,5.845,1.85,335.95,0.000000,0.000000,0.000000,0.000000
1387090258,0,0,0.0,0,0,20,0,0,0,-0.0292,95.6255,6.8213,0.4212,54.896885,9.784269,108.3,5.845,1.85,335.95,0.000000,0.000000,0.000000,0.000000
1387090258,0,0,0.0,0,0,20,0,0,0,-0.0292,95.6255,6.8213,0.4212,54.896885,9.784269,108.3,5.845,1.85,335.95,0.000000,0.000000,0.000000,0.000000
1387090259,0,0,0.0,0,0,20,0,0,0,-0.0292,95.6255,6.8213,0.4212,54.896885,9.784269,108.3,5.845,1.85,335.95,0.000000,0.000000,0.000000,0.000000
1387090259,0,0,0.0,0,0,20,0,0,0,-0.0292,95.6255,6.8213,0.4212,54.896885,9.784269,108.3,5.845,1.85,335.95,0.000000,0.000000,0.000000,0.000000
1387090259,0,0,0.0,0,0,20,0,0,0,-0.0292,95.6255,6.8213,0.4212,54.896885,9.784269,108.3,5.845,1.85,335.95,0.000000,0.000000,0.000000,0.000000
1387090259,0,0,0.0,0,0,20,0,0,0,-0.0292,95.6255,6.8213,0.4212,54.896885,9.784269,108.3,5.845,1.85,335.95,0.000000,0.000000,0.000000,0.000000
1387090260,0,0,0.0,0,0,20,0,0,0,-0.0292,95.6255,6.8213,0.4212,54.896885,9.784269,108.3,5.845,1.85,335.95,0.000000,0.000000,0.000000,0.000000
1387090260,0,0,0.0,0,0,20,0,0,0,-0.0292,95.6255,6.8213,0.4212,54.896885,9.784269,108.3,5.845,1.85,335.95,0.000000,0.000000,0.000000,0.000000
1387090260,0,0,0.0,0,0,20,0,0,0,-0.0292,95.6255,6.8213,0.4212,54.896885,9.784269,108.3,5.845,1.85,335.95,0.000000,0.000000,0.000000,0.000000
1387090260,0,0,0.0,0,0,20,0,0,0,-0.0292,95.6255,6.8213,0.4212,54.896885,9.784269,108.3,5.845,1.85,335.95,0.000000,0.000000,0.000000,0.000000
1387090261,0,0,0.0,0,0,20,0,0,0,-0.0292,95.6255,6.8213,0.4212,54.896885,9.784269,108.3,5.845,1.85,335.95,0.000000,0.000000,0.000000,0.000000
1387090261,0,0,0.0,0,0,20,0,0,0,-0.0292,95.6255,6.8213,0.4212,54.896885,9.784269,108.3,5.845,1.85,335.95,0.000000,0.000000,0.000000,0.000000
1387090261,0,0,0.0,0,0,20,0,0,0,-0.0292,95.6255,6.8213,0.4212,54.896885,9.784269,108.3,5.845,1.85,335.95,0.000000,0.000000,0.000000,0.000000
1387090261,0,0,0.0,0,0,20,0,0,0,-0.0292,95.6255,6.8213,0.4212,54.896885,9.784269,108.3,5.845,1.85,335.95,0.000000,0.000000,0.000000,0.000000
1387090262,0,0,0.0,0,0,20,0,0,0,-0.0292,95.6255,6.8213,0.4212,54.896885,9.784269,108.3,5.845,1.85,335.95,0.000000,0.000000,0.000000,0.000000
1387090262,0,0,0.0,0,0,20,0,0,0,-0.0292,95.6255,6.8213,0.4212,54.896885,9.784269,108.3,5.845,1.85,335.95,0.000000,0.000000,0.000000,0.000000
1387090262,0,0,0.0,0,0,20,0,0,0,-0.0292,95.6255,6.8213,0.4212,54.896885,9.784269,108.3,5.845,1.85,335.95,0.000000,0.000000,0.000000,0.000000
1387090262,0,0,0.0,0,0,20,0,0,0,-0.0292,95.6255,6.8213,0.4212,54.896885,9.784269,108.3,5.845,1.85,335.95,0.000000,0.000000,0.000000,0.000000
1387090263,0,0,0.0,0,0,20,0,0,0,-0.0292,95.6255,6.8213,0.4212,54.896885,9.784269,108.3,5.845,1.85,335.95,0.000000,0.000000,0.000000,0.000000
1387090263,0,0,0.0,0,0,20,0,0,0,-0.0292,95.6255,6.8213,0.4212,54.896885,9.784269,108.3,5.845,1.85,335.95,0.000000,0.000000,0.000000,0.000000
1387090263,0,0,0.0,0,0,20,0,0,0,-0.0292,95.6255,6.8213,0.4212,54.896885,9.784269,108.3,5.845,1.85,335.95,0.000000,0.000000,0.000000,0.000000
1387090263,0,0,0.0,0,0,20,0,0,0,-0.0292,95.6255,6.8213,0.4212,54.896885,9.784269,108.3,5.845,1.85,335.95,0.000000,0.000000,0.000000,0.000000
1387090264,0,0,0.0,0,0,20,0,0,0,-0.0292,95.6255,6.8213,0.4212,54.896885,9.784269,108.3,5.845,1.85,335.95,0.000000,0.000000,0.000000,0.000000
1387090264,0,0,0.0,0,0,20,0,0,0,-0.0292,95.6255,6.8213,0.4212,54.896885,9.784269,108.3,5.845,1.85,335.95,0.000000,0.000000,0.000000,0.000000
1387090264,0,0,0.0,0,0,20,0,0,0,-0.0292,95.6255,6.8213,0.4212,54.896885,9.784269,108.3,5.845,1.85,335.95,0.000000,0.000000,0.000000,0.000000
1387090264,0,0,0.0,0,0,20,0,0,0,-0.0292,95.6255,6.8213,0.4212,54.896885,9.784269,108.3,5.845,1.85,335.95,0.000000,0.000000,0.000000,0.000000
1387090265,0,0,0.0,0,0,20,0,0,0,-0.0292,95.6255,6.8213,0.4212,54.896885,9.784269,108.3,5.845,1.85,335.95,0.000000,0.000000,0.000000,0.000000
1387090265,0,0,0.0,0,0,20,0,0,0,-0.0292,95.6255,6.8213,0.4212,54.896885,9.784269,108.3,5.845,1.85,335.95,0.000000,0.000000,0.000000,0.000000
1387090265,0,0,0.0,0,0,20,0,0,0,-0.0292,95.6255,6.8213,0.4212,54.896885,9.784269,108.3,5.845,1.85,335.95,0.000000,0.000000,0.000000,0.000000
1387090265,0,0,0.0,0,0,20,0,0,0,-0.0292,95.6255,6.8213,0.4212,54.896885,9.784269,108.3,5.845,1.85,335.95,0.000000,0.000000,0.000000,0.000000
1387090266,0,0,0.0,0,0,20,0,0,0,-0.0292,95.6255,6.8213,0.4212,54.896885,9.784269,108.3,5.845,1.85,335.95,0.000000,0.000000,0.000000,0.000000
1387090266,0,0,0.0,0,0,20,0,0,0,-0.0292,95.6255,6.8213,0.4212,54.896885,9.784269,108.3,5.845,1.85,335.95,0.000000,0.000000,0.000000,0.000000
1387090266,0,0,0.0,0,0,20,0,0,0,-0.0292,95.6255,6.8213,0.4212,54.896885,9.784269,108.3,5.845,1.85,335.95,0.000000,0.000000,0.000000,0.000000
1387090266,0,0,0.0,0,0,20,0,0,0,-0.0292,95.6255,6.8213,0.4212,54.896885,9.784269,108.3,5.845,1.85,335.95,0.000000,0.000000,0.000000,0.000000
1387090267,0,0,0.0,0,0,20,0,0,0,-0.0292,95.6255,6.8213,0.4212,54.896885,9.784269,108.3,5.845,1.85,335.95,0.000000,0.000000,0.000000,0.000000
1387090267,0,0,0.0,0,0,20,0,0,0,-0.0292,95.6255,6.8213,0.4212,54.896885,9.784269,108.3,5.845,1.85,335.95,0.000000,0.000000,0.000000,0.000000
1387090267,0,0,0.0,0,0,20,0,0,0,-0.0292,95.6255,6.8213,0.4212,54.896885,9.784269,108.3,5.845,1.85,335.95,0.000000,0.000000,0.000000,0.000000
1387090267,0,0,0.0,0,0,20,0,0,0,-0.0292,95.6255,6.8213,0.4212,54.896885,9.784269,108.3,5.845,1.85,335.95,0.000000,0.000000,0.000000,0.000000
1387090268,0,0,0.0,0,0,20,0,0,0,-0.0292,95.6255,6.8213,0.4212,54.896885,9.784269,108.3,5.845,1.85,335.95,0.000000,0.000000,0.000000,0.000000
1387090268,0,0,0.0,0,0,20,0,0,0,-0.0292,95.6255,6.8213,0.4212,54.896885,9.784269,108.3,5.845,1.85,335.95,0.000000,0.000000,0.000000,0.000000
1387090268,0,0,0.0,0,0,20,0,0,0,-0.0292,95.6255,6.8213,0.4212,54.896885,9.784269,108.3,5.845,1.85,335.95,0.000000,0.000000,0.000000,0.000000
1387090268,0,0,0.0,0,0,20,0,0,0,-0.0292,95.6255,6.8213,0.4212,54.896885,9.784269,108.3,5.845,1.85,335.95,0.000000,0.000000,0.000000,0.000000
1387090269,0,0,0.0,0,0,20,0,0,0,-0.0292,95.6255,6.8213,0.4212,54.896885,9.784269,108.3,5.845,1.85,335.95,0.000000,0.000000,0.000000,0.000000
1387090269,0,0,0.0,0,0,20,0,0,0,-0.0292,95.6255,6.8213,0.4212,54.896885,9.784269,108.3,5.845,1.85,335.95,0.000000,0.000000,0.000000,0.000000
1387090269,0,0,0.0,0,0,20,0,0,0,-0.0292,95.6255,6.8213,0.4212,54.896885,9.784269,108.3,5.845,1.85,335.95,0.000000,0.000000,0.000000,0.000000
1387090269,0,0,0.0,0,0,20,0,0,0,-0.0292,95.6255,6.8213,0.4212,54.896885,9.784269,108.3,5.845,1.85,335.95,0.000000,0.000000,0.000000,0.000000
1387090270,0,0,0.0,0,0,20,0,0,0,-0.0292,95.6255,6.8213,0.4212,54.896885,9.784269,108.3,5.845,1.85,335.95,0.000000,0.000000,0.000000,0.000000
1387090270,0,0,0.0,0,0,20,0,0,0,-0.0292,95.6255,6.8213,0.4212,54.896885,9.784269,108.3,5.845,1.85,335.95,0.000000,0.000000,0.000000,0.000000
1387090270,0,0,0.0,0,0,20,0,0,0,-0.0292,95.6255,6.8213,0.4212,54.896885,9.784269,108.3,5.845,1.85,335.95,0.000000,0.000000,0.000000,0.000000
1387090270,0,0,0.0,0,0,20,0,0,0,-0.0292,95.6255,6.8213,0.4212,54.896885,9.784269,108.3,5.845,1.85,335.95,0.000000,0.000000,0.000000,0.000000
1387090271,0,0,0.0,0,0,20,0,0,0,-0.0292,95.6255,6.8213,0.4212,54.896885,9.784269,108.3,5.845,1.85,335.95,0.000000,0.000000,0.000000,0.000000
1387090271,0,0,0.0,0,0,20,0,0,0,-0.0292,95.6255,6.8213,0.4212,54.896885,9.784269,108.3,5.845,1.85,335.95,0.000000,0.000000,0.000000,0.000000
1387090271,0,0,0.0,0,0,20,0,0,0,-0.0292,95.6255,6.8213,0.4212,54.896885,9.784269,108.3,5.845,1.85,335.95,0.000000,0.000000,0.000000,0.000000
1387090271,0,0,0.0,0,0,20,0,0,0,-0.0292,95.6255,6.8213,0.4212,54.896885,9.784269,108.3,5.845,1.85,335.95,0.000000,0.000000,0.000000,0.000000
1387090272,0,0,0.0,0,0,20,0,0,0,-0.0292,95.6255,6.8213,0.4212,54.896885,9.784269,108.3,5.845,1.85,335.95,0.000000,0.000000,0.000000,0.000000
1387090272,0,0,0.0,0,0,20,0,0,0,-0.0292,95.6255,6.8213,0.4212,54.896885,9.784269,108.3,5.845,1.85,335.95,0.000000,0.000000,0.000000,0.000000
1387090272,0,0,0.0,0,0,20,0,0,0,-0.0292,95.6255,6.8213,0.4212,54.896885,9.784269,108.3,5.845,1.85,335.95,0.000000,0.000000,0.000000,0.000000
1387090272,0,0,0.0,0,0,20,0,0,0,-0.0292,95.6255,6.8213,0.4212,54.896885,9.784269,108.3,5.845,1.85,335.95,0.000000,0.000000,0.000000,0.000000
1387090273,0,0,0.0,0,0,20,0,0,0,-0.0292,95.6255,6.8213,0.4212,54.896885,9.784269,108.3,5.845,1.85,335.95,0.000000,0.000000,0.000000,0.000000
1387090273,0,0,0.0,0,0,20,0,0,0,-0.0292,95.6255,6.8213,0.4212,54.896885,9.784269,108.3,5.845,1.85,335.95,0.000000,0.000000,0.000000,0.000000
1387090273,0,0,0.0,0,0,20,0,0,0,-0.0292,95.6255,6.8213,0.4212,54.896885,9.784269,108.3,5.845,1.85,335.95,0.000000,0.000000,0.000000,0.000000
1387090273,0,0,0.0,0,0,20,0,0,0,-0.0292,95.6255,6.8213,0.4212,54.896885,9.784269,108.3,5.845,1.85,335.95,0.000000,0.000000,0.000000,0.000000
1387090274,0,0,0.0,0,0,20,0,0,0,-0.0292,95.6255,6.8213,0.4212,54.896885,9.784269,108.3,5.845,1.85,335.95,0.000000,0.000000,0.000000,0.000000
1387090274,0,0,0.0,0,0,20,0,0,0,-0.0292,95.6255,6.8213,0.4212,54.896885,9.784269,108.3,5.845,1.85,335.95,0.000000,0.000000,0.000000,0.000000
1387090274,0,0,0.0,0,0,20,0,0,0,-0.0292,95.6255,6.8213,0.4212,54.896885,9.784269,108.3,5.845,1.85,335.95,0.000000,0.000000,0.000000,0.000000
1387090274,0,0,0.0,0,0,20,0,0,0,-0.0292,95.6255,6.8213,0.4212,54.896885,9.784269,108.3,5.845,1.85,335.95,0.000000,0.000000,0.000000,0.000000
1387090275,0,0,0.0,0,0,20,0,0,0,-0.0292,95.6255,6.8213,0.4212,54.896885,9.784269,108.3,5.845,1.85,335.95,0.000000,0.000000,0.000000,0.000000
1387090275,0,0,0.0,0,0,20,0,0,0,-0.0292,95.6255,6.8213,0.4212,54.896885,9.784269,108.3,5.845,1.85,335.95,0.000000,0.000000,0.000000,0.000000
1387090275,0,0,0.0,0,0,20,0,0,0,-0.0292,95.6255,6.8213,0.4212,54.896885,9.784269,108.3,5.845,1.85,335.95,0.000000,0.000000,0.000000,0.000000
1387090275,0,0,0.0,0,0,20,0,0,0,-0.0292,95.6255,6.8213,0.4212,54.896885,9.784269,108.3,5.845,1.85,335.95,0.000000,0.000000,0.000000,0.000000
1387090276,0,0,0.0,0,0,20,0,0,0,-0.0292,95.6255,6.8213,0.4212,54.896885,9.784269,108.3,5.845,1.85,335.95,0.000000,0.000000,0.000000,0.000000
1387090276,0,0,0.0,0,0,20,0,0,0,-0.0292,95.6255,6.8213,0.4212,54.896885,9.784269,108.3,5.845,1.85,335.95,0.000000,0.000000,0.000000,0.000000
1387090276,0,0,0.0,0,0,20,0,0,0,-0.0292,95.6255,6.8213,0.4212,54.896885,9.784269,108.3,5.845,1.85,335.95,0.000000,0.000000,0.000000,0.000000
1387090276,0,0,0.0,0,0,20,0,0,0,-0.0292,95.6255,6.8213,0.4212,54.896885,9.784269,108.3,5.845,1.85,335.95,0.000000,0.000000,0.000000,0.000000
1387090277,0,0,0.0,0,0,20,0,0,0,-0.0292,95.6255,6.8213,0.4212,54.896885,9.784269,108.3,5.845,1.85,335.95,0.000000,0.000000,0.000000,0.000000
1387090277,0,0,0.0,0,0,20,0,0,0,-0.0292,95.6255,6.8213,0.4212,54.896885,9.784269,108.3,5.845,1.85,335.95,0.000000,0.000000,0.000000,0.000000
1387090277,0,0,0.0,0,0,20,0,0,0,-0.0292,95.6255,6.8213,0.4212,54.896885,9.784269,108.3,5.845,1.85,335.95,0.000000,0.000000,0.000000,0.000000
1387090277,0,0,0.0,0,0,20,0,0,0,-0.0292,95.6255,6.8213,0.4212,54.896885,9.784269,108.3,5.845,1.85,335.95,0.000000,0.000000,0.000000,0.000000
1387090278,0,0,0.0,0,0,20,0,0,0,-0.0292,95.6255,6.8213,0.4212,54.896885,9.784269,108.3,5.845,1.85,335.95,0.000000,0.000000,0.000000,0.000000
1387090278,0,0,0.0,0,0,20,0,0,0,-0.0292,95.6255,6.8213,0.4212,54.896885,9.784269,108.3,5.845,1.85,335.95,0.000000,0.000000,0.000000,0.000000
1387090278,0,0,0.0,0,0,20,0,0,0,-0.0292,95.6255,6.8213,0.4212,54.896885,9.784269,108.3,5.845,1.85,335.95,0.000000,0.000000,0.000000,0.000000
1387090278,0,0,0.0,0,0,20,0,0,0,-0.0292,95.6255,6.8213,0.4212,54.896885,9.784269,108.3,5.845,1.85,335.95,0.000000,0.000000,0.000000,0.000000
1387090279,0,0,0.0,0,0,20,0,0,0,-0.0292,95.6255,6.8213,0.4212,54.896885,9.784269,108.3,5.845,1.85,335.95,0.000000,0.000000,0.000000,0.000000
1387090279,0,0,0.0,0,0,20,0,0,0,-0.0292,95.6255,6.8213,0.4212,54.896885,9.784269,108.3,5.845,1.85,335.95,0.000000,0.000000,0.000000,0.000000
1387090279,0,0,0.0,0,0,20,0,0,0,-0.0292,95.6255,6.8213,0.4212,54.896885,9.784269,108.3,5.845,1.85,335.95,0.000000,0.000000,0.000000,0.000000
1387090279,0,0,0.0,0,0,20,0,0,0,-0.0292,95.6255,6.8213,0.4212,54.896885,9.784269,108.3,5.845,1.85,335.95,0.000000,0.000000,0.000000,0.000000
1387090280,0,0,0.0,0,0,20,0,0,0,-0.0292,95.6255,6.8213,0.4212,54.896885,9.784269,108.3,5.845,1.85,335.95,0.000000,0.000000,0.000000,0.000000
1387090280,0,0,0.0,0,0,20,0,0,0,-0.0292,95.6255,6.8213,0.4212,54.896885,9.784269,108.3,5.845,1.85,335.95,0.000000,0.000000,0.000000,0.000000
1387090280,0,0,0.0,0,0,20,0,0,0,-0.0292,95.6255,6.8213,0.4212,54.896885,9.784269,108.3,5.845,1.85,335.95,0.000000,0.000000,0.000000,0.000000
1387090280,0,0,0.0,0,0,20,0,0,0,-0.0292,95.6255,6.8213,0.4212,54.896885,9.784269,108.3,5.845,1.85,335.95,0.000000,0.000000,0.000000,0.000000
1387090281,0,0,0.0,0,0,20,0,0,0,-0.0292,95.6255,6.8213,0.4212,54.896885,9.784269,108.3,5.845,1.85,335.95,0.000000,0.000000,0.000000,0.000000
1387090281,0,0,0.0,0,0,20,0,0,0,-0.0292,95.6255,6.8213,0.4212,54.896885,9.784269,108.3,5.845,1.85,335.95,0.000000,0.000000,0.000000,0.000000
1387090281,0,0,0.0,0,0,20,0,0,0,-0.0292,95.6255,6.8213,0.4212,54.896885,9.784269,108.3,5.845,1.85,335.95,0.000000,0.000000,0.000000,0.000000
1387090281,0,0,0.0,0,0,20,0,0,0,-0.0292,95.6255,6.8213,0.4212,54.896885,9.784269,108.3,5.845,1.85,335.95,0.000000,0.000000,0.000000,0.000000
1387090282,0,0,0.0,0,0,20,0,0,0,-0.0292,95.6255,6.8213,0.4212,54.896885,9.784269,108.3,5.845,1.85,335.95,0.000000,0.000000,0.000000,0.000000
1387090282,0,0,0.0,0,0,20,0,0,0,-0.0292,95.6255,6.8213,0.4212,54.896885,9.784269,108.3,5.845,1.85,335.95,0.000000,0.000000,0.000000,0.000000
1387090282,0,0,0.0,0,0,20,0,0,0,-0.0292,95.6255,6.8213,0.4212,54.896885,9.784269,108.3,5.845,1.85,335.95,0.000000,0.000000,0.000000,0.000000
1387090282,0,0,0.0,0,0,20,0,0,0,-0.0292,95.6255,6.8213,0.4212,54.896885,9.784269,108.3,5.845,1.85,335.95,0.000000,0.000000,0.000000,0.000000
1387090283,0,0,0.0,0,0,20,0,0,0,-0.0292,95.6255,6.8213,0.4212,54.896885,9.784269,108.3,5.845,1.85,335.95,0.000000,0.000000,0.000000,0.000000
1387090283,0,0,0.0,0,0,20,0,0,0,-0.0292,95.6255,6.8213,0.4212,54.896885,9.784269,108.3,5.845,1.85,335.95,0.000000,0.000000,0.000000,0.000000
1387090283,0,0,0.0,0,0,20,0,0,0,-0.0292,95.6255,6.8213,0.4212,54.896885,9.784269,108.3,5.845,1.85,335.95,0.000000,0.000000,0.000000,0.000000
1387090283,0,0,0.0,0,0,20,0,0,0,-0.0292,95.6255,6.8213,0.4212,54.896885,9.784269,108.3,5.845,1.85,335.95,0.000000,0.000000,0.000000,0.000000
1387090284,0,0,0.0,0,0,20,0,0,0,-0.0292,95.6255,6.8213,0.4212,54.896885,9.784269,108.3,5.845,1.85,335.95,0.000000,0.000000,0.000000,0.000000
1387090284,0,0,0.0,0,0,20,0,0,0,-0.0292,95.6255,6.8213,0.4212,54.896885,9.784269,108.3,5.845,1.85,335.95,0.000000,0.000000,0.000000,0.000000
1387090284,0,0,0.0,0,0,20,0,0,0,-0.0292,95.6255,6.8213,0.4212,54.896885,9.784269,108.3,5.845,1.85,335.95,0.000000,0.000000,0.000000,0.000000
1387090284,0,0,0.0,0,0,20,0,0,0,-0.0292,95.6255,6.8213,0.4212,54.896885,9.784269,108.3,5.845,1.85,335.95,0.000000,0.000000,0.000000,0.000000
1387090285,0,0,0.0,0,0,20,0,0,0,-0.0292,95.6255,6.8213,0.4212,54.896885,9.784269,108.3,5.845,1.85,335.95,0.000000,0.000000,0.000000,0.000000
1387090285,0,0,0.0,0,0,20,0,0,0,-0.0292,95.6255,6.8213,0.4212,54.896885,9.784269,108.3,5.845,1.85,335.95,0.000000,0.000000,0.000000,0.000000
1387090285,0,0,0.0,0,0,20,0,0,0,-0.0292,95.6255,6.8213,0.4212,54.896885,9.784269,108.3,5.845,1.85,335.95,0.000000,0.000000,0.000000,0.000000
1387090285,0,0,0.0,0,0,20,0,0,0,-0.0292,95.6255,6.8213,0.4212,54.896885,9.784269,108.3,5.845,1.85,335.95,0.000000,0.000000,0.000000,0.000000
1387090286,0,0,0.0,0,0,20,0,0,0,-0.0292,95.6255,6.8213,0.4212,54.896885,9.784269,108.3,5.845,1.85,335.95,0.000000,0.000000,0.000000,0.000000
1387090286,0,0,0.0,0,0,20,0,0,0,-0.0292,95.6255,6.8213,0.4212,54.896885,9.784269,108.3,5.845,1.85,335.95,0.000000,0.000000,0.000000,0.000000
1387090286,0,0,0.0,0,0,20,0,0,0,-0.0292,95.6255,6.8213,0.4212,54.896885,9.784269,108.3,5.845,1.85,335.95,0.000000,0.000000,0.000000,0.000000
1387090286,0,0,0.0,0,0,20,0,0,0,-0.0292,95.6255,6.8213,0.4212,54.896885,9.784269,108.3,5.845,1.85,335.95,0.000000,0.000000,0.000000,0.000000
1387090287,0,0,0.0,0,0,20,0,0,0,-0.0292,95.6255,6.8213,0.4212,54.896885,9.784269,108.3,5.845,1.85,335.95,0.000000,0.000000,0.000000,0.000000
1387090287,0,0,0.0,0,0,20,0,0,0,-0.0292,95.6255,6.8213,0.4212,54.896885,9.784269,108.3,5.845,1.85,335.95,0.000000,0.000000,0.000000,0.000000
1387090287,0,0,0.0,0,0,20,0,0,0,-0.0292,95.6255,6.8213,0.4212,54.896885,9.784269,108.3,5.845,1.85,335.95,0.000000,0.000000,0.000000,0.000000
1387090287,0,0,0.0,0,0,20,0,0,0,-0.0292,95.6255,6.8213,0.4212,54.896885,9.784269,108.3,5.845,1.85,335.95,0.000000,0.000000,0.000000,0.000000
1387090288,0,0,0.0,0,0,20,0,0,0,-0.0292,95.6255,6.8213,0.4212,54.896885,9.784269,108.3,5.845,1.85,335.95,0.000000,0.000000,0.000000,0.000000
1387090288,0,0,0.0,0,0,20,0,0,0,-0.0292,95.6255,6.8213,0.4212,54.896885,9.784269,108.3,5.845,1.85,335.95,0.000000,0.000000,0.000000,0.000000
1387090288,0,0,0.0,0,0,20,0,0,0,-0.0292,95.6255,6.8213,0.4212,54.896885,9.784269,108.3,5.845,1.85,335.95,0.000000,0.000000,0.000000,0.000000
1387090288,0,0,0.0,0,0,20,0,0,0,-0.0292,95.6255,6.8213,0.4212,54.896885,9.784269,108.3,5.845,1.85,335.95,0.000000,0.000000,0.000000,0.000000
1387090289,0,0,0.0,0,0,20,0,0,0,-0.0292,95.6255,6.8213,0.4212,54.896885,9.784269,108.3,5.845,1.85,335.95,0.000000,0.000000,0.000000,0.000000
1387090289,0,0,0.0,0,0,20,0,0,0,-0.0292,95.6255,6.8213,0.4212,54.896885,9.784269,108.3,5.845,1.85,335.95,0.000000,0.000000,0.000000,0.000000
1387090289,0,0,0.0,0,0,20,0,0,0,-0.0292,95.6255,6.8213,0.4212,54.896885,9.784269,108.3,5.845,1.85,335.95,0.000000,0.000000,0.000000,0.000000
1387090289,0,0,0.0,0,0,20,0,0,0,-0.0292,95.6255,6.8213,0.4212,54.896885,9.784269,108.3,5.845,1.85,335.95,0.000000,0.000000,0.000000,0.000000
1387090290,0,0,0.0,0,0,20,0,0,0,-0.0292,95.6255,6.8213,0.4212,54.896885,9.784269,108.3,5.845,1.85,335.95,0.000000,0.000000,0.000000,0.000000
1387090290,0,0,0.0,0,0,20,0,0,0,-0.0292,95.6255,6.8213,0.4212,54.896885,9.784269,108.3,5.845,1.85,335.95,0.000000,0.000000,0.000000,0.000000
1387090290,0,0,0.0,0,0,20,0,0,0,-0.0292,95.6255,6.8213,0.4212,54.896885,9.784269,108.3,5.845,1.85,335.95,0.000000,0.000000,0.000000,0.000000
1387090290,0,0,0.0,0,0,20,0,0,0,-0.0292,95.6255,6.8213,0.4212,54.896885,9.784269,108.3,5.845,1.85,335.95,0.000000,0.000000,0.000000,0.000000
1387090291,0,0,0.0,0,0,20,0,0,0,-0.0292,95.6255,6.8213,0.4212,54.896885,9.784269,108.3,5.845,1.85,335.95,0.000000,0.000000,0.000000,0.000000
1387090291,0,0,0.0,0,0,20,0,0,0,-0.0292,95.6255,6.8213,0.4212,54.896885,9.784269,108.3,5.845,1.85,335.95,0.000000,0.000000,0.000000,0.000000
1387090291,0,0,0.0,0,0,20,0,0,0,-0.0292,95.6255,6.8213,0.4212,54.896885,9.784269,108.3,5.845,1.85,335.95,0.000000,0.000000,0.000000,0.000000
1387090291,0,0,0.0,0,0,20,0,0,0,-0.0292,95.6255,6.8213,0.4212,54.896885,9.784269,108.3,5.845,1.85,335.95,0.000000,0.000000,0.000000,0.000000
1387090292,0,0,0.0,0,0,20,0,0,0,-0.0292,95.6255,6.8213,0.4212,54.896885,9.784269,108.3,5.845,1.85,335.95,0.000000,0.000000,0.000000,0.000000
1387090292,0,0,0.0,0,0,20,0,0,0,-0.0292,95.6255,6.8213,0.4212,54.896885,9.784269,108.3,5.845,1.85,335.95,0.000000,0.000000,0.000000,0.000000
1387090292,0,0,0.0,0,0,20,0,0,0,-0.0292,95.6255,6.8213,0.4212,54.896885,9.784269,108.3,5.845,1.85,335.95,0.000000,0.000000,0.000000,0.000000
1387090292,0,0,0.0,0,0,20,0,0,0,-0.0292,95.6255,6.8213,0.4212,54.896885,9.784269,108.3,5.845,1.85,335.95,0.000000,0.000000,0.000000,0.000000
1387090293,0,0,0.0,0,0,20,0,0,0,-0.0292,95.6255,6.8213,0.4212,54.896885,9.784269,108.3,5.845,1.85,335.95,0.000000,0.000000,0.000000,0.000000
1387090293,0,0,0.0,0,0,20,0,0,0,-0.0292,95.6255,6.8213,0.4212,54.896885,9.784269,108.3,5.845,1.85,335.95,0.000000,0.000000,0.000000,0.000000
1387090293,0,0,0.0,0,0,20,0,0,0,-0.0292,95.6255,6.8213,0.4212,54.896885,9.784269,108.3,5.845,1.85,335.95,0.000000,0.000000,0.000000,0.000000
1387090293,0,0,0.0,0,0,20,0,0,0,-0.0292,95.6255,6.8213,0.4212,54.896885,9.784269,108.3,5.845,1.85,335.95,0.000000,0.000000,0.000000,0.000000
1387090294,0,0,0.0,0,0,20,0,0,0,-0.0292,95.6255,6.8213,0.4212,54.896885,9.784269,108.3,5.845,1.85,335.95,0.000000,0.000000,0.000000,0.000000
1387090294,0,0,0.0,0,0,20,0,0,0,-0.0292,95.6255,6.8213,0.4212,54.896885,9.784269,108.3,5.845,1.85,335.95,0.000000,0.000000,0.000000,0.000000
1387090294,0,0,0.0,0,0,20,0,0,0,-0.0292,95.6255,6.8213,0.4212,54.896885,9.784269,108.3,5.845,1.85,335.95,0.000000,0.000000,0.000000,0.000000
1387090294,0,0,0.0,0,0,20,0,0,0,-0.0292,95.6255,6.8213,0.4212,54.896885,9.784269,108.3,5.845,1.85,335.95,0.000000,0.000000,0.000000,0.000000
1387090295,0,0,0.0,0,0,20,0,0,0,-0.0292,95.6255,6.8213,0.4212,54.896885,9.784269,108.3,5.845,1.85,335.95,0.000000,0.000000,0.000000,0.000000
1387090295,0,0,0.0,0,0,20,0,0,0,-0.0292,95.6255,6.8213,0.4212,54.896885,9.784269,108.3,5.845,1.85,335.95,0.000000,0.000000,0.000000,0.000000
1387090295,0,0,0.0,0,0,20,0,0,0,-0.0292,95.6255,6.8213,0.4212,54.896885,9.784269,108.3,5.845,1.85,335.95,0.000000,0.000000,0.000000,0.000000
1387090295,0,0,0.0,0,0,20,0,0,0,-0.0292,95.6255,6.8213,0.4212,54.896885,9.784269,108.3,5.845,1.85,335.95,0.000000,0.000000,0.000000,0.000000
1387090296,0,0,0.0,0,0,20,0,0,0,-0.0292,95.6255,6.8213,0.4212,54.896885,9.784269,108.3,5.845,1.85,335.95,0.000000,0.000000,0.000000,0.000000
1387090296,0,0,0.0,0,0,20,0,0,0,-0.0292,95.6255,6.8213,0.4212,54.896885,9.784269,108.3,5.845,1.85,335.95,0.000000,0.000000,0.000000,0.000000
1387090296,0,0,0.0,0,0,20,0,0,0,-0.0292,95.6255,6.8213,0.4212,54.896885,9.784269,108.3,5.845,1.85,335.95,0.000000,0.000000,0.000000,0.000000
1387090296,0,0,0.0,0,0,20,0,0,0,-0.0292,95.6255,6.8213,0.4212,54.896885,9.784269,108.3,5.845,1.85,335.95,0.000000,0.000000,0.000000,0.000000
1387090297,0,0,0.0,0,0,20,0,0,0,-0.0292,95.6255,6.8213,0.4212,54.896885,9.784269,108.3,5.845,1.85,335.95,0.000000,0.000000,0.000000,0.000000
1387090297,0,0,0.0,0,0,20,0,0,0,-0.0292,95.6255,6.8213,0.4212,54.896885,9.784269,108.3,5.845,1.85,335.95,0.000000,0.000000,0.000000,0.000000
1387090297,0,0,0.0,0,0,20,0,0,0,-0.0292,95.6255,6.8213,0.4212,54.896885,9.784269,108.3,5.845,1.85,335.95,0.000000,0.000000,0.000000,0.000000
1387090297,0,0,0.0,0,0,20,0,0,0,-0.0292,95.6255,6.8213,0.4212,54.896885,9.784269,108.3,5.845,1.85,335.95,0.000000,0.000000,0.000000,0.000000
1387090298,0,0,0.0,0,0,20,0,0,0,-0.0292,95.6255,6.8213,0.4212,54.896885,9.784269,108.3,5.845,1.85,335.95,0.000000,0.000000,0.000000,0.000000
1387090298,0,0,0.0,0,0,20,0,0,0,-0.0292,95.6255,6.8213,0.4212,54.896885,9.784269,108.3,5.845,1.85,335.95,0.000000,0.000000,0.000000,0.000000
1387090298,0,0,0.0,0,0,20,0,0,0,-0.0292,95.6255,6.8213,0.4212,54.896885,9.784269,108.3,5.845,1.85,335.95,0.000000,0.000000,0.000000,0.000000
1387090298,0,0,0.0,0,0,20,0,0,0,-0.0292,95.6255,6.8213,0.4212,54.896885,9.784269,108.3,5.845,1.85,335.95,0.000000,0.000000,0.000000,0.000000
1387090299,0,0,0.0,0,0,20,0,0,0,-0.0292,95.6255,6.8213,0.4212,54.896885,9.784269,108.3,5.845,1.85,335.95,0.000000,0.000000,0.000000,0.000000
1387090299,0,0,0.0,0,0,20,0,0,0,-0.0292,95.6255,6.8213,0.4212,54.896885,9.784269,108.3,5.845,1.85,335.95,0.000000,0.000000,0.000000,0.000000
1387090299,0,0,0.0,0,0,20,0,0,0,-0.0292,95.6255,6.8213,0.4212,54.896885,9.784269,108.3,5.845,1.85,335.95,0.000000,0.000000,0.000000,0.000000
1387090299,0,0,0.0,0,0,20,0,0,0,-0.0292,95.6255,6.8213,0.4212,54.896885,9.784269,108.3,5.845,1.85,335.95,0.000000,0.000000,0.000000,0.000000
1387090300,0,0,0.0,0,0,20,0,0,0,-0.0292,95.6255,6.8213,0.4212,54.896885,9.784269,108.3,5.845,1.85,335.95,0.000000,0.000000,0.000000,0.000000
1387090300,0,0,0.0,0,0,20,0,0,0,-0.0292,95.6255,6.8213,0.4212,54.896885,9.784269,108.3,5.845,1.85,335.95,0.000000,0.000000,0.000000,0.000000
1387090300,0,0,0.0,0,0,20,0,0,0,-0.0292,95.6255,6.8213,0.4212,54.896885,9.784269,108.3,5.845,1.85,335.95,0.000000,0.000000,0.000000,0.000000
1387090300,0,0,0.0,0,0,20,0,0,0,-0.0292,95.6255,6.8213,0.4212,54.896885,9.784269,108.3,5.845,1.85,335.95,0.000000,0.000000,0.000000,0.000000
1387090301,0,0,0.0,0,0,20,0,0,0,-0.0292,95.6255,6.8213,0.4212,54.896885,9.784269,108.3,5.845,1.85,335.95,0.000000,0.000000,0.000000,0.000000
1387090301,0,0,0.0,0,0,20,0,0,0,-0.0292,95.6255,6.8213,0.4212,54.896885,9.784269,108.3,5.845,1.85,335.95,0.000000,0.000000,0.000000,0.000000
1387090301,0,0,0.0,0,0,20,0,0,0,-0.0292,95.6255,6.8213,0.4212,54.896885,9.784269,108.3,5.845,1.85,335.95,0.000000,0.000000,0.000000,0.000000
1387090301,0,0,0.0,0,0,20,0,0,0,-0.0292,95.6255,6.8213,0.4212,54.896885,9.784269,108.3,5.845,1.85,335.95,0.000000,0.000000,0.000000,0.000000
1387090302,0,0,0.0,0,0,20,0,0,0,-0.0292,95.6255,6.8213,0.4212,54.896885,9.784269,108.3,5.845,1.85,335.95,0.000000,0.000000,0.000000,0.000000
1387090302,0,0,0.0,0,0,20,0,0,0,-0.0292,95.6255,6.8213,0.4212,54.896885,9.784269,108.3,5.845,1.85,335.95,0.000000,0.000000,0.000000,0.000000
1387090302,0,0,0.0,0,0,20,0,0,0,-0.0292,95.6255,6.8213,0.4212,54.896885,9.784269,108.3,5.845,1.85,335.95,0.000000,0.000000,0.000000,0.000000
1387090302,0,0,0.0,0,0,20,0,0,0,-0.0292,95.6255,6.8213,0.4212,54.896885,9.784269,108.3,5.845,1.85,335.95,0.000000,0.000000,0.000000,0.000000
1387090303,0,0,0.0,0,0,20,0,0,0,-0.0292,95.6255,6.8213,0.4212,54.896885,9.784269,108.3,5.845,1.85,335.95,0.000000,0.000000,0.000000,0.000000
1387090303,0,0,0.0,0,0,20,0,0,0,-0.0292,95.6255,6.8213,0.4212,54.896885,9.784269,108.3,5.845,1.85,335.95,0.000000,0.000000,0.000000,0.000000
1387090303,0,0,0.0,0,0,20,0,0,0,-0.0292,95.6255,6.8213,0.4212,54.896885,9.784269,108.3,5.845,1.85,335.95,0.000000,0.000000,0.000000,0.000000
1387090303,0,0,0.0,0,0,20,0,0,0,-0.0292,95.6255,6.8213,0.4212,54.896885,9.784269,108.3,5.845,1.85,335.95,0.000000,0.000000,0.000000,0.000000
1387090304,0,0,0.0,0,0,20,0,0,0,-0.0292,95.6255,6.8213,0.4212,54.896885,9.784269,108.3,5.845,1.85,335.95,0.000000,0.000000,0.000000,0.000000
1387090304,0,0,0.0,0,0,20,0,0,0,-0.0292,95.6255,6.8213,0.4212,54.896885,9.784269,108.3,5.845,1.85,335.95,0.000000,0.000000,0.000000,0.000000
1387090304,0,0,0.0,0,0,20,0,0,0,-0.0292,95.6255,6.8213,0.4212,54.896885,9.784269,108.3,5.845,1.85,335.95,0.000000,0.000000,0.000000,0.000000
1387090304,0,0,0.0,0,0,20,0,0,0,-0.0292,95.6255,6.8213,0.4212,54.896885,9.784269,108.3,5.845,1.85,335.95,0.000000,0.000000,0.000000,0.000000
1387090305,4,0,0.0,0,0,20,0,0,0,-0.0292,95.6255,6.8213,0.4212,54.896885,9.784269,108.3,5.845,1.85,335.95,0.000000,0.000000,0.000000,0.000000
1387090305,1,0,108.2,0,-13,16,0,855,50,-0.0292,99.9588,6.8213,0.4212,54.896885,9.784301,108.3,5.845,1.85,335.95,54.896885,9.784269,54.895069,9.793790
1387090305,1,0,108.3,0,-8,12,0,870,100,-0.0292,102.6255,6.8213,0.4212,54.896881,9.784331,108.3,5.845,1.85,335.95,54.896885,9.784269,54.895069,9.793790
1387090305,1,0,108.3,0,-6,8,0,870,150,-0.0292,104.6255,6.8213,0.4212,54.896877,9.784362,108.3,5.845,1.85,335.95,54.896885,9.784269,54.895069,9.793790
1387090306,1,0,108.3,0,-4,4,0,870,200,-0.0292,105.9588,6.8213,0.4212,54.896873,9.784391,108.3,5.845,1.85,335.95,54.896885,9.784269,54.895069,9.793790
1387090306,1,0,108.4,0,-2,0,0,870,250,-0.0292,106.6255,6.8213,0.4212,54.896866,9.784422,108.3,5.845,1.85,335.95,54.896885,9.784269,54.895069,9.793790
1387090306,1,0,108.3,0,-2,-4,0,870,300,-0.0292,107.2922,6.8213,0.4212,54.896858,9.784451,108.3,5.845,1.85,335.95,54.896885,9.784269,54.895069,9.793790
1387090306,1,0,108.3,0,-1,0,0,870,350,-0.0292,107.6255,6.8213,0.4212,54.896854,9.784481,108.3,5.845,1.85,335.95,54.896885,9.784269,54.895069,9.793790
1387090307,1,0,108.3,0,-1,-4,0,870,400,-0.0292,107.9588,6.8213,0.4212,54.896851,9.784512,108.3,5.845,1.85,335.95,54.896885,9.784269,54.895069,9.793790
1387090307,1,0,108.4,0,0,0,0,870,450,-0.0292,107.9588,6.8213,0.4212,54.896843,9.784541,108.3,5.845,1.85,335.95,54.896885,9.784269,54.895069,9.793790
1387090307,1,0,108.3,0,0,4,0,870,500,-0.0292,107.9588,6.8213,0.4212,54.896835,9.784571,108.3,5.845,1.85,335.95,54.896885,9.784269,54.895069,9.793790
1387090307,1,0,108.3,0,0,0,0,870,550,-0.0292,107.9588,6.8213,0.4212,54.896832,9.784601,108.3,5.845,1.85,335.95,54.896885,9.784269,54.895069,9.793790
1387090308,1,0,108.3,0,0,4,0,870,600,-0.0292,107.9588,6.8213,0.4212,54.896828,9.784631,108.3,5.845,1.85,335.95,54.896885,9.784269,54.895069,9.793790
1387090308,1,0,108.4,0,0,0,0,870,650,-0.0292,107.9588,6.8213,0.4212,54.896824,9.784660,108.3,5.845,1.85,335.95,54.896885,9.784269,54.895069,9.793790
1387090308,1,0,108.4,0,0,4,0,870,700,-0.0292,107.9588,6.8213,0.4212,54.896816,9.784690,108.3,5.845,1.85,335.95,54.896885,9.784269,54.895069,9.793790
1387090308,1,0,108.4,0,0,0,0,870,750,-0.0292,107.9588,6.8213,0.4212,54.896809,9.784719,108.3,5.845,1.85,335.95,54.896885,9.784269,54.895069,9.793790
1387090309,1,0,108.3,0,0,4,0,870,800,-0.0292,107.9588,6.8213,0.4212,54.896805,9.784749,108.3,5.845,1.85,335.95,54.896885,9.784269,54.895069,9.793790
1387090309,1,0,108.4,0,0,0,0,870,850,-0.0292,107.9588,6.8213,0.4212,54.896801,9.784779,108.3,5.845,1.85,335.95,54.896885,9.784269,54.895069,9.793790
1387090309,1,0,108.4,0,0,4,0,870,900,-0.0292,107.9588,6.8213,0.4212,54.896793,9.784808,108.3,5.845,1.85,335.95,54.896885,9.784269,54.895069,9.793790
1387090309,1,0,108.4,0,0,0,0,870,850,-0.0292,107.9588,6.8213,0.4212,54.896786,9.784838,108.3,5.845,1.85,335.95,54.896885,9.784269,54.895069,9.793790
1387090310,1,0,108.3,0,0,4,0,870,900,-0.0292,107.9588,6.8213,0.4212,54.896782,9.784867,108.3,5.845,1.85,335.95,54.896885,9.784269,54.895069,9.793790
1387090310,1,0,108.4,0,0,0,0,870,850,-0.0292,107.9588,6.8213,0.4212,54.896778,9.784898,108.3,5.845,1.85,335.95,54.896885,9.784269,54.895069,9.793790
1387090310,1,0,108.4,0,0,4,0,870,900,-0.0292,107.9588,6.8213,0.4212,54.896774,9.784927,108.3,5.845,1.85,335.95,54.896885,9.784269,54.895069,9.793790
1387090310,1,0,108.4,0,0,0,0,870,850,-0.0292,107.9588,6.8213,0.4212,54.896767,9.784957,108.3,5.845,1.85,335.95,54.896885,9.784269,54.895069,9.793790
1387090311,1,0,108.4,0,0,4,0,870,900,-0.0292,107.9588,6.8213,0.4212,54.896759,9.784987,108.3,5.845,1.85,335.95,54.896885,9.784269,54.895069,9.793790
1387090311,1,0,108.4,0,0,0,0,870,850,-0.0292,107.9588,6.8213,0.4212,54.896755,9.785017,108.3,5.845,1.85,335.95,54.896885,9.784269,54.895069,9.793790
1387090311,1,0,108.4,0,0,4,0,870,900,-0.0292,107.9588,6.8213,0.4212,54.896751,9.785047,108.3,5.845,1.85,335.95,54.896885,9.784269,54.895069,9.793790
1387090311,1,0,108.4,0,0,0,0,870,850,-0.0292,107.9588,6.8213,0.4212,54.896744,9.785076,108.3,5.845,1.85,335.95,54.896885,9.784269,54.895069,9.793790
1387090312,1,0,108.4,0,0,4,0,870,900,-0.0292,107.9588,6.8213,0.4212,54.896736,9.785106,108.3,5.845,1.85,335.95,54.896885,9.784269,54.895069,9.793790
1387090312,1,0,108.4,0,0,0,0,870,850,-0.0292,107.9588,6.8213,0.4212,54.896732,9.785135,108.3,5.845,1.85,335.95,54.896885,9.784269,54.895069,9.793790
1387090312,1,0,108.4,0,0,4,0,870,900,-0.0292,107.9588,6.8213,0.4212,54.896729,9.785165,108.3,5.845,1.85,335.95,54.896885,9.784269,54.895069,9.793790
1387090313,1,0,108.4,0,0,0,0,870,850,-0.0292,107.9588,6.8213,0.4212,54.896725,9.785194,108.3,5.845,1.85,335.95,54.896885,9.784269,54.895069,9.793790
1387090313,1,0,108.4,0,0,4,0,870,900,-0.0292,107.9588,6.8213,0.4212,54.896717,9.785224,108.3,5.845,1.85,335.95,54.896885,9.784269,54.895069,9.793790
1387090313,1,0,108.4,0,0,0,0,870,850,-0.0292,107.9588,6.8213,0.4212,54.896709,9.785254,108.3,5.845,1.85,335.95,54.896885,9.784269,54.895069,9.793790
1387090313,1,0,108.4,0,0,4,0,870,900,-0.0292,107.9588,6.8213,0.4212,54.896706,9.785284,108.3,5.845,1.85,335.95,54.896885,9.784269,54.895069,9.793790
1387090314,1,0,108.4,0,0,0,0,870,850,-0.0292,107.9588,6.8213,0.4212,54.896702,9.785314,108.3,5.845,1.85,335.95,54.896885,9.784269,54.895069,9.793790
1387090314,1,0,108.4,0,0,4,0,870,900,-0.0292,107.9588,6.8213,0.4212,54.896694,9.785343,108.3,5.845,1.85,335.95,54.896885,9.784269,54.895069,9.793790
1387090314,1,0,108.4,0,0,0,0,870,850,-0.0292,107.9588,6.8213,0.4212,54.896687,9.785374,108.3,5.845,1.85,335.95,54.896885,9.784269,54.895069,9.793790
1387090314,1,0,108.4,0,0,4,0,870,900,-0.0292,107.9588,6.8213,0.4212,54.896683,9.785403,108.3,5.845,1.85,335.95,54.896885,9.784269,54.895069,9.793790
1387090315,1,0,108.4,0,0,0,0,870,850,-0.0292,107.9588,6.8213,0.4212,54.896679,9.785433,108.3,5.845,1.85,335.95,54.896885,9.784269,54.895069,9.793790
1387090315,1,0,108.4,0,0,4,0,870,900,-0.0292,107.9588,6.8213,0.4212,54.896671,9.785462,108.3,5.845,1.85,335.95,54.896885,9.784269,54.895069,9.793790
1387090315,1,0,108.4,0,0,0,0,870,850,-0.0292,107.9588,6.8213,0.4212,54.896664,9.785492,108.3,5.845,1.85,335.95,54.896885,9.784269,54.895069,9.793790
1387090315,1,0,108.4,0,0,4,0,870,900,-0.0292,107.9588,6.8213,0.4212,54.896660,9.785522,108.3,5.845,1.85,335.95,54.896885,9.784269,54.895069,9.793790
1387090316,1,0,108.4,0,0,0,0,870,850,-0.0292,107.9588,6.8213,0.4212,54.896656,9.785551,108.3,5.845,1.85,335.95,54.896885,9.784269,54.895069,9.793790
1387090316,1,0,108.4,0,0,4,0,870,900,-0.0292,107.9588,6.8213,0.4212,54.896652,9.785581,108.3,5.845,1.85,335.95,54.896885,9.784269,54.895069,9.793790
1387090316,1,0,108.4,0,0,0,0,870,850,-0.0292,107.9588,6.8213,0.4212,54.896645,9.785610,108.3,5.845,1.85,335.95,54.896885,9.784269,54.895069,9.793790
1387090316,1,0,108.4,0,0,4,0,870,900,-0.0292,107.9588,6.8213,0.4212,54.896637,9.785640,108.3,5.845,1.85,335.95,54.896885,9.784269,54.895069,9.793790
1387090317,1,0,108.4,0,0,0,0,870,850,-0.0292,107.9588,6.8213,0.4212,54.896633,9.785670,108.3,5.845,1.85,335.95,54.896885,9.784269,54.895069,9.793790
1387090317,1,0,108.4,0,0,4,0,870,900,-0.0292,107.9588,6.8213,0.4212,54.896629,9.785700,108.3,5.845,1.85,335.95,54.896885,9.784269,54.895069,9.793790
1387090317,1,0,108.4,0,0,0,0,870,850,-0.0292,107.9588,6.8213,0.4212,54.896622,9.785729,108.3,5.845,1.85,335.95,54.896885,9.784269,54.895069,9.793790
1387090317,1,0,108.4,0,0,4,0,870,900,-0.0292,107.9588,6.8213,0.4212,54.896614,9.785760,108.3,5.845,1.85,335.95,54.896885,9.784269,54.895069,9.793790
1387090318,1,0,108.4,0,0,0,0,870,850,-0.0292,107.9588,6.8213,0.4212,54.896610,9.785789,108.3,5.845,1.85,335.95,54.896885,9.784269,54.895069,9.793790
1387090318,1,0,108.4,0,0,4,0,870,900,-0.0292,107.9588,6.8213,0.4212,54.896606,9.785819,108.3,5.845,1.85,335.95,54.896885,9.784269,54.895069,9.793790
1387090318,1,0,108.4,0,0,0,0,870,850,-0.0292,107.9588,6.8213,0.4212,54.896603,9.785849,108.3,5.845,1.85,335.95,54.896885,9.784269,54.895069,9.793790
1387090318,1,0,108.5,0,0,4,0,870,900,-0.0292,107.9588,6.8213,0.4212,54.896595,9.785878,108.3,5.845,1.85,335.95,54.896885,9.784269,54.895069,9.793790
1387090319,1,0,108.4,0,0,0,0,870,850,-0.0292,107.9588,6.8213,0.4212,54.896587,9.785908,108.3,5.845,1.85,335.95,54.896885,9.784269,54.895069,9.793790
1387090319,1,0,108.4,0,0,4,0,870,900,-0.0292,107.9588,6.8213,0.4212,54.896584,9.785937,108.3,5.845,1.85,335.95,54.896885,9.784269,54.895069,9.793790
1387090319,1,0,108.4,0,0,0,0,870,850,-0.0292,107.9588,6.8213,0.4212,54.896580,9.785967,108.3,5.845,1.85,335.95,54.896885,9.784269,54.895069,9.793790
1387090319,1,0,108.5,0,0,4,0,870,900,-0.0292,107.9588,6.8213,0.4212,54.896572,9.785996,108.3,5.845,1.85,335.95,54.896885,9.784269,54.895069,9.793790
1387090320,1,0,108.4,0,0,0,0,870,850,-0.0292,107.9588,6.8213,0.4212,54.896564,9.786026,108.3,5.845,1.85,335.95,54.896885,9.784269,54.895069,9.793790
1387090320,1,0,108.4,0,0,4,0,870,900,-0.0292,107.9588,6.8213,0.4212,54.896561,9.786057,108.3,5.845,1.85,335.95,54.896885,9.784269,54.895069,9.793790
1387090320,1,0,108.4,0,0,0,0,870,850,-0.0292,107.9588,6.8213,0.4212,54.896557,9.786086,108.3,5.845,1.85,335.95,54.896885,9.784269,54.895069,9.793790
1387090320,1,0,108.5,0,0,4,0,870,900,-0.0292,107.9588,6.8213,0.4212,54.896553,9.786116,108.3,5.845,1.85,335.95,54.896885,9.784269,54.895069,9.793790
1387090321,1,0,108.5,0,-1,0,0,870,850,-0.0292,108.2922,6.8213,0.4212,54.896545,9.786145,108.3,5.845,1.85,335.95,54.896885,9.784269,54.895069,9.793790
1387090321,1,0,108.5,0,0,4,0,870,900,-0.0292,108.2922,6.8213,0.4212,54.896538,9.786175,108.3,5.845,1.85,335.95,54.896885,9.784269,54.895069,9.793790
1387090321,1,0,108.4,0,0,0,0,870,850,-0.0292,108.2922,6.8213,0.4212,54.896534,9.786204,108.3,5.845,1.85,335.95,54.896885,9.784269,54.895069,9.793790
1387090321,1,0,108.5,0,0,4,0,870,900,-0.0292,108.2922,6.8213,0.4212,54.896530,9.786234,108.3,5.845,1.85,335.95,54.896885,9.784269,54.895069,9.793790
1387090322,1,0,108.5,0,0,0,0,870,850,-0.0292,108.2922,6.8213,0.4212,54.896523,9.786263,108.3,5.845,1.85,335.95,54.896885,9.784269,54.895069,9.793790
1387090322,1,0,108.5,0,0,4,0,870,900,-0.0292,108.2922,6.8213,0.4212,54.896515,9.786293,108.3,5.845,1.85,335.95,54.896885,9.784269,54.895069,9.793790
1387090322,1,0,108.4,0,0,0,0,870,850,-0.0292,108.2922,6.8213,0.4212,54.896511,9.786323,108.3,5.845,1.85,335.95,54.896885,9.784269,54.895069,9.793790
1387090322,1,0,108.5,0,0,4,0,870,900,-0.0292,108.2922,6.8213,0.4212,54.896507,9.786352,108.3,5.845,1.85,335.95,54.896885,9.784269,54.895069,9.793790
1387090323,1,0,108.5,0,0,0,0,870,850,-0.0292,108.2922,6.8213,0.4212,54.896500,9.786382,108.3,5.845,1.85,335.95,54.896885,9.784269,54.895069,9.793790
1387090323,1,0,108.5,0,0,4,0,870,900,-0.0292,108.2922,6.8213,0.4212,54.896492,9.786411,108.3,5.845,1.85,335.95,54.896885,9.784269,54.895069,9.793790
1387090323,1,0,108.4,0,0,0,0,870,850,-0.0292,108.2922,6.8213,0.4212,54.896488,9.786441,108.3,5.845,1.85,335.95,54.896885,9.784269,54.895069,9.793790
1387090323,1,0,108.5,0,0,4,0,870,900,-0.0292,108.2922,6.8213,0.4212,54.896484,9.786470,108.3,5.845,1.85,335.95,54.896885,9.784269,54.895069,9.793790
1387090324,1,0,108.5,0,0,0,0,870,850,-0.0292,108.2922,6.8213,0.4212,54.896481,9.786500,108.3,5.845,1.85,335.95,54.896885,9.784269,54.895069,9.793790
1387090324,1,0,108.5,0,0,4,0,870,900,-0.0292,108.2922,6.8213,0.4212,54.896473,9.786530,108.3,5.845,1.85,335.95,54.896885,9.784269,54.895069,9.793790
1387090324,1,0,108.5,0,0,0,0,870,850,-0.0292,108.2922,6.8213,0.4212,54.896465,9.786560,108.3,5.845,1.85,335.95,54.896885,9.784269,54.895069,9.793790
1387090324,1,0,108.5,0,0,4,0,870,900,-0.0292,108.2922,6.8213,0.4212,54.896461,9.786590,108.3,5.845,1.85,335.95,54.896885,9.784269,54.895069,9.793790
1387090325,1,0,108.5,0,0,0,0,870,850,-0.0292,108.2922,6.8213,0.4212,54.896458,9.786619,108.3,5.845,1.85,335.95,54.896885,9.784269,54.895069,9.793790
1387090325,1,0,108.5,0,0,4,0,870,900,-0.0292,108.2922,6.8213,0.4212,54.896450,9.786649,108.3,5.845,1.85,335.95,54.896885,9.784269,54.895069,9.793790
1387090325,1,0,108.5,0,0,0,0,870,850,-0.0292,108.2922,6.8213,0.4212,54.896442,9.786678,108.3,5.845,1.85,335.95,54.896885,9.784269,54.895069,9.793790
1387090325,1,0,108.5,0,0,4,0,870,900,-0.0292,108.2922,6.8213,0.4212,54.896439,9.786708,108.3,5.845,1.85,335.95,54.896885,9.784269,54.895069,9.793790
1387090326,1,0,108.5,0,0,0,0,870,850,-0.0292,108.2922,6.8213,0.4212,54.896435,9.786737,108.3,5.845,1.85,335.95,54.896885,9.784269,54.895069,9.793790
1387090326,1,0,108.5,0,0,4,0,870,900,-0.0292,108.2922,6.8213,0.4212,54.896431,9.786767,108.3,5.845,1.85,335.95,54.896885,9.784269,54.895069,9.793790
1387090326,1,0,108.5,0,0,0,0,870,850,-0.0292,108.2922,6.8213,0.4212,54.896423,9.786797,108.3,5.845,1.85,335.95,54.896885,9.784269,54.895069,9.793790
1387090326,1,0,108.5,0,0,4,0,870,900,-0.0292,108.2922,6.8213,0.4212,54.896416,9.786826,108.3,5.845,1.85,335.95,54.896885,9.784269,54.895069,9.793790
1387090327,1,0,108.5,0,0,0,0,870,850,-0.0292,108.2922,6.8213,0.4212,54.896412,9.786856,108.3,5.845,1.85,335.95,54.896885,9.784269,54.895069,9.793790
1387090327,1,0,108.5,0,0,4,0,870,900,-0.0292,108.2922,6.8213,0.4212,54.896408,9.786885,108.3,5.845,1.85,335.95,54.896885,9.784269,54.895069,9.793790
1387090327,1,0,108.5,0,0,0,0,870,850,-0.0292,108.2922,6.8213,0.4212,54.896400,9.786916,108.3,5.845,1.85,335.95,54.896885,9.784269,54.895069,9.793790
1387090327,1,0,108.5,0,0,4,0,870,900,-0.0292,108.2922,6.8213,0.4212,54.896393,9.786945,108.3,5.845,1.85,335.95,54.896885,9.784269,54.895069,9.793790
1387090328,1,0,108.5,0,0,0,0,870,850,-0.0292,108.2922,6.8213,0.4212,54.896389,9.786975,108.3,5.845,1.85,335.95,54.896885,9.784269,54.895069,9.793790
1387090328,1,0,108.5,0,0,4,0,870,900,-0.0292,108.2922,6.8213,0.4212,54.896385,9.787004,108.3,5.845,1.85,335.95,54.896885,9.784269,54.895069,9.793790
1387090328,1,0,108.5,0,0,0,0,870,850,-0.0292,108.2922,6.8213,0.4212,54.896381,9.787034,108.3,5.845,1.85,335.95,54.896885,9.784269,54.895069,9.793790
1387090328,1,0,108.6,0,0,4,0,870,900,-0.0292,108.2922,6.8213,0.4212,54.896374,9.787064,108.3,5.845,1.85,335.95,54.896885,9.784269,54.895069,9.793790
1387090329,1,0,108.5,0,0,0,0,870,850,-0.0292,108.2922,6.8213,0.4212,54.896366,9.787093,108.3,5.845,1.85,335.95,54.896885,9.784269,54.895069,9.793790
1387090329,1,0,108.5,0,0,4,0,870,900,-0.0292,108.2922,6.8213,0.4212,54.896362,9.787123,108.3,5.845,1.85,335.95,54.896885,9.784269,54.895069,9.793790
1387090329,1,0,108.5,0,0,0,0,870,850,-0.0292,108.2922,6.8213,0.4212,54.896358,9.787152,108.3,5.845,1.85,335.95,54.896885,9.784269,54.895069,9.793790
1387090329,1,0,108.6,0,0,4,0,870,900,-0.0292,108.2922,6.8213,0.4212,54.896351,9.787182,108.3,5.845,1.85,335.95,54.896885,9.784269,54.895069,9.793790
1387090330,1,0,108.5,0,0,0,0,870,850,-0.0292,108.2922,6.8213,0.4212,54.896343,9.787211,108.3,5.845,1.85,335.95,54.896885,9.784269,54.895069,9.793790
1387090330,1,0,108.5,0,0,4,0,870,900,-0.0292,108.2922,6.8213,0.4212,54.896339,9.787241,108.3,5.845,1.85,335.95,54.896885,9.784269,54.895069,9.793790
1387090330,1,0,108.5,0,0,0,0,870,850,-0.0292,108.2922,6.8213,0.4212,54.896336,9.787271,108.3,5.845,1.85,335.95,54.896885,9.784269,54.895069,9.793790
1387090330,1,0,108.6,0,0,4,0,870,900,-0.0292,108.2922,6.8213,0.4212,54.896332,9.787301,108.3,5.845,1.85,335.95,54.896885,9.784269,54.895069,9.793790
1387090331,1,0,108.6,0,0,0,0,870,850,-0.0292,108.2922,6.8213,0.4212,54.896324,9.787331,108.3,5.845,1.85,335.95,54.896885,9.784269,54.895069,9.793790
1387090331,1,0,108.6,0,0,4,0,870,900,-0.0292,108.2922,6.8213,0.4212,54.896317,9.787360,108.3,5.845,1.85,335.95,54.896885,9.784269,54.895069,9.793790
1387090331,1,0,108.5,0,0,0,0,870,850,-0.0292,108.2922,6.8213,0.4212,54.896313,9.787390,108.3,5.845,1.85,335.95,54.896885,9.784269,54.895069,9.793790
1387090331,1,0,108.6,0,0,4,0,870,900,-0.0292,108.2922,6.8213,0.4212,54.896309,9.787419,108.3,5.845,1.85,335.95,54.896885,9.784269,54.895069,9.793790
1387090332,1,0,108.6,0,0,0,0,870,850,-0.0292,108.2922,6.8213,0.4212,54.896301,9.787449,108.3,5.845,1.85,335.95,54.896885,9.784269,54.895069,9.793790
1387090332,1,0,108.6,0,0,4,0,870,900,-0.0292,108.2922,6.8213,0.4212,54.896294,9.787478,108.3,5.845,1.85,335.95,54.896885,9.784269,54.895069,9.793790
1387090332,1,0,108.5,0,0,0,0,870,850,-0.0292,108.2922,6.8213,0.4212,54.896290,9.787508,108.3,5.845,1.85,335.95,54.896885,9.784269,54.895069,9.793790
1387090332,1,0,108.6,0,0,4,0,870,900,-0.0292,108.2922,6.8213,0.4212,54.896286,9.787538,108.3,5.845,1.85,335.95,54.896885,9.784269,54.895069,9.793790
1387090333,1,0,108.6,0,0,0,0,870,850,-0.0292,108.2922,6.8213,0.4212,54.896282,9.787567,108.3,5.845,1.85,335.95,54.896885,9.784269,54.895069,9.793790
1387090333,1,0,108.6,0,0,4,0,870,900,-0.0292,108.2922,6.8213,0.4212,54.896275,9.787597,108.3,5.845,1.85,335.95,54.896885,9.784269,54.895069,9.793790
1387090333,1,0,108.6,0,0,0,0,870,850,-0.0292,108.2922,6.8213,0.4212,54.896267,9.787626,108.3,5.845,1.85,335.95,54.896885,9.784269,54.895069,9.793790
1387090333,1,0,108.6,0,0,4,0,870,900,-0.0292,108.2922,6.8213,0.4212,54.896263,9.787656,108.3,5.845,1.85,335.95,54.896885,9.784269,54.895069,9.793790
1387090334,1,0,108.6,0,0,0,0,870,850,-0.0292,108.2922,6.8213,0.4212,54.896259,9.787686,108.3,5.845,1.85,335.95,54.896885,9.784269,54.895069,9.793790
1387090334,1,0,108.6,0,0,4,0,870,900,-0.0292,108.2922,6.8213,0.4212,54.896252,9.787716,108.3,5.845,1.85,335.95,54.896885,9.784269,54.895069,9.793790
1387090334,1,0,108.6,0,0,0,0,870,850,-0.0292,108.2922,6.8213,0.4212,54.896244,9.787745,108.3,5.845,1.85,335.95,54.896885,9.784269,54.895069,9.793790
1387090334,1,0,108.6,0,0,4,0,870,900,-0.0292,108.2922,6.8213,0.4212,54.896240,9.787775,108.3,5.845,1.85,335.95,54.896885,9.784269,54.895069,9.793790
1387090335,1,0,108.6,0,0,0,0,870,850,-0.0292,108.2922,6.8213,0.4212,54.896236,9.787805,108.3,5.845,1.85,335.95,54.896885,9.784269,54.895069,9.793790
1387090335,1,0,108.6,0,0,4,0,870,900,-0.0292,108.2922,6.8213,0.4212,54.896229,9.787834,108.3,5.845,1.85,335.95,54.896885,9.784269,54.895069,9.793790
1387090335,1,0,108.6,0,0,0,0,870,850,-0.0292,108.2922,6.8213,0.4212,54.896221,9.787864,108.3,5.845,1.85,335.95,54.896885,9.784269,54.895069,9.793790
1387090335,1,0,108.6,0,0,4,0,870,900,-0.0292,108.2922,6.8213,0.4212,54.896217,9.787893,108.3,5.845,1.85,335.95,54.896885,9.784269,54.895069,9.793790
1387090336,1,0,108.6,0,0,0,0,870,850,-0.0292,108.2922,6.8213,0.4212,54.896214,9.787923,108.3,5.845,1.85,335.95,54.896885,9.784269,54.895069,9.793790
1387090336,1,0,108.6,0,0,4,0,870,900,-0.0292,108.2922,6.8213,0.4212,54.896210,9.787952,108.3,5.845,1.85,335.95,54.896885,9.784269,54.895069,9.793790
1387090336,1,0,108.7,0,0,0,0,870,850,-0.0292,108.2922,6.8213,0.4212,54.896202,9.787982,108.3,5.845,1.85,335.95,54.896885,9.784269,54.895069,9.793790
1387090336,1,0,108.6,0,0,4,0,870,900,-0.0292,108.2922,6.8213,0.4212,54.896194,9.788012,108.3,5.845,1.85,335.95,54.896885,9.784269,54.895069,9.793790
1387090337,1,0,108.6,0,0,0,0,870,850,-0.0292,108.2922,6.8213,0.4212,54.896191,9.788041,108.3,5.845,1.85,335.95,54.896885,9.784269,54.895069,9.793790
1387090337,1,0,108.6,0,0,4,0,870,900,-0.0292,108.2922,6.8213,0.4212,54.896187,9.788072,108.3,5.845,1.85,335.95,54.896885,9.784269,54.895069,9.793790
1387090337,1,0,108.7,0,0,0,0,870,850,-0.0292,108.2922,6.8213,0.4212,54.896179,9.788101,108.3,5.845,1.85,335.95,54.896885,9.784269,54.895069,9.793790
1387090337,1,0,108.6,0,0,4,0,870,900,-0.0292,108.2922,6.8213,0.4212,54.896172,9.788131,108.3,5.845,1.85,335.95,54.896885,9.784269,54.895069,9.793790
1387090338,1,0,108.6,0,0,0,0,870,850,-0.0292,108.2922,6.8213,0.4212,54.896168,9.788160,108.3,5.845,1.85,335.95,54.896885,9.784269,54.895069,9.793790
1387090338,1,0,108.6,0,0,4,0,870,900,-0.0292,108.2922,6.8213,0.4212,54.896164,9.788190,108.3,5.845,1.85,335.95,54.896885,9.784269,54.895069,9.793790
1387090338,1,0,108.7,0,0,0,0,870,850,-0.0292,108.2922,6.8213,0.4212,54.896160,9.788219,108.3,5.845,1.85,335.95,54.896885,9.784269,54.895069,9.793790
1387090338,1,0,108.7,0,0,4,0,870,900,-0.0292,108.2922,6.8213,0.4212,54.896152,9.788249,108.3,5.845,1.85,335.95,54.896885,9.784269,54.895069,9.793790
1387090339,1,0,108.7,0,0,0,0,870,850,-0.0292,108.2922,6.8213,0.4212,54.896145,9.788279,108.3,5.845,1.85,335.95,54.896885,9.784269,54.895069,9.793790
1387090339,1,0,108.6,0,0,4,0,870,900,-0.0292,108.2922,6.8213,0.4212,54.896141,9.788308,108.3,5.845,1.85,335.95,54.896885,9.784269,54.895069,9.793790
1387090339,1,0,108.7,0,0,0,0,870,850,-0.0292,108.2922,6.8213,0.4212,54.896137,9.788338,108.3,5.845,1.85,335.95,54.896885,9.784269,54.895069,9.793790
1387090339,1,0,108.7,0,0,4,0,870,900,-0.0292,108.2922,6.8213,0.4212,54.896130,9.788367,108.3,5.845,1.85,335.95,54.896885,9.784269,54.895069,9.793790
1387090340,1,0,108.7,0,0,0,0,870,850,-0.0292,108.2922,6.8213,0.4212,54.896122,9.788397,108.3,5.845,1.85,335.95,54.896885,9.784269,54.895069,9.793790
1387090340,1,0,108.6,0,0,4,0,870,900,-0.0292,108.2922,6.8213,0.4212,54.896118,9.788426,108.3,5.845,1.85,335.95,54.896885,9.784269,54.895069,9.793790
1387090340,1,0,108.7,0,0,0,0,870,850,-0.0292,108.2922,6.8213,0.4212,54.896114,9.788456,108.3,5.845,1.85,335.95,54.896885,9.784269,54.895069,9.793790
1387090340,1,0,108.7,0,0,4,0,870,900,-0.0292,108.2922,6.8213,0.4212,54.896111,9.788486,108.3,5.845,1.85,335.95,54.896885,9.784269,54.895069,9.793790
1387090341,1,0,108.7,0,0,0,0,870,850,-0.0292,108.2922,6.8213,0.4212,54.896103,9.788515,108.3,5.845,1.85,335.95,54.896885,9.784269,54.895069,9.793790
1387090341,1,0,108.7,0,0,4,0,870,900,-0.0292,108.2922,6.8213,0.4212,54.896095,9.788546,108.3,5.845,1.85,335.95,54.896885,9.784269,54.895069,9.793790
1387090341,1,0,108.7,0,0,0,0,870,850,-0.0292,108.2922,6.8213,0.4212,54.896091,9.788575,108.3,5.845,1.85,335.95,54.896885,9.784269,54.895069,9.793790
1387090341,1,0,108.7,0,0,4,0,870,900,-0.0292,108.2922,6.8213,0.4212,54.896088,9.788605,108.3,5.845,1.85,335.95,54.896885,9.784269,54.895069,9.793790
1387090342,1,0,108.8,0,0,0,0,870,850,-0.0292,108.2922,6.8213,0.4212,54.896080,9.788634,108.3,5.845,1.85,335.95,54.896885,9.784269,54.895069,9.793790
1387090342,1,0,108.7,0,0,4,0,870,900,-0.0292,108.2922,6.8213,0.4212,54.896072,9.788664,108.3,5.845,1.85,335.95,54.896885,9.784269,54.895069,9.793790
1387090342,1,0,108.7,0,0,0,0,870,850,-0.0292,108.2922,6.8213,0.4212,54.896069,9.788693,108.3,5.845,1.85,335.95,54.896885,9.784269,54.895069,9.793790
1387090343,1,0,108.7,0,0,4,0,870,900,-0.0292,108.2922,6.8213,0.4212,54.896065,9.788723,108.3,5.845,1.85,335.95,54.896885,9.784269,54.895069,9.793790
1387090343,1,0,108.8,0,0,0,0,870,850,-0.0292,108.2922,6.8213,0.4212,54.896061,9.788753,108.3,5.845,1.85,335.95,54.896885,9.784269,54.895069,9.793790
1387090343,1,0,108.8,0,-1,-4,0,870,900,-0.0292,108.6255,6.8213,0.4212,54.896053,9.788782,108.3,5.845,1.85,335.95,54.896885,9.784269,54.895069,9.793790
1387090343,1,0,108.8,0,0,0,0,870,850,-0.0292,108.6255,6.8213,0.4212,54.896046,9.788812,108.3,5.845,1.85,335.95,54.896885,9.784269,54.895069,9.793790
1387090344,1,0,108.7,0,0,4,0,870,900,-0.0292,108.6255,6.8213,0.4212,54.896042,9.788841,108.3,5.845,1.85,335.95,54.896885,9.784269,54.895069,9.793790
1387090344,1,0,108.8,0,0,0,0,870,850,-0.0292,108.6255,6.8213,0.4212,54.896038,9.788871,108.3,5.845,1.85,335.95,54.896885,9.784269,54.895069,9.793790
1387090344,1,0,108.8,0,0,4,0,870,900,-0.0292,108.6255,6.8213,0.4212,54.896030,9.788900,108.3,5.845,1.85,335.95,54.896885,9.784269,54.895069,9.793790
1387090344,1,0,108.8,0,0,0,0,870,850,-0.0292,108.6255,6.8213,0.4212,54.896023,9.788930,108.3,5.845,1.85,335.95,54.896885,9.784269,54.895069,9.793790
1387090345,1,0,108.7,0,0,4,0,870,900,-0.0292,108.6255,6.8213,0.4212,54.896019,9.788960,108.3,5.845,1.85,335.95,54.896885,9.784269,54.895069,9.793790
1387090345,1,0,108.8,0,0,0,0,870,850,-0.0292,108.6255,6.8213,0.4212,54.896015,9.788989,108.3,5.845,1.85,335.95,54.896885,9.784269,54.895069,9.793790
1387090345,1,0,108.8,0,0,4,0,870,900,-0.0292,108.6255,6.8213,0.4212,54.896008,9.789019,108.3,5.845,1.85,335.95,54.896885,9.784269,54.895069,9.793790
1387090345,1,0,108.8,0,0,0,0,870,850,-0.0292,108.6255,6.8213,0.4212,54.896000,9.789048,108.3,5.845,1.85,335.95,54.896885,9.784269,54.895069,9.793790
1387090346,1,0,108.7,0,0,4,0,870,900,-0.0292,108.6255,6.8213,0.4212,54.895996,9.789078,108.3,5.845,1.85,335.95,54.896885,9.784269,54.895069,9.793790
1387090346,1,0,108.8,0,0,0,0,870,850,-0.0292,108.6255,6.8213,0.4212,54.895992,9.789107,108.3,5.845,1.85,335.95,54.896885,9.784269,54.895069,9.793790
1387090346,1,0,108.8,0,0,4,0,870,900,-0.0292,108.6255,6.8213,0.4212,54.895988,9.789137,108.3,5.845,1.85,335.95,54.896885,9.784269,54.895069,9.793790
1387090346,1,0,108.9,0,0,0,0,870,850,-0.0292,108.6255,6.8213,0.4212,54.895981,9.789166,108.3,5.845,1.85,335.95,54.896885,9.784269,54.895069,9.793790
1387090347,1,0,108.8,0,0,4,0,870,900,-0.0292,108.6255,6.8213,0.4212,54.895973,9.789196,108.3,5.845,1.85,335.95,54.896885,9.784269,54.895069,9.793790
1387090347,1,0,108.8,0,0,0,0,870,850,-0.0292,108.6255,6.8213,0.4212,54.895969,9.789226,108.3,5.845,1.85,335.95,54.896885,9.784269,54.895069,9.793790
1387090347,1,0,108.8,0,0,4,0,870,900,-0.0292,108.6255,6.8213,0.4212,54.895966,9.789255,108.3,5.845,1.85,335.95,54.896885,9.784269,54.895069,9.793790
1387090347,1,0,108.9,0,0,0,0,870,850,-0.0292,108.6255,6.8213,0.4212,54.895958,9.789285,108.3,5.845,1.85,335.95,54.896885,9.784269,54.895069,9.793790
1387090348,1,0,108.8,0,0,4,0,870,900,-0.0292,108.6255,6.8213,0.4212,54.895950,9.789314,108.3,5.845,1.85,335.95,54.896885,9.784269,54.895069,9.793790
1387090348,1,0,108.8,0,0,0,0,870,850,-0.0292,108.6255,6.8213,0.4212,54.895947,9.789344,108.3,5.845,1.85,335.95,54.896885,9.784269,54.895069,9.793790
1387090348,1,0,108.8,0,0,4,0,870,900,-0.0292,108.6255,6.8213,0.4212,54.895943,9.789373,108.3,5.845,1.85,335.95,54.896885,9.784269,54.895069,9.793790
1387090348,1,0,108.9,0,0,0,0,870,850,-0.0292,108.6255,6.8213,0.4212,54.895939,9.789403,108.3,5.845,1.85,335.95,54.896885,9.784269,54.895069,9.793790
1387090349,1,0,108.9,0,0,4,0,870,900,-0.0292,108.6255,6.8213,0.4212,54.895931,9.789433,108.3,5.845,1.85,335.95,54.896885,9.784269,54.895069,9.793790
1387090349,1,0,108.9,0,0,0,0,870,850,-0.0292,108.6255,6.8213,0.4212,54.895924,9.789462,108.3,5.845,1.85,335.95,54.896885,9.784269,54.895069,9.793790
1387090349,1,0,108.8,0,0,4,0,870,900,-0.0292,108.6255,6.8213,0.4212,54.895920,9.789492,108.3,5.845,1.85,335.95,54.896885,9.784269,54.895069,9.793790
1387090349,1,0,108.9,0,0,0,0,870,850,-0.0292,108.6255,6.8213,0.4212,54.895916,9.789521,108.3,5.845,1.85,335.95,54.896885,9.784269,54.895069,9.793790
1387090350,1,0,108.9,0,0,4,0,870,900,-0.0292,108.6255,6.8213,0.4212,54.895908,9.789551,108.3,5.845,1.85,335.95,54.896885,9.784269,54.895069,9.793790
1387090350,1,0,108.9,0,0,0,0,870,850,-0.0292,108.6255,6.8213,0.4212,54.895901,9.789580,108.3,5.845,1.85,335.95,54.896885,9.784269,54.895069,9.793790
1387090350,1,0,108.9,0,0,4,0,870,900,-0.0292,108.6255,6.8213,0.4212,54.895897,9.789610,108.3,5.845,1.85,335.95,54.896885,9.784269,54.895069,9.793790
1387090350,1,0,108.9,0,0,0,0,870,850,-0.0292,108.6255,6.8213,0.4212,54.895893,9.789639,108.3,5.845,1.85,335.95,54.896885,9.784269,54.895069,9.793790
1387090351,1,0,108.9,0,0,4,0,870,900,-0.0292,108.6255,6.8213,0.4212,54.895889,9.789669,108.3,5.845,1.85,335.95,54.896885,9.784269,54.895069,9.793790
1387090351,1,0,109.0,0,0,0,0,870,850,-0.0292,108.6255,6.8213,0.4212,54.895882,9.789699,108.3,5.845,1.85,335.95,54.896885,9.784269,54.895069,9.793790
1387090351,1,0,108.9,0,0,4,0,870,900,-0.0292,108.6255,6.8213,0.4212,54.895874,9.789728,108.3,5.845,1.85,335.95,54.896885,9.784269,54.895069,9.793790
1387090351,1,0,108.9,0,0,0,0,870,850,-0.0292,108.6255,6.8213,0.4212,54.895870,9.789758,108.3,5.845,1.85,335.95,54.896885,9.784269,54.895069,9.793790
1387090352,1,0,109.0,0,0,4,0,870,900,-0.0292,108.6255,6.8213,0.4212,54.895866,9.789787,108.3,5.845,1.85,335.95,54.896885,9.784269,54.895069,9.793790
1387090352,1,0,109.0,0,0,0,0,870,850,-0.0292,108.6255,6.8213,0.4212,54.895859,9.789817,108.3,5.845,1.85,335.95,54.896885,9.784269,54.895069,9.793790
1387090352,1,0,109.0,0,0,4,0,870,900,-0.0292,108.6255,6.8213,0.4212,54.895851,9.789846,108.3,5.845,1.85,335.95,54.896885,9.784269,54.895069,9.793790
1387090352,1,0,108.9,0,0,0,0,870,850,-0.0292,108.6255,6.8213,0.4212,54.895847,9.789876,108.3,5.845,1.85,335.95,54.896885,9.784269,54.895069,9.793790
1387090353,1,0,109.0,0,0,4,0,870,900,-0.0292,108.6255,6.8213,0.4212,54.895844,9.789906,108.3,5.845,1.85,335.95,54.896885,9.784269,54.895069,9.793790
1387090353,1,0,109.0,0,0,0,0,870,850,-0.0292,108.6255,6.8213,0.4212,54.895836,9.789935,108.3,5.845,1.85,335.95,54.896885,9.784269,54.895069,9.793790
1387090353,1,0,109.0,0,0,4,0,870,900,-0.0292,108.6255,6.8213,0.4212,54.895828,9.789965,108.3,5.845,1.85,335.95,54.896885,9.784269,54.895069,9.793790
1387090353,1,0,108.9,0,0,0,0,870,850,-0.0292,108.6255,6.8213,0.4212,54.895824,9.789994,108.3,5.845,1.85,335.95,54.896885,9.784269,54.895069,9.793790
1387090354,1,0,109.0,0,0,4,0,870,900,-0.0292,108.6255,6.8213,0.4212,54.895821,9.790024,108.3,5.845,1.85,335.95,54.896885,9.784269,54.895069,9.793790
1387090354,1,0,109.0,0,0,0,0,870,850,-0.0292,108.6255,6.8213,0.4212,54.895817,9.790053,108.3,5.845,1.85,335.95,54.896885,9.784269,54.895069,9.793790
1387090354,1,0,109.1,0,0,4,0,870,900,-0.0292,108.6255,6.8213,0.4212,54.895809,9.790083,108.3,5.845,1.85,335.95,54.896885,9.784269,54.895069,9.793790
1387090354,1,0,109.0,0,0,0,0,870,850,-0.0292,108.6255,6.8213,0.4212,54.895802,9.790112,108.3,5.845,1.85,335.95,54.896885,9.784269,54.895069,9.793790
1387090355,1,0,109.0,0,0,4,0,870,900,-0.0292,108.6255,6.8213,0.4212,54.895798,9.790142,108.3,5.845,1.85,335.95,54.896885,9.784269,54.895069,9.793790
1387090355,1,0,109.0,0,0,0,0,870,850,-0.0292,108.6255,6.8213,0.4212,54.895794,9.790172,108.3,5.845,1.85,335.95,54.896885,9.784269,54.895069,9.793790
1387090355,1,0,109.1,0,0,4,0,870,900,-0.0292,108.6255,6.8213,0.4212,54.895786,9.790201,108.3,5.845,1.85,335.95,54.896885,9.784269,54.895069,9.793790
1387090355,1,0,109.1,0,0,0,0,870,850,-0.0292,108.6255,6.8213,0.4212,54.895779,9.790231,108.3,5.845,1.85,335.95,54.896885,9.784269,54.895069,9.793790
1387090356,1,0,109.0,0,0,4,0,870,900,-0.0292,108.6255,6.8213,0.4212,54.895775,9.790260,108.3,5.845,1.85,335.95,54.896885,9.784269,54.895069,9.793790
1387090356,1,0,109.1,0,0,0,0,870,850,-0.0292,108.6255,6.8213,0.4212,54.895771,9.790290,108.3,5.845,1.85,335.95,54.896885,9.784269,54.895069,9.793790
1387090356,1,0,109.1,0,0,4,0,870,900,-0.0292,108.6255,6.8213,0.4212,54.895767,9.790319,108.3,5.845,1.85,335.95,54.896885,9.784269,54.895069,9.793790
1387090356,1,0,109.2,0,-1,0,0,870,850,-0.0292,108.9588,6.8213,0.4212,54.895760,9.790349,108.3,5.845,1.85,335.95,54.896885,9.784269,54.895069,9.793790
1387090357,1,0,109.1,0,0,4,0,870,900,-0.0292,108.9588,6.8213,0.4212,54.895752,9.790379,108.3,5.845,1.85,335.95,54.896885,9.784269,54.895069,9.793790
1387090357,1,0,109.1,0,0,0,0,870,850,-0.0292,108.9588,6.8213,0.4212,54.895748,9.790408,108.3,5.845,1.85,335.95,54.896885,9.784269,54.895069,9.793790
1387090357,1,0,109.1,0,0,4,0,870,900,-0.0292,108.9588,6.8213,0.4212,54.895744,9.790438,108.3,5.845,1.85,335.95,54.896885,9.784269,54.895069,9.793790
1387090357,1,0,109.2,0,0,0,0,870,850,-0.0292,108.9588,6.8213,0.4212,54.895737,9.790467,108.3,5.845,1.85,335.95,54.896885,9.784269,54.895069,9.793790
1387090358,1,0,109.1,0,0,4,0,870,900,-0.0292,108.9588,6.8213,0.4212,54.895729,9.790497,108.3,5.845,1.85,335.95,54.896885,9.784269,54.895069,9.793790
1387090358,1,0,109.1,0,0,0,0,870,850,-0.0292,108.9588,6.8213,0.4212,54.895725,9.790526,108.3,5.845,1.85,335.95,54.896885,9.784269,54.895069,9.793790
1387090358,1,0,109.2,0,0,4,0,870,900,-0.0292,108.9588,6.8213,0.4212,54.895721,9.790556,108.3,5.845,1.85,335.95,54.896885,9.784269,54.895069,9.793790
1387090358,1,0,109.2,0,0,0,0,870,850,-0.0292,108.9588,6.8213,0.4212,54.895718,9.790586,108.3,5.845,1.85,335.95,54.896885,9.784269,54.895069,9.793790
