MCU_timestamp,Navigation_System,Manual_Control,Guidance_Heading,Manual_Ctrl_Rudder,Rudder_Desired_Angle,Rudder_Feedback,Manual_Ctrl_Sail,Sail_Desired_Pos,Sail_Feedback,Rate,Heading,Pitch,Roll,Latitude,Longitude,COG,SOG,Wind_Speed,Wind_Angle,Point_Start_Lat,Point_Start_Lon,Point_End_Lat,Point_End_Lon
1386864849,0,0,0.0,0,0,36,0,0,0,-0.0292,3.6254,6.8213,0.4212,54.898361,9.795315,108.3,5.845,1.85,335.95,0.000000,0.000000,0.000000,0.000000
1386864850,0,0,0.0,0,0,36,0,0,0,-0.0292,3.6254,6.8213,0.4212,54.898361,9.795315,108.3,5.845,1.85,335.95,0.000000,0.000000,0.000000,0.000000
1386864850,0,0,0.0,0,0,36,0,0,0,-0.0292,3.6254,6.8213,0.4212,54.898361,9.795315,108.3,5.845,1.85,335.95,0.000000,0.000000,0.000000,0.000000
1386864850,0,0,0.0,0,0,36,0,0,0,-0.0292,3.6254,6.8213,0.4212,54.898361,9.795315,108.3,5.845,1.85,335.95,0.000000,0.000000,0.000000,0.000000
1386864850,0,0,0.0,0,0,36,0,0,0,-0.0292,3.6254,6.8213,0.4212,54.898361,9.795315,108.3,5.845,1.85,335.95,0.000000,0.000000,0.000000,0.000000
1386864851,0,0,0.0,0,0,36,0,0,0,-0.0292,3.6254,6.8213,0.4212,54.898361,9.795315,108.3,5.845,1.85,335.95,0.000000,0.000000,0.000000,0.000000
1386864851,0,0,0.0,0,0,36,0,0,0,-0.0292,3.6254,6.8213,0.4212,54.898361,9.795315,108.3,5.845,1.85,335.95,0.000000,0.000000,0.000000,0.000000
1386864851,0,0,0.0,0,0,36,0,0,0,-0.0292,3.6254,6.8213,0.4212,54.898361,9.795315,108.3,5.845,1.85,335.95,0.000000,0.000000,0.000000,0.000000
1386864851,0,0,0.0,0,0,36,0,0,0,-0.0292,3.6254,6.8213,0.4212,54.898361,9.795315,108.3,5.845,1.85,335.95,0.000000,0.000000,0.000000,0.000000
1386864852,0,0,0.0,0,0,36,0,0,0,-0.0292,3.6254,6.8213,0.4212,54.898361,9.795315,108.3,5.845,1.85,335.95,0.000000,0.000000,0.000000,0.000000
1386864852,0,0,0.0,0,0,36,0,0,0,-0.0292,3.6254,6.8213,0.4212,54.898361,9.795315,108.3,5.845,1.85,335.95,0.000000,0.000000,0.000000,0.000000
1386864852,0,0,0.0,0,0,36,0,0,0,-0.0292,3.6254,6.8213,0.4212,54.898361,9.795315,108.3,5.845,1.85,335.95,0.000000,0.000000,0.000000,0.000000
1386864852,0,0,0.0,0,0,36,0,0,0,-0.0292,3.6254,6.8213,0.4212,54.898361,9.795315,108.3,5.845,1.85,335.95,0.000000,0.000000,0.000000,0.000000
1386864853,0,0,0.0,0,0,36,0,0,0,-0.0292,3.6254,6.8213,0.4212,54.898361,9.795315,108.3,5.845,1.85,335.95,0.000000,0.000000,0.000000,0.000000
1386864853,0,0,0.0,0,0,36,0,0,0,-0.0292,3.6254,6.8213,0.4212,54.898361,9.795315,108.3,5.845,1.85,335.95,0.000000,0.000000,0.000000,0.000000
1386864853,0,0,0.0,0,0,36,0,0,0,-0.0292,3.6254,6.8213,0.4212,54.898361,9.795315,108.3,5.845,1.85,335.95,0.000000,0.000000,0.000000,0.000000
1386864853,0,0,0.0,0,0,36,0,0,0,-0.0292,3.6254,6.8213,0.4212,54.898361,9.795315,108.3,5.845,1.85,335.95,0.000000,0.000000,0.000000,0.000000
1386864854,0,0,0.0,0,0,36,0,0,0,-0.0292,3.6254,6.8213,0.4212,54.898361,9.795315,108.3,5.845,1.85,335.95,0.000000,0.000000,0.000000,0.000000
1386864854,0,0,0.0,0,0,36,0,0,0,-0.0292,3.6254,6.8213,0.4212,54.898361,9.795315,108.3,5.845,1.85,335.95,0.000000,0.000000,0.000000,0.000000
1386864854,0,0,0.0,0,0,36,0,0,0,-0.0292,3.6254,6.8213,0.4212,54.898361,9.795315,108.3,5.845,1.85,335.95,0.000000,0.000000,0.000000,0.000000
1386864854,0,0,0.0,0,0,36,0,0,0,-0.0292,3.6254,6.8213,0.4212,54.898361,9.795315,108.3,5.845,1.85,335.95,0.000000,0.000000,0.000000,0.000000
1386864855,0,0,0.0,0,0,36,0,0,0,-0.0292,3.6254,6.8213,0.4212,54.898361,9.795315,108.3,5.845,1.85,335.95,0.000000,0.000000,0.000000,0.000000
1386864855,0,0,0.0,0,0,36,0,0,0,-0.0292,3.6254,6.8213,0.4212,54.898361,9.795315,108.3,5.845,1.85,335.95,0.000000,0.000000,0.000000,0.000000
1386864855,0,0,0.0,0,0,36,0,0,0,-0.0292,3.6254,6.8213,0.4212,54.898361,9.795315,108.3,5.845,1.85,335.95,0.000000,0.000000,0.000000,0.000000
1386864855,0,0,0.0,0,0,36,0,0,0,-0.0292,3.6254,6.8213,0.4212,54.898361,9.795315,108.3,5.845,1.85,335.95,0.000000,0.000000,0.000000,0.000000
1386864856,0,0,0.0,0,0,36,0,0,0,-0.0292,3.6254,6.8213,0.4212,54.898361,9.795315,108.3,5.845,1.85,335.95,0.000000,0.000000,0.000000,0.000000
1386864856,0,0,0.0,0,0,36,0,0,0,-0.0292,3.6254,6.8213,0.4212,54.898361,9.795315,108.3,5.845,1.85,335.95,0.000000,0.000000,0.000000,0.000000
1386864856,0,0,0.0,0,0,36,0,0,0,-0.0292,3.6254,6.8213,0.4212,54.898361,9.795315,108.3,5.845,1.85,335.95,0.000000,0.000000,0.000000,0.000000
1386864856,0,0,0.0,0,0,36,0,0,0,-0.0292,3.6254,6.8213,0.4212,54.898361,9.795315,108.3,5.845,1.85,335.95,0.000000,0.000000,0.000000,0.000000
1386864857,0,0,0.0,0,0,36,0,0,0,-0.0292,3.6254,6.8213,0.4212,54.898361,9.795315,108.3,5.845,1.85,335.95,0.000000,0.000000,0.000000,0.000000
1386864857,0,0,0.0,0,0,36,0,0,0,-0.0292,3.6254,6.8213,0.4212,54.898361,9.795315,108.3,5.845,1.85,335.95,0.000000,0.000000,0.000000,0.000000
1386864857,0,0,0.0,0,0,36,0,0,0,-0.0292,3.6254,6.8213,0.4212,54.898361,9.795315,108.3,5.845,1.85,335.95,0.000000,0.000000,0.000000,0.000000
1386864857,0,0,0.0,0,0,36,0,0,0,-0.0292,3.6254,6.8213,0.4212,54.898361,9.795315,108.3,5.845,1.85,335.95,0.000000,0.000000,0.000000,0.000000
1386864858,0,0,0.0,0,0,36,0,0,0,-0.0292,3.6254,6.8213,0.4212,54.898361,9.795315,108.3,5.845,1.85,335.95,0.000000,0.000000,0.000000,0.000000
1386864858,0,0,0.0,0,0,36,0,0,0,-0.0292,3.6254,6.8213,0.4212,54.898361,9.795315,108.3,5.845,1.85,335.95,0.000000,0.000000,0.000000,0.000000
1386864858,0,0,0.0,0,0,36,0,0,0,-0.0292,3.6254,6.8213,0.4212,54.898361,9.795315,108.3,5.845,1.85,335.95,0.000000,0.000000,0.000000,0.000000
1386864858,0,0,0.0,0,0,36,0,0,0,-0.0292,3.6254,6.8213,0.4212,54.898361,9.795315,108.3,5.845,1.85,335.95,0.000000,0.000000,0.000000,0.000000
1386864859,0,0,0.0,0,0,36,0,0,0,-0.0292,3.6254,6.8213,0.4212,54.898361,9.795315,108.3,5.845,1.85,335.95,0.000000,0.000000,0.000000,0.000000
1386864859,0,0,0.0,0,0,36,0,0,0,-0.0292,3.6254,6.8213,0.4212,54.898361,9.795315,108.3,5.845,1.85,335.95,0.000000,0.000000,0.000000,0.000000
1386864859,0,0,0.0,0,0,36,0,0,0,-0.0292,3.6254,6.8213,0.4212,54.898361,9.795315,108.3,5.845,1.85,335.95,0.000000,0.000000,0.000000,0.000000
1386864859,0,0,0.0,0,0,36,0,0,0,-0.0292,3.6254,6.8213,0.4212,54.898361,9.795315,108.3,5.845,1.85,335.95,0.000000,0.000000,0.000000,0.000000
1386864860,0,0,0.0,0,0,36,0,0,0,-0.0292,3.6254,6.8213,0.4212,54.898361,9.795315,108.3,5.845,1.85,335.95,0.000000,0.000000,0.000000,0.000000
1386864860,0,0,0.0,0,0,36,0,0,0,-0.0292,3.6254,6.8213,0.4212,54.898361,9.795315,108.3,5.845,1.85,335.95,0.000000,0.000000,0.000000,0.000000
1386864860,0,0,0.0,0,0,36,0,0,0,-0.0292,3.6254,6.8213,0.4212,54.898361,9.795315,108.3,5.845,1.85,335.95,0.000000,0.000000,0.000000,0.000000
1386864860,0,0,0.0,0,0,36,0,0,0,-0.0292,3.6254,6.8213,0.4212,54.898361,9.795315,108.3,5.845,1.85,335.95,0.000000,0.000000,0.000000,0.000000
1386864861,0,0,0.0,0,0,36,0,0,0,-0.0292,3.6254,6.8213,0.4212,54.898361,9.795315,108.3,5.845,1.85,335.95,0.000000,0.000000,0.000000,0.000000
1386864861,0,0,0.0,0,0,36,0,0,0,-0.0292,3.6254,6.8213,0.4212,54.898361,9.795315,108.3,5.845,1.85,335.95,0.000000,0.000000,0.000000,0.000000
1386864861,0,0,0.0,0,0,36,0,0,0,-0.0292,3.6254,6.8213,0.4212,54.898361,9.795315,108.3,5.845,1.85,335.95,0.000000,0.000000,0.000000,0.000000
1386864861,0,0,0.0,0,0,36,0,0,0,-0.0292,3.6254,6.8213,0.4212,54.898361,9.795315,108.3,5.845,1.85,335.95,0.000000,0.000000,0.000000,0.000000
1386864862,0,0,0.0,0,0,36,0,0,0,-0.0292,3.6254,6.8213,0.4212,54.898361,9.795315,108.3,5.845,1.85,335.95,0.000000,0.000000,0.000000,0.000000
1386864862,0,0,0.0,0,0,36,0,0,0,-0.0292,3.6254,6.8213,0.4212,54.898361,9.795315,108.3,5.845,1.85,335.95,0.000000,0.000000,0.000000,0.000000
1386864862,0,0,0.0,0,0,36,0,0,0,-0.0292,3.6254,6.8213,0.4212,54.898361,9.795315,108.3,5.845,1.85,335.95,0.000000,0.000000,0.000000,0.000000
1386864862,0,0,0.0,0,0,36,0,0,0,-0.0292,3.6254,6.8213,0.4212,54.898361,9.795315,108.3,5.845,1.85,335.95,0.000000,0.000000,0.000000,0.000000
1386864863,0,0,0.0,0,0,36,0,0,0,-0.0292,3.6254,6.8213,0.4212,54.898361,9.795315,108.3,5.845,1.85,335.95,0.000000,0.000000,0.000000,0.000000
1386864863,0,0,0.0,0,0,36,0,0,0,-0.0292,3.6254,6.8213,0.4212,54.898361,9.795315,108.3,5.845,1.85,335.95,0.000000,0.000000,0.000000,0.000000
1386864863,0,0,0.0,0,0,36,0,0,0,-0.0292,3.6254,6.8213,0.4212,54.898361,9.795315,108.3,5.845,1.85,335.95,0.000000,0.000000,0.000000,0.000000
1386864863,0,0,0.0,0,0,36,0,0,0,-0.0292,3.6254,6.8213,0.4212,54.898361,9.795315,108.3,5.845,1.85,335.95,0.000000,0.000000,0.000000,0.000000
1386864864,0,0,0.0,0,0,36,0,0,0,-0.0292,3.6254,6.8213,0.4212,54.898361,9.795315,108.3,5.845,1.85,335.95,0.000000,0.000000,0.000000,0.000000
1386864864,0,0,0.0,0,0,36,0,0,0,-0.0292,3.6254,6.8213,0.4212,54.898361,9.795315,108.3,5.845,1.85,335.95,0.000000,0.000000,0.000000,0.000000
1386864864,0,0,0.0,0,0,36,0,0,0,-0.0292,3.6254,6.8213,0.4212,54.898361,9.795315,108.3,5.845,1.85,335.95,0.000000,0.000000,0.000000,0.000000
1386864864,0,0,0.0,0,0,36,0,0,0,-0.0292,3.6254,6.8213,0.4212,54.898361,9.795315,108.3,5.845,1.85,335.95,0.000000,0.000000,0.000000,0.000000
1386864865,0,0,0.0,0,0,36,0,0,0,-0.0292,3.6254,6.8213,0.4212,54.898361,9.795315,108.3,5.845,1.85,335.95,0.000000,0.000000,0.000000,0.000000
1386864865,0,0,0.0,0,0,36,0,0,0,-0.0292,3.6254,6.8213,0.4212,54.898361,9.795315,108.3,5.845,1.85,335.95,0.000000,0.000000,0.000000,0.000000
1386864865,4,0,0.0,0,0,36,0,0,0,-0.0292,3.6254,6.8213,0.4212,54.898361,9.795315,108.3,5.845,1.85,335.95,0.000000,0.000000,0.000000,0.000000
1386864865,1,0,485.9,0,-35,32,0,0,25,-0.0292,12.9588,6.8213,0.4212,54.898380,9.795321,108.3,5.845,1.85,335.95,54.898361,9.795315,54.895069,9.793790
1386864866,1,0,485.9,0,-35,28,0,0,0,-0.0292,22.2921,6.8213,0.4212,54.898399,9.795334,108.3,5.845,1.85,335.95,54.898361,9.795315,54.895069,9.793790
1386864866,1,0,485.9,0,-35,24,0,0,25,-0.0292,31.6254,6.8213,0.4212,54.898415,9.795350,108.3,5.845,1.85,335.95,54.898361,9.795315,54.895069,9.793790
1386864866,1,0,485.9,0,-35,20,0,0,0,-0.0292,40.9588,6.8213,0.4212,54.898426,9.795370,108.3,5.845,1.85,335.95,54.898361,9.795315,54.895069,9.793790
1386864866,1,0,485.9,0,-35,16,0,28,25,-0.0292,50.2921,6.8213,0.4212,54.898438,9.795395,108.3,5.845,1.85,335.95,54.898361,9.795315,54.895069,9.793790
1386864867,1,0,485.9,0,-35,12,0,92,50,-0.0292,59.6254,6.8213,0.4212,54.898449,9.795422,108.3,5.845,1.85,335.95,54.898361,9.795315,54.895069,9.793790
1386864867,1,0,485.9,0,-35,8,0,171,75,-0.0292,68.9587,6.8213,0.4212,54.898457,9.795450,108.3,5.845,1.85,335.95,54.898361,9.795315,54.895069,9.793790
1386864867,1,0,485.9,0,-35,4,0,257,100,-0.0292,78.2921,6.8213,0.4212,54.898460,9.795481,108.3,5.845,1.85,335.95,54.898361,9.795315,54.895069,9.793790
1386864867,1,0,485.9,0,-35,0,0,342,125,-0.0292,87.6254,6.8213,0.4212,54.898464,9.795512,108.3,5.845,1.85,335.95,54.898361,9.795315,54.895069,9.793790
1386864868,1,0,485.9,0,-35,-4,0,424,150,-0.0292,96.9588,6.8213,0.4212,54.898460,9.795543,108.3,5.845,1.85,335.95,54.898361,9.795315,54.895069,9.793790
1386864868,1,0,485.9,0,-29,-8,0,501,175,-0.0292,104.6921,6.8213,0.4212,54.898457,9.795573,108.3,5.845,1.85,335.95,54.898361,9.795315,54.895069,9.793790
1386864868,1,0,485.9,0,-21,-12,0,561,200,-0.0292,110.2921,6.8213,0.4212,54.898453,9.795603,108.3,5.845,1.85,335.95,54.898361,9.795315,54.895069,9.793790
1386864868,1,0,485.9,0,-16,-16,0,578,225,-0.0292,114.5588,6.8213,0.4212,54.898445,9.795631,108.3,5.845,1.85,335.95,54.898361,9.795315,54.895069,9.793790
1386864869,1,0,485.9,0,-11,-12,0,409,250,-0.0292,117.4921,6.8213,0.4212,54.898438,9.795660,108.3,5.845,1.85,335.95,54.898361,9.795315,54.895069,9.793790
1386864869,1,0,485.9,0,-8,-8,0,409,275,-0.0292,119.6254,6.8213,0.4212,54.898430,9.795688,108.3,5.845,1.85,335.95,54.898361,9.795315,54.895069,9.793790
1386864869,1,0,485.9,0,-6,-4,0,409,300,-0.0292,121.2254,6.8213,0.4212,54.898422,9.795714,108.3,5.845,1.85,335.95,54.898361,9.795315,54.895069,9.793790
1386864869,1,0,485.9,0,-5,-8,0,409,325,-0.0292,122.5588,6.8213,0.4212,54.898411,9.795741,108.3,5.845,1.85,335.95,54.898361,9.795315,54.895069,9.793790
1386864870,1,0,485.9,0,-3,-4,0,409,350,-0.0292,123.3588,6.8213,0.4212,54.898403,9.795767,108.3,5.845,1.85,335.95,54.898361,9.795315,54.895069,9.793790
1386864870,1,0,485.9,0,-3,0,0,409,375,-0.0292,124.1588,6.8213,0.4212,54.898392,9.795793,108.3,5.845,1.85,335.95,54.898361,9.795315,54.895069,9.793790
1386864870,1,0,485.9,0,-2,-4,0,409,400,-0.0292,124.6921,6.8213,0.4212,54.898380,9.795818,108.3,5.845,1.85,335.95,54.898361,9.795315,54.895069,9.793790
1386864870,1,0,485.9,0,-1,0,0,0,375,-0.0292,124.9588,6.8213,0.4212,54.898369,9.795844,108.3,5.845,1.85,335.95,54.898361,9.795315,54.895069,9.793790
1386864871,1,0,485.9,0,-1,-4,0,0,350,-0.0292,125.2254,6.8213,0.4212,54.898357,9.795870,108.3,5.845,1.85,335.95,54.898361,9.795315,54.895069,9.793790
1386864871,1,0,485.9,0,-1,0,0,0,325,-0.0292,125.4921,6.8213,0.4212,54.898350,9.795896,108.3,5.845,1.85,335.95,54.898361,9.795315,54.895069,9.793790
1386864871,1,0,485.9,0,0,4,0,0,300,-0.0292,125.4921,6.8213,0.4212,54.898338,9.795920,108.3,5.845,1.85,335.95,54.898361,9.795315,54.895069,9.793790
1386864871,1,0,485.9,0,0,0,0,0,275,-0.0292,125.4921,6.8213,0.4212,54.898331,9.795946,108.3,5.845,1.85,335.95,54.898361,9.795315,54.895069,9.793790
1386864872,1,0,485.9,0,0,4,0,0,250,-0.0292,125.4921,6.8213,0.4212,54.898319,9.795971,108.3,5.845,1.85,335.95,54.898361,9.795315,54.895069,9.793790
1386864872,1,0,485.9,0,0,0,0,0,225,-0.0292,125.4921,6.8213,0.4212,54.898308,9.795997,108.3,5.845,1.85,335.95,54.898361,9.795315,54.895069,9.793790
1386864872,1,0,485.9,0,0,4,0,0,200,-0.0292,125.4921,6.8213,0.4212,54.898296,9.796022,108.3,5.845,1.85,335.95,54.898361,9.795315,54.895069,9.793790
1386864872,1,0,485.9,0,0,0,0,0,175,-0.0292,125.4921,6.8213,0.4212,54.898285,9.796047,108.3,5.845,1.85,335.95,54.898361,9.795315,54.895069,9.793790
1386864873,1,0,485.9,0,0,4,0,0,150,-0.0292,125.4921,6.8213,0.4212,54.898277,9.796073,108.3,5.845,1.85,335.95,54.898361,9.795315,54.895069,9.793790
1386864873,1,0,485.9,0,0,0,0,0,125,-0.0292,125.4921,6.8213,0.4212,54.898266,9.796098,108.3,5.845,1.85,335.95,54.898361,9.795315,54.895069,9.793790
1386864873,1,0,485.9,0,0,4,0,0,100,-0.0292,125.4921,6.8213,0.4212,54.898258,9.796124,108.3,5.845,1.85,335.95,54.898361,9.795315,54.895069,9.793790
1386864873,1,0,485.9,0,0,0,0,0,75,-0.0292,125.4921,6.8213,0.4212,54.898247,9.796149,108.3,5.845,1.85,335.95,54.898361,9.795315,54.895069,9.793790
1386864874,1,0,485.9,0,0,4,0,0,50,-0.0292,125.4921,6.8213,0.4212,54.898235,9.796174,108.3,5.845,1.85,335.95,54.898361,9.795315,54.895069,9.793790
1386864874,1,0,485.9,0,0,0,0,0,25,-0.0292,125.4921,6.8213,0.4212,54.898228,9.796200,108.3,5.845,1.85,335.95,54.898361,9.795315,54.895069,9.793790
1386864874,1,0,485.9,0,0,4,0,0,0,-0.0292,125.4921,6.8213,0.4212,54.898216,9.796225,108.3,5.845,1.85,335.95,54.898361,9.795315,54.895069,9.793790
1386864874,1,0,485.9,0,0,0,0,0,25,-0.0292,125.4921,6.8213,0.4212,54.898209,9.796250,108.3,5.845,1.85,335.95,54.898361,9.795315,54.895069,9.793790
1386864875,1,0,367.8,0,35,4,0,0,0,-0.0292,116.1588,6.8213,0.4212,54.898201,9.796278,108.3,5.845,1.85,335.95,54.898361,9.795315,54.895069,9.793790
1386864875,1,0,245.9,0,-35,0,0,0,25,-0.0292,125.4921,6.8213,0.4212,54.898190,9.796303,108.3,5.845,1.85,335.95,54.898361,9.795315,54.895069,9.793790
1386864875,1,0,367.6,0,35,4,0,0,0,-0.0292,116.1588,6.8213,0.4212,54.898182,9.796331,108.3,5.845,1.85,335.95,54.898361,9.795315,54.895069,9.793790
1386864875,1,0,367.5,0,35,8,0,0,25,-0.0292,106.8254,6.8213,0.4212,54.898178,9.796361,108.3,5.845,1.85,335.95,54.898361,9.795315,54.895069,9.793790
1386864876,1,0,335.9,0,35,12,0,0,0,-0.0292,97.4921,6.8213,0.4212,54.898174,9.796391,108.3,5.845,1.85,335.95,54.898361,9.795315,54.895069,9.793790
1386864876,1,0,335.9,0,35,16,0,0,25,-0.0292,88.1588,6.8213,0.4212,54.898174,9.796423,108.3,5.845,1.85,335.95,54.898361,9.795315,54.895069,9.793790
1386864876,1,0,367.3,0,35,20,0,0,0,-0.0292,78.8254,6.8213,0.4212,54.898178,9.796453,108.3,5.845,1.85,335.95,54.898361,9.795315,54.895069,9.793790
1386864876,1,0,367.3,0,35,24,0,0,25,-0.0292,69.4921,6.8213,0.4212,54.898186,9.796482,108.3,5.845,1.85,335.95,54.898361,9.795315,54.895069,9.793790
1386864877,1,0,304.7,0,35,28,0,0,0,-0.0292,60.1588,6.8213,0.4212,54.898197,9.796510,108.3,5.845,1.85,335.95,54.898361,9.795315,54.895069,9.793790
1386864877,1,0,335.9,0,35,32,0,0,25,-0.0292,50.8254,6.8213,0.4212,54.898209,9.796534,108.3,5.845,1.85,335.95,54.898361,9.795315,54.895069,9.793790
1386864877,1,0,335.9,0,35,36,0,0,0,-0.0292,41.4921,6.8213,0.4212,54.898224,9.796554,108.3,5.845,1.85,335.95,54.898361,9.795315,54.895069,9.793790
1386864877,1,0,335.9,0,35,32,0,0,25,-0.0292,32.1588,6.8213,0.4212,54.898239,9.796570,108.3,5.845,1.85,335.95,54.898361,9.795315,54.895069,9.793790
1386864878,1,0,245.9,0,35,36,0,0,0,-0.0292,22.8254,6.8213,0.4212,54.898258,9.796582,108.3,5.845,1.85,335.95,54.898361,9.795315,54.895069,9.793790
1386864878,1,0,304.9,0,35,32,0,0,25,-0.0292,13.4921,6.8213,0.4212,54.898277,9.796589,108.3,5.845,1.85,335.95,54.898361,9.795315,54.895069,9.793790
1386864878,1,0,367.0,0,6,28,0,0,0,-0.0292,11.8921,6.8213,0.4212,54.898296,9.796596,108.3,5.845,1.85,335.95,54.898361,9.795315,54.895069,9.793790
1386864878,1,0,304.9,0,35,32,0,0,25,-0.0292,2.5588,6.8213,0.4212,54.898312,9.796597,108.3,5.845,1.85,335.95,54.898361,9.795315,54.895069,9.793790
1386864879,1,0,335.9,0,27,28,0,0,0,-0.0292,-4.6412,6.8213,0.4212,54.898331,9.796594,108.3,5.845,1.85,335.95,54.898361,9.795315,54.895069,9.793790
1386864879,1,0,425.9,0,-35,24,0,0,25,-0.0292,4.6921,6.8213,0.4212,54.898350,9.796597,108.3,5.845,1.85,335.95,54.898361,9.795315,54.895069,9.793790
1386864879,1,0,335.9,0,29,28,0,0,0,-0.0292,-3.0412,6.8213,0.4212,54.898369,9.796595,108.3,5.845,1.85,335.95,54.898361,9.795315,54.895069,9.793790
1386864879,1,0,335.9,0,21,24,0,0,25,-0.0292,-8.6412,6.8213,0.4212,54.898384,9.796590,108.3,5.845,1.85,335.95,54.898361,9.795315,54.895069,9.793790
1386864880,1,0,335.9,0,15,20,0,0,0,-0.0292,-12.6412,6.8213,0.4212,54.898403,9.796583,108.3,5.845,1.85,335.95,54.898361,9.795315,54.895069,9.793790
1386864880,1,0,335.9,0,11,16,0,0,25,-0.0292,-15.5746,6.8213,0.4212,54.898422,9.796575,108.3,5.845,1.85,335.95,54.898361,9.795315,54.895069,9.793790
1386864880,1,0,335.9,0,8,12,0,0,0,-0.0292,-17.7079,6.8213,0.4212,54.898438,9.796566,108.3,5.845,1.85,335.95,54.898361,9.795315,54.895069,9.793790
1386864881,1,0,335.9,0,6,8,0,0,25,-0.0292,-19.3079,6.8213,0.4212,54.898457,9.796556,108.3,5.845,1.85,335.95,54.898361,9.795315,54.895069,9.793790
1386864881,1,0,335.9,0,5,4,0,0,0,-0.0292,-20.6412,6.8213,0.4212,54.898476,9.796545,108.3,5.845,1.85,335.95,54.898361,9.795315,54.895069,9.793790
1386864881,1,0,335.9,0,3,0,0,0,25,-0.0292,-21.4412,6.8213,0.4212,54.898491,9.796534,108.3,5.845,1.85,335.95,54.898361,9.795315,54.895069,9.793790
1386864881,1,0,335.9,0,3,4,0,0,0,-0.0292,-22.2412,6.8213,0.4212,54.898506,9.796521,108.3,5.845,1.85,335.95,54.898361,9.795315,54.895069,9.793790
1386864882,1,0,335.9,0,2,0,0,0,25,-0.0292,-22.7746,6.8213,0.4212,54.898525,9.796510,108.3,5.845,1.85,335.95,54.898361,9.795315,54.895069,9.793790
1386864882,1,0,335.9,0,1,4,0,0,0,-0.0292,-23.0412,6.8213,0.4212,54.898540,9.796497,108.3,5.845,1.85,335.95,54.898361,9.795315,54.895069,9.793790
1386864882,1,0,335.9,0,1,0,0,0,25,-0.0292,-23.3079,6.8213,0.4212,54.898556,9.796485,108.3,5.845,1.85,335.95,54.898361,9.795315,54.895069,9.793790
1386864882,1,0,335.9,0,1,4,0,0,0,-0.0292,-23.5746,6.8213,0.4212,54.898575,9.796473,108.3,5.845,1.85,335.95,54.898361,9.795315,54.895069,9.793790
1386864883,1,0,335.9,0,0,0,0,0,25,-0.0292,-23.5746,6.8213,0.4212,54.898590,9.796460,108.3,5.845,1.85,335.95,54.898361,9.795315,54.895069,9.793790
1386864883,1,0,335.9,0,0,4,0,0,0,-0.0292,-23.5746,6.8213,0.4212,54.898605,9.796448,108.3,5.845,1.85,335.95,54.898361,9.795315,54.895069,9.793790
1386864883,1,0,335.9,0,0,0,0,0,25,-0.0292,-23.5746,6.8213,0.4212,54.898624,9.796434,108.3,5.845,1.85,335.95,54.898361,9.795315,54.895069,9.793790
1386864883,1,0,335.9,0,0,4,0,0,0,-0.0292,-23.5746,6.8213,0.4212,54.898640,9.796422,108.3,5.845,1.85,335.95,54.898361,9.795315,54.895069,9.793790
1386864884,1,0,335.9,0,0,0,0,0,25,-0.0292,-23.5746,6.8213,0.4212,54.898655,9.796410,108.3,5.845,1.85,335.95,54.898361,9.795315,54.895069,9.793790
1386864884,1,0,335.9,0,0,4,0,0,0,-0.0292,-23.5746,6.8213,0.4212,54.898674,9.796397,108.3,5.845,1.85,335.95,54.898361,9.795315,54.895069,9.793790
1386864884,1,0,335.9,0,0,0,0,0,25,-0.0292,-23.5746,6.8213,0.4212,54.898689,9.796385,108.3,5.845,1.85,335.95,54.898361,9.795315,54.895069,9.793790
1386864884,1,0,335.9,0,0,4,0,0,0,-0.0292,-23.5746,6.8213,0.4212,54.898705,9.796372,108.3,5.845,1.85,335.95,54.898361,9.795315,54.895069,9.793790
1386864885,1,0,335.9,0,0,0,0,0,25,-0.0292,-23.5746,6.8213,0.4212,54.898724,9.796360,108.3,5.845,1.85,335.95,54.898361,9.795315,54.895069,9.793790
1386864885,1,0,335.9,0,0,4,0,0,0,-0.0292,-23.5746,6.8213,0.4212,54.898739,9.796348,108.3,5.845,1.85,335.95,54.898361,9.795315,54.895069,9.793790
1386864885,1,0,335.9,0,0,0,0,0,25,-0.0292,-23.5746,6.8213,0.4212,54.898754,9.796335,108.3,5.845,1.85,335.95,54.898361,9.795315,54.895069,9.793790
1386864885,1,0,335.9,0,0,4,0,0,0,-0.0292,-23.5746,6.8213,0.4212,54.898773,9.796323,108.3,5.845,1.85,335.95,54.898361,9.795315,54.895069,9.793790
1386864886,1,0,335.9,0,0,0,0,0,25,-0.0292,-23.5746,6.8213,0.4212,54.898788,9.796310,108.3,5.845,1.85,335.95,54.898361,9.795315,54.895069,9.793790
1386864886,1,0,335.9,0,0,4,0,0,0,-0.0292,-23.5746,6.8213,0.4212,54.898804,9.796298,108.3,5.845,1.85,335.95,54.898361,9.795315,54.895069,9.793790
1386864886,1,0,335.9,0,0,0,0,0,25,-0.0292,-23.5746,6.8213,0.4212,54.898823,9.796286,108.3,5.845,1.85,335.95,54.898361,9.795315,54.895069,9.793790
1386864886,1,0,335.9,0,0,4,0,0,0,-0.0292,-23.5746,6.8213,0.4212,54.898838,9.796273,108.3,5.845,1.85,335.95,54.898361,9.795315,54.895069,9.793790
1386864887,1,0,335.9,0,0,0,0,0,25,-0.0292,-23.5746,6.8213,0.4212,54.898853,9.796261,108.3,5.845,1.85,335.95,54.898361,9.795315,54.895069,9.793790
1386864887,1,0,335.9,0,0,4,0,0,0,-0.0292,-23.5746,6.8213,0.4212,54.898872,9.796248,108.3,5.845,1.85,335.95,54.898361,9.795315,54.895069,9.793790
1386864887,1,0,335.9,0,0,0,0,0,25,-0.0292,-23.5746,6.8213,0.4212,54.898891,9.796236,108.3,5.845,1.85,335.95,54.898361,9.795315,54.895069,9.793790
1386864887,1,0,335.9,0,0,4,0,0,0,-0.0292,-23.5746,6.8213,0.4212,54.898907,9.796223,108.3,5.845,1.85,335.95,54.898361,9.795315,54.895069,9.793790
1386864888,1,0,335.9,0,0,0,0,0,25,-0.0292,-23.5746,6.8213,0.4212,54.898922,9.796210,108.3,5.845,1.85,335.95,54.898361,9.795315,54.895069,9.793790
1386864888,1,0,335.9,0,0,4,0,0,0,-0.0292,-23.5746,6.8213,0.4212,54.898941,9.796198,108.3,5.845,1.85,335.95,54.898361,9.795315,54.895069,9.793790
1386864888,1,0,335.9,0,0,0,0,0,25,-0.0292,-23.5746,6.8213,0.4212,54.898956,9.796185,108.3,5.845,1.85,335.95,54.898361,9.795315,54.895069,9.793790
1386864888,1,0,335.9,0,0,4,0,0,0,-0.0292,-23.5746,6.8213,0.4212,54.898972,9.796173,108.3,5.845,1.85,335.95,54.898361,9.795315,54.895069,9.793790
1386864889,1,0,335.9,0,0,0,0,0,25,-0.0292,-23.5746,6.8213,0.4212,54.898991,9.796161,108.3,5.845,1.85,335.95,54.898361,9.795315,54.895069,9.793790
1386864889,1,0,335.9,0,0,4,0,0,0,-0.0292,-23.5746,6.8213,0.4212,54.899006,9.796148,108.3,5.845,1.85,335.95,54.898361,9.795315,54.895069,9.793790
1386864889,1,0,335.9,0,0,0,0,0,25,-0.0292,-23.5746,6.8213,0.4212,54.899021,9.796135,108.3,5.845,1.85,335.95,54.898361,9.795315,54.895069,9.793790
1386864889,1,0,335.9,0,0,4,0,0,0,-0.0292,-23.5746,6.8213,0.4212,54.899040,9.796123,108.3,5.845,1.85,335.95,54.898361,9.795315,54.895069,9.793790
