MCU_timestamp,Navigation_System,Manual_Control,Guidance_Heading,Manual_Ctrl_Rudder,Rudder_Desired_Angle,Rudder_Feedback,Manual_Ctrl_Sail,Sail_Desired_Pos,Sail_Feedback,Rate,Heading,Pitch,Roll,Latitude,Longitude,COG,SOG,Wind_Speed,Wind_Angle,Point_Start_Lat,Point_Start_Lon,Point_End_Lat,Point_End_Lon
1386942026,0,0,0.0,0,0,0,0,0,0,-0.0292,186.2921,6.8213,0.4212,54.894333,9.794583,108.3,5.845,1.85,50.00,0.000000,0.000000,0.000000,0.000000
1386942026,0,0,0.0,0,0,0,0,0,0,-0.0292,186.2921,6.8213,0.4212,54.894333,9.794583,108.3,5.845,1.85,50.00,0.000000,0.000000,0.000000,0.000000
1386942027,0,0,0.0,0,0,0,0,0,0,-0.0292,186.2921,6.8213,0.4212,54.894333,9.794583,108.3,5.845,1.85,50.00,0.000000,0.000000,0.000000,0.000000
1386942027,0,0,0.0,0,0,0,0,0,0,-0.0292,186.2921,6.8213,0.4212,54.894333,9.794583,108.3,5.845,1.85,50.00,0.000000,0.000000,0.000000,0.000000
1386942027,0,0,0.0,0,0,0,0,0,0,-0.0292,186.2921,6.8213,0.4212,54.894333,9.794583,108.3,5.845,1.85,50.00,0.000000,0.000000,0.000000,0.000000
1386942027,0,0,0.0,0,0,0,0,0,0,-0.0292,186.2921,6.8213,0.4212,54.894333,9.794583,108.3,5.845,1.85,50.00,0.000000,0.000000,0.000000,0.000000
1386942028,0,0,0.0,0,0,0,0,0,0,-0.0292,186.2921,6.8213,0.4212,54.894333,9.794583,108.3,5.845,1.85,50.00,0.000000,0.000000,0.000000,0.000000
1386942028,0,0,0.0,0,0,0,0,0,0,-0.0292,186.2921,6.8213,0.4212,54.894333,9.794583,108.3,5.845,1.85,50.00,0.000000,0.000000,0.000000,0.000000
1386942028,0,0,0.0,0,0,0,0,0,0,-0.0292,186.2921,6.8213,0.4212,54.894333,9.794583,108.3,5.845,1.85,50.00,0.000000,0.000000,0.000000,0.000000
1386942028,0,0,0.0,0,0,0,0,0,0,-0.0292,186.2921,6.8213,0.4212,54.894333,9.794583,108.3,5.845,1.85,50.00,0.000000,0.000000,0.000000,0.000000
1386942029,0,0,0.0,0,0,0,0,0,0,-0.0292,186.2921,6.8213,0.4212,54.894333,9.794583,108.3,5.845,1.85,50.00,0.000000,0.000000,0.000000,0.000000
1386942029,0,0,0.0,0,0,0,0,0,0,-0.0292,186.2921,6.8213,0.4212,54.894333,9.794583,108.3,5.845,1.85,50.00,0.000000,0.000000,0.000000,0.000000
1386942029,0,0,0.0,0,0,0,0,0,0,-0.0292,186.2921,6.8213,0.4212,54.894333,9.794583,108.3,5.845,1.85,50.00,0.000000,0.000000,0.000000,0.000000
1386942029,0,0,0.0,0,0,0,0,0,0,-0.0292,186.2921,6.8213,0.4212,54.894333,9.794583,108.3,5.845,1.85,50.00,0.000000,0.000000,0.000000,0.000000
1386942030,0,0,0.0,0,0,0,0,0,0,-0.0292,186.2921,6.8213,0.4212,54.894333,9.794583,108.3,5.845,1.85,50.00,0.000000,0.000000,0.000000,0.000000
1386942030,0,0,0.0,0,0,0,0,0,0,-0.0292,186.2921,6.8213,0.4212,54.894333,9.794583,108.3,5.845,1.85,50.00,0.000000,0.000000,0.000000,0.000000
1386942030,0,0,0.0,0,0,0,0,0,0,-0.0292,186.2921,6.8213,0.4212,54.894333,9.794583,108.3,5.845,1.85,50.00,0.000000,0.000000,0.000000,0.000000
1386942030,0,0,0.0,0,0,0,0,0,0,-0.0292,186.2921,6.8213,0.4212,54.894333,9.794583,108.3,5.845,1.85,50.00,0.000000,0.000000,0.000000,0.000000
1386942031,0,0,0.0,0,0,0,0,0,0,-0.0292,186.2921,6.8213,0.4212,54.894333,9.794583,108.3,5.845,1.85,50.00,0.000000,0.000000,0.000000,0.000000
1386942031,0,0,0.0,0,0,0,0,0,0,-0.0292,186.2921,6.8213,0.4212,54.894333,9.794583,108.3,5.845,1.85,50.00,0.000000,0.000000,0.000000,0.000000
1386942031,0,0,0.0,0,0,0,0,0,0,-0.0292,186.2921,6.8213,0.4212,54.894333,9.794583,108.3,5.845,1.85,50.00,0.000000,0.000000,0.000000,0.000000
1386942031,4,0,0.0,0,0,0,0,0,0,-0.0292,186.2921,6.8213,0.4212,54.894333,9.794583,108.3,5.845,1.85,50.00,0.000000,0.000000,0.000000,0.000000
1386942032,1,0,200.0,0,-14,-4,0,713,700,-0.0292,190.0255,6.8213,0.4212,54.894314,9.794578,108.3,5.845,1.85,50.00,54.894333,9.794583,54.895069,9.793790
1386942032,1,0,200.0,0,-10,-8,0,713,750,-0.0292,192.6922,6.8213,0.4212,54.894295,9.794571,108.3,5.845,1.85,50.00,54.894333,9.794583,54.895069,9.793790
1386942032,1,0,200.0,0,-7,-4,0,713,700,-0.0292,194.5588,6.8213,0.4212,54.894276,9.794563,108.3,5.845,1.85,50.00,54.894333,9.794583,54.895069,9.793790
1386942032,1,0,200.0,0,-5,-8,0,713,750,-0.0292,195.8922,6.8213,0.4212,54.894260,9.794555,108.3,5.845,1.85,50.00,54.894333,9.794583,54.895069,9.793790
1386942033,1,0,200.0,0,-4,-4,0,713,700,-0.0292,196.9588,6.8213,0.4212,54.894241,9.794546,108.3,5.845,1.85,50.00,54.894333,9.794583,54.895069,9.793790
1386942033,1,0,200.0,0,-3,0,0,0,650,-0.0292,197.7588,6.8213,0.4212,54.894222,9.794537,108.3,5.845,1.85,50.00,54.894333,9.794583,54.895069,9.793790
1386942033,1,0,200.0,0,-2,-4,0,0,600,-0.0292,198.2922,6.8213,0.4212,54.894207,9.794527,108.3,5.845,1.85,50.00,54.894333,9.794583,54.895069,9.793790
1386942033,1,0,200.0,0,-2,0,0,0,550,-0.0292,198.8255,6.8213,0.4212,54.894192,9.794517,108.3,5.845,1.85,50.00,54.894333,9.794583,54.895069,9.793790
1386942034,1,0,200.0,0,-1,-4,0,0,500,-0.0292,199.0922,6.8213,0.4212,54.894173,9.794507,108.3,5.845,1.85,50.00,54.894333,9.794583,54.895069,9.793790
1386942034,1,0,200.0,0,-1,0,0,0,450,-0.0292,199.3588,6.8213,0.4212,54.894157,9.794497,108.3,5.845,1.85,50.00,54.894333,9.794583,54.895069,9.793790
1386942034,1,0,200.0,0,-1,-4,0,0,400,-0.0292,199.6255,6.8213,0.4212,54.894142,9.794486,108.3,5.845,1.85,50.00,54.894333,9.794583,54.895069,9.793790
1386942034,1,0,200.0,0,0,0,0,0,350,-0.0292,199.6255,6.8213,0.4212,54.894123,9.794476,108.3,5.845,1.85,50.00,54.894333,9.794583,54.895069,9.793790
1386942035,1,0,200.0,0,0,4,0,0,300,-0.0292,199.6255,6.8213,0.4212,54.894108,9.794465,108.3,5.845,1.85,50.00,54.894333,9.794583,54.895069,9.793790
1386942035,1,0,200.0,0,0,0,0,0,250,-0.0292,199.6255,6.8213,0.4212,54.894093,9.794455,108.3,5.845,1.85,50.00,54.894333,9.794583,54.895069,9.793790
1386942035,1,0,200.0,0,0,4,0,0,200,-0.0292,199.6255,6.8213,0.4212,54.894073,9.794444,108.3,5.845,1.85,50.00,54.894333,9.794583,54.895069,9.793790
1386942035,1,0,200.0,0,0,0,0,0,150,-0.0292,199.6255,6.8213,0.4212,54.894058,9.794434,108.3,5.845,1.85,50.00,54.894333,9.794583,54.895069,9.793790
1386942036,1,0,200.0,0,0,4,0,0,100,-0.0292,199.6255,6.8213,0.4212,54.894043,9.794423,108.3,5.845,1.85,50.00,54.894333,9.794583,54.895069,9.793790
1386942036,1,0,200.0,0,0,0,0,0,50,-0.0292,199.6255,6.8213,0.4212,54.894024,9.794413,108.3,5.845,1.85,50.00,54.894333,9.794583,54.895069,9.793790
1386942036,1,0,200.0,0,0,4,0,0,0,-0.0292,199.6255,6.8213,0.4212,54.894009,9.794402,108.3,5.845,1.85,50.00,54.894333,9.794583,54.895069,9.793790
1386942036,1,0,200.0,0,0,0,0,0,0,-0.0292,199.6255,6.8213,0.4212,54.893993,9.794392,108.3,5.845,1.85,50.00,54.894333,9.794583,54.895069,9.793790
1386942037,1,0,260.0,0,-35,-4,0,0,0,-0.0292,208.9588,6.8213,0.4212,54.893978,9.794376,108.3,5.845,1.85,50.00,54.894333,9.794583,54.895069,9.793790
1386942037,1,0,260.0,0,-35,-8,0,0,0,-0.0292,218.2921,6.8213,0.4212,54.893963,9.794357,108.3,5.845,1.85,50.00,54.894333,9.794583,54.895069,9.793790
1386942037,1,0,260.0,0,-35,-12,0,0,0,-0.0292,227.6255,6.8213,0.4212,54.893948,9.794334,108.3,5.845,1.85,50.00,54.894333,9.794583,54.895069,9.793790
1386942037,1,0,260.0,0,-32,-16,0,0,0,-0.0292,236.1588,6.8213,0.4212,54.893936,9.794309,108.3,5.845,1.85,50.00,54.894333,9.794583,54.895069,9.793790
1386942038,1,0,260.0,0,-24,-20,0,0,0,-0.0292,242.5588,6.8213,0.4212,54.893929,9.794281,108.3,5.845,1.85,50.00,54.894333,9.794583,54.895069,9.793790
1386942038,1,0,260.0,0,-17,-16,0,0,0,-0.0292,247.0921,6.8213,0.4212,54.893921,9.794252,108.3,5.845,1.85,50.00,54.894333,9.794583,54.895069,9.793790
1386942038,1,0,260.0,0,-13,-12,0,0,0,-0.0292,250.5588,6.8213,0.4212,54.893913,9.794223,108.3,5.845,1.85,50.00,54.894333,9.794583,54.895069,9.793790
1386942038,1,0,260.0,0,-9,-8,0,0,0,-0.0292,252.9588,6.8213,0.4212,54.893906,9.794192,108.3,5.845,1.85,50.00,54.894333,9.794583,54.895069,9.793790
1386942039,1,0,260.0,0,-7,-4,0,0,0,-0.0292,254.8255,6.8213,0.4212,54.893902,9.794162,108.3,5.845,1.85,50.00,54.894333,9.794583,54.895069,9.793790
1386942039,1,0,260.0,0,-5,-8,0,0,0,-0.0292,256.1588,6.8213,0.4212,54.893898,9.794131,108.3,5.845,1.85,50.00,54.894333,9.794583,54.895069,9.793790
1386942039,1,0,260.0,0,-4,-4,0,0,0,-0.0292,257.2255,6.8213,0.4212,54.893894,9.794102,108.3,5.845,1.85,50.00,54.894333,9.794583,54.895069,9.793790
1386942039,1,0,260.0,0,-3,0,0,713,50,-0.0292,258.0255,6.8213,0.4212,54.893890,9.794071,108.3,5.845,1.85,50.00,54.894333,9.794583,54.895069,9.793790
1386942040,1,0,260.0,0,-2,-4,0,713,100,-0.0292,258.5588,6.8213,0.4212,54.893887,9.794041,108.3,5.845,1.85,50.00,54.894333,9.794583,54.895069,9.793790
1386942040,1,0,260.0,0,-1,0,0,713,150,-0.0292,258.8255,6.8213,0.4212,54.893887,9.794010,108.3,5.845,1.85,50.00,54.894333,9.794583,54.895069,9.793790
1386942040,1,0,260.0,0,-1,-4,0,713,200,-0.0292,259.0921,6.8213,0.4212,54.893887,9.793980,108.3,5.845,1.85,50.00,54.894333,9.794583,54.895069,9.793790
1386942040,1,0,260.0,0,-1,0,0,713,250,-0.0292,259.3588,6.8213,0.4212,54.893887,9.793949,108.3,5.845,1.85,50.00,54.894333,9.794583,54.895069,9.793790
1386942041,1,0,260.0,0,-1,-4,0,713,300,-0.0292,259.6255,6.8213,0.4212,54.893887,9.793919,108.3,5.845,1.85,50.00,54.894333,9.794583,54.895069,9.793790
1386942041,1,0,260.0,0,0,0,0,713,350,-0.0292,259.6255,6.8213,0.4212,54.893887,9.793887,108.3,5.845,1.85,50.00,54.894333,9.794583,54.895069,9.793790
1386942041,1,0,-31.9,0,-35,-4,0,713,400,-0.0292,268.9588,6.8213,0.4212,54.893887,9.793856,108.3,5.845,1.85,50.00,54.894333,9.794583,54.895069,9.793790
1386942041,1,0,-5.0,0,-35,-8,0,713,450,-0.0292,278.2921,6.8213,0.4212,54.893890,9.793825,108.3,5.845,1.85,50.00,54.894333,9.794583,54.895069,9.793790
1386942042,1,0,260.0,0,18,-4,0,870,500,-0.0292,273.4922,6.8213,0.4212,54.893890,9.793795,108.3,5.845,1.85,50.00,54.894333,9.794583,54.895069,9.793790
1386942042,1,0,260.0,0,13,0,0,713,550,-0.0292,270.0255,6.8213,0.4212,54.893890,9.793763,108.3,5.845,1.85,50.00,54.894333,9.794583,54.895069,9.793790
1386942042,1,0,260.0,0,10,4,0,713,600,-0.0292,267.3588,6.8213,0.4212,54.893887,9.793732,108.3,5.845,1.85,50.00,54.894333,9.794583,54.895069,9.793790
1386942042,1,0,260.0,0,7,8,0,713,650,-0.0292,265.4922,6.8213,0.4212,54.893887,9.793701,108.3,5.845,1.85,50.00,54.894333,9.794583,54.895069,9.793790
1386942043,1,0,260.0,0,5,4,0,713,700,-0.0292,264.1588,6.8213,0.4212,54.893887,9.793671,108.3,5.845,1.85,50.00,54.894333,9.794583,54.895069,9.793790
1386942043,1,0,260.0,0,4,8,0,713,750,-0.0292,263.0921,6.8213,0.4212,54.893887,9.793639,108.3,5.845,1.85,50.00,54.894333,9.794583,54.895069,9.793790
1386942043,1,0,260.0,0,3,4,0,0,700,-0.0292,262.2921,6.8213,0.4212,54.893887,9.793609,108.3,5.845,1.85,50.00,54.894333,9.794583,54.895069,9.793790
1386942043,1,0,260.0,0,2,0,0,0,650,-0.0292,261.7588,6.8213,0.4212,54.893887,9.793578,108.3,5.845,1.85,50.00,54.894333,9.794583,54.895069,9.793790
1386942044,1,0,260.0,0,2,4,0,0,600,-0.0292,261.2255,6.8213,0.4212,54.893887,9.793547,108.3,5.845,1.85,50.00,54.894333,9.794583,54.895069,9.793790
1386942044,1,0,260.0,0,1,0,0,0,550,-0.0292,260.9588,6.8213,0.4212,54.893887,9.793516,108.3,5.845,1.85,50.00,54.894333,9.794583,54.895069,9.793790
1386942044,1,0,260.0,0,1,4,0,0,500,-0.0292,260.6922,6.8213,0.4212,54.893887,9.793486,108.3,5.845,1.85,50.00,54.894333,9.794583,54.895069,9.793790
1386942044,1,0,260.0,0,1,0,0,0,450,-0.0292,260.4255,6.8213,0.4212,54.893887,9.793455,108.3,5.845,1.85,50.00,54.894333,9.794583,54.895069,9.793790
1386942045,1,0,260.0,0,0,4,0,0,400,-0.0292,260.4255,6.8213,0.4212,54.893887,9.793424,108.3,5.845,1.85,50.00,54.894333,9.794583,54.895069,9.793790
1386942045,1,0,260.0,0,0,0,0,0,350,-0.0292,260.4255,6.8213,0.4212,54.893887,9.793393,108.3,5.845,1.85,50.00,54.894333,9.794583,54.895069,9.793790
1386942045,1,0,260.0,0,0,4,0,0,300,-0.0292,260.4255,6.8213,0.4212,54.893887,9.793363,108.3,5.845,1.85,50.00,54.894333,9.794583,54.895069,9.793790
1386942045,1,0,260.0,0,0,0,0,0,250,-0.0292,260.4255,6.8213,0.4212,54.893887,9.793331,108.3,5.845,1.85,50.00,54.894333,9.794583,54.895069,9.793790
1386942046,1,0,260.0,0,0,4,0,0,200,-0.0292,260.4255,6.8213,0.4212,54.893887,9.793301,108.3,5.845,1.85,50.00,54.894333,9.794583,54.895069,9.793790
1386942046,1,0,260.0,0,0,0,0,0,150,-0.0292,260.4255,6.8213,0.4212,54.893887,9.793270,108.3,5.845,1.85,50.00,54.894333,9.794583,54.895069,9.793790
1386942046,1,0,260.0,0,0,4,0,0,100,-0.0292,260.4255,6.8213,0.4212,54.893887,9.793240,108.3,5.845,1.85,50.00,54.894333,9.794583,54.895069,9.793790
1386942046,1,0,260.0,0,0,0,0,0,50,-0.0292,260.4255,6.8213,0.4212,54.893887,9.793208,108.3,5.845,1.85,50.00,54.894333,9.794583,54.895069,9.793790
1386942047,1,0,260.0,0,0,4,0,0,0,-0.0292,260.4255,6.8213,0.4212,54.893887,9.793178,108.3,5.845,1.85,50.00,54.894333,9.794583,54.895069,9.793790
1386942047,1,0,260.0,0,0,0,0,0,0,-0.0292,260.4255,6.8213,0.4212,54.893887,9.793147,108.3,5.845,1.85,50.00,54.894333,9.794583,54.895069,9.793790
1386942047,1,0,200.0,0,35,4,0,0,0,-0.0292,251.0922,6.8213,0.4212,54.893883,9.793118,108.3,5.845,1.85,50.00,54.894333,9.794583,54.895069,9.793790
1386942047,1,0,200.0,0,35,8,0,0,0,-0.0292,241.7589,6.8213,0.4212,54.893875,9.793090,108.3,5.845,1.85,50.00,54.894333,9.794583,54.895069,9.793790
1386942048,1,0,200.0,0,35,12,0,0,0,-0.0292,232.4255,6.8213,0.4212,54.893864,9.793065,108.3,5.845,1.85,50.00,54.894333,9.794583,54.895069,9.793790
1386942048,1,0,200.0,0,32,16,0,0,0,-0.0292,223.8922,6.8213,0.4212,54.893852,9.793043,108.3,5.845,1.85,50.00,54.894333,9.794583,54.895069,9.793790
1386942048,1,0,200.0,0,24,20,0,0,0,-0.0292,217.4922,6.8213,0.4212,54.893837,9.793024,108.3,5.845,1.85,50.00,54.894333,9.794583,54.895069,9.793790
1386942048,1,0,200.0,0,17,16,0,0,0,-0.0292,212.9588,6.8213,0.4212,54.893826,9.793007,108.3,5.845,1.85,50.00,54.894333,9.794583,54.895069,9.793790
1386942049,1,0,200.0,0,13,12,0,0,0,-0.0292,209.4922,6.8213,0.4212,54.893810,9.792992,108.3,5.845,1.85,50.00,54.894333,9.794583,54.895069,9.793790
1386942049,1,0,200.0,0,9,8,0,0,0,-0.0292,207.0922,6.8213,0.4212,54.893795,9.792977,108.3,5.845,1.85,50.00,54.894333,9.794583,54.895069,9.793790
1386942049,1,0,200.0,0,7,4,0,0,0,-0.0292,205.2255,6.8213,0.4212,54.893776,9.792964,108.3,5.845,1.85,50.00,54.894333,9.794583,54.895069,9.793790
1386942049,1,0,200.0,0,5,8,0,0,0,-0.0292,203.8922,6.8213,0.4212,54.893761,9.792952,108.3,5.845,1.85,50.00,54.894333,9.794583,54.895069,9.793790
1386942050,1,0,200.0,0,4,4,0,0,0,-0.0292,202.8255,6.8213,0.4212,54.893745,9.792939,108.3,5.845,1.85,50.00,54.894333,9.794583,54.895069,9.793790
1386942050,1,0,200.0,0,3,0,0,713,50,-0.0292,202.0255,6.8213,0.4212,54.893726,9.792927,108.3,5.845,1.85,50.00,54.894333,9.794583,54.895069,9.793790
1386942050,1,0,200.0,0,2,4,0,713,100,-0.0292,201.4922,6.8213,0.4212,54.893707,9.792915,108.3,5.845,1.85,50.00,54.894333,9.794583,54.895069,9.793790
1386942050,1,0,200.0,0,1,0,0,713,150,-0.0292,201.2255,6.8213,0.4212,54.893692,9.792904,108.3,5.845,1.85,50.00,54.894333,9.794583,54.895069,9.793790
1386942051,1,0,200.0,0,1,4,0,713,200,-0.0292,200.9589,6.8213,0.4212,54.893673,9.792892,108.3,5.845,1.85,50.00,54.894333,9.794583,54.895069,9.793790
1386942051,1,0,200.0,0,1,0,0,713,250,-0.0292,200.6922,6.8213,0.4212,54.893654,9.792881,108.3,5.845,1.85,50.00,54.894333,9.794583,54.895069,9.793790
1386942051,1,0,200.0,0,1,4,0,713,300,-0.0292,200.4255,6.8213,0.4212,54.893639,9.792871,108.3,5.845,1.85,50.00,54.894333,9.794583,54.895069,9.793790
1386942051,1,0,200.0,0,0,0,0,713,350,-0.0292,200.4255,6.8213,0.4212,54.893623,9.792860,108.3,5.845,1.85,50.00,54.894333,9.794583,54.895069,9.793790
1386942052,1,0,105.0,0,35,4,0,713,400,-0.0292,191.0922,6.8213,0.4212,54.893604,9.792854,108.3,5.845,1.85,50.00,54.894333,9.794583,54.895069,9.793790
1386942052,1,0,105.0,0,35,8,0,713,450,-0.0292,181.7589,6.8213,0.4212,54.893585,9.792853,108.3,5.845,1.85,50.00,54.894333,9.794583,54.895069,9.793790
1386942052,1,0,105.0,0,35,12,0,870,500,-0.0292,172.4256,6.8213,0.4212,54.893570,9.792857,108.3,5.845,1.85,50.00,54.894333,9.794583,54.895069,9.793790
1386942052,1,0,105.0,0,35,16,0,870,550,-0.0292,163.0922,6.8213,0.4212,54.893551,9.792866,108.3,5.845,1.85,50.00,54.894333,9.794583,54.895069,9.793790
1386942053,1,0,105.0,0,35,20,0,759,600,-0.0292,153.7589,6.8213,0.4212,54.893532,9.792879,108.3,5.845,1.85,50.00,54.894333,9.794583,54.895069,9.793790
1386942053,1,0,105.0,0,35,24,0,617,650,-0.0292,144.4256,6.8213,0.4212,54.893517,9.792897,108.3,5.845,1.85,50.00,54.894333,9.794583,54.895069,9.793790
1386942053,1,0,105.0,0,35,28,0,469,600,-0.0292,135.0922,6.8213,0.4212,54.893505,9.792919,108.3,5.845,1.85,50.00,54.894333,9.794583,54.895069,9.793790
1386942053,1,0,105.0,0,30,32,0,321,550,-0.0292,127.0922,6.8213,0.4212,54.893494,9.792944,108.3,5.845,1.85,50.00,54.894333,9.794583,54.895069,9.793790
1386942054,1,0,105.0,0,22,28,0,199,500,-0.0292,121.2256,6.8213,0.4212,54.893486,9.792971,108.3,5.845,1.85,50.00,54.894333,9.794583,54.895069,9.793790
1386942054,1,0,105.0,0,16,24,0,118,450,-0.0292,116.9589,6.8213,0.4212,54.893478,9.792999,108.3,5.845,1.85,50.00,54.894333,9.794583,54.895069,9.793790
1386942054,1,0,105.0,0,12,20,0,69,400,-0.0292,113.7589,6.8213,0.4212,54.893471,9.793028,108.3,5.845,1.85,50.00,54.894333,9.794583,54.895069,9.793790
1386942054,1,0,105.0,0,9,16,0,38,350,-0.0292,111.3589,6.8213,0.4212,54.893463,9.793056,108.3,5.845,1.85,50.00,54.894333,9.794583,54.895069,9.793790
1386942055,1,0,105.0,0,6,12,0,20,300,-0.0292,109.7589,6.8213,0.4212,54.893459,9.793086,108.3,5.845,1.85,50.00,54.894333,9.794583,54.895069,9.793790
1386942055,1,0,105.0,0,5,8,0,11,250,-0.0292,108.4256,6.8213,0.4212,54.893456,9.793116,108.3,5.845,1.85,50.00,54.894333,9.794583,54.895069,9.793790
1386942055,1,0,105.0,0,3,4,0,6,200,-0.0292,107.6256,6.8213,0.4212,54.893448,9.793145,108.3,5.845,1.85,50.00,54.894333,9.794583,54.895069,9.793790
1386942055,1,0,105.0,0,3,0,0,3,150,-0.0292,106.8256,6.8213,0.4212,54.893440,9.793176,108.3,5.845,1.85,50.00,54.894333,9.794583,54.895069,9.793790
1386942056,1,0,105.0,0,2,4,0,1,100,-0.0292,106.2922,6.8213,0.4212,54.893436,9.793206,108.3,5.845,1.85,50.00,54.894333,9.794583,54.895069,9.793790
1386942056,1,0,105.0,0,1,0,0,0,50,-0.0292,106.0256,6.8213,0.4212,54.893433,9.793236,108.3,5.845,1.85,50.00,54.894333,9.794583,54.895069,9.793790
1386942056,1,0,105.0,0,1,4,0,0,0,-0.0292,105.7589,6.8213,0.4212,54.893429,9.793265,108.3,5.845,1.85,50.00,54.894333,9.794583,54.895069,9.793790
1386942057,1,0,105.0,0,1,0,0,0,0,-0.0292,105.4922,6.8213,0.4212,54.893425,9.793296,108.3,5.845,1.85,50.00,54.894333,9.794583,54.895069,9.793790
1386942057,1,0,105.0,0,0,4,0,0,0,-0.0292,105.4922,6.8213,0.4212,54.893417,9.793326,108.3,5.845,1.85,50.00,54.894333,9.794583,54.895069,9.793790
1386942057,1,0,105.0,0,0,0,0,0,0,-0.0292,105.4922,6.8213,0.4212,54.893414,9.793356,108.3,5.845,1.85,50.00,54.894333,9.794583,54.895069,9.793790
1386942057,1,0,105.0,0,0,4,0,0,0,-0.0292,105.4922,6.8213,0.4212,54.893410,9.793386,108.3,5.845,1.85,50.00,54.894333,9.794583,54.895069,9.793790
1386942058,1,0,105.0,0,0,0,0,0,0,-0.0292,105.4922,6.8213,0.4212,54.893406,9.793417,108.3,5.845,1.85,50.00,54.894333,9.794583,54.895069,9.793790
1386942058,1,0,105.0,0,0,4,0,0,0,-0.0292,105.4922,6.8213,0.4212,54.893402,9.793447,108.3,5.845,1.85,50.00,54.894333,9.794583,54.895069,9.793790
1386942058,1,0,105.0,0,0,0,0,0,0,-0.0292,105.4922,6.8213,0.4212,54.893394,9.793476,108.3,5.845,1.85,50.00,54.894333,9.794583,54.895069,9.793790
1386942058,1,0,105.0,0,0,4,0,0,0,-0.0292,105.4922,6.8213,0.4212,54.893391,9.793507,108.3,5.845,1.85,50.00,54.894333,9.794583,54.895069,9.793790
1386942059,1,0,105.0,0,0,0,0,0,0,-0.0292,105.4922,6.8213,0.4212,54.893387,9.793536,108.3,5.845,1.85,50.00,54.894333,9.794583,54.895069,9.793790
1386942059,1,0,105.0,0,0,4,0,0,0,-0.0292,105.4922,6.8213,0.4212,54.893383,9.793566,108.3,5.845,1.85,50.00,54.894333,9.794583,54.895069,9.793790
1386942059,1,0,105.0,0,0,0,0,0,0,-0.0292,105.4922,6.8213,0.4212,54.893379,9.793596,108.3,5.845,1.85,50.00,54.894333,9.794583,54.895069,9.793790
1386942059,1,0,105.0,0,0,4,0,0,0,-0.0292,105.4922,6.8213,0.4212,54.893372,9.793627,108.3,5.845,1.85,50.00,54.894333,9.794583,54.895069,9.793790
1386942060,1,0,105.0,0,0,0,0,0,0,-0.0292,105.4922,6.8213,0.4212,54.893368,9.793656,108.3,5.845,1.85,50.00,54.894333,9.794583,54.895069,9.793790
1386942060,1,0,105.0,0,0,4,0,0,0,-0.0292,105.4922,6.8213,0.4212,54.893364,9.793687,108.3,5.845,1.85,50.00,54.894333,9.794583,54.895069,9.793790
1386942060,1,0,105.0,0,0,0,0,0,0,-0.0292,105.4922,6.8213,0.4212,54.893360,9.793717,108.3,5.845,1.85,50.00,54.894333,9.794583,54.895069,9.793790
1386942060,1,0,105.0,0,0,4,0,0,0,-0.0292,105.4922,6.8213,0.4212,54.893356,9.793747,108.3,5.845,1.85,50.00,54.894333,9.794583,54.895069,9.793790
1386942061,1,0,105.0,0,0,0,0,0,0,-0.0292,105.4922,6.8213,0.4212,54.893353,9.793777,108.3,5.845,1.85,50.00,54.894333,9.794583,54.895069,9.793790
1386942061,1,0,105.0,0,0,4,0,0,0,-0.0292,105.4922,6.8213,0.4212,54.893345,9.793807,108.3,5.845,1.85,50.00,54.894333,9.794583,54.895069,9.793790
1386942061,1,0,105.0,0,0,0,0,0,0,-0.0292,105.4922,6.8213,0.4212,54.893341,9.793837,108.3,5.845,1.85,50.00,54.894333,9.794583,54.895069,9.793790
1386942061,1,0,105.0,0,0,4,0,0,0,-0.0292,105.4922,6.8213,0.4212,54.893337,9.793866,108.3,5.845,1.85,50.00,54.894333,9.794583,54.895069,9.793790
1386942062,1,0,105.0,0,0,0,0,0,0,-0.0292,105.4922,6.8213,0.4212,54.893333,9.793897,108.3,5.845,1.85,50.00,54.894333,9.794583,54.895069,9.793790
1386942062,1,0,105.0,0,0,4,0,0,0,-0.0292,105.4922,6.8213,0.4212,54.893330,9.793927,108.3,5.845,1.85,50.00,54.894333,9.794583,54.895069,9.793790
1386942062,1,0,105.0,0,0,0,0,0,0,-0.0292,105.4922,6.8213,0.4212,54.893322,9.793957,108.3,5.845,1.85,50.00,54.894333,9.794583,54.895069,9.793790
1386942062,1,0,105.0,0,0,4,0,0,0,-0.0292,105.4922,6.8213,0.4212,54.893318,9.793987,108.3,5.845,1.85,50.00,54.894333,9.794583,54.895069,9.793790
1386942063,1,0,105.0,0,0,0,0,0,0,-0.0292,105.4922,6.8213,0.4212,54.893314,9.794018,108.3,5.845,1.85,50.00,54.894333,9.794583,54.895069,9.793790
1386942063,1,0,105.0,0,0,4,0,0,0,-0.0292,105.4922,6.8213,0.4212,54.893311,9.794047,108.3,5.845,1.85,50.00,54.894333,9.794583,54.895069,9.793790
1386942063,1,0,105.0,0,0,0,0,0,0,-0.0292,105.4922,6.8213,0.4212,54.893307,9.794077,108.3,5.845,1.85,50.00,54.894333,9.794583,54.895069,9.793790
1386942063,1,0,105.0,0,0,4,0,0,0,-0.0292,105.4922,6.8213,0.4212,54.893303,9.794107,108.3,5.845,1.85,50.00,54.894333,9.794583,54.895069,9.793790
1386942064,1,0,105.0,0,0,0,0,0,0,-0.0292,105.4922,6.8213,0.4212,54.893295,9.794137,108.3,5.845,1.85,50.00,54.894333,9.794583,54.895069,9.793790
1386942064,1,0,105.0,0,0,4,0,0,0,-0.0292,105.4922,6.8213,0.4212,54.893291,9.794167,108.3,5.845,1.85,50.00,54.894333,9.794583,54.895069,9.793790
1386942064,1,0,105.0,0,0,0,0,0,0,-0.0292,105.4922,6.8213,0.4212,54.893288,9.794197,108.3,5.845,1.85,50.00,54.894333,9.794583,54.895069,9.793790
1386942064,1,0,105.0,0,0,4,0,0,0,-0.0292,105.4922,6.8213,0.4212,54.893284,9.794228,108.3,5.845,1.85,50.00,54.894333,9.794583,54.895069,9.793790
1386942065,1,0,105.0,0,0,0,0,0,0,-0.0292,105.4922,6.8213,0.4212,54.893280,9.794257,108.3,5.845,1.85,50.00,54.894333,9.794583,54.895069,9.793790
1386942065,1,0,105.0,0,0,4,0,0,0,-0.0292,105.4922,6.8213,0.4212,54.893272,9.794288,108.3,5.845,1.85,50.00,54.894333,9.794583,54.895069,9.793790
1386942065,1,0,105.0,0,0,0,0,0,0,-0.0292,105.4922,6.8213,0.4212,54.893269,9.794318,108.3,5.845,1.85,50.00,54.894333,9.794583,54.895069,9.793790
1386942065,1,0,105.0,0,0,4,0,0,0,-0.0292,105.4922,6.8213,0.4212,54.893265,9.794348,108.3,5.845,1.85,50.00,54.894333,9.794583,54.895069,9.793790
1386942066,1,0,105.0,0,0,0,0,0,0,-0.0292,105.4922,6.8213,0.4212,54.893261,9.794377,108.3,5.845,1.85,50.00,54.894333,9.794583,54.895069,9.793790
1386942066,1,0,105.0,0,0,4,0,0,0,-0.0292,105.4922,6.8213,0.4212,54.893257,9.794408,108.3,5.845,1.85,50.00,54.894333,9.794583,54.895069,9.793790
1386942066,1,0,105.0,0,0,0,0,0,0,-0.0292,105.4922,6.8213,0.4212,54.893253,9.794437,108.3,5.845,1.85,50.00,54.894333,9.794583,54.895069,9.793790
1386942066,1,0,105.0,0,0,4,0,0,0,-0.0292,105.4922,6.8213,0.4212,54.893246,9.794467,108.3,5.845,1.85,50.00,54.894333,9.794583,54.895069,9.793790
1386942067,1,0,105.0,0,0,0,0,0,0,-0.0292,105.4922,6.8213,0.4212,54.893242,9.794497,108.3,5.845,1.85,50.00,54.894333,9.794583,54.895069,9.793790
1386942067,1,0,105.0,0,0,4,0,0,0,-0.0292,105.4922,6.8213,0.4212,54.893238,9.794528,108.3,5.845,1.85,50.00,54.894333,9.794583,54.895069,9.793790
1386942067,1,0,105.0,0,0,0,0,0,0,-0.0292,105.4922,6.8213,0.4212,54.893234,9.794558,108.3,5.845,1.85,50.00,54.894333,9.794583,54.895069,9.793790
1386942067,1,0,105.0,0,0,4,0,0,0,-0.0292,105.4922,6.8213,0.4212,54.893230,9.794588,108.3,5.845,1.85,50.00,54.894333,9.794583,54.895069,9.793790
1386942068,1,0,105.0,0,0,0,0,0,0,-0.0292,105.4922,6.8213,0.4212,54.893223,9.794619,108.3,5.845,1.85,50.00,54.894333,9.794583,54.895069,9.793790
1386942068,1,0,105.0,0,0,4,0,0,0,-0.0292,105.4922,6.8213,0.4212,54.893219,9.794648,108.3,5.845,1.85,50.00,54.894333,9.794583,54.895069,9.793790
1386942068,1,0,105.0,0,0,0,0,0,0,-0.0292,105.4922,6.8213,0.4212,54.893215,9.794678,108.3,5.845,1.85,50.00,54.894333,9.794583,54.895069,9.793790
1386942068,1,0,105.0,0,0,4,0,0,0,-0.0292,105.4922,6.8213,0.4212,54.893211,9.794708,108.3,5.845,1.85,50.00,54.894333,9.794583,54.895069,9.793790
1386942069,1,0,105.0,0,0,0,0,0,0,-0.0292,105.4922,6.8213,0.4212,54.893208,9.794738,108.3,5.845,1.85,50.00,54.894333,9.794583,54.895069,9.793790
1386942069,1,0,105.0,0,0,4,0,0,0,-0.0292,105.4922,6.8213,0.4212,54.893204,9.794767,108.3,5.845,1.85,50.00,54.894333,9.794583,54.895069,9.793790
1386942069,1,0,105.0,0,0,0,0,0,0,-0.0292,105.4922,6.8213,0.4212,54.893196,9.794798,108.3,5.845,1.85,50.00,54.894333,9.794583,54.895069,9.793790
1386942069,1,0,105.0,0,0,4,0,0,0,-0.0292,105.4922,6.8213,0.4212,54.893192,9.794828,108.3,5.845,1.85,50.00,54.894333,9.794583,54.895069,9.793790
1386942070,1,0,105.0,0,0,0,0,0,0,-0.0292,105.4922,6.8213,0.4212,54.893188,9.794858,108.3,5.845,1.85,50.00,54.894333,9.794583,54.895069,9.793790
1386942070,1,0,105.0,0,0,4,0,0,0,-0.0292,105.4922,6.8213,0.4212,54.893185,9.794888,108.3,5.845,1.85,50.00,54.894333,9.794583,54.895069,9.793790
1386942070,1,0,105.0,0,0,0,0,0,0,-0.0292,105.4922,6.8213,0.4212,54.893181,9.794919,108.3,5.845,1.85,50.00,54.894333,9.794583,54.895069,9.793790
1386942070,1,0,105.0,0,0,4,0,0,0,-0.0292,105.4922,6.8213,0.4212,54.893173,9.794949,108.3,5.845,1.85,50.00,54.894333,9.794583,54.895069,9.793790
1386942071,1,0,105.0,0,0,0,0,0,0,-0.0292,105.4922,6.8213,0.4212,54.893169,9.794978,108.3,5.845,1.85,50.00,54.894333,9.794583,54.895069,9.793790
1386942071,1,0,105.0,0,0,4,0,0,0,-0.0292,105.4922,6.8213,0.4212,54.893166,9.795009,108.3,5.845,1.85,50.00,54.894333,9.794583,54.895069,9.793790
1386942071,1,0,105.0,0,0,0,0,0,0,-0.0292,105.4922,6.8213,0.4212,54.893162,9.795039,108.3,5.845,1.85,50.00,54.894333,9.794583,54.895069,9.793790
1386942071,1,0,105.0,0,0,4,0,0,0,-0.0292,105.4922,6.8213,0.4212,54.893158,9.795069,108.3,5.845,1.85,50.00,54.894333,9.794583,54.895069,9.793790
1386942072,1,0,105.0,0,0,0,0,0,0,-0.0292,105.4922,6.8213,0.4212,54.893154,9.795099,108.3,5.845,1.85,50.00,54.894333,9.794583,54.895069,9.793790
1386942072,1,0,105.0,0,0,4,0,0,0,-0.0292,105.4922,6.8213,0.4212,54.893147,9.795130,108.3,5.845,1.85,50.00,54.894333,9.794583,54.895069,9.793790
1386942072,1,0,105.0,0,0,0,0,0,0,-0.0292,105.4922,6.8213,0.4212,54.893143,9.795159,108.3,5.845,1.85,50.00,54.894333,9.794583,54.895069,9.793790
1386942072,1,0,105.0,0,0,4,0,0,0,-0.0292,105.4922,6.8213,0.4212,54.893139,9.795190,108.3,5.845,1.85,50.00,54.894333,9.794583,54.895069,9.793790
1386942073,1,0,105.0,0,0,0,0,0,0,-0.0292,105.4922,6.8213,0.4212,54.893135,9.795220,108.3,5.845,1.85,50.00,54.894333,9.794583,54.895069,9.793790
1386942073,1,0,105.0,0,0,4,0,0,0,-0.0292,105.4922,6.8213,0.4212,54.893131,9.795250,108.3,5.845,1.85,50.00,54.894333,9.794583,54.895069,9.793790
1386942073,1,0,105.0,0,0,0,0,0,0,-0.0292,105.4922,6.8213,0.4212,54.893124,9.795280,108.3,5.845,1.85,50.00,54.894333,9.794583,54.895069,9.793790
1386942073,1,0,105.0,0,0,4,0,0,0,-0.0292,105.4922,6.8213,0.4212,54.893120,9.795310,108.3,5.845,1.85,50.00,54.894333,9.794583,54.895069,9.793790
1386942074,1,0,105.0,0,0,0,0,0,0,-0.0292,105.4922,6.8213,0.4212,54.893116,9.795341,108.3,5.845,1.85,50.00,54.894333,9.794583,54.895069,9.793790
1386942074,1,0,105.0,0,0,4,0,0,0,-0.0292,105.4922,6.8213,0.4212,54.893112,9.795370,108.3,5.845,1.85,50.00,54.894333,9.794583,54.895069,9.793790
1386942074,1,0,200.0,0,-35,0,0,0,0,-0.0292,114.8256,6.8213,0.4212,54.893105,9.795399,108.3,5.845,1.85,50.00,54.894333,9.794583,54.895069,9.793790
1386942074,1,0,200.0,0,-35,-4,0,47,50,-0.0292,124.1589,6.8213,0.4212,54.893093,9.795424,108.3,5.845,1.85,50.00,54.894333,9.794583,54.895069,9.793790
1386942075,1,0,200.0,0,-35,-8,0,157,100,-0.0292,133.4922,6.8213,0.4212,54.893082,9.795446,108.3,5.845,1.85,50.00,54.894333,9.794583,54.895069,9.793790
1386942075,1,0,200.0,0,-35,-12,0,296,150,-0.0292,142.8255,6.8213,0.4212,54.893066,9.795465,108.3,5.845,1.85,50.00,54.894333,9.794583,54.895069,9.793790
1386942075,1,0,200.0,0,-35,-16,0,444,200,-0.0292,152.1589,6.8213,0.4212,54.893051,9.795480,108.3,5.845,1.85,50.00,54.894333,9.794583,54.895069,9.793790
1386942075,1,0,200.0,0,-35,-20,0,592,250,-0.0292,161.4922,6.8213,0.4212,54.893036,9.795489,108.3,5.845,1.85,50.00,54.894333,9.794583,54.895069,9.793790
1386942076,1,0,200.0,0,-35,-24,0,735,300,-0.0292,170.8255,6.8213,0.4212,54.893017,9.795494,108.3,5.845,1.85,50.00,54.894333,9.794583,54.895069,9.793790
1386942076,1,0,200.0,0,-29,-28,0,870,350,-0.0292,178.5589,6.8213,0.4212,54.892998,9.795495,108.3,5.845,1.85,50.00,54.894333,9.794583,54.895069,9.793790
1386942076,1,0,200.0,0,-21,-24,0,870,400,-0.0292,184.1589,6.8213,0.4212,54.892982,9.795493,108.3,5.845,1.85,50.00,54.894333,9.794583,54.895069,9.793790
1386942076,1,0,200.0,0,-16,-20,0,870,450,-0.0292,188.4255,6.8213,0.4212,54.892963,9.795488,108.3,5.845,1.85,50.00,54.894333,9.794583,54.895069,9.793790
1386942077,1,0,200.0,0,-12,-16,0,713,500,-0.0292,191.6255,6.8213,0.4212,54.892944,9.795483,108.3,5.845,1.85,50.00,54.894333,9.794583,54.895069,9.793790
1386942077,1,0,200.0,0,-8,-12,0,713,550,-0.0292,193.7589,6.8213,0.4212,54.892929,9.795475,108.3,5.845,1.85,50.00,54.894333,9.794583,54.895069,9.793790
1386942077,1,0,200.0,0,-6,-8,0,713,600,-0.0292,195.3589,6.8213,0.4212,54.892914,9.795466,108.3,5.845,1.85,50.00,54.894333,9.794583,54.895069,9.793790
1386942077,1,0,200.0,0,-5,-4,0,713,650,-0.0292,196.6922,6.8213,0.4212,54.892895,9.795457,108.3,5.845,1.85,50.00,54.894333,9.794583,54.895069,9.793790
1386942078,1,0,200.0,0,-3,0,0,0,600,-0.0292,197.4922,6.8213,0.4212,54.892879,9.795448,108.3,5.845,1.85,50.00,54.894333,9.794583,54.895069,9.793790
1386942078,1,0,200.0,0,-3,-4,0,0,550,-0.0292,198.2922,6.8213,0.4212,54.892864,9.795439,108.3,5.845,1.85,50.00,54.894333,9.794583,54.895069,9.793790
1386942078,1,0,200.0,0,-2,0,0,0,500,-0.0292,198.8255,6.8213,0.4212,54.892845,9.795428,108.3,5.845,1.85,50.00,54.894333,9.794583,54.895069,9.793790
1386942078,1,0,200.0,0,-1,-4,0,0,450,-0.0292,199.0922,6.8213,0.4212,54.892830,9.795418,108.3,5.845,1.85,50.00,54.894333,9.794583,54.895069,9.793790
1386942079,1,0,200.0,0,-1,0,0,0,400,-0.0292,199.3589,6.8213,0.4212,54.892815,9.795407,108.3,5.845,1.85,50.00,54.894333,9.794583,54.895069,9.793790
1386942079,1,0,200.0,0,-1,-4,0,0,350,-0.0292,199.6255,6.8213,0.4212,54.892796,9.795397,108.3,5.845,1.85,50.00,54.894333,9.794583,54.895069,9.793790
1386942079,1,0,200.0,0,0,0,0,0,300,-0.0292,199.6255,6.8213,0.4212,54.892780,9.795386,108.3,5.845,1.85,50.00,54.894333,9.794583,54.895069,9.793790
1386942079,1,0,200.0,0,0,4,0,0,250,-0.0292,199.6255,6.8213,0.4212,54.892765,9.795376,108.3,5.845,1.85,50.00,54.894333,9.794583,54.895069,9.793790
1386942080,1,0,200.0,0,0,0,0,0,200,-0.0292,199.6255,6.8213,0.4212,54.892746,9.795365,108.3,5.845,1.85,50.00,54.894333,9.794583,54.895069,9.793790
1386942080,1,0,200.0,0,0,4,0,0,150,-0.0292,199.6255,6.8213,0.4212,54.892731,9.795355,108.3,5.845,1.85,50.00,54.894333,9.794583,54.895069,9.793790
1386942080,1,0,200.0,0,0,0,0,0,100,-0.0292,199.6255,6.8213,0.4212,54.892715,9.795344,108.3,5.845,1.85,50.00,54.894333,9.794583,54.895069,9.793790
1386942080,1,0,200.0,0,0,4,0,0,50,-0.0292,199.6255,6.8213,0.4212,54.892696,9.795334,108.3,5.845,1.85,50.00,54.894333,9.794583,54.895069,9.793790
1386942081,1,0,200.0,0,0,0,0,0,0,-0.0292,199.6255,6.8213,0.4212,54.892681,9.795323,108.3,5.845,1.85,50.00,54.894333,9.794583,54.895069,9.793790
1386942081,1,0,200.0,0,0,4,0,0,0,-0.0292,199.6255,6.8213,0.4212,54.892666,9.795313,108.3,5.845,1.85,50.00,54.894333,9.794583,54.895069,9.793790
1386942081,1,0,260.0,0,-35,0,0,0,0,-0.0292,208.9589,6.8213,0.4212,54.892651,9.795298,108.3,5.845,1.85,50.00,54.894333,9.794583,54.895069,9.793790
1386942081,1,0,260.0,0,-35,-4,0,0,0,-0.0292,218.2922,6.8213,0.4212,54.892635,9.795278,108.3,5.845,1.85,50.00,54.894333,9.794583,54.895069,9.793790
1386942082,1,0,260.0,0,-35,-8,0,0,0,-0.0292,227.6255,6.8213,0.4212,54.892620,9.795255,108.3,5.845,1.85,50.00,54.894333,9.794583,54.895069,9.793790
1386942082,1,0,260.0,0,-32,-12,0,0,0,-0.0292,236.1589,6.8213,0.4212,54.892609,9.795229,108.3,5.845,1.85,50.00,54.894333,9.794583,54.895069,9.793790
1386942082,1,0,260.0,0,-24,-16,0,0,0,-0.0292,242.5589,6.8213,0.4212,54.892601,9.795201,108.3,5.845,1.85,50.00,54.894333,9.794583,54.895069,9.793790
1386942082,1,0,260.0,0,-17,-20,0,0,0,-0.0292,247.0922,6.8213,0.4212,54.892593,9.795173,108.3,5.845,1.85,50.00,54.894333,9.794583,54.895069,9.793790
1386942083,1,0,260.0,0,-13,-16,0,0,0,-0.0292,250.5589,6.8213,0.4212,54.892586,9.795143,108.3,5.845,1.85,50.00,54.894333,9.794583,54.895069,9.793790
1386942083,1,0,260.0,0,-9,-12,0,0,0,-0.0292,252.9588,6.8213,0.4212,54.892578,9.795114,108.3,5.845,1.85,50.00,54.894333,9.794583,54.895069,9.793790
1386942083,1,0,260.0,0,-7,-8,0,0,0,-0.0292,254.8255,6.8213,0.4212,54.892574,9.795084,108.3,5.845,1.85,50.00,54.894333,9.794583,54.895069,9.793790
1386942083,1,0,260.0,0,-5,-4,0,0,0,-0.0292,256.1588,6.8213,0.4212,54.892570,9.795053,108.3,5.845,1.85,50.00,54.894333,9.794583,54.895069,9.793790
1386942084,1,0,260.0,0,-4,0,0,0,0,-0.0292,257.2255,6.8213,0.4212,54.892567,9.795023,108.3,5.845,1.85,50.00,54.894333,9.794583,54.895069,9.793790
1386942084,1,0,260.0,0,-3,-4,0,713,50,-0.0292,258.0255,6.8213,0.4212,54.892563,9.794992,108.3,5.845,1.85,50.00,54.894333,9.794583,54.895069,9.793790
1386942084,1,0,260.0,0,-2,0,0,713,100,-0.0292,258.5588,6.8213,0.4212,54.892559,9.794961,108.3,5.845,1.85,50.00,54.894333,9.794583,54.895069,9.793790
1386942084,1,0,260.0,0,-1,-4,0,713,150,-0.0292,258.8255,6.8213,0.4212,54.892559,9.794930,108.3,5.845,1.85,50.00,54.894333,9.794583,54.895069,9.793790
1386942085,1,0,260.0,0,-1,0,0,713,200,-0.0292,259.0922,6.8213,0.4212,54.892559,9.794900,108.3,5.845,1.85,50.00,54.894333,9.794583,54.895069,9.793790
1386942085,1,0,260.0,0,-1,-4,0,713,250,-0.0292,259.3588,6.8213,0.4212,54.892559,9.794869,108.3,5.845,1.85,50.00,54.894333,9.794583,54.895069,9.793790
1386942085,1,0,260.0,0,-1,0,0,713,300,-0.0292,259.6255,6.8213,0.4212,54.892559,9.794839,108.3,5.845,1.85,50.00,54.894333,9.794583,54.895069,9.793790
1386942085,1,0,260.0,0,0,4,0,713,350,-0.0292,259.6255,6.8213,0.4212,54.892559,9.794808,108.3,5.845,1.85,50.00,54.894333,9.794583,54.895069,9.793790
1386942086,1,0,-25.0,0,-35,0,0,713,400,-0.0292,268.9588,6.8213,0.4212,54.892559,9.794778,108.3,5.845,1.85,50.00,54.894333,9.794583,54.895069,9.793790
1386942086,1,0,-5.0,0,-35,-4,0,713,450,-0.0292,278.2922,6.8213,0.4212,54.892563,9.794746,108.3,5.845,1.85,50.00,54.894333,9.794583,54.895069,9.793790
1386942086,1,0,260.0,0,18,0,0,870,500,-0.0292,273.4922,6.8213,0.4212,54.892563,9.794715,108.3,5.845,1.85,50.00,54.894333,9.794583,54.895069,9.793790
1386942086,1,0,260.0,0,13,4,0,713,550,-0.0292,270.0255,6.8213,0.4212,54.892563,9.794683,108.3,5.845,1.85,50.00,54.894333,9.794583,54.895069,9.793790
1386942087,1,0,260.0,0,10,8,0,713,600,-0.0292,267.3589,6.8213,0.4212,54.892559,9.794653,108.3,5.845,1.85,50.00,54.894333,9.794583,54.895069,9.793790
1386942087,1,0,260.0,0,7,4,0,713,650,-0.0292,265.4922,6.8213,0.4212,54.892559,9.794621,108.3,5.845,1.85,50.00,54.894333,9.794583,54.895069,9.793790
1386942087,1,0,260.0,0,5,8,0,713,700,-0.0292,264.1588,6.8213,0.4212,54.892559,9.794590,108.3,5.845,1.85,50.00,54.894333,9.794583,54.895069,9.793790
1386942087,1,0,260.0,0,4,4,0,713,750,-0.0292,263.0922,6.8213,0.4212,54.892559,9.794559,108.3,5.845,1.85,50.00,54.894333,9.794583,54.895069,9.793790
1386942088,1,0,260.0,0,3,0,0,0,700,-0.0292,262.2922,6.8213,0.4212,54.892559,9.794529,108.3,5.845,1.85,50.00,54.894333,9.794583,54.895069,9.793790
1386942088,1,0,260.0,0,2,4,0,0,650,-0.0292,261.7589,6.8213,0.4212,54.892559,9.794497,108.3,5.845,1.85,50.00,54.894333,9.794583,54.895069,9.793790
1386942088,1,0,260.0,0,2,0,0,0,600,-0.0292,261.2255,6.8213,0.4212,54.892559,9.794467,108.3,5.845,1.85,50.00,54.894333,9.794583,54.895069,9.793790
1386942089,1,0,260.0,0,1,4,0,0,550,-0.0292,260.9589,6.8213,0.4212,54.892559,9.794436,108.3,5.845,1.85,50.00,54.894333,9.794583,54.895069,9.793790
1386942089,1,0,260.0,0,1,0,0,0,500,-0.0292,260.6922,6.8213,0.4212,54.892559,9.794405,108.3,5.845,1.85,50.00,54.894333,9.794583,54.895069,9.793790
1386942089,1,0,260.0,0,1,4,0,0,450,-0.0292,260.4255,6.8213,0.4212,54.892559,9.794374,108.3,5.845,1.85,50.00,54.894333,9.794583,54.895069,9.793790
1386942089,1,0,260.0,0,0,0,0,0,400,-0.0292,260.4255,6.8213,0.4212,54.892559,9.794344,108.3,5.845,1.85,50.00,54.894333,9.794583,54.895069,9.793790
1386942090,1,0,260.0,0,0,4,0,0,350,-0.0292,260.4255,6.8213,0.4212,54.892559,9.794313,108.3,5.845,1.85,50.00,54.894333,9.794583,54.895069,9.793790
1386942090,1,0,260.0,0,0,0,0,0,300,-0.0292,260.4255,6.8213,0.4212,54.892559,9.794282,108.3,5.845,1.85,50.00,54.894333,9.794583,54.895069,9.793790
1386942090,1,0,260.0,0,0,4,0,0,250,-0.0292,260.4255,6.8213,0.4212,54.892559,9.794251,108.3,5.845,1.85,50.00,54.894333,9.794583,54.895069,9.793790
1386942090,1,0,260.0,0,0,0,0,0,200,-0.0292,260.4255,6.8213,0.4212,54.892559,9.794221,108.3,5.845,1.85,50.00,54.894333,9.794583,54.895069,9.793790
1386942091,1,0,260.0,0,0,4,0,0,150,-0.0292,260.4255,6.8213,0.4212,54.892559,9.794189,108.3,5.845,1.85,50.00,54.894333,9.794583,54.895069,9.793790
1386942091,1,0,260.0,0,0,0,0,0,100,-0.0292,260.4255,6.8213,0.4212,54.892559,9.794159,108.3,5.845,1.85,50.00,54.894333,9.794583,54.895069,9.793790
1386942091,1,0,260.0,0,0,4,0,0,50,-0.0292,260.4255,6.8213,0.4212,54.892559,9.794128,108.3,5.845,1.85,50.00,54.894333,9.794583,54.895069,9.793790
1386942091,1,0,260.0,0,0,0,0,0,0,-0.0292,260.4255,6.8213,0.4212,54.892559,9.794098,108.3,5.845,1.85,50.00,54.894333,9.794583,54.895069,9.793790
1386942092,1,0,260.0,0,0,4,0,0,0,-0.0292,260.4255,6.8213,0.4212,54.892559,9.794066,108.3,5.845,1.85,50.00,54.894333,9.794583,54.895069,9.793790
1386942092,1,0,200.0,0,35,8,0,0,0,-0.0292,251.0922,6.8213,0.4212,54.892555,9.794037,108.3,5.845,1.85,50.00,54.894333,9.794583,54.895069,9.793790
1386942092,1,0,200.0,0,35,12,0,0,0,-0.0292,241.7589,6.8213,0.4212,54.892548,9.794009,108.3,5.845,1.85,50.00,54.894333,9.794583,54.895069,9.793790
1386942092,1,0,200.0,0,35,16,0,0,0,-0.0292,232.4256,6.8213,0.4212,54.892536,9.793984,108.3,5.845,1.85,50.00,54.894333,9.794583,54.895069,9.793790
1386942093,1,0,200.0,0,32,20,0,0,0,-0.0292,223.8922,6.8213,0.4212,54.892521,9.793962,108.3,5.845,1.85,50.00,54.894333,9.794583,54.895069,9.793790
1386942093,1,0,200.0,0,24,24,0,0,0,-0.0292,217.4922,6.8213,0.4212,54.892506,9.793943,108.3,5.845,1.85,50.00,54.894333,9.794583,54.895069,9.793790
1386942093,1,0,200.0,0,17,20,0,0,0,-0.0292,212.9589,6.8213,0.4212,54.892490,9.793926,108.3,5.845,1.85,50.00,54.894333,9.794583,54.895069,9.793790
1386942093,1,0,200.0,0,13,16,0,0,0,-0.0292,209.4922,6.8213,0.4212,54.892471,9.793911,108.3,5.845,1.85,50.00,54.894333,9.794583,54.895069,9.793790
1386942094,1,0,200.0,0,9,12,0,0,0,-0.0292,207.0922,6.8213,0.4212,54.892456,9.793897,108.3,5.845,1.85,50.00,54.894333,9.794583,54.895069,9.793790
1386942094,1,0,200.0,0,7,8,0,0,0,-0.0292,205.2256,6.8213,0.4212,54.892441,9.793883,108.3,5.845,1.85,50.00,54.894333,9.794583,54.895069,9.793790
1386942094,1,0,200.0,0,5,4,0,0,0,-0.0292,203.8922,6.8213,0.4212,54.892422,9.793870,108.3,5.845,1.85,50.00,54.894333,9.794583,54.895069,9.793790
1386942094,1,0,200.0,0,4,8,0,0,0,-0.0292,202.8256,6.8213,0.4212,54.892403,9.793859,108.3,5.845,1.85,50.00,54.894333,9.794583,54.895069,9.793790
1386942095,1,0,200.0,0,3,4,0,713,50,-0.0292,202.0256,6.8213,0.4212,54.892387,9.793847,108.3,5.845,1.85,50.00,54.894333,9.794583,54.895069,9.793790
1386942095,1,0,200.0,0,2,0,0,713,100,-0.0292,201.4922,6.8213,0.4212,54.892372,9.793836,108.3,5.845,1.85,50.00,54.894333,9.794583,54.895069,9.793790
1386942095,1,0,200.0,0,1,4,0,713,150,-0.0292,201.2256,6.8213,0.4212,54.892353,9.793824,108.3,5.845,1.85,50.00,54.894333,9.794583,54.895069,9.793790
1386942095,1,0,200.0,0,1,0,0,713,200,-0.0292,200.9589,6.8213,0.4212,54.892338,9.793814,108.3,5.845,1.85,50.00,54.894333,9.794583,54.895069,9.793790
1386942096,1,0,200.0,0,1,4,0,713,250,-0.0292,200.6922,6.8213,0.4212,54.892323,9.793803,108.3,5.845,1.85,50.00,54.894333,9.794583,54.895069,9.793790
1386942096,1,0,200.0,0,1,0,0,713,300,-0.0292,200.4256,6.8213,0.4212,54.892303,9.793792,108.3,5.845,1.85,50.00,54.894333,9.794583,54.895069,9.793790
1386942096,1,0,200.0,0,0,4,0,713,350,-0.0292,200.4256,6.8213,0.4212,54.892288,9.793780,108.3,5.845,1.85,50.00,54.894333,9.794583,54.895069,9.793790
1386942096,1,0,105.0,0,35,8,0,713,400,-0.0292,191.0922,6.8213,0.4212,54.892273,9.793775,108.3,5.845,1.85,50.00,54.894333,9.794583,54.895069,9.793790
1386942097,1,0,105.0,0,35,12,0,713,450,-0.0292,181.7589,6.8213,0.4212,54.892254,9.793774,108.3,5.845,1.85,50.00,54.894333,9.794583,54.895069,9.793790
1386942097,1,0,105.0,0,35,16,0,870,500,-0.0292,172.4256,6.8213,0.4212,54.892235,9.793777,108.3,5.845,1.85,50.00,54.894333,9.794583,54.895069,9.793790
1386942097,1,0,105.0,0,35,20,0,870,550,-0.0292,163.0923,6.8213,0.4212,54.892220,9.793787,108.3,5.845,1.85,50.00,54.894333,9.794583,54.895069,9.793790
1386942097,1,0,105.0,0,35,24,0,759,600,-0.0292,153.7589,6.8213,0.4212,54.892200,9.793801,108.3,5.845,1.85,50.00,54.894333,9.794583,54.895069,9.793790
1386942098,1,0,105.0,0,35,28,0,617,650,-0.0292,144.4256,6.8213,0.4212,54.892185,9.793819,108.3,5.845,1.85,50.00,54.894333,9.794583,54.895069,9.793790
1386942098,1,0,105.0,0,35,32,0,469,600,-0.0292,135.0923,6.8213,0.4212,54.892174,9.793841,108.3,5.845,1.85,50.00,54.894333,9.794583,54.895069,9.793790
1386942098,1,0,105.0,0,30,28,0,321,550,-0.0292,127.0923,6.8213,0.4212,54.892162,9.793866,108.3,5.845,1.85,50.00,54.894333,9.794583,54.895069,9.793790
1386942098,1,0,105.0,0,22,24,0,199,500,-0.0292,121.2256,6.8213,0.4212,54.892155,9.793893,108.3,5.845,1.85,50.00,54.894333,9.794583,54.895069,9.793790
1386942099,1,0,105.0,0,16,20,0,118,450,-0.0292,116.9589,6.8213,0.4212,54.892147,9.793921,108.3,5.845,1.85,50.00,54.894333,9.794583,54.895069,9.793790
1386942099,1,0,105.0,0,12,16,0,69,400,-0.0292,113.7589,6.8213,0.4212,54.892139,9.793949,108.3,5.845,1.85,50.00,54.894333,9.794583,54.895069,9.793790
1386942099,1,0,105.0,0,9,12,0,38,350,-0.0292,111.3589,6.8213,0.4212,54.892136,9.793979,108.3,5.845,1.85,50.00,54.894333,9.794583,54.895069,9.793790
1386942099,1,0,105.0,0,6,8,0,20,300,-0.0292,109.7589,6.8213,0.4212,54.892132,9.794008,108.3,5.845,1.85,50.00,54.894333,9.794583,54.895069,9.793790
1386942100,1,0,105.0,0,5,4,0,11,250,-0.0292,108.4256,6.8213,0.4212,54.892128,9.794038,108.3,5.845,1.85,50.00,54.894333,9.794583,54.895069,9.793790
1386942100,1,0,105.0,0,3,0,0,6,200,-0.0292,107.6256,6.8213,0.4212,54.892120,9.794068,108.3,5.845,1.85,50.00,54.894333,9.794583,54.895069,9.793790
1386942100,1,0,105.0,0,3,4,0,3,150,-0.0292,106.8256,6.8213,0.4212,54.892113,9.794098,108.3,5.845,1.85,50.00,54.894333,9.794583,54.895069,9.793790
1386942100,1,0,105.0,0,2,0,0,1,100,-0.0292,106.2923,6.8213,0.4212,54.892109,9.794127,108.3,5.845,1.85,50.00,54.894333,9.794583,54.895069,9.793790
1386942101,1,0,105.0,0,1,4,0,0,50,-0.0292,106.0256,6.8213,0.4212,54.892105,9.794158,108.3,5.845,1.85,50.00,54.894333,9.794583,54.895069,9.793790
1386942101,1,0,105.0,0,1,0,0,0,0,-0.0292,105.7589,6.8213,0.4212,54.892101,9.794188,108.3,5.845,1.85,50.00,54.894333,9.794583,54.895069,9.793790
1386942101,1,0,105.0,0,1,4,0,0,0,-0.0292,105.4922,6.8213,0.4212,54.892097,9.794218,108.3,5.845,1.85,50.00,54.894333,9.794583,54.895069,9.793790
1386942101,1,0,105.0,0,0,0,0,0,0,-0.0292,105.4922,6.8213,0.4212,54.892090,9.794248,108.3,5.845,1.85,50.00,54.894333,9.794583,54.895069,9.793790
1386942102,1,0,105.0,0,0,4,0,0,0,-0.0292,105.4922,6.8213,0.4212,54.892086,9.794278,108.3,5.845,1.85,50.00,54.894333,9.794583,54.895069,9.793790
1386942102,1,0,105.0,0,0,0,0,0,0,-0.0292,105.4922,6.8213,0.4212,54.892082,9.794308,108.3,5.845,1.85,50.00,54.894333,9.794583,54.895069,9.793790
1386942102,1,0,105.0,0,0,4,0,0,0,-0.0292,105.4922,6.8213,0.4212,54.892078,9.794337,108.3,5.845,1.85,50.00,54.894333,9.794583,54.895069,9.793790
1386942102,1,0,105.0,0,0,0,0,0,0,-0.0292,105.4922,6.8213,0.4212,54.892075,9.794368,108.3,5.845,1.85,50.00,54.894333,9.794583,54.895069,9.793790
1386942103,1,0,105.0,0,0,4,0,0,0,-0.0292,105.4922,6.8213,0.4212,54.892067,9.794398,108.3,5.845,1.85,50.00,54.894333,9.794583,54.895069,9.793790
1386942103,1,0,105.0,0,0,0,0,0,0,-0.0292,105.4922,6.8213,0.4212,54.892063,9.794428,108.3,5.845,1.85,50.00,54.894333,9.794583,54.895069,9.793790
1386942103,1,0,105.0,0,0,4,0,0,0,-0.0292,105.4922,6.8213,0.4212,54.892059,9.794458,108.3,5.845,1.85,50.00,54.894333,9.794583,54.895069,9.793790
1386942103,1,0,105.0,0,0,0,0,0,0,-0.0292,105.4922,6.8213,0.4212,54.892056,9.794489,108.3,5.845,1.85,50.00,54.894333,9.794583,54.895069,9.793790
1386942104,1,0,105.0,0,0,4,0,0,0,-0.0292,105.4922,6.8213,0.4212,54.892052,9.794518,108.3,5.845,1.85,50.00,54.894333,9.794583,54.895069,9.793790
1386942104,1,0,105.0,0,0,0,0,0,0,-0.0292,105.4922,6.8213,0.4212,54.892048,9.794548,108.3,5.845,1.85,50.00,54.894333,9.794583,54.895069,9.793790
1386942104,1,0,105.0,0,0,4,0,0,0,-0.0292,105.4922,6.8213,0.4212,54.892040,9.794579,108.3,5.845,1.85,50.00,54.894333,9.794583,54.895069,9.793790
1386942104,1,0,105.0,0,0,0,0,0,0,-0.0292,105.4922,6.8213,0.4212,54.892036,9.794608,108.3,5.845,1.85,50.00,54.894333,9.794583,54.895069,9.793790
1386942105,1,0,105.0,0,0,4,0,0,0,-0.0292,105.4922,6.8213,0.4212,54.892033,9.794638,108.3,5.845,1.85,50.00,54.894333,9.794583,54.895069,9.793790
1386942105,1,0,105.0,0,0,0,0,0,0,-0.0292,105.4922,6.8213,0.4212,54.892029,9.794668,108.3,5.845,1.85,50.00,54.894333,9.794583,54.895069,9.793790
1386942105,1,0,105.0,0,0,4,0,0,0,-0.0292,105.4922,6.8213,0.4212,54.892025,9.794699,108.3,5.845,1.85,50.00,54.894333,9.794583,54.895069,9.793790
1386942105,1,0,105.0,0,0,0,0,0,0,-0.0292,105.4922,6.8213,0.4212,54.892017,9.794728,108.3,5.845,1.85,50.00,54.894333,9.794583,54.895069,9.793790
1386942106,1,0,105.0,0,0,4,0,0,0,-0.0292,105.4922,6.8213,0.4212,54.892014,9.794759,108.3,5.845,1.85,50.00,54.894333,9.794583,54.895069,9.793790
1386942106,1,0,105.0,0,0,0,0,0,0,-0.0292,105.4922,6.8213,0.4212,54.892010,9.794789,108.3,5.845,1.85,50.00,54.894333,9.794583,54.895069,9.793790
1386942106,1,0,105.0,0,0,4,0,0,0,-0.0292,105.4922,6.8213,0.4212,54.892006,9.794819,108.3,5.845,1.85,50.00,54.894333,9.794583,54.895069,9.793790
1386942106,1,0,105.0,0,0,0,0,0,0,-0.0292,105.4922,6.8213,0.4212,54.892002,9.794848,108.3,5.845,1.85,50.00,54.894333,9.794583,54.895069,9.793790
1386942107,0,0,105.0,0,0,0,0,0,0,-0.0292,105.4922,6.8213,0.4212,54.892002,9.794848,108.3,5.845,1.85,50.00,54.894333,9.794583,54.895069,9.793790
1386942107,0,0,105.0,0,0,0,0,0,0,-0.0292,105.4922,6.8213,0.4212,54.892002,9.794848,108.3,5.845,1.85,50.00,54.894333,9.794583,54.895069,9.793790
1386942107,0,0,105.0,0,0,0,0,0,0,-0.0292,105.4922,6.8213,0.4212,54.892002,9.794848,108.3,5.845,1.85,50.00,54.894333,9.794583,54.895069,9.793790
1386942107,0,0,105.0,0,0,0,0,0,0,-0.0292,105.4922,6.8213,0.4212,54.892002,9.794848,108.3,5.845,1.85,50.00,54.894333,9.794583,54.895069,9.793790
1386942108,0,0,105.0,0,0,0,0,0,0,-0.0292,105.4922,6.8213,0.4212,54.892002,9.794848,108.3,5.845,1.85,50.00,54.894333,9.794583,54.895069,9.793790
1386942108,0,0,105.0,0,0,0,0,0,0,-0.0292,105.4922,6.8213,0.4212,54.892002,9.794848,108.3,5.845,1.85,50.00,54.894333,9.794583,54.895069,9.793790
1386942108,0,0,105.0,0,0,0,0,0,0,-0.0292,105.4922,6.8213,0.4212,54.892002,9.794848,108.3,5.845,1.85,50.00,54.894333,9.794583,54.895069,9.793790
1386942108,0,0,105.0,0,0,0,0,0,0,-0.0292,105.4922,6.8213,0.4212,54.892002,9.794848,108.3,5.845,1.85,50.00,54.894333,9.794583,54.895069,9.793790
1386942109,0,0,105.0,0,0,0,0,0,0,-0.0292,105.4922,6.8213,0.4212,54.892002,9.794848,108.3,5.845,1.85,50.00,54.894333,9.794583,54.895069,9.793790
1386942109,0,0,105.0,0,0,0,0,0,0,-0.0292,105.4922,6.8213,0.4212,54.892002,9.794848,108.3,5.845,1.85,50.00,54.894333,9.794583,54.895069,9.793790
1386942109,0,0,105.0,0,0,0,0,0,0,-0.0292,105.4922,6.8213,0.4212,54.892002,9.794848,108.3,5.845,1.85,50.00,54.894333,9.794583,54.895069,9.793790
1386942109,0,0,105.0,0,0,0,0,0,0,-0.0292,105.4922,6.8213,0.4212,54.892002,9.794848,108.3,5.845,1.85,50.00,54.894333,9.794583,54.895069,9.793790
1386942110,0,0,105.0,0,0,0,0,0,0,-0.0292,105.4922,6.8213,0.4212,54.892002,9.794848,108.3,5.845,1.85,50.00,54.894333,9.794583,54.895069,9.793790
1386942110,0,0,105.0,0,0,0,0,0,0,-0.0292,105.4922,6.8213,0.4212,54.892002,9.794848,108.3,5.845,1.85,50.00,54.894333,9.794583,54.895069,9.793790
1386942110,0,0,105.0,0,0,0,0,0,0,-0.0292,105.4922,6.8213,0.4212,54.892002,9.794848,108.3,5.845,1.85,50.00,54.894333,9.794583,54.895069,9.793790
1386942110,0,0,105.0,0,0,0,0,0,0,-0.0292,105.4922,6.8213,0.4212,54.892002,9.794848,108.3,5.845,1.85,50.00,54.894333,9.794583,54.895069,9.793790
1386942111,0,0,105.0,0,0,0,0,0,0,-0.0292,105.4922,6.8213,0.4212,54.892002,9.794848,108.3,5.845,1.85,50.00,54.894333,9.794583,54.895069,9.793790
1386942111,0,0,105.0,0,0,0,0,0,0,-0.0292,105.4922,6.8213,0.4212,54.892002,9.794848,108.3,5.845,1.85,50.00,54.894333,9.794583,54.895069,9.793790
1386942111,0,0,105.0,0,0,0,0,0,0,-0.0292,105.4922,6.8213,0.4212,54.892002,9.794848,108.3,5.845,1.85,50.00,54.894333,9.794583,54.895069,9.793790
1386942111,0,0,105.0,0,0,0,0,0,0,-0.0292,105.4922,6.8213,0.4212,54.892002,9.794848,108.3,5.845,1.85,50.00,54.894333,9.794583,54.895069,9.793790
1386942112,0,0,105.0,0,0,0,0,0,0,-0.0292,105.4922,6.8213,0.4212,54.892002,9.794848,108.3,5.845,1.85,50.00,54.894333,9.794583,54.895069,9.793790
1386942112,0,0,105.0,0,0,0,0,0,0,-0.0292,105.4922,6.8213,0.4212,54.892002,9.794848,108.3,5.845,1.85,50.00,54.894333,9.794583,54.895069,9.793790
1386942112,0,0,105.0,0,0,0,0,0,0,-0.0292,105.4922,6.8213,0.4212,54.892002,9.794848,108.3,5.845,1.85,50.00,54.894333,9.794583,54.895069,9.793790
1386942112,0,0,105.0,0,0,0,0,0,0,-0.0292,105.4922,6.8213,0.4212,54.892002,9.794848,108.3,5.845,1.85,50.00,54.894333,9.794583,54.895069,9.793790
1386942113,0,0,105.0,0,0,0,0,0,0,-0.0292,105.4922,6.8213,0.4212,54.892002,9.794848,108.3,5.845,1.85,50.00,54.894333,9.794583,54.895069,9.793790
1386942113,0,0,105.0,0,0,0,0,0,0,-0.0292,105.4922,6.8213,0.4212,54.892002,9.794848,108.3,5.845,1.85,50.00,54.894333,9.794583,54.895069,9.793790
1386942113,0,0,105.0,0,0,0,0,0,0,-0.0292,105.4922,6.8213,0.4212,54.892002,9.794848,108.3,5.845,1.85,50.00,54.894333,9.794583,54.895069,9.793790
1386942113,0,0,105.0,0,0,0,0,0,0,-0.0292,105.4922,6.8213,0.4212,54.892002,9.794848,108.3,5.845,1.85,50.00,54.894333,9.794583,54.895069,9.793790
1386942114,0,0,105.0,0,0,0,0,0,0,-0.0292,105.4922,6.8213,0.4212,54.892002,9.794848,108.3,5.845,1.85,50.00,54.894333,9.794583,54.895069,9.793790
1386942114,0,0,105.0,0,0,0,0,0,0,-0.0292,105.4922,6.8213,0.4212,54.892002,9.794848,108.3,5.845,1.85,50.00,54.894333,9.794583,54.895069,9.793790
1386942114,0,0,105.0,0,0,0,0,0,0,-0.0292,105.4922,6.8213,0.4212,54.892002,9.794848,108.3,5.845,1.85,50.00,54.894333,9.794583,54.895069,9.793790
1386942114,0,0,105.0,0,0,0,0,0,0,-0.0292,105.4922,6.8213,0.4212,54.892002,9.794848,108.3,5.845,1.85,50.00,54.894333,9.794583,54.895069,9.793790
1386942115,0,0,105.0,0,0,0,0,0,0,-0.0292,105.4922,6.8213,0.4212,54.892002,9.794848,108.3,5.845,1.85,50.00,54.894333,9.794583,54.895069,9.793790
1386942115,0,0,105.0,0,0,0,0,0,0,-0.0292,105.4922,6.8213,0.4212,54.892002,9.794848,108.3,5.845,1.85,50.00,54.894333,9.794583,54.895069,9.793790
1386942115,0,0,105.0,0,0,0,0,0,0,-0.0292,105.4922,6.8213,0.4212,54.892002,9.794848,108.3,5.845,1.85,50.00,54.894333,9.794583,54.895069,9.793790
1386942115,0,0,105.0,0,0,0,0,0,0,-0.0292,105.4922,6.8213,0.4212,54.892002,9.794848,108.3,5.845,1.85,50.00,54.894333,9.794583,54.895069,9.793790
1386942116,0,0,105.0,0,0,0,0,0,0,-0.0292,105.4922,6.8213,0.4212,54.892002,9.794848,108.3,5.845,1.85,50.00,54.894333,9.794583,54.895069,9.793790
1386942116,0,0,105.0,0,0,0,0,0,0,-0.0292,105.4922,6.8213,0.4212,54.892002,9.794848,108.3,5.845,1.85,50.00,54.894333,9.794583,54.895069,9.793790
1386942116,0,0,105.0,0,0,0,0,0,0,-0.0292,105.4922,6.8213,0.4212,54.892002,9.794848,108.3,5.845,1.85,50.00,54.894333,9.794583,54.895069,9.793790
1386942116,0,0,105.0,0,0,0,0,0,0,-0.0292,105.4922,6.8213,0.4212,54.892002,9.794848,108.3,5.845,1.85,50.00,54.894333,9.794583,54.895069,9.793790
1386942117,0,0,105.0,0,0,0,0,0,0,-0.0292,105.4922,6.8213,0.4212,54.892002,9.794848,108.3,5.845,1.85,50.00,54.894333,9.794583,54.895069,9.793790
1386942117,0,0,105.0,0,0,0,0,0,0,-0.0292,105.4922,6.8213,0.4212,54.892002,9.794848,108.3,5.845,1.85,50.00,54.894333,9.794583,54.895069,9.793790
1386942117,0,0,105.0,0,0,0,0,0,0,-0.0292,105.4922,6.8213,0.4212,54.892002,9.794848,108.3,5.845,1.85,50.00,54.894333,9.794583,54.895069,9.793790
1386942117,0,0,105.0,0,0,0,0,0,0,-0.0292,105.4922,6.8213,0.4212,54.892002,9.794848,108.3,5.845,1.85,50.00,54.894333,9.794583,54.895069,9.793790
1386942118,0,0,105.0,0,0,0,0,0,0,-0.0292,105.4922,6.8213,0.4212,54.892002,9.794848,108.3,5.845,1.85,50.00,54.894333,9.794583,54.895069,9.793790
1386942118,0,0,105.0,0,0,0,0,0,0,-0.0292,105.4922,6.8213,0.4212,54.892002,9.794848,108.3,5.845,1.85,50.00,54.894333,9.794583,54.895069,9.793790
1386942118,0,0,105.0,0,0,0,0,0,0,-0.0292,105.4922,6.8213,0.4212,54.892002,9.794848,108.3,5.845,1.85,50.00,54.894333,9.794583,54.895069,9.793790
1386942118,0,0,105.0,0,0,0,0,0,0,-0.0292,105.4922,6.8213,0.4212,54.892002,9.794848,108.3,5.845,1.85,50.00,54.894333,9.794583,54.895069,9.793790
1386942119,0,0,105.0,0,0,0,0,0,0,-0.0292,105.4922,6.8213,0.4212,54.892002,9.794848,108.3,5.845,1.85,50.00,54.894333,9.794583,54.895069,9.793790
1386942119,0,0,105.0,0,0,0,0,0,0,-0.0292,105.4922,6.8213,0.4212,54.892002,9.794848,108.3,5.845,1.85,50.00,54.894333,9.794583,54.895069,9.793790
1386942119,0,0,105.0,0,0,0,0,0,0,-0.0292,105.4922,6.8213,0.4212,54.892002,9.794848,108.3,5.845,1.85,50.00,54.894333,9.794583,54.895069,9.793790
1386942119,0,0,105.0,0,0,0,0,0,0,-0.0292,105.4922,6.8213,0.4212,54.892002,9.794848,108.3,5.845,1.85,50.00,54.894333,9.794583,54.895069,9.793790
1386942120,0,0,105.0,0,0,0,0,0,0,-0.0292,105.4922,6.8213,0.4212,54.892002,9.794848,108.3,5.845,1.85,50.00,54.894333,9.794583,54.895069,9.793790
1386942120,0,0,105.0,0,0,0,0,0,0,-0.0292,105.4922,6.8213,0.4212,54.892002,9.794848,108.3,5.845,1.85,50.00,54.894333,9.794583,54.895069,9.793790
1386942120,0,0,105.0,0,0,0,0,0,0,-0.0292,105.4922,6.8213,0.4212,54.892002,9.794848,108.3,5.845,1.85,50.00,54.894333,9.794583,54.895069,9.793790
1386942120,0,0,105.0,0,0,0,0,0,0,-0.0292,105.4922,6.8213,0.4212,54.892002,9.794848,108.3,5.845,1.85,50.00,54.894333,9.794583,54.895069,9.793790
1386942121,0,0,105.0,0,0,0,0,0,0,-0.0292,105.4922,6.8213,0.4212,54.892002,9.794848,108.3,5.845,1.85,50.00,54.894333,9.794583,54.895069,9.793790
1386942121,0,0,105.0,0,0,0,0,0,0,-0.0292,105.4922,6.8213,0.4212,54.892002,9.794848,108.3,5.845,1.85,50.00,54.894333,9.794583,54.895069,9.793790
1386942121,0,0,105.0,0,0,0,0,0,0,-0.0292,105.4922,6.8213,0.4212,54.892002,9.794848,108.3,5.845,1.85,50.00,54.894333,9.794583,54.895069,9.793790
1386942121,0,0,105.0,0,0,0,0,0,0,-0.0292,105.4922,6.8213,0.4212,54.892002,9.794848,108.3,5.845,1.85,50.00,54.894333,9.794583,54.895069,9.793790
1386942122,0,0,105.0,0,0,0,0,0,0,-0.0292,105.4922,6.8213,0.4212,54.892002,9.794848,108.3,5.845,1.85,50.00,54.894333,9.794583,54.895069,9.793790
1386942122,0,0,105.0,0,0,0,0,0,0,-0.0292,105.4922,6.8213,0.4212,54.892002,9.794848,108.3,5.845,1.85,50.00,54.894333,9.794583,54.895069,9.793790
1386942122,0,0,105.0,0,0,0,0,0,0,-0.0292,105.4922,6.8213,0.4212,54.892002,9.794848,108.3,5.845,1.85,50.00,54.894333,9.794583,54.895069,9.793790
1386942122,0,0,105.0,0,0,0,0,0,0,-0.0292,105.4922,6.8213,0.4212,54.892002,9.794848,108.3,5.845,1.85,50.00,54.894333,9.794583,54.895069,9.793790
1386942123,0,0,105.0,0,0,0,0,0,0,-0.0292,105.4922,6.8213,0.4212,54.892002,9.794848,108.3,5.845,1.85,50.00,54.894333,9.794583,54.895069,9.793790
1386942123,0,0,105.0,0,0,0,0,0,0,-0.0292,105.4922,6.8213,0.4212,54.892002,9.794848,108.3,5.845,1.85,50.00,54.894333,9.794583,54.895069,9.793790
1386942123,0,0,105.0,0,0,0,0,0,0,-0.0292,105.4922,6.8213,0.4212,54.892002,9.794848,108.3,5.845,1.85,50.00,54.894333,9.794583,54.895069,9.793790
1386942123,0,0,105.0,0,0,0,0,0,0,-0.0292,105.4922,6.8213,0.4212,54.892002,9.794848,108.3,5.845,1.85,50.00,54.894333,9.794583,54.895069,9.793790
1386942124,0,0,105.0,0,0,0,0,0,0,-0.0292,105.4922,6.8213,0.4212,54.892002,9.794848,108.3,5.845,1.85,50.00,54.894333,9.794583,54.895069,9.793790
1386942124,0,0,105.0,0,0,0,0,0,0,-0.0292,105.4922,6.8213,0.4212,54.892002,9.794848,108.3,5.845,1.85,50.00,54.894333,9.794583,54.895069,9.793790
1386942124,0,0,105.0,0,0,0,0,0,0,-0.0292,105.4922,6.8213,0.4212,54.892002,9.794848,108.3,5.845,1.85,50.00,54.894333,9.794583,54.895069,9.793790
1386942124,0,0,105.0,0,0,0,0,0,0,-0.0292,105.4922,6.8213,0.4212,54.892002,9.794848,108.3,5.845,1.85,50.00,54.894333,9.794583,54.895069,9.793790
1386942125,0,0,105.0,0,0,0,0,0,0,-0.0292,105.4922,6.8213,0.4212,54.892002,9.794848,108.3,5.845,1.85,50.00,54.894333,9.794583,54.895069,9.793790
1386942125,0,0,105.0,0,0,0,0,0,0,-0.0292,105.4922,6.8213,0.4212,54.892002,9.794848,108.3,5.845,1.85,50.00,54.894333,9.794583,54.895069,9.793790
1386942125,0,0,105.0,0,0,0,0,0,0,-0.0292,105.4922,6.8213,0.4212,54.892002,9.794848,108.3,5.845,1.85,50.00,54.894333,9.794583,54.895069,9.793790
1386942125,0,0,105.0,0,0,0,0,0,0,-0.0292,105.4922,6.8213,0.4212,54.892002,9.794848,108.3,5.845,1.85,50.00,54.894333,9.794583,54.895069,9.793790
1386942126,0,0,105.0,0,0,0,0,0,0,-0.0292,105.4922,6.8213,0.4212,54.892002,9.794848,108.3,5.845,1.85,50.00,54.894333,9.794583,54.895069,9.793790
1386942126,0,0,105.0,0,0,0,0,0,0,-0.0292,105.4922,6.8213,0.4212,54.892002,9.794848,108.3,5.845,1.85,50.00,54.894333,9.794583,54.895069,9.793790
1386942126,0,0,105.0,0,0,0,0,0,0,-0.0292,105.4922,6.8213,0.4212,54.892002,9.794848,108.3,5.845,1.85,50.00,54.894333,9.794583,54.895069,9.793790
