MCU_timestamp,Navigation_System,Manual_Control,Guidance_Heading,Manual_Ctrl_Rudder,Rudder_Desired_Angle,Rudder_Feedback,Manual_Ctrl_Sail,Sail_Desired_Pos,Sail_Feedback,Rate,Heading,Pitch,Roll,Latitude,Longitude,COG,SOG,Wind_Speed,Wind_Angle,Point_Start_Lat,Point_Start_Lon,Point_End_Lat,Point_End_Lon
1386833812,0,0,0.0,0,0,4,0,0,0,-0.0292,247.6252,6.8213,0.4212,54.901615,9.794033,108.3,5.845,1.85,335.95,0.000000,0.000000,0.000000,0.000000
1386833812,0,0,0.0,0,0,4,0,0,0,-0.0292,247.6252,6.8213,0.4212,54.901615,9.794033,108.3,5.845,1.85,335.95,0.000000,0.000000,0.000000,0.000000
1386833812,0,0,0.0,0,0,4,0,0,0,-0.0292,247.6252,6.8213,0.4212,54.901615,9.794033,108.3,5.845,1.85,335.95,0.000000,0.000000,0.000000,0.000000
1386833813,0,0,0.0,0,0,4,0,0,0,-0.0292,247.6252,6.8213,0.4212,54.901615,9.794033,108.3,5.845,1.85,335.95,0.000000,0.000000,0.000000,0.000000
1386833813,0,0,0.0,0,0,4,0,0,0,-0.0292,247.6252,6.8213,0.4212,54.901615,9.794033,108.3,5.845,1.85,335.95,0.000000,0.000000,0.000000,0.000000
1386833813,0,0,0.0,0,0,4,0,0,0,-0.0292,247.6252,6.8213,0.4212,54.901615,9.794033,108.3,5.845,1.85,335.95,0.000000,0.000000,0.000000,0.000000
1386833813,0,0,0.0,0,0,4,0,0,0,-0.0292,247.6252,6.8213,0.4212,54.901615,9.794033,108.3,5.845,1.85,335.95,0.000000,0.000000,0.000000,0.000000
1386833814,0,0,0.0,0,0,4,0,0,0,-0.0292,247.6252,6.8213,0.4212,54.901615,9.794033,108.3,5.845,1.85,335.95,0.000000,0.000000,0.000000,0.000000
1386833814,0,0,0.0,0,0,4,0,0,0,-0.0292,247.6252,6.8213,0.4212,54.901615,9.794033,108.3,5.845,1.85,335.95,0.000000,0.000000,0.000000,0.000000
1386833814,0,0,0.0,0,0,4,0,0,0,-0.0292,247.6252,6.8213,0.4212,54.901615,9.794033,108.3,5.845,1.85,335.95,0.000000,0.000000,0.000000,0.000000
1386833814,0,0,0.0,0,0,4,0,0,0,-0.0292,247.6252,6.8213,0.4212,54.901615,9.794033,108.3,5.845,1.85,335.95,0.000000,0.000000,0.000000,0.000000
1386833815,0,0,0.0,0,0,4,0,0,0,-0.0292,247.6252,6.8213,0.4212,54.901615,9.794033,108.3,5.845,1.85,335.95,0.000000,0.000000,0.000000,0.000000
1386833815,0,0,0.0,0,0,4,0,0,0,-0.0292,247.6252,6.8213,0.4212,54.901615,9.794033,108.3,5.845,1.85,335.95,0.000000,0.000000,0.000000,0.000000
1386833815,4,0,0.0,0,0,4,0,0,0,-0.0292,247.6252,6.8213,0.4212,54.901615,9.794033,108.3,5.845,1.85,335.95,0.000000,0.000000,0.000000,0.000000
1386833815,1,0,485.9,0,35,8,0,213,225,-0.0292,238.2919,6.8213,0.4212,54.901604,9.794006,108.3,5.845,1.85,335.95,54.901615,9.794033,54.895069,9.793790
1386833816,1,0,485.9,0,35,12,0,299,250,-0.0292,228.9585,6.8213,0.4212,54.901592,9.793983,108.3,5.845,1.85,335.95,54.901615,9.794033,54.895069,9.793790
1386833816,1,0,485.9,0,35,16,0,383,275,-0.0292,219.6252,6.8213,0.4212,54.901577,9.793962,108.3,5.845,1.85,335.95,54.901615,9.794033,54.895069,9.793790
1386833816,1,0,485.9,0,35,20,0,463,300,-0.0292,210.2919,6.8213,0.4212,54.901562,9.793946,108.3,5.845,1.85,335.95,54.901615,9.794033,54.895069,9.793790
1386833816,1,0,485.9,0,35,24,0,538,325,-0.0292,200.9585,6.8213,0.4212,54.901543,9.793935,108.3,5.845,1.85,335.95,54.901615,9.794033,54.895069,9.793790
1386833817,1,0,485.9,0,35,28,0,578,350,-0.0292,191.6252,6.8213,0.4212,54.901524,9.793928,108.3,5.845,1.85,335.95,54.901615,9.794033,54.895069,9.793790
1386833817,1,0,485.9,0,35,32,0,409,375,-0.0292,182.2919,6.8213,0.4212,54.901505,9.793926,108.3,5.845,1.85,335.95,54.901615,9.794033,54.895069,9.793790
1386833817,1,0,485.9,0,35,36,0,409,400,-0.0292,172.9586,6.8213,0.4212,54.901489,9.793930,108.3,5.845,1.85,335.95,54.901615,9.794033,54.895069,9.793790
1386833817,1,0,485.9,0,35,32,0,409,425,-0.0292,163.6252,6.8213,0.4212,54.901470,9.793939,108.3,5.845,1.85,335.95,54.901615,9.794033,54.895069,9.793790
1386833818,1,0,485.9,0,35,36,0,0,400,-0.0292,154.2919,6.8213,0.4212,54.901451,9.793952,108.3,5.845,1.85,335.95,54.901615,9.794033,54.895069,9.793790
1386833818,1,0,485.9,0,28,32,0,0,375,-0.0292,146.8252,6.8213,0.4212,54.901436,9.793969,108.3,5.845,1.85,335.95,54.901615,9.794033,54.895069,9.793790
1386833818,1,0,485.9,0,21,28,0,0,350,-0.0292,141.2252,6.8213,0.4212,54.901424,9.793988,108.3,5.845,1.85,335.95,54.901615,9.794033,54.895069,9.793790
1386833818,1,0,485.9,0,15,24,0,409,375,-0.0292,137.2252,6.8213,0.4212,54.901409,9.794009,108.3,5.845,1.85,335.95,54.901615,9.794033,54.895069,9.793790
1386833819,1,0,485.9,0,11,20,0,409,400,-0.0292,134.2919,6.8213,0.4212,54.901398,9.794031,108.3,5.845,1.85,335.95,54.901615,9.794033,54.895069,9.793790
1386833819,1,0,485.9,0,8,16,0,409,425,-0.0292,132.1586,6.8213,0.4212,54.901386,9.794054,108.3,5.845,1.85,335.95,54.901615,9.794033,54.895069,9.793790
1386833819,1,0,485.9,0,6,12,0,409,400,-0.0292,130.5586,6.8213,0.4212,54.901375,9.794078,108.3,5.845,1.85,335.95,54.901615,9.794033,54.895069,9.793790
1386833819,1,0,485.9,0,5,8,0,409,425,-0.0292,129.2252,6.8213,0.4212,54.901363,9.794103,108.3,5.845,1.85,335.95,54.901615,9.794033,54.895069,9.793790
1386833820,1,0,485.9,0,3,4,0,409,400,-0.0292,128.4252,6.8213,0.4212,54.901356,9.794127,108.3,5.845,1.85,335.95,54.901615,9.794033,54.895069,9.793790
1386833820,1,0,485.9,0,2,0,0,409,425,-0.0292,127.8919,6.8213,0.4212,54.901344,9.794151,108.3,5.845,1.85,335.95,54.901615,9.794033,54.895069,9.793790
1386833820,1,0,485.9,0,2,4,0,409,400,-0.0292,127.3586,6.8213,0.4212,54.901333,9.794176,108.3,5.845,1.85,335.95,54.901615,9.794033,54.895069,9.793790
1386833820,1,0,485.9,0,1,0,0,0,375,-0.0292,127.0919,6.8213,0.4212,54.901321,9.794201,108.3,5.845,1.85,335.95,54.901615,9.794033,54.895069,9.793790
1386833821,1,0,485.9,0,1,4,0,0,350,-0.0292,126.8252,6.8213,0.4212,54.901310,9.794226,108.3,5.845,1.85,335.95,54.901615,9.794033,54.895069,9.793790
1386833821,1,0,485.9,0,1,0,0,0,325,-0.0292,126.5586,6.8213,0.4212,54.901299,9.794250,108.3,5.845,1.85,335.95,54.901615,9.794033,54.895069,9.793790
1386833821,1,0,485.9,0,1,4,0,0,300,-0.0292,126.2919,6.8213,0.4212,54.901287,9.794276,108.3,5.845,1.85,335.95,54.901615,9.794033,54.895069,9.793790
1386833821,1,0,485.9,0,0,0,0,0,275,-0.0292,126.2919,6.8213,0.4212,54.901279,9.794301,108.3,5.845,1.85,335.95,54.901615,9.794033,54.895069,9.793790
1386833822,1,0,485.9,0,0,4,0,0,250,-0.0292,126.2919,6.8213,0.4212,54.901268,9.794327,108.3,5.845,1.85,335.95,54.901615,9.794033,54.895069,9.793790
1386833822,1,0,485.9,0,0,0,0,0,225,-0.0292,126.2919,6.8213,0.4212,54.901257,9.794352,108.3,5.845,1.85,335.95,54.901615,9.794033,54.895069,9.793790
1386833822,1,0,485.9,0,0,4,0,0,200,-0.0292,126.2919,6.8213,0.4212,54.901245,9.794376,108.3,5.845,1.85,335.95,54.901615,9.794033,54.895069,9.793790
1386833822,1,0,485.9,0,0,0,0,0,175,-0.0292,126.2919,6.8213,0.4212,54.901234,9.794402,108.3,5.845,1.85,335.95,54.901615,9.794033,54.895069,9.793790
1386833823,1,0,485.9,0,0,4,0,0,150,-0.0292,126.2919,6.8213,0.4212,54.901222,9.794427,108.3,5.845,1.85,335.95,54.901615,9.794033,54.895069,9.793790
1386833823,1,0,485.9,0,0,0,0,0,125,-0.0292,126.2919,6.8213,0.4212,54.901211,9.794453,108.3,5.845,1.85,335.95,54.901615,9.794033,54.895069,9.793790
1386833823,1,0,485.9,0,0,4,0,0,100,-0.0292,126.2919,6.8213,0.4212,54.901199,9.794477,108.3,5.845,1.85,335.95,54.901615,9.794033,54.895069,9.793790
1386833823,1,0,485.9,0,0,0,0,0,75,-0.0292,126.2919,6.8213,0.4212,54.901188,9.794502,108.3,5.845,1.85,335.95,54.901615,9.794033,54.895069,9.793790
1386833824,1,0,485.9,0,0,4,0,0,50,-0.0292,126.2919,6.8213,0.4212,54.901180,9.794528,108.3,5.845,1.85,335.95,54.901615,9.794033,54.895069,9.793790
1386833824,1,0,485.9,0,0,0,0,0,25,-0.0292,126.2919,6.8213,0.4212,54.901169,9.794553,108.3,5.845,1.85,335.95,54.901615,9.794033,54.895069,9.793790
1386833824,1,0,485.9,0,0,4,0,0,0,-0.0292,126.2919,6.8213,0.4212,54.901157,9.794579,108.3,5.845,1.85,335.95,54.901615,9.794033,54.895069,9.793790
1386833825,1,0,485.9,0,0,0,0,0,25,-0.0292,126.2919,6.8213,0.4212,54.901146,9.794603,108.3,5.845,1.85,335.95,54.901615,9.794033,54.895069,9.793790
1386833825,1,0,545.9,0,-35,-4,0,0,0,-0.0292,135.6252,6.8213,0.4212,54.901131,9.794624,108.3,5.845,1.85,335.95,54.901615,9.794033,54.895069,9.793790
1386833825,1,0,545.9,0,-35,-8,0,0,25,-0.0292,144.9585,6.8213,0.4212,54.901115,9.794642,108.3,5.845,1.85,335.95,54.901615,9.794033,54.895069,9.793790
1386833825,1,0,545.9,0,-35,-12,0,0,0,-0.0292,154.2919,6.8213,0.4212,54.901100,9.794657,108.3,5.845,1.85,335.95,54.901615,9.794033,54.895069,9.793790
1386833826,1,0,545.9,0,-32,-16,0,0,25,-0.0292,162.8252,6.8213,0.4212,54.901081,9.794665,108.3,5.845,1.85,335.95,54.901615,9.794033,54.895069,9.793790
1386833826,1,0,545.9,0,-23,-20,0,0,0,-0.0292,168.9585,6.8213,0.4212,54.901062,9.794671,108.3,5.845,1.85,335.95,54.901615,9.794033,54.895069,9.793790
1386833826,1,0,545.9,0,-17,-16,0,0,25,-0.0292,173.4919,6.8213,0.4212,54.901047,9.794675,108.3,5.845,1.85,335.95,54.901615,9.794033,54.895069,9.793790
1386833826,1,0,545.9,0,-12,-12,0,0,0,-0.0292,176.6919,6.8213,0.4212,54.901028,9.794677,108.3,5.845,1.85,335.95,54.901615,9.794033,54.895069,9.793790
1386833827,1,0,545.9,0,-9,-8,0,0,25,-0.0292,179.0919,6.8213,0.4212,54.901009,9.794678,108.3,5.845,1.85,335.95,54.901615,9.794033,54.895069,9.793790
1386833827,1,0,545.9,0,-7,-4,0,409,50,-0.0292,180.9585,6.8213,0.4212,54.900990,9.794678,108.3,5.845,1.85,335.95,54.901615,9.794033,54.895069,9.793790
1386833827,1,0,545.9,0,-5,-8,0,409,75,-0.0292,182.2919,6.8213,0.4212,54.900974,9.794677,108.3,5.845,1.85,335.95,54.901615,9.794033,54.895069,9.793790
1386833827,1,0,545.9,0,-4,-4,0,409,100,-0.0292,183.3585,6.8213,0.4212,54.900955,9.794675,108.3,5.845,1.85,335.95,54.901615,9.794033,54.895069,9.793790
1386833828,1,0,545.9,0,-3,0,0,409,125,-0.0292,184.1585,6.8213,0.4212,54.900936,9.794673,108.3,5.845,1.85,335.95,54.901615,9.794033,54.895069,9.793790
1386833828,1,0,545.9,0,-2,-4,0,409,150,-0.0292,184.6919,6.8213,0.4212,54.900917,9.794670,108.3,5.845,1.85,335.95,54.901615,9.794033,54.895069,9.793790
1386833828,1,0,545.9,0,-1,0,0,409,175,-0.0292,184.9585,6.8213,0.4212,54.900902,9.794667,108.3,5.845,1.85,335.95,54.901615,9.794033,54.895069,9.793790
1386833828,1,0,545.9,0,-1,-4,0,409,200,-0.0292,185.2252,6.8213,0.4212,54.900883,9.794664,108.3,5.845,1.85,335.95,54.901615,9.794033,54.895069,9.793790
1386833829,1,0,545.9,0,-1,0,0,409,225,-0.0292,185.4919,6.8213,0.4212,54.900864,9.794662,108.3,5.845,1.85,335.95,54.901615,9.794033,54.895069,9.793790
1386833829,1,0,545.9,0,0,4,0,409,250,-0.0292,185.4919,6.8213,0.4212,54.900845,9.794659,108.3,5.845,1.85,335.95,54.901615,9.794033,54.895069,9.793790
1386833829,1,0,545.9,0,0,0,0,409,275,-0.0292,185.4919,6.8213,0.4212,54.900829,9.794656,108.3,5.845,1.85,335.95,54.901615,9.794033,54.895069,9.793790
1386833829,1,0,545.9,0,0,4,0,409,300,-0.0292,185.4919,6.8213,0.4212,54.900810,9.794653,108.3,5.845,1.85,335.95,54.901615,9.794033,54.895069,9.793790
1386833830,1,0,545.9,0,0,0,0,409,325,-0.0292,185.4919,6.8213,0.4212,54.900791,9.794650,108.3,5.845,1.85,335.95,54.901615,9.794033,54.895069,9.793790
1386833830,1,0,545.9,0,0,4,0,409,350,-0.0292,185.4919,6.8213,0.4212,54.900772,9.794646,108.3,5.845,1.85,335.95,54.901615,9.794033,54.895069,9.793790
1386833830,1,0,545.9,0,0,0,0,409,375,-0.0292,185.4919,6.8213,0.4212,54.900757,9.794642,108.3,5.845,1.85,335.95,54.901615,9.794033,54.895069,9.793790
1386833830,1,0,545.9,0,0,4,0,409,400,-0.0292,185.4919,6.8213,0.4212,54.900738,9.794640,108.3,5.845,1.85,335.95,54.901615,9.794033,54.895069,9.793790
1386833831,1,0,545.9,0,0,0,0,409,425,-0.0292,185.4919,6.8213,0.4212,54.900719,9.794637,108.3,5.845,1.85,335.95,54.901615,9.794033,54.895069,9.793790
1386833831,1,0,545.9,0,0,4,0,409,400,-0.0292,185.4919,6.8213,0.4212,54.900703,9.794634,108.3,5.845,1.85,335.95,54.901615,9.794033,54.895069,9.793790
1386833831,1,0,545.9,0,0,0,0,409,425,-0.0292,185.4919,6.8213,0.4212,54.900684,9.794631,108.3,5.845,1.85,335.95,54.901615,9.794033,54.895069,9.793790
1386833831,1,0,545.9,0,0,4,0,409,400,-0.0292,185.4919,6.8213,0.4212,54.900665,9.794628,108.3,5.845,1.85,335.95,54.901615,9.794033,54.895069,9.793790
1386833832,1,0,545.9,0,0,0,0,409,425,-0.0292,185.4919,6.8213,0.4212,54.900646,9.794625,108.3,5.845,1.85,335.95,54.901615,9.794033,54.895069,9.793790
1386833832,1,0,545.9,0,0,4,0,409,400,-0.0292,185.4919,6.8213,0.4212,54.900631,9.794622,108.3,5.845,1.85,335.95,54.901615,9.794033,54.895069,9.793790
1386833832,1,0,545.9,0,0,0,0,409,425,-0.0292,185.4919,6.8213,0.4212,54.900612,9.794620,108.3,5.845,1.85,335.95,54.901615,9.794033,54.895069,9.793790
1386833832,1,0,545.9,0,0,4,0,409,400,-0.0292,185.4919,6.8213,0.4212,54.900593,9.794617,108.3,5.845,1.85,335.95,54.901615,9.794033,54.895069,9.793790
1386833833,1,0,545.9,0,0,0,0,409,425,-0.0292,185.4919,6.8213,0.4212,54.900574,9.794614,108.3,5.845,1.85,335.95,54.901615,9.794033,54.895069,9.793790
1386833833,1,0,545.9,0,0,4,0,409,400,-0.0292,185.4919,6.8213,0.4212,54.900558,9.794611,108.3,5.845,1.85,335.95,54.901615,9.794033,54.895069,9.793790
1386833833,1,0,545.9,0,0,0,0,409,425,-0.0292,185.4919,6.8213,0.4212,54.900539,9.794608,108.3,5.845,1.85,335.95,54.901615,9.794033,54.895069,9.793790
1386833833,1,0,545.9,0,0,4,0,409,400,-0.0292,185.4919,6.8213,0.4212,54.900520,9.794604,108.3,5.845,1.85,335.95,54.901615,9.794033,54.895069,9.793790
1386833834,1,0,545.9,0,0,0,0,409,425,-0.0292,185.4919,6.8213,0.4212,54.900501,9.794600,108.3,5.845,1.85,335.95,54.901615,9.794033,54.895069,9.793790
1386833834,1,0,545.9,0,0,4,0,409,400,-0.0292,185.4919,6.8213,0.4212,54.900486,9.794598,108.3,5.845,1.85,335.95,54.901615,9.794033,54.895069,9.793790
1386833834,1,0,545.9,0,0,0,0,409,425,-0.0292,185.4919,6.8213,0.4212,54.900467,9.794595,108.3,5.845,1.85,335.95,54.901615,9.794033,54.895069,9.793790
1386833834,1,0,545.9,0,0,4,0,409,400,-0.0292,185.4919,6.8213,0.4212,54.900448,9.794592,108.3,5.845,1.85,335.95,54.901615,9.794033,54.895069,9.793790
1386833835,1,0,545.9,0,0,0,0,409,425,-0.0292,185.4919,6.8213,0.4212,54.900433,9.794589,108.3,5.845,1.85,335.95,54.901615,9.794033,54.895069,9.793790
1386833835,1,0,545.9,0,0,4,0,409,400,-0.0292,185.4919,6.8213,0.4212,54.900414,9.794586,108.3,5.845,1.85,335.95,54.901615,9.794033,54.895069,9.793790
1386833835,1,0,545.9,0,0,0,0,409,425,-0.0292,185.4919,6.8213,0.4212,54.900394,9.794583,108.3,5.845,1.85,335.95,54.901615,9.794033,54.895069,9.793790
1386833835,1,0,545.9,0,0,4,0,409,400,-0.0292,185.4919,6.8213,0.4212,54.900375,9.794580,108.3,5.845,1.85,335.95,54.901615,9.794033,54.895069,9.793790
1386833836,1,0,545.9,0,0,0,0,409,425,-0.0292,185.4919,6.8213,0.4212,54.900360,9.794578,108.3,5.845,1.85,335.95,54.901615,9.794033,54.895069,9.793790
1386833836,1,0,545.9,0,0,4,0,409,400,-0.0292,185.4919,6.8213,0.4212,54.900341,9.794575,108.3,5.845,1.85,335.95,54.901615,9.794033,54.895069,9.793790
1386833836,1,0,545.9,0,0,0,0,409,425,-0.0292,185.4919,6.8213,0.4212,54.900322,9.794572,108.3,5.845,1.85,335.95,54.901615,9.794033,54.895069,9.793790
1386833836,1,0,545.9,0,0,4,0,409,400,-0.0292,185.4919,6.8213,0.4212,54.900303,9.794569,108.3,5.845,1.85,335.95,54.901615,9.794033,54.895069,9.793790
1386833837,1,0,545.9,0,0,0,0,409,425,-0.0292,185.4919,6.8213,0.4212,54.900288,9.794566,108.3,5.845,1.85,335.95,54.901615,9.794033,54.895069,9.793790
1386833837,1,0,545.9,0,0,4,0,409,400,-0.0292,185.4919,6.8213,0.4212,54.900269,9.794562,108.3,5.845,1.85,335.95,54.901615,9.794033,54.895069,9.793790
1386833837,1,0,545.9,0,0,0,0,409,425,-0.0292,185.4919,6.8213,0.4212,54.900249,9.794559,108.3,5.845,1.85,335.95,54.901615,9.794033,54.895069,9.793790
1386833837,1,0,545.9,0,0,4,0,409,400,-0.0292,185.4919,6.8213,0.4212,54.900230,9.794556,108.3,5.845,1.85,335.95,54.901615,9.794033,54.895069,9.793790
1386833838,1,0,545.9,0,0,0,0,409,425,-0.0292,185.4919,6.8213,0.4212,54.900215,9.794553,108.3,5.845,1.85,335.95,54.901615,9.794033,54.895069,9.793790
1386833838,1,0,545.9,0,0,4,0,409,400,-0.0292,185.4919,6.8213,0.4212,54.900196,9.794550,108.3,5.845,1.85,335.95,54.901615,9.794033,54.895069,9.793790
1386833838,1,0,545.9,0,0,0,0,409,425,-0.0292,185.4919,6.8213,0.4212,54.900177,9.794547,108.3,5.845,1.85,335.95,54.901615,9.794033,54.895069,9.793790
1386833838,1,0,545.9,0,0,4,0,409,400,-0.0292,185.4919,6.8213,0.4212,54.900162,9.794544,108.3,5.845,1.85,335.95,54.901615,9.794033,54.895069,9.793790
1386833839,1,0,545.9,0,0,0,0,409,425,-0.0292,185.4919,6.8213,0.4212,54.900143,9.794541,108.3,5.845,1.85,335.95,54.901615,9.794033,54.895069,9.793790
1386833839,1,0,545.9,0,0,4,0,409,400,-0.0292,185.4919,6.8213,0.4212,54.900124,9.794538,108.3,5.845,1.85,335.95,54.901615,9.794033,54.895069,9.793790
1386833839,1,0,545.9,0,0,0,0,409,425,-0.0292,185.4919,6.8213,0.4212,54.900105,9.794536,108.3,5.845,1.85,335.95,54.901615,9.794033,54.895069,9.793790
1386833839,1,0,545.9,0,0,4,0,409,400,-0.0292,185.4919,6.8213,0.4212,54.900089,9.794533,108.3,5.845,1.85,335.95,54.901615,9.794033,54.895069,9.793790
1386833840,1,0,545.9,0,0,0,0,409,425,-0.0292,185.4919,6.8213,0.4212,54.900070,9.794530,108.3,5.845,1.85,335.95,54.901615,9.794033,54.895069,9.793790
1386833840,1,0,545.9,0,0,4,0,409,400,-0.0292,185.4919,6.8213,0.4212,54.900051,9.794527,108.3,5.845,1.85,335.95,54.901615,9.794033,54.895069,9.793790
1386833840,1,0,545.9,0,0,0,0,409,425,-0.0292,185.4919,6.8213,0.4212,54.900032,9.794524,108.3,5.845,1.85,335.95,54.901615,9.794033,54.895069,9.793790
1386833840,1,0,545.9,0,0,4,0,409,400,-0.0292,185.4919,6.8213,0.4212,54.900017,9.794521,108.3,5.845,1.85,335.95,54.901615,9.794033,54.895069,9.793790
1386833841,1,0,545.9,0,0,0,0,409,425,-0.0292,185.4919,6.8213,0.4212,54.899998,9.794518,108.3,5.845,1.85,335.95,54.901615,9.794033,54.895069,9.793790
1386833841,1,0,545.9,0,0,4,0,409,400,-0.0292,185.4919,6.8213,0.4212,54.899979,9.794514,108.3,5.845,1.85,335.95,54.901615,9.794033,54.895069,9.793790
1386833841,1,0,545.9,0,0,0,0,409,425,-0.0292,185.4919,6.8213,0.4212,54.899960,9.794511,108.3,5.845,1.85,335.95,54.901615,9.794033,54.895069,9.793790
1386833841,1,0,545.9,0,0,4,0,409,400,-0.0292,185.4919,6.8213,0.4212,54.899944,9.794508,108.3,5.845,1.85,335.95,54.901615,9.794033,54.895069,9.793790
1386833842,1,0,545.9,0,0,0,0,409,425,-0.0292,185.4919,6.8213,0.4212,54.899925,9.794505,108.3,5.845,1.85,335.95,54.901615,9.794033,54.895069,9.793790
1386833842,1,0,545.9,0,0,4,0,409,400,-0.0292,185.4919,6.8213,0.4212,54.899906,9.794502,108.3,5.845,1.85,335.95,54.901615,9.794033,54.895069,9.793790
1386833842,1,0,545.9,0,0,0,0,409,425,-0.0292,185.4919,6.8213,0.4212,54.899891,9.794499,108.3,5.845,1.85,335.95,54.901615,9.794033,54.895069,9.793790
1386833842,1,0,545.9,0,0,4,0,409,400,-0.0292,185.4919,6.8213,0.4212,54.899872,9.794497,108.3,5.845,1.85,335.95,54.901615,9.794033,54.895069,9.793790
1386833843,1,0,545.9,0,0,0,0,409,425,-0.0292,185.4919,6.8213,0.4212,54.899853,9.794494,108.3,5.845,1.85,335.95,54.901615,9.794033,54.895069,9.793790
1386833843,1,0,545.9,0,0,4,0,409,400,-0.0292,185.4919,6.8213,0.4212,54.899834,9.794491,108.3,5.845,1.85,335.95,54.901615,9.794033,54.895069,9.793790
1386833843,1,0,545.9,0,0,0,0,409,425,-0.0292,185.4919,6.8213,0.4212,54.899818,9.794488,108.3,5.845,1.85,335.95,54.901615,9.794033,54.895069,9.793790
1386833843,1,0,545.9,0,0,4,0,409,400,-0.0292,185.4919,6.8213,0.4212,54.899799,9.794485,108.3,5.845,1.85,335.95,54.901615,9.794033,54.895069,9.793790
1386833844,1,0,545.9,0,0,0,0,409,425,-0.0292,185.4919,6.8213,0.4212,54.899780,9.794482,108.3,5.845,1.85,335.95,54.901615,9.794033,54.895069,9.793790
1386833844,1,0,545.9,0,0,4,0,409,400,-0.0292,185.4919,6.8213,0.4212,54.899761,9.794479,108.3,5.845,1.85,335.95,54.901615,9.794033,54.895069,9.793790
1386833844,1,0,545.9,0,0,0,0,409,425,-0.0292,185.4919,6.8213,0.4212,54.899746,9.794476,108.3,5.845,1.85,335.95,54.901615,9.794033,54.895069,9.793790
1386833844,1,0,545.9,0,0,4,0,409,400,-0.0292,185.4919,6.8213,0.4212,54.899727,9.794472,108.3,5.845,1.85,335.95,54.901615,9.794033,54.895069,9.793790
1386833845,1,0,545.9,0,0,0,0,409,425,-0.0292,185.4919,6.8213,0.4212,54.899708,9.794469,108.3,5.845,1.85,335.95,54.901615,9.794033,54.895069,9.793790
1386833845,1,0,545.9,0,0,4,0,409,400,-0.0292,185.4919,6.8213,0.4212,54.899689,9.794466,108.3,5.845,1.85,335.95,54.901615,9.794033,54.895069,9.793790
1386833845,1,0,545.9,0,0,0,0,409,425,-0.0292,185.4919,6.8213,0.4212,54.899673,9.794463,108.3,5.845,1.85,335.95,54.901615,9.794033,54.895069,9.793790
1386833845,1,0,545.9,0,0,4,0,409,400,-0.0292,185.4919,6.8213,0.4212,54.899654,9.794460,108.3,5.845,1.85,335.95,54.901615,9.794033,54.895069,9.793790
1386833846,1,0,545.9,0,0,0,0,409,425,-0.0292,185.4919,6.8213,0.4212,54.899635,9.794457,108.3,5.845,1.85,335.95,54.901615,9.794033,54.895069,9.793790
1386833846,1,0,545.9,0,0,4,0,409,400,-0.0292,185.4919,6.8213,0.4212,54.899616,9.794455,108.3,5.845,1.85,335.95,54.901615,9.794033,54.895069,9.793790
1386833846,1,0,545.9,0,0,0,0,409,425,-0.0292,185.4919,6.8213,0.4212,54.899601,9.794452,108.3,5.845,1.85,335.95,54.901615,9.794033,54.895069,9.793790
1386833846,1,0,545.9,0,0,4,0,409,400,-0.0292,185.4919,6.8213,0.4212,54.899582,9.794449,108.3,5.845,1.85,335.95,54.901615,9.794033,54.895069,9.793790
1386833847,1,0,545.9,0,0,0,0,409,425,-0.0292,185.4919,6.8213,0.4212,54.899750,9.793558,108.3,5.845,1.85,335.95,54.901615,9.794033,54.895069,9.793790
1386833847,1,0,545.9,0,0,4,0,409,400,-0.0292,185.4919,6.8213,0.4212,54.899731,9.793555,108.3,5.845,1.85,335.95,54.901615,9.794033,54.895069,9.793790
1386833847,1,0,545.9,0,0,0,0,409,425,-0.0292,185.4919,6.8213,0.4212,54.899712,9.793552,108.3,5.845,1.85,335.95,54.901615,9.794033,54.895069,9.793790
1386833847,1,0,545.9,0,0,4,0,409,400,-0.0292,185.4919,6.8213,0.4212,54.899696,9.793550,108.3,5.845,1.85,335.95,54.901615,9.794033,54.895069,9.793790
1386833848,1,0,545.9,0,0,0,0,409,425,-0.0292,185.4919,6.8213,0.4212,54.899677,9.793547,108.3,5.845,1.85,335.95,54.901615,9.794033,54.895069,9.793790
1386833848,1,0,545.9,0,0,4,0,409,400,-0.0292,185.4919,6.8213,0.4212,54.899658,9.793544,108.3,5.845,1.85,335.95,54.901615,9.794033,54.895069,9.793790
1386833848,1,0,545.9,0,0,0,0,409,425,-0.0292,185.4919,6.8213,0.4212,54.899639,9.793541,108.3,5.845,1.85,335.95,54.901615,9.794033,54.895069,9.793790
1386833848,1,0,545.9,0,0,4,0,409,400,-0.0292,185.4919,6.8213,0.4212,54.899624,9.793538,108.3,5.845,1.85,335.95,54.901615,9.794033,54.895069,9.793790
1386833849,1,0,545.9,0,0,0,0,409,425,-0.0292,185.4919,6.8213,0.4212,54.899605,9.793535,108.3,5.845,1.85,335.95,54.901615,9.794033,54.895069,9.793790
1386833849,1,0,545.9,0,0,4,0,409,400,-0.0292,185.4919,6.8213,0.4212,54.899586,9.793531,108.3,5.845,1.85,335.95,54.901615,9.794033,54.895069,9.793790
1386833849,1,0,545.9,0,0,0,0,409,425,-0.0292,185.4919,6.8213,0.4212,54.899567,9.793528,108.3,5.845,1.85,335.95,54.901615,9.794033,54.895069,9.793790
1386833849,1,0,545.9,0,0,4,0,409,400,-0.0292,185.4919,6.8213,0.4212,54.899551,9.793525,108.3,5.845,1.85,335.95,54.901615,9.794033,54.895069,9.793790
1386833850,1,0,545.9,0,0,0,0,409,425,-0.0292,185.4919,6.8213,0.4212,54.899532,9.793522,108.3,5.845,1.85,335.95,54.901615,9.794033,54.895069,9.793790
1386833850,1,0,545.9,0,0,4,0,409,400,-0.0292,185.4919,6.8213,0.4212,54.899513,9.793519,108.3,5.845,1.85,335.95,54.901615,9.794033,54.895069,9.793790
1386833850,1,0,545.9,0,0,0,0,409,425,-0.0292,185.4919,6.8213,0.4212,54.899498,9.793516,108.3,5.845,1.85,335.95,54.901615,9.794033,54.895069,9.793790
1386833850,1,0,545.9,0,0,4,0,409,400,-0.0292,185.4919,6.8213,0.4212,54.899479,9.793513,108.3,5.845,1.85,335.95,54.901615,9.794033,54.895069,9.793790
1386833851,1,0,545.9,0,0,0,0,409,425,-0.0292,185.4919,6.8213,0.4212,54.899460,9.793510,108.3,5.845,1.85,335.95,54.901615,9.794033,54.895069,9.793790
1386833851,1,0,545.9,0,0,4,0,409,400,-0.0292,185.4919,6.8213,0.4212,54.899441,9.793508,108.3,5.845,1.85,335.95,54.901615,9.794033,54.895069,9.793790
1386833851,1,0,545.9,0,0,0,0,409,425,-0.0292,185.4919,6.8213,0.4212,54.899426,9.793505,108.3,5.845,1.85,335.95,54.901615,9.794033,54.895069,9.793790
1386833851,1,0,545.9,0,0,4,0,409,400,-0.0292,185.4919,6.8213,0.4212,54.899406,9.793502,108.3,5.845,1.85,335.95,54.901615,9.794033,54.895069,9.793790
1386833852,1,0,545.9,0,0,0,0,409,425,-0.0292,185.4919,6.8213,0.4212,54.899387,9.793499,108.3,5.845,1.85,335.95,54.901615,9.794033,54.895069,9.793790
1386833852,1,0,545.9,0,0,4,0,409,400,-0.0292,185.4919,6.8213,0.4212,54.899601,9.792785,108.3,5.845,1.85,335.95,54.901615,9.794033,54.895069,9.793790
1386833852,1,0,545.9,0,0,0,0,409,425,-0.0292,185.4919,6.8213,0.4212,54.899582,9.792782,108.3,5.845,1.85,335.95,54.901615,9.794033,54.895069,9.793790
1386833853,1,0,545.9,0,0,4,0,409,400,-0.0292,185.4919,6.8213,0.4212,54.899563,9.792779,108.3,5.845,1.85,335.95,54.901615,9.794033,54.895069,9.793790
1386833853,1,0,545.9,0,0,0,0,409,425,-0.0292,185.4919,6.8213,0.4212,54.899548,9.792776,108.3,5.845,1.85,335.95,54.901615,9.794033,54.895069,9.793790
1386833853,1,0,545.9,0,0,4,0,409,400,-0.0292,185.4919,6.8213,0.4212,54.899529,9.792773,108.3,5.845,1.85,335.95,54.901615,9.794033,54.895069,9.793790
1386833853,1,0,545.9,0,0,0,0,409,425,-0.0292,185.4919,6.8213,0.4212,54.899509,9.792770,108.3,5.845,1.85,335.95,54.901615,9.794033,54.895069,9.793790
1386833854,1,0,545.9,0,0,4,0,409,400,-0.0292,185.4919,6.8213,0.4212,54.899490,9.792768,108.3,5.845,1.85,335.95,54.901615,9.794033,54.895069,9.793790
1386833854,1,0,545.9,0,0,0,0,409,425,-0.0292,185.4919,6.8213,0.4212,54.899475,9.792765,108.3,5.845,1.85,335.95,54.901615,9.794033,54.895069,9.793790
1386833854,1,0,545.9,0,0,4,0,409,400,-0.0292,185.4919,6.8213,0.4212,54.899456,9.792761,108.3,5.845,1.85,335.95,54.901615,9.794033,54.895069,9.793790
1386833854,1,0,545.9,0,0,0,0,409,425,-0.0292,185.4919,6.8213,0.4212,54.899437,9.792757,108.3,5.845,1.85,335.95,54.901615,9.794033,54.895069,9.793790
1386833855,1,0,545.9,0,0,4,0,409,400,-0.0292,185.4919,6.8213,0.4212,54.899418,9.792754,108.3,5.845,1.85,335.95,54.901615,9.794033,54.895069,9.793790
1386833855,1,0,545.9,0,0,0,0,409,425,-0.0292,185.4919,6.8213,0.4212,54.899403,9.792751,108.3,5.845,1.85,335.95,54.901615,9.794033,54.895069,9.793790
1386833855,1,0,545.9,0,0,4,0,409,400,-0.0292,185.4919,6.8213,0.4212,54.899384,9.792748,108.3,5.845,1.85,335.95,54.901615,9.794033,54.895069,9.793790
1386833855,1,0,545.9,0,0,0,0,409,425,-0.0292,185.4919,6.8213,0.4212,54.899364,9.792746,108.3,5.845,1.85,335.95,54.901615,9.794033,54.895069,9.793790
1386833856,1,0,545.9,0,0,4,0,409,400,-0.0292,185.4919,6.8213,0.4212,54.899345,9.792743,108.3,5.845,1.85,335.95,54.901615,9.794033,54.895069,9.793790
1386833856,1,0,545.9,0,0,0,0,409,425,-0.0292,185.4919,6.8213,0.4212,54.899330,9.792740,108.3,5.845,1.85,335.95,54.901615,9.794033,54.895069,9.793790
1386833856,1,0,545.9,0,0,4,0,409,400,-0.0292,185.4919,6.8213,0.4212,54.899311,9.792737,108.3,5.845,1.85,335.95,54.901615,9.794033,54.895069,9.793790
1386833856,1,0,545.9,0,0,0,0,409,425,-0.0292,185.4919,6.8213,0.4212,54.899292,9.792734,108.3,5.845,1.85,335.95,54.901615,9.794033,54.895069,9.793790
1386833857,1,0,545.9,0,0,4,0,409,400,-0.0292,185.4919,6.8213,0.4212,54.899277,9.792731,108.3,5.845,1.85,335.95,54.901615,9.794033,54.895069,9.793790
1386833857,1,0,545.9,0,0,0,0,409,425,-0.0292,185.4919,6.8213,0.4212,54.899258,9.792728,108.3,5.845,1.85,335.95,54.901615,9.794033,54.895069,9.793790
1386833857,1,0,545.9,0,0,4,0,409,400,-0.0292,185.4919,6.8213,0.4212,54.899239,9.792726,108.3,5.845,1.85,335.95,54.901615,9.794033,54.895069,9.793790
1386833857,1,0,545.9,0,0,0,0,409,425,-0.0292,185.4919,6.8213,0.4212,54.899220,9.792723,108.3,5.845,1.85,335.95,54.901615,9.794033,54.895069,9.793790
1386833858,1,0,545.9,0,0,4,0,409,400,-0.0292,185.4919,6.8213,0.4212,54.899204,9.792719,108.3,5.845,1.85,335.95,54.901615,9.794033,54.895069,9.793790
1386833858,1,0,545.9,0,0,0,0,409,425,-0.0292,185.4919,6.8213,0.4212,54.899231,9.792314,108.3,5.845,1.85,335.95,54.901615,9.794033,54.895069,9.793790
1386833858,1,0,545.9,0,0,4,0,409,400,-0.0292,185.4919,6.8213,0.4212,54.899212,9.792311,108.3,5.845,1.85,335.95,54.901615,9.794033,54.895069,9.793790
1386833858,1,0,545.9,0,0,0,0,409,425,-0.0292,185.4919,6.8213,0.4212,54.899193,9.792308,108.3,5.845,1.85,335.95,54.901615,9.794033,54.895069,9.793790
1386833859,1,0,545.9,0,0,4,0,409,400,-0.0292,185.4919,6.8213,0.4212,54.899178,9.792305,108.3,5.845,1.85,335.95,54.901615,9.794033,54.895069,9.793790
1386833859,1,0,545.9,0,0,0,0,409,425,-0.0292,185.4919,6.8213,0.4212,54.899158,9.792302,108.3,5.845,1.85,335.95,54.901615,9.794033,54.895069,9.793790
1386833859,1,0,545.9,0,0,4,0,409,400,-0.0292,185.4919,6.8213,0.4212,54.899139,9.792299,108.3,5.845,1.85,335.95,54.901615,9.794033,54.895069,9.793790
1386833859,1,0,545.9,0,0,0,0,409,425,-0.0292,185.4919,6.8213,0.4212,54.899120,9.792296,108.3,5.845,1.85,335.95,54.901615,9.794033,54.895069,9.793790
1386833860,1,0,545.9,0,0,4,0,409,400,-0.0292,185.4919,6.8213,0.4212,54.899105,9.792294,108.3,5.845,1.85,335.95,54.901615,9.794033,54.895069,9.793790
1386833860,1,0,545.9,0,0,0,0,409,425,-0.0292,185.4919,6.8213,0.4212,54.899086,9.792290,108.3,5.845,1.85,335.95,54.901615,9.794033,54.895069,9.793790
1386833860,1,0,545.9,0,0,4,0,409,400,-0.0292,185.4919,6.8213,0.4212,54.899067,9.792286,108.3,5.845,1.85,335.95,54.901615,9.794033,54.895069,9.793790
1386833860,1,0,545.9,0,0,0,0,409,425,-0.0292,185.4919,6.8213,0.4212,54.899048,9.792283,108.3,5.845,1.85,335.95,54.901615,9.794033,54.895069,9.793790
1386833861,1,0,545.9,0,0,4,0,409,400,-0.0292,185.4919,6.8213,0.4212,54.899033,9.792280,108.3,5.845,1.85,335.95,54.901615,9.794033,54.895069,9.793790
1386833861,1,0,545.9,0,0,0,0,409,425,-0.0292,185.4919,6.8213,0.4212,54.899014,9.792277,108.3,5.845,1.85,335.95,54.901615,9.794033,54.895069,9.793790
1386833861,1,0,545.9,0,0,4,0,409,400,-0.0292,185.4919,6.8213,0.4212,54.898994,9.792274,108.3,5.845,1.85,335.95,54.901615,9.794033,54.895069,9.793790
1386833861,1,0,545.9,0,0,0,0,409,425,-0.0292,185.4919,6.8213,0.4212,54.898975,9.792272,108.3,5.845,1.85,335.95,54.901615,9.794033,54.895069,9.793790
1386833862,1,0,545.9,0,0,4,0,409,400,-0.0292,185.4919,6.8213,0.4212,54.898960,9.792269,108.3,5.845,1.85,335.95,54.901615,9.794033,54.895069,9.793790
1386833862,1,0,545.9,0,0,0,0,409,425,-0.0292,185.4919,6.8213,0.4212,54.898941,9.792266,108.3,5.845,1.85,335.95,54.901615,9.794033,54.895069,9.793790
1386833862,1,0,545.9,0,0,4,0,409,400,-0.0292,185.4919,6.8213,0.4212,54.898922,9.792263,108.3,5.845,1.85,335.95,54.901615,9.794033,54.895069,9.793790
1386833862,1,0,545.9,0,0,0,0,409,425,-0.0292,185.4919,6.8213,0.4212,54.898903,9.792260,108.3,5.845,1.85,335.95,54.901615,9.794033,54.895069,9.793790
1386833863,1,0,545.9,0,0,4,0,409,400,-0.0292,185.4919,6.8213,0.4212,54.898739,9.791970,108.3,5.845,1.85,335.95,54.901615,9.794033,54.895069,9.793790
1386833863,1,0,545.9,0,0,0,0,409,425,-0.0292,185.4919,6.8213,0.4212,54.898720,9.791967,108.3,5.845,1.85,335.95,54.901615,9.794033,54.895069,9.793790
1386833863,1,0,545.9,0,0,4,0,409,400,-0.0292,185.4919,6.8213,0.4212,54.898701,9.791965,108.3,5.845,1.85,335.95,54.901615,9.794033,54.895069,9.793790
1386833863,1,0,545.9,0,0,0,0,409,425,-0.0292,185.4919,6.8213,0.4212,54.898682,9.791962,108.3,5.845,1.85,335.95,54.901615,9.794033,54.895069,9.793790
1386833864,1,0,545.9,0,0,4,0,409,400,-0.0292,185.4919,6.8213,0.4212,54.898666,9.791959,108.3,5.845,1.85,335.95,54.901615,9.794033,54.895069,9.793790
1386833864,1,0,545.9,0,0,0,0,409,425,-0.0292,185.4919,6.8213,0.4212,54.898647,9.791956,108.3,5.845,1.85,335.95,54.901615,9.794033,54.895069,9.793790
1386833864,1,0,545.9,0,0,4,0,409,400,-0.0292,185.4919,6.8213,0.4212,54.898628,9.791953,108.3,5.845,1.85,335.95,54.901615,9.794033,54.895069,9.793790
1386833864,1,0,545.9,0,0,0,0,409,425,-0.0292,185.4919,6.8213,0.4212,54.898613,9.791950,108.3,5.845,1.85,335.95,54.901615,9.794033,54.895069,9.793790
1386833865,1,0,545.9,0,0,4,0,409,400,-0.0292,185.4919,6.8213,0.4212,54.898594,9.791946,108.3,5.845,1.85,335.95,54.901615,9.794033,54.895069,9.793790
1386833865,1,0,545.9,0,0,0,0,409,425,-0.0292,185.4919,6.8213,0.4212,54.898575,9.791943,108.3,5.845,1.85,335.95,54.901615,9.794033,54.895069,9.793790
1386833865,1,0,545.9,0,0,4,0,409,400,-0.0292,185.4919,6.8213,0.4212,54.898556,9.791940,108.3,5.845,1.85,335.95,54.901615,9.794033,54.895069,9.793790
1386833865,1,0,545.9,0,0,0,0,409,425,-0.0292,185.4919,6.8213,0.4212,54.898540,9.791937,108.3,5.845,1.85,335.95,54.901615,9.794033,54.895069,9.793790
1386833866,1,0,545.9,0,0,4,0,409,400,-0.0292,185.4919,6.8213,0.4212,54.898521,9.791934,108.3,5.845,1.85,335.95,54.901615,9.794033,54.895069,9.793790
1386833866,1,0,545.9,0,0,0,0,409,425,-0.0292,185.4919,6.8213,0.4212,54.898502,9.791931,108.3,5.845,1.85,335.95,54.901615,9.794033,54.895069,9.793790
1386833866,1,0,545.9,0,0,4,0,409,400,-0.0292,185.4919,6.8213,0.4212,54.898483,9.791928,108.3,5.845,1.85,335.95,54.901615,9.794033,54.895069,9.793790
1386833866,1,0,545.9,0,0,0,0,409,425,-0.0292,185.4919,6.8213,0.4212,54.898468,9.791925,108.3,5.845,1.85,335.95,54.901615,9.794033,54.895069,9.793790
1386833867,1,0,545.9,0,0,4,0,409,400,-0.0292,185.4919,6.8213,0.4212,54.898449,9.791923,108.3,5.845,1.85,335.95,54.901615,9.794033,54.895069,9.793790
1386833867,1,0,545.9,0,0,0,0,409,425,-0.0292,185.4919,6.8213,0.4212,54.898430,9.791920,108.3,5.845,1.85,335.95,54.901615,9.794033,54.895069,9.793790
1386833867,1,0,545.9,0,0,4,0,409,400,-0.0292,185.4919,6.8213,0.4212,54.898411,9.791917,108.3,5.845,1.85,335.95,54.901615,9.794033,54.895069,9.793790
1386833867,1,0,545.9,0,0,0,0,409,425,-0.0292,185.4919,6.8213,0.4212,54.898396,9.791914,108.3,5.845,1.85,335.95,54.901615,9.794033,54.895069,9.793790
1386833868,1,0,545.9,0,0,4,0,409,400,-0.0292,185.4919,6.8213,0.4212,54.898376,9.791911,108.3,5.845,1.85,335.95,54.901615,9.794033,54.895069,9.793790
1386833868,1,0,545.9,0,0,0,0,409,425,-0.0292,185.4919,6.8213,0.4212,54.898357,9.791908,108.3,5.845,1.85,335.95,54.901615,9.794033,54.895069,9.793790
1386833868,1,0,545.9,0,0,4,0,409,400,-0.0292,185.4919,6.8213,0.4212,54.898342,9.791904,108.3,5.845,1.85,335.95,54.901615,9.794033,54.895069,9.793790
1386833868,1,0,545.9,0,0,0,0,409,425,-0.0292,185.4919,6.8213,0.4212,54.898323,9.791901,108.3,5.845,1.85,335.95,54.901615,9.794033,54.895069,9.793790
1386833869,1,0,545.9,0,0,4,0,409,400,-0.0292,185.4919,6.8213,0.4212,54.898304,9.791898,108.3,5.845,1.85,335.95,54.901615,9.794033,54.895069,9.793790
1386833869,1,0,545.9,0,0,0,0,409,425,-0.0292,185.4919,6.8213,0.4212,54.898285,9.791895,108.3,5.845,1.85,335.95,54.901615,9.794033,54.895069,9.793790
1386833869,1,0,545.9,0,0,4,0,409,400,-0.0292,185.4919,6.8213,0.4212,54.898270,9.791892,108.3,5.845,1.85,335.95,54.901615,9.794033,54.895069,9.793790
1386833869,1,0,545.9,0,0,0,0,409,425,-0.0292,185.4919,6.8213,0.4212,54.898251,9.791889,108.3,5.845,1.85,335.95,54.901615,9.794033,54.895069,9.793790
1386833870,1,0,545.9,0,0,4,0,409,400,-0.0292,185.4919,6.8213,0.4212,54.898232,9.791886,108.3,5.845,1.85,335.95,54.901615,9.794033,54.895069,9.793790
1386833870,1,0,545.9,0,0,0,0,409,425,-0.0292,185.4919,6.8213,0.4212,54.898212,9.791883,108.3,5.845,1.85,335.95,54.901615,9.794033,54.895069,9.793790
1386833870,1,0,545.9,0,0,4,0,409,400,-0.0292,185.4919,6.8213,0.4212,54.898197,9.791881,108.3,5.845,1.85,335.95,54.901615,9.794033,54.895069,9.793790
1386833870,1,0,545.9,0,0,0,0,409,425,-0.0292,185.4919,6.8213,0.4212,54.898178,9.791878,108.3,5.845,1.85,335.95,54.901615,9.794033,54.895069,9.793790
1386833871,1,0,545.9,0,0,4,0,409,400,-0.0292,185.4919,6.8213,0.4212,54.898159,9.791875,108.3,5.845,1.85,335.95,54.901615,9.794033,54.895069,9.793790
1386833871,1,0,545.9,0,0,0,0,409,425,-0.0292,185.4919,6.8213,0.4212,54.898140,9.791872,108.3,5.845,1.85,335.95,54.901615,9.794033,54.895069,9.793790
1386833871,1,0,545.9,0,0,4,0,409,400,-0.0292,185.4919,6.8213,0.4212,54.898125,9.791869,108.3,5.845,1.85,335.95,54.901615,9.794033,54.895069,9.793790
1386833871,1,0,545.9,0,0,0,0,409,425,-0.0292,185.4919,6.8213,0.4212,54.898106,9.791866,108.3,5.845,1.85,335.95,54.901615,9.794033,54.895069,9.793790
1386833872,1,0,545.9,0,0,4,0,409,400,-0.0292,185.4919,6.8213,0.4212,54.898087,9.791863,108.3,5.845,1.85,335.95,54.901615,9.794033,54.895069,9.793790
1386833872,1,0,545.9,0,0,0,0,409,425,-0.0292,185.4919,6.8213,0.4212,54.898071,9.791860,108.3,5.845,1.85,335.95,54.901615,9.794033,54.895069,9.793790
1386833872,1,0,545.9,0,0,4,0,409,400,-0.0292,185.4919,6.8213,0.4212,54.898052,9.791856,108.3,5.845,1.85,335.95,54.901615,9.794033,54.895069,9.793790
1386833872,1,0,545.9,0,0,0,0,409,425,-0.0292,185.4919,6.8213,0.4212,54.898033,9.791853,108.3,5.845,1.85,335.95,54.901615,9.794033,54.895069,9.793790
1386833873,1,0,545.9,0,0,4,0,409,400,-0.0292,185.4919,6.8213,0.4212,54.898014,9.791850,108.3,5.845,1.85,335.95,54.901615,9.794033,54.895069,9.793790
1386833873,1,0,545.9,0,0,0,0,409,425,-0.0292,185.4919,6.8213,0.4212,54.897999,9.791847,108.3,5.845,1.85,335.95,54.901615,9.794033,54.895069,9.793790
1386833873,1,0,545.9,0,0,4,0,409,400,-0.0292,185.4919,6.8213,0.4212,54.897980,9.791844,108.3,5.845,1.85,335.95,54.901615,9.794033,54.895069,9.793790
1386833873,1,0,545.9,0,0,0,0,409,425,-0.0292,185.4919,6.8213,0.4212,54.897961,9.791842,108.3,5.845,1.85,335.95,54.901615,9.794033,54.895069,9.793790
1386833874,1,0,545.9,0,0,4,0,409,400,-0.0292,185.4919,6.8213,0.4212,54.897942,9.791839,108.3,5.845,1.85,335.95,54.901615,9.794033,54.895069,9.793790
1386833874,1,0,545.9,0,0,0,0,409,425,-0.0292,185.4919,6.8213,0.4212,54.897926,9.791836,108.3,5.845,1.85,335.95,54.901615,9.794033,54.895069,9.793790
1386833874,1,0,545.9,0,0,4,0,409,400,-0.0292,185.4919,6.8213,0.4212,54.897907,9.791833,108.3,5.845,1.85,335.95,54.901615,9.794033,54.895069,9.793790
1386833874,1,0,545.9,0,0,0,0,409,425,-0.0292,185.4919,6.8213,0.4212,54.897888,9.791830,108.3,5.845,1.85,335.95,54.901615,9.794033,54.895069,9.793790
1386833875,1,0,545.9,0,0,4,0,409,400,-0.0292,185.4919,6.8213,0.4212,54.897869,9.791827,108.3,5.845,1.85,335.95,54.901615,9.794033,54.895069,9.793790
1386833875,1,0,545.9,0,0,0,0,409,425,-0.0292,185.4919,6.8213,0.4212,54.897854,9.791824,108.3,5.845,1.85,335.95,54.901615,9.794033,54.895069,9.793790
1386833875,1,0,545.9,0,0,4,0,409,400,-0.0292,185.4919,6.8213,0.4212,54.897835,9.791821,108.3,5.845,1.85,335.95,54.901615,9.794033,54.895069,9.793790
1386833875,1,0,545.9,0,0,0,0,409,425,-0.0292,185.4919,6.8213,0.4212,54.897816,9.791818,108.3,5.845,1.85,335.95,54.901615,9.794033,54.895069,9.793790
1386833876,1,0,545.9,0,0,4,0,409,400,-0.0292,185.4919,6.8213,0.4212,54.897800,9.791814,108.3,5.845,1.85,335.95,54.901615,9.794033,54.895069,9.793790
1386833876,1,0,545.9,0,0,0,0,409,425,-0.0292,185.4919,6.8213,0.4212,54.897781,9.791811,108.3,5.845,1.85,335.95,54.901615,9.794033,54.895069,9.793790
1386833876,1,0,545.9,0,0,4,0,409,400,-0.0292,185.4919,6.8213,0.4212,54.897762,9.791808,108.3,5.845,1.85,335.95,54.901615,9.794033,54.895069,9.793790
1386833876,1,0,545.9,0,0,0,0,409,425,-0.0292,185.4919,6.8213,0.4212,54.897743,9.791805,108.3,5.845,1.85,335.95,54.901615,9.794033,54.895069,9.793790
1386833877,1,0,545.9,0,0,4,0,409,400,-0.0292,185.4919,6.8213,0.4212,54.897728,9.791802,108.3,5.845,1.85,335.95,54.901615,9.794033,54.895069,9.793790
1386833877,1,0,545.9,0,0,0,0,409,425,-0.0292,185.4919,6.8213,0.4212,54.897709,9.791800,108.3,5.845,1.85,335.95,54.901615,9.794033,54.895069,9.793790
1386833877,1,0,545.9,0,0,4,0,409,400,-0.0292,185.4919,6.8213,0.4212,54.897690,9.791797,108.3,5.845,1.85,335.95,54.901615,9.794033,54.895069,9.793790
1386833877,1,0,545.9,0,0,0,0,409,425,-0.0292,185.4919,6.8213,0.4212,54.897671,9.791794,108.3,5.845,1.85,335.95,54.901615,9.794033,54.895069,9.793790
1386833878,1,0,545.9,0,0,4,0,409,400,-0.0292,185.4919,6.8213,0.4212,54.897655,9.791791,108.3,5.845,1.85,335.95,54.901615,9.794033,54.895069,9.793790
1386833878,1,0,545.9,0,0,0,0,409,425,-0.0292,185.4919,6.8213,0.4212,54.897636,9.791788,108.3,5.845,1.85,335.95,54.901615,9.794033,54.895069,9.793790
1386833878,1,0,545.9,0,0,4,0,409,400,-0.0292,185.4919,6.8213,0.4212,54.897617,9.791785,108.3,5.845,1.85,335.95,54.901615,9.794033,54.895069,9.793790
1386833878,1,0,545.9,0,0,0,0,409,425,-0.0292,185.4919,6.8213,0.4212,54.897598,9.791782,108.3,5.845,1.85,335.95,54.901615,9.794033,54.895069,9.793790
1386833879,1,0,545.9,0,0,4,0,409,400,-0.0292,185.4919,6.8213,0.4212,54.897583,9.791780,108.3,5.845,1.85,335.95,54.901615,9.794033,54.895069,9.793790
1386833879,1,0,545.9,0,0,0,0,409,425,-0.0292,185.4919,6.8213,0.4212,54.897564,9.791776,108.3,5.845,1.85,335.95,54.901615,9.794033,54.895069,9.793790
1386833879,1,0,545.9,0,0,4,0,409,400,-0.0292,185.4919,6.8213,0.4212,54.897545,9.791772,108.3,5.845,1.85,335.95,54.901615,9.794033,54.895069,9.793790
1386833879,1,0,545.9,0,0,0,0,409,425,-0.0292,185.4919,6.8213,0.4212,54.897526,9.791769,108.3,5.845,1.85,335.95,54.901615,9.794033,54.895069,9.793790
1386833880,1,0,545.9,0,0,4,0,409,400,-0.0292,185.4919,6.8213,0.4212,54.897511,9.791766,108.3,5.845,1.85,335.95,54.901615,9.794033,54.895069,9.793790
1386833880,1,0,545.9,0,0,0,0,409,425,-0.0292,185.4919,6.8213,0.4212,54.897491,9.791763,108.3,5.845,1.85,335.95,54.901615,9.794033,54.895069,9.793790
1386833880,1,0,545.9,0,0,4,0,409,400,-0.0292,185.4919,6.8213,0.4212,54.897472,9.791760,108.3,5.845,1.85,335.95,54.901615,9.794033,54.895069,9.793790
1386833880,1,0,545.9,0,0,0,0,409,425,-0.0292,185.4919,6.8213,0.4212,54.897457,9.791758,108.3,5.845,1.85,335.95,54.901615,9.794033,54.895069,9.793790
1386833881,1,0,545.9,0,0,4,0,409,400,-0.0292,185.4919,6.8213,0.4212,54.897438,9.791755,108.3,5.845,1.85,335.95,54.901615,9.794033,54.895069,9.793790
1386833881,1,0,545.9,0,0,0,0,409,425,-0.0292,185.4919,6.8213,0.4212,54.897419,9.791752,108.3,5.845,1.85,335.95,54.901615,9.794033,54.895069,9.793790
1386833881,1,0,545.9,0,0,4,0,409,400,-0.0292,185.4919,6.8213,0.4212,54.897400,9.791749,108.3,5.845,1.85,335.95,54.901615,9.794033,54.895069,9.793790
1386833881,1,0,545.9,0,0,0,0,409,425,-0.0292,185.4919,6.8213,0.4212,54.897385,9.791746,108.3,5.845,1.85,335.95,54.901615,9.794033,54.895069,9.793790
1386833882,1,0,545.9,0,0,4,0,409,400,-0.0292,185.4919,6.8213,0.4212,54.897366,9.791743,108.3,5.845,1.85,335.95,54.901615,9.794033,54.895069,9.793790
1386833882,1,0,545.9,0,0,0,0,409,425,-0.0292,185.4919,6.8213,0.4212,54.897346,9.791740,108.3,5.845,1.85,335.95,54.901615,9.794033,54.895069,9.793790
1386833882,1,0,545.9,0,0,4,0,409,400,-0.0292,185.4919,6.8213,0.4212,54.897327,9.791738,108.3,5.845,1.85,335.95,54.901615,9.794033,54.895069,9.793790
1386833882,1,0,545.9,0,0,0,0,409,425,-0.0292,185.4919,6.8213,0.4212,54.897312,9.791735,108.3,5.845,1.85,335.95,54.901615,9.794033,54.895069,9.793790
1386833883,1,0,545.9,0,0,4,0,409,400,-0.0292,185.4919,6.8213,0.4212,54.897293,9.791731,108.3,5.845,1.85,335.95,54.901615,9.794033,54.895069,9.793790
1386833883,1,0,545.9,0,0,0,0,409,425,-0.0292,185.4919,6.8213,0.4212,54.897274,9.791728,108.3,5.845,1.85,335.95,54.901615,9.794033,54.895069,9.793790
1386833883,1,0,545.9,0,0,4,0,409,400,-0.0292,185.4919,6.8213,0.4212,54.897255,9.791725,108.3,5.845,1.85,335.95,54.901615,9.794033,54.895069,9.793790
1386833883,1,0,545.9,0,0,0,0,409,425,-0.0292,185.4919,6.8213,0.4212,54.897240,9.791722,108.3,5.845,1.85,335.95,54.901615,9.794033,54.895069,9.793790
1386833884,1,0,545.9,0,0,4,0,409,400,-0.0292,185.4919,6.8213,0.4212,54.897221,9.791719,108.3,5.845,1.85,335.95,54.901615,9.794033,54.895069,9.793790
1386833884,1,0,545.9,0,0,0,0,409,425,-0.0292,185.4919,6.8213,0.4212,54.897202,9.791717,108.3,5.845,1.85,335.95,54.901615,9.794033,54.895069,9.793790
1386833884,1,0,545.9,0,0,4,0,409,400,-0.0292,185.4919,6.8213,0.4212,54.897186,9.791714,108.3,5.845,1.85,335.95,54.901615,9.794033,54.895069,9.793790
1386833884,1,0,545.9,0,0,0,0,409,425,-0.0292,185.4919,6.8213,0.4212,54.897167,9.791711,108.3,5.845,1.85,335.95,54.901615,9.794033,54.895069,9.793790
1386833885,1,0,545.9,0,0,4,0,409,400,-0.0292,185.4919,6.8213,0.4212,54.897148,9.791708,108.3,5.845,1.85,335.95,54.901615,9.794033,54.895069,9.793790
1386833885,1,0,545.9,0,0,0,0,409,425,-0.0292,185.4919,6.8213,0.4212,54.897129,9.791705,108.3,5.845,1.85,335.95,54.901615,9.794033,54.895069,9.793790
1386833885,1,0,545.9,0,0,4,0,409,400,-0.0292,185.4919,6.8213,0.4212,54.897114,9.791702,108.3,5.845,1.85,335.95,54.901615,9.794033,54.895069,9.793790
1386833885,1,0,545.9,0,0,0,0,409,425,-0.0292,185.4919,6.8213,0.4212,54.897095,9.791699,108.3,5.845,1.85,335.95,54.901615,9.794033,54.895069,9.793790
1386833886,1,0,545.9,0,0,4,0,409,400,-0.0292,185.4919,6.8213,0.4212,54.897076,9.791697,108.3,5.845,1.85,335.95,54.901615,9.794033,54.895069,9.793790
1386833886,1,0,545.9,0,0,0,0,409,425,-0.0292,185.4919,6.8213,0.4212,54.897057,9.791694,108.3,5.845,1.85,335.95,54.901615,9.794033,54.895069,9.793790
1386833886,1,0,545.9,0,0,4,0,409,400,-0.0292,185.4919,6.8213,0.4212,54.897041,9.791690,108.3,5.845,1.85,335.95,54.901615,9.794033,54.895069,9.793790
1386833886,1,0,545.9,0,0,0,0,409,425,-0.0292,185.4919,6.8213,0.4212,54.897022,9.791686,108.3,5.845,1.85,335.95,54.901615,9.794033,54.895069,9.793790
1386833887,1,0,545.9,0,0,4,0,409,400,-0.0292,185.4919,6.8213,0.4212,54.897003,9.791683,108.3,5.845,1.85,335.95,54.901615,9.794033,54.895069,9.793790
1386833887,1,0,545.9,0,0,0,0,409,425,-0.0292,185.4919,6.8213,0.4212,54.896984,9.791680,108.3,5.845,1.85,335.95,54.901615,9.794033,54.895069,9.793790
1386833887,1,0,545.9,0,0,4,0,409,400,-0.0292,185.4919,6.8213,0.4212,54.896969,9.791677,108.3,5.845,1.85,335.95,54.901615,9.794033,54.895069,9.793790
1386833887,1,0,545.9,0,0,0,0,409,425,-0.0292,185.4919,6.8213,0.4212,54.896950,9.791675,108.3,5.845,1.85,335.95,54.901615,9.794033,54.895069,9.793790
1386833888,1,0,545.9,0,0,4,0,409,400,-0.0292,185.4919,6.8213,0.4212,54.896931,9.791672,108.3,5.845,1.85,335.95,54.901615,9.794033,54.895069,9.793790
1386833888,1,0,545.9,0,0,0,0,409,425,-0.0292,185.4919,6.8213,0.4212,54.896915,9.791669,108.3,5.845,1.85,335.95,54.901615,9.794033,54.895069,9.793790
1386833888,1,0,545.9,0,0,4,0,409,400,-0.0292,185.4919,6.8213,0.4212,54.896896,9.791666,108.3,5.845,1.85,335.95,54.901615,9.794033,54.895069,9.793790
1386833888,1,0,545.9,0,0,0,0,409,425,-0.0292,185.4919,6.8213,0.4212,54.896877,9.791663,108.3,5.845,1.85,335.95,54.901615,9.794033,54.895069,9.793790
1386833889,1,0,545.9,0,0,4,0,409,400,-0.0292,185.4919,6.8213,0.4212,54.896858,9.791660,108.3,5.845,1.85,335.95,54.901615,9.794033,54.895069,9.793790
1386833889,1,0,545.9,0,0,0,0,409,425,-0.0292,185.4919,6.8213,0.4212,54.896843,9.791657,108.3,5.845,1.85,335.95,54.901615,9.794033,54.895069,9.793790
1386833889,1,0,545.9,0,0,4,0,409,400,-0.0292,185.4919,6.8213,0.4212,54.896824,9.791655,108.3,5.845,1.85,335.95,54.901615,9.794033,54.895069,9.793790
1386833890,1,0,545.9,0,0,0,0,409,425,-0.0292,185.4919,6.8213,0.4212,54.896805,9.791652,108.3,5.845,1.85,335.95,54.901615,9.794033,54.895069,9.793790
1386833890,1,0,545.9,0,0,4,0,409,400,-0.0292,185.4919,6.8213,0.4212,54.896786,9.791649,108.3,5.845,1.85,335.95,54.901615,9.794033,54.895069,9.793790
1386833890,1,0,545.9,0,0,0,0,409,425,-0.0292,185.4919,6.8213,0.4212,54.896770,9.791645,108.3,5.845,1.85,335.95,54.901615,9.794033,54.895069,9.793790
1386833890,1,0,545.9,0,0,4,0,409,400,-0.0292,185.4919,6.8213,0.4212,54.896751,9.791642,108.3,5.845,1.85,335.95,54.901615,9.794033,54.895069,9.793790
1386833891,1,0,545.9,0,0,0,0,409,425,-0.0292,185.4919,6.8213,0.4212,54.896732,9.791639,108.3,5.845,1.85,335.95,54.901615,9.794033,54.895069,9.793790
1386833891,1,0,545.9,0,0,4,0,409,400,-0.0292,185.4919,6.8213,0.4212,54.896713,9.791636,108.3,5.845,1.85,335.95,54.901615,9.794033,54.895069,9.793790
1386833891,1,0,545.9,0,0,0,0,409,425,-0.0292,185.4919,6.8213,0.4212,54.896698,9.791634,108.3,5.845,1.85,335.95,54.901615,9.794033,54.895069,9.793790
1386833891,1,0,545.9,0,0,4,0,409,400,-0.0292,185.4919,6.8213,0.4212,54.896679,9.791631,108.3,5.845,1.85,335.95,54.901615,9.794033,54.895069,9.793790
1386833892,1,0,545.9,0,0,0,0,409,425,-0.0292,185.4919,6.8213,0.4212,54.896660,9.791628,108.3,5.845,1.85,335.95,54.901615,9.794033,54.895069,9.793790
1386833892,1,0,545.9,0,0,4,0,409,400,-0.0292,185.4919,6.8213,0.4212,54.896645,9.791625,108.3,5.845,1.85,335.95,54.901615,9.794033,54.895069,9.793790
1386833892,1,0,545.9,0,0,0,0,409,425,-0.0292,185.4919,6.8213,0.4212,54.896626,9.791622,108.3,5.845,1.85,335.95,54.901615,9.794033,54.895069,9.793790
1386833892,1,0,545.9,0,0,4,0,409,400,-0.0292,185.4919,6.8213,0.4212,54.896606,9.791619,108.3,5.845,1.85,335.95,54.901615,9.794033,54.895069,9.793790
1386833893,1,0,545.9,0,0,0,0,409,425,-0.0292,185.4919,6.8213,0.4212,54.896587,9.791616,108.3,5.845,1.85,335.95,54.901615,9.794033,54.895069,9.793790
1386833893,1,0,545.9,0,0,4,0,409,400,-0.0292,185.4919,6.8213,0.4212,54.896572,9.791614,108.3,5.845,1.85,335.95,54.901615,9.794033,54.895069,9.793790
1386833893,1,0,545.9,0,0,0,0,409,425,-0.0292,185.4919,6.8213,0.4212,54.896553,9.791611,108.3,5.845,1.85,335.95,54.901615,9.794033,54.895069,9.793790
1386833893,1,0,545.9,0,0,4,0,409,400,-0.0292,185.4919,6.8213,0.4212,54.896534,9.791608,108.3,5.845,1.85,335.95,54.901615,9.794033,54.895069,9.793790
1386833894,1,0,545.9,0,0,0,0,409,425,-0.0292,185.4919,6.8213,0.4212,54.896515,9.791604,108.3,5.845,1.85,335.95,54.901615,9.794033,54.895069,9.793790
1386833894,1,0,545.9,0,0,4,0,409,400,-0.0292,185.4919,6.8213,0.4212,54.896500,9.791600,108.3,5.845,1.85,335.95,54.901615,9.794033,54.895069,9.793790
1386833894,1,0,545.9,0,0,0,0,409,425,-0.0292,185.4919,6.8213,0.4212,54.896481,9.791597,108.3,5.845,1.85,335.95,54.901615,9.794033,54.895069,9.793790
1386833894,1,0,545.9,0,0,4,0,409,400,-0.0292,185.4919,6.8213,0.4212,54.896461,9.791595,108.3,5.845,1.85,335.95,54.901615,9.794033,54.895069,9.793790
1386833895,1,0,545.9,0,0,0,0,409,425,-0.0292,185.4919,6.8213,0.4212,54.896442,9.791592,108.3,5.845,1.85,335.95,54.901615,9.794033,54.895069,9.793790
1386833895,1,0,545.9,0,0,4,0,409,400,-0.0292,185.4919,6.8213,0.4212,54.896427,9.791589,108.3,5.845,1.85,335.95,54.901615,9.794033,54.895069,9.793790
1386833895,1,0,545.9,0,0,0,0,409,425,-0.0292,185.4919,6.8213,0.4212,54.896408,9.791586,108.3,5.845,1.85,335.95,54.901615,9.794033,54.895069,9.793790
1386833895,1,0,545.9,0,0,4,0,409,400,-0.0292,185.4919,6.8213,0.4212,54.896389,9.791583,108.3,5.845,1.85,335.95,54.901615,9.794033,54.895069,9.793790
1386833896,1,0,545.9,0,0,0,0,409,425,-0.0292,185.4919,6.8213,0.4212,54.896370,9.791580,108.3,5.845,1.85,335.95,54.901615,9.794033,54.895069,9.793790
1386833896,1,0,545.9,0,0,4,0,409,400,-0.0292,185.4919,6.8213,0.4212,54.896355,9.791577,108.3,5.845,1.85,335.95,54.901615,9.794033,54.895069,9.793790
1386833896,1,0,545.9,0,0,0,0,409,425,-0.0292,185.4919,6.8213,0.4212,54.896336,9.791574,108.3,5.845,1.85,335.95,54.901615,9.794033,54.895069,9.793790
1386833896,1,0,545.9,0,0,4,0,409,400,-0.0292,185.4919,6.8213,0.4212,54.896317,9.791572,108.3,5.845,1.85,335.95,54.901615,9.794033,54.895069,9.793790
1386833897,1,0,545.9,0,0,0,0,409,425,-0.0292,185.4919,6.8213,0.4212,54.896301,9.791569,108.3,5.845,1.85,335.95,54.901615,9.794033,54.895069,9.793790
1386833897,1,0,545.9,0,0,4,0,409,400,-0.0292,185.4919,6.8213,0.4212,54.896282,9.791566,108.3,5.845,1.85,335.95,54.901615,9.794033,54.895069,9.793790
1386833897,1,0,545.9,0,0,0,0,409,425,-0.0292,185.4919,6.8213,0.4212,54.896263,9.791563,108.3,5.845,1.85,335.95,54.901615,9.794033,54.895069,9.793790
1386833897,1,0,545.9,0,0,4,0,409,400,-0.0292,185.4919,6.8213,0.4212,54.896244,9.791559,108.3,5.845,1.85,335.95,54.901615,9.794033,54.895069,9.793790
1386833898,1,0,545.9,0,0,0,0,409,425,-0.0292,185.4919,6.8213,0.4212,54.896229,9.791556,108.3,5.845,1.85,335.95,54.901615,9.794033,54.895069,9.793790
1386833898,1,0,545.9,0,0,4,0,409,400,-0.0292,185.4919,6.8213,0.4212,54.896210,9.791553,108.3,5.845,1.85,335.95,54.901615,9.794033,54.895069,9.793790
1386833898,1,0,545.9,0,0,0,0,409,425,-0.0292,185.4919,6.8213,0.4212,54.896191,9.791551,108.3,5.845,1.85,335.95,54.901615,9.794033,54.895069,9.793790
1386833898,1,0,545.9,0,0,4,0,409,400,-0.0292,185.4919,6.8213,0.4212,54.896172,9.791548,108.3,5.845,1.85,335.95,54.901615,9.794033,54.895069,9.793790
1386833899,1,0,545.9,0,0,0,0,409,425,-0.0292,185.4919,6.8213,0.4212,54.896156,9.791545,108.3,5.845,1.85,335.95,54.901615,9.794033,54.895069,9.793790
1386833899,1,0,545.9,0,0,4,0,409,400,-0.0292,185.4919,6.8213,0.4212,54.896137,9.791542,108.3,5.845,1.85,335.95,54.901615,9.794033,54.895069,9.793790
1386833899,1,0,545.9,0,0,0,0,409,425,-0.0292,185.4919,6.8213,0.4212,54.896118,9.791539,108.3,5.845,1.85,335.95,54.901615,9.794033,54.895069,9.793790
1386833899,1,0,545.9,0,0,4,0,409,400,-0.0292,185.4919,6.8213,0.4212,54.896099,9.791536,108.3,5.845,1.85,335.95,54.901615,9.794033,54.895069,9.793790
1386833900,1,0,545.9,0,0,0,0,409,425,-0.0292,185.4919,6.8213,0.4212,54.896084,9.791533,108.3,5.845,1.85,335.95,54.901615,9.794033,54.895069,9.793790
1386833900,1,0,545.9,0,0,4,0,409,400,-0.0292,185.4919,6.8213,0.4212,54.896065,9.791531,108.3,5.845,1.85,335.95,54.901615,9.794033,54.895069,9.793790
1386833900,1,0,545.9,0,0,0,0,409,425,-0.0292,185.4919,6.8213,0.4212,54.896046,9.791528,108.3,5.845,1.85,335.95,54.901615,9.794033,54.895069,9.793790
1386833900,1,0,545.9,0,0,4,0,409,400,-0.0292,185.4919,6.8213,0.4212,54.896030,9.791525,108.3,5.845,1.85,335.95,54.901615,9.794033,54.895069,9.793790
1386833901,1,0,545.9,0,0,0,0,409,425,-0.0292,185.4919,6.8213,0.4212,54.896011,9.791522,108.3,5.845,1.85,335.95,54.901615,9.794033,54.895069,9.793790
1386833901,1,0,545.9,0,0,4,0,409,400,-0.0292,185.4919,6.8213,0.4212,54.895992,9.791518,108.3,5.845,1.85,335.95,54.901615,9.794033,54.895069,9.793790
1386833901,1,0,545.9,0,0,0,0,0,375,-0.0292,185.4919,6.8213,0.4212,54.895973,9.791514,108.3,5.845,1.85,335.95,54.901615,9.794033,54.895069,9.793790
1386833901,1,0,545.9,0,0,4,0,0,350,-0.0292,185.4919,6.8213,0.4212,54.895958,9.791512,108.3,5.845,1.85,335.95,54.901615,9.794033,54.895069,9.793790
1386833902,1,0,545.9,0,0,0,0,0,325,-0.0292,185.4919,6.8213,0.4212,54.895939,9.791509,108.3,5.845,1.85,335.95,54.901615,9.794033,54.895069,9.793790
1386833902,1,0,545.9,0,0,4,0,0,300,-0.0292,185.4919,6.8213,0.4212,54.895920,9.791506,108.3,5.845,1.85,335.95,54.901615,9.794033,54.895069,9.793790
1386833902,1,0,545.9,0,0,0,0,0,275,-0.0292,185.4919,6.8213,0.4212,54.895901,9.791503,108.3,5.845,1.85,335.95,54.901615,9.794033,54.895069,9.793790
1386833902,1,0,545.9,0,0,4,0,0,250,-0.0292,185.4919,6.8213,0.4212,54.895885,9.791500,108.3,5.845,1.85,335.95,54.901615,9.794033,54.895069,9.793790
1386833903,1,0,545.9,0,0,0,0,0,225,-0.0292,185.4919,6.8213,0.4212,54.895866,9.791497,108.3,5.845,1.85,335.95,54.901615,9.794033,54.895069,9.793790
1386833903,1,0,545.9,0,0,4,0,0,200,-0.0292,185.4919,6.8213,0.4212,54.895847,9.791494,108.3,5.845,1.85,335.95,54.901615,9.794033,54.895069,9.793790
1386833903,1,0,545.9,0,0,0,0,0,175,-0.0292,185.4919,6.8213,0.4212,54.895828,9.791492,108.3,5.845,1.85,335.95,54.901615,9.794033,54.895069,9.793790
1386833903,1,0,545.9,0,0,4,0,0,150,-0.0292,185.4919,6.8213,0.4212,54.895813,9.791489,108.3,5.845,1.85,335.95,54.901615,9.794033,54.895069,9.793790
1386833904,1,0,545.9,0,0,0,0,0,125,-0.0292,185.4919,6.8213,0.4212,54.895794,9.791486,108.3,5.845,1.85,335.95,54.901615,9.794033,54.895069,9.793790
1386833904,1,0,545.9,0,0,4,0,0,100,-0.0292,185.4919,6.8213,0.4212,54.895775,9.791483,108.3,5.845,1.85,335.95,54.901615,9.794033,54.895069,9.793790
1386833904,1,0,545.9,0,0,0,0,0,75,-0.0292,185.4919,6.8213,0.4212,54.895760,9.791480,108.3,5.845,1.85,335.95,54.901615,9.794033,54.895069,9.793790
1386833904,1,0,545.9,0,0,4,0,0,50,-0.0292,185.4919,6.8213,0.4212,54.895741,9.791477,108.3,5.845,1.85,335.95,54.901615,9.794033,54.895069,9.793790
1386833905,1,0,545.9,0,0,0,0,0,25,-0.0292,185.4919,6.8213,0.4212,54.895721,9.791473,108.3,5.845,1.85,335.95,54.901615,9.794033,54.895069,9.793790
1386833905,1,0,545.9,0,0,4,0,0,0,-0.0292,185.4919,6.8213,0.4212,54.895702,9.791471,108.3,5.845,1.85,335.95,54.901615,9.794033,54.895069,9.793790
1386833905,1,0,545.9,0,0,0,0,0,25,-0.0292,185.4919,6.8213,0.4212,54.895687,9.791468,108.3,5.845,1.85,335.95,54.901615,9.794033,54.895069,9.793790
1386833905,1,0,485.9,0,35,4,0,0,0,-0.0292,176.1585,6.8213,0.4212,54.895668,9.791471,108.3,5.845,1.85,335.95,54.901615,9.794033,54.895069,9.793790
1386833906,1,0,485.9,0,35,8,0,0,25,-0.0292,166.8252,6.8213,0.4212,54.895649,9.791478,108.3,5.845,1.85,335.95,54.901615,9.794033,54.895069,9.793790
1386833906,1,0,485.9,0,35,12,0,0,0,-0.0292,157.4919,6.8213,0.4212,54.895634,9.791490,108.3,5.845,1.85,335.95,54.901615,9.794033,54.895069,9.793790
1386833906,1,0,485.9,0,32,16,0,0,25,-0.0292,148.9585,6.8213,0.4212,54.895618,9.791506,108.3,5.845,1.85,335.95,54.901615,9.794033,54.895069,9.793790
1386833906,1,0,485.9,0,23,20,0,0,0,-0.0292,142.8252,6.8213,0.4212,54.895603,9.791525,108.3,5.845,1.85,335.95,54.901615,9.794033,54.895069,9.793790
1386833907,1,0,485.9,0,17,16,0,0,25,-0.0292,138.2919,6.8213,0.4212,54.895592,9.791545,108.3,5.845,1.85,335.95,54.901615,9.794033,54.895069,9.793790
1386833907,1,0,485.9,0,12,12,0,0,0,-0.0292,135.0919,6.8213,0.4212,54.895576,9.791567,108.3,5.845,1.85,335.95,54.901615,9.794033,54.895069,9.793790
1386833907,1,0,485.9,0,9,8,0,0,25,-0.0292,132.6919,6.8213,0.4212,54.895565,9.791590,108.3,5.845,1.85,335.95,54.901615,9.794033,54.895069,9.793790
1386833907,1,0,485.9,0,7,4,0,409,50,-0.0292,130.8252,6.8213,0.4212,54.895554,9.791614,108.3,5.845,1.85,335.95,54.901615,9.794033,54.895069,9.793790
1386833908,1,0,485.9,0,5,8,0,409,75,-0.0292,129.4919,6.8213,0.4212,54.895542,9.791637,108.3,5.845,1.85,335.95,54.901615,9.794033,54.895069,9.793790
1386833908,1,0,485.9,0,4,4,0,409,100,-0.0292,128.4252,6.8213,0.4212,54.895531,9.791662,108.3,5.845,1.85,335.95,54.901615,9.794033,54.895069,9.793790
1386833908,1,0,485.9,0,2,0,0,409,125,-0.0292,127.8919,6.8213,0.4212,54.895519,9.791687,108.3,5.845,1.85,335.95,54.901615,9.794033,54.895069,9.793790
1386833908,1,0,485.9,0,2,4,0,409,150,-0.0292,127.3586,6.8213,0.4212,54.895508,9.791712,108.3,5.845,1.85,335.95,54.901615,9.794033,54.895069,9.793790
1386833909,1,0,485.9,0,1,0,0,409,175,-0.0292,127.0919,6.8213,0.4212,54.895500,9.791737,108.3,5.845,1.85,335.95,54.901615,9.794033,54.895069,9.793790
1386833909,1,0,485.9,0,1,4,0,409,200,-0.0292,126.8252,6.8213,0.4212,54.895489,9.791761,108.3,5.845,1.85,335.95,54.901615,9.794033,54.895069,9.793790
1386833909,1,0,485.9,0,1,0,0,409,225,-0.0292,126.5585,6.8213,0.4212,54.895477,9.791787,108.3,5.845,1.85,335.95,54.901615,9.794033,54.895069,9.793790
1386833909,1,0,485.9,0,1,4,0,409,250,-0.0292,126.2919,6.8213,0.4212,54.895466,9.791812,108.3,5.845,1.85,335.95,54.901615,9.794033,54.895069,9.793790
1386833910,1,0,485.9,0,0,0,0,409,275,-0.0292,126.2919,6.8213,0.4212,54.895454,9.791838,108.3,5.845,1.85,335.95,54.901615,9.794033,54.895069,9.793790
1386833910,1,0,485.9,0,0,4,0,409,300,-0.0292,126.2919,6.8213,0.4212,54.895443,9.791862,108.3,5.845,1.85,335.95,54.901615,9.794033,54.895069,9.793790
1386833910,1,0,485.9,0,0,0,0,409,325,-0.0292,126.2919,6.8213,0.4212,54.895432,9.791887,108.3,5.845,1.85,335.95,54.901615,9.794033,54.895069,9.793790
1386833910,1,0,485.7,0,1,4,0,409,350,-0.0292,126.0252,6.8213,0.4212,54.895424,9.791913,108.3,5.845,1.85,335.95,54.901615,9.794033,54.895069,9.793790
1386833911,1,0,468.1,0,18,8,0,409,375,-0.0292,121.2252,6.8213,0.4212,54.895412,9.791940,108.3,5.845,1.85,335.95,54.901615,9.794033,54.895069,9.793790
1386833911,1,0,467.8,0,13,12,0,409,400,-0.0292,117.7585,6.8213,0.4212,54.895405,9.791967,108.3,5.845,1.85,335.95,54.901615,9.794033,54.895069,9.793790
1386833911,1,0,467.7,0,10,8,0,409,425,-0.0292,115.0919,6.8213,0.4212,54.895397,9.791996,108.3,5.845,1.85,335.95,54.901615,9.794033,54.895069,9.793790
1386833911,1,0,467.5,0,8,12,0,409,400,-0.0292,112.9585,6.8213,0.4212,54.895390,9.792025,108.3,5.845,1.85,335.95,54.901615,9.794033,54.895069,9.793790
1386833912,1,0,467.4,0,6,8,0,409,425,-0.0292,111.3585,6.8213,0.4212,54.895382,9.792054,108.3,5.845,1.85,335.95,54.901615,9.794033,54.895069,9.793790
1386833912,1,0,467.3,0,4,4,0,409,400,-0.0292,110.2919,6.8213,0.4212,54.895378,9.792084,108.3,5.845,1.85,335.95,54.901615,9.794033,54.895069,9.793790
1386833912,1,0,467.4,0,3,0,0,578,425,-0.0292,109.4919,6.8213,0.4212,54.895374,9.792113,108.3,5.845,1.85,335.95,54.901615,9.794033,54.895069,9.793790
1386833912,1,0,467.5,0,2,4,0,578,450,-0.0292,108.9585,6.8213,0.4212,54.895367,9.792143,108.3,5.845,1.85,335.95,54.901615,9.794033,54.895069,9.793790
1386833913,1,0,467.3,0,2,0,0,578,475,-0.0292,108.4252,6.8213,0.4212,54.895359,9.792172,108.3,5.845,1.85,335.95,54.901615,9.794033,54.895069,9.793790
