MCU_timestamp,Navigation_System,Manual_Control,Guidance_Heading,Manual_Ctrl_Rudder,Rudder_Desired_Angle,Rudder_Feedback,Manual_Ctrl_Sail,Sail_Desired_Pos,Sail_Feedback,Rate,Heading,Pitch,Roll,Latitude,Longitude,COG,SOG,Wind_Speed,Wind_Angle,Point_Start_Lat,Point_Start_Lon,Point_End_Lat,Point_End_Lon
1386793053,0,0,0.0,0,0,0,0,0,0,-0.0292,185.4902,6.8213,0.4212,54.890675,9.795424,108.3,5.845,1.85,335.95,0.000000,0.000000,0.000000,0.000000
1386793053,0,0,0.0,0,0,0,0,0,0,-0.0292,185.4902,6.8213,0.4212,54.890675,9.795424,108.3,5.845,1.85,335.95,0.000000,0.000000,0.000000,0.000000
1386793053,0,0,0.0,0,0,0,0,0,0,-0.0292,185.4902,6.8213,0.4212,54.890675,9.795424,108.3,5.845,1.85,335.95,0.000000,0.000000,0.000000,0.000000
1386793054,0,0,0.0,0,0,0,0,0,0,-0.0292,185.4902,6.8213,0.4212,54.890675,9.795424,108.3,5.845,1.85,335.95,0.000000,0.000000,0.000000,0.000000
1386793054,0,0,0.0,0,0,0,0,0,0,-0.0292,185.4902,6.8213,0.4212,54.890675,9.795424,108.3,5.845,1.85,335.95,0.000000,0.000000,0.000000,0.000000
1386793054,0,0,0.0,0,0,0,0,0,0,-0.0292,185.4902,6.8213,0.4212,54.890675,9.795424,108.3,5.845,1.85,335.95,0.000000,0.000000,0.000000,0.000000
1386793054,0,0,0.0,0,0,0,0,0,0,-0.0292,185.4902,6.8213,0.4212,54.890675,9.795424,108.3,5.845,1.85,335.95,0.000000,0.000000,0.000000,0.000000
1386793055,0,0,0.0,0,0,0,0,0,0,-0.0292,185.4902,6.8213,0.4212,54.890675,9.795424,108.3,5.845,1.85,335.95,0.000000,0.000000,0.000000,0.000000
1386793055,0,0,0.0,0,0,0,0,0,0,-0.0292,185.4902,6.8213,0.4212,54.890675,9.795424,108.3,5.845,1.85,335.95,0.000000,0.000000,0.000000,0.000000
1386793055,0,0,0.0,0,0,0,0,0,0,-0.0292,185.4902,6.8213,0.4212,54.890675,9.795424,108.3,5.845,1.85,335.95,0.000000,0.000000,0.000000,0.000000
1386793055,0,0,0.0,0,0,0,0,0,0,-0.0292,185.4902,6.8213,0.4212,54.890675,9.795424,108.3,5.845,1.85,335.95,0.000000,0.000000,0.000000,0.000000
1386793056,4,0,0.0,0,0,0,0,0,0,-0.0292,185.4902,6.8213,0.4212,54.890675,9.795424,108.3,5.845,1.85,335.95,0.000000,0.000000,0.000000,0.000000
1386793056,1,0,390.9,0,35,4,0,409,430,-0.0292,176.1569,6.8213,0.4212,54.890656,9.795425,108.3,5.845,1.85,335.95,54.890675,9.795424,54.895069,9.793790
1386793056,1,0,390.9,0,35,8,0,409,405,-0.0292,166.8236,6.8213,0.4212,54.890636,9.795432,108.3,5.845,1.85,335.95,54.890675,9.795424,54.895069,9.793790
1386793056,1,0,390.9,0,35,12,0,409,430,-0.0292,157.4902,6.8213,0.4212,54.890621,9.795444,108.3,5.845,1.85,335.95,54.890675,9.795424,54.895069,9.793790
1386793057,1,0,390.9,0,35,16,0,0,405,-0.0292,148.1569,6.8213,0.4212,54.890606,9.795460,108.3,5.845,1.85,335.95,54.890675,9.795424,54.895069,9.793790
1386793057,1,0,390.9,0,35,20,0,0,380,-0.0292,138.8236,6.8213,0.4212,54.890591,9.795481,108.3,5.845,1.85,335.95,54.890675,9.795424,54.895069,9.793790
1386793057,1,0,390.9,0,35,24,0,409,405,-0.0292,129.4902,6.8213,0.4212,54.890579,9.795505,108.3,5.845,1.85,335.95,54.890675,9.795424,54.895069,9.793790
1386793057,1,0,390.9,0,35,28,0,409,430,-0.0292,120.1569,6.8213,0.4212,54.890572,9.795531,108.3,5.845,1.85,335.95,54.890675,9.795424,54.895069,9.793790
1386793058,1,0,390.9,0,35,32,0,409,405,-0.0292,110.8236,6.8213,0.4212,54.890564,9.795561,108.3,5.845,1.85,335.95,54.890675,9.795424,54.895069,9.793790
1386793058,1,0,390.9,0,35,36,0,500,430,-0.0292,101.4902,6.8213,0.4212,54.890560,9.795591,108.3,5.845,1.85,335.95,54.890675,9.795424,54.895069,9.793790
1386793058,1,0,390.9,0,35,32,0,500,455,-0.0292,92.1569,6.8213,0.4212,54.890560,9.795622,108.3,5.845,1.85,335.95,54.890675,9.795424,54.895069,9.793790
1386793058,1,0,390.9,0,35,36,0,462,480,-0.0292,82.8236,6.8213,0.4212,54.890564,9.795653,108.3,5.845,1.85,335.95,54.890675,9.795424,54.895069,9.793790
1386793059,1,0,390.9,0,35,32,0,382,455,-0.0292,73.4902,6.8213,0.4212,54.890572,9.795683,108.3,5.845,1.85,335.95,54.890675,9.795424,54.895069,9.793790
1386793059,1,0,390.9,0,35,36,0,298,430,-0.0292,64.1569,6.8213,0.4212,54.890579,9.795711,108.3,5.845,1.85,335.95,54.890675,9.795424,54.895069,9.793790
1386793059,1,0,390.9,0,33,32,0,212,405,-0.0292,55.3569,6.8213,0.4212,54.890591,9.795736,108.3,5.845,1.85,335.95,54.890675,9.795424,54.895069,9.793790
1386793059,1,0,390.9,0,24,28,0,134,380,-0.0292,48.9569,6.8213,0.4212,54.890606,9.795760,108.3,5.845,1.85,335.95,54.890675,9.795424,54.895069,9.793790
1386793060,1,0,390.9,0,18,24,0,81,355,-0.0292,44.1569,6.8213,0.4212,54.890617,9.795782,108.3,5.845,1.85,335.95,54.890675,9.795424,54.895069,9.793790
1386793060,1,0,390.9,0,13,20,0,47,330,-0.0292,40.6902,6.8213,0.4212,54.890629,9.795802,108.3,5.845,1.85,335.95,54.890675,9.795424,54.895069,9.793790
1386793060,1,0,390.9,0,10,16,0,27,305,-0.0292,38.0236,6.8213,0.4212,54.890644,9.795822,108.3,5.845,1.85,335.95,54.890675,9.795424,54.895069,9.793790
1386793060,1,0,390.9,0,7,12,0,14,280,-0.0292,36.1569,6.8213,0.4212,54.890656,9.795840,108.3,5.845,1.85,335.95,54.890675,9.795424,54.895069,9.793790
1386793061,1,0,390.9,0,5,8,0,8,255,-0.0292,34.8236,6.8213,0.4212,54.890671,9.795858,108.3,5.845,1.85,335.95,54.890675,9.795424,54.895069,9.793790
1386793061,1,0,390.9,0,4,4,0,4,230,-0.0292,33.7569,6.8213,0.4212,54.890686,9.795876,108.3,5.845,1.85,335.95,54.890675,9.795424,54.895069,9.793790
1386793061,1,0,390.9,0,3,0,0,2,205,-0.0292,32.9569,6.8213,0.4212,54.890701,9.795893,108.3,5.845,1.85,335.95,54.890675,9.795424,54.895069,9.793790
1386793061,1,0,390.9,0,2,4,0,1,180,-0.0292,32.4236,6.8213,0.4212,54.890717,9.795909,108.3,5.845,1.85,335.95,54.890675,9.795424,54.895069,9.793790
1386793062,1,0,390.9,0,1,0,0,0,155,-0.0292,32.1569,6.8213,0.4212,54.890728,9.795925,108.3,5.845,1.85,335.95,54.890675,9.795424,54.895069,9.793790
1386793062,1,0,390.9,0,1,4,0,0,130,-0.0292,31.8902,6.8213,0.4212,54.890743,9.795942,108.3,5.845,1.85,335.95,54.890675,9.795424,54.895069,9.793790
1386793062,1,0,390.9,0,1,0,0,0,105,-0.0292,31.6236,6.8213,0.4212,54.890759,9.795959,108.3,5.845,1.85,335.95,54.890675,9.795424,54.895069,9.793790
1386793062,1,0,390.9,0,1,4,0,0,80,-0.0292,31.3569,6.8213,0.4212,54.890774,9.795975,108.3,5.845,1.85,335.95,54.890675,9.795424,54.895069,9.793790
1386793063,1,0,390.9,0,0,0,0,0,55,-0.0292,31.3569,6.8213,0.4212,54.890789,9.795992,108.3,5.845,1.85,335.95,54.890675,9.795424,54.895069,9.793790
1386793063,1,0,390.9,0,0,4,0,0,30,-0.0292,31.3569,6.8213,0.4212,54.890808,9.796008,108.3,5.845,1.85,335.95,54.890675,9.795424,54.895069,9.793790
1386793063,1,0,390.9,0,0,0,0,0,5,-0.0292,31.3569,6.8213,0.4212,54.890823,9.796024,108.3,5.845,1.85,335.95,54.890675,9.795424,54.895069,9.793790
1386793063,1,0,390.9,0,0,4,0,0,-20,-0.0292,31.3569,6.8213,0.4212,54.890839,9.796041,108.3,5.845,1.85,335.95,54.890675,9.795424,54.895069,9.793790
1386793064,1,0,390.9,0,0,0,0,0,5,-0.0292,31.3569,6.8213,0.4212,54.890858,9.796057,108.3,5.845,1.85,335.95,54.890675,9.795424,54.895069,9.793790
1386793064,1,0,390.9,0,0,4,0,0,-20,-0.0292,31.3569,6.8213,0.4212,54.890873,9.796073,108.3,5.845,1.85,335.95,54.890675,9.795424,54.895069,9.793790
1386793064,1,0,390.9,0,0,0,0,0,5,-0.0292,31.3569,6.8213,0.4212,54.890888,9.796089,108.3,5.845,1.85,335.95,54.890675,9.795424,54.895069,9.793790
1386793064,1,0,390.9,0,0,4,0,0,-20,-0.0292,31.3569,6.8213,0.4212,54.890900,9.796105,108.3,5.845,1.85,335.95,54.890675,9.795424,54.895069,9.793790
1386793065,1,0,390.9,0,0,0,0,0,5,-0.0292,31.3569,6.8213,0.4212,54.890915,9.796122,108.3,5.845,1.85,335.95,54.890675,9.795424,54.895069,9.793790
1386793065,1,0,485.9,0,-35,-4,0,0,-20,-0.0292,40.6902,6.8213,0.4212,54.890926,9.796142,108.3,5.845,1.85,335.95,54.890675,9.795424,54.895069,9.793790
1386793065,1,0,485.9,0,-35,-8,0,27,5,-0.0292,50.0236,6.8213,0.4212,54.890938,9.796165,108.3,5.845,1.85,335.95,54.890675,9.795424,54.895069,9.793790
1386793065,1,0,485.9,0,-35,-12,0,90,30,-0.0292,59.3569,6.8213,0.4212,54.890945,9.796192,108.3,5.845,1.85,335.95,54.890675,9.795424,54.895069,9.793790
1386793066,1,0,485.9,0,-35,-16,0,169,55,-0.0292,68.6902,6.8213,0.4212,54.890953,9.796221,108.3,5.845,1.85,335.95,54.890675,9.795424,54.895069,9.793790
1386793066,1,0,485.9,0,-35,-20,0,254,80,-0.0292,78.0236,6.8213,0.4212,54.890957,9.796251,108.3,5.845,1.85,335.95,54.890675,9.795424,54.895069,9.793790
1386793066,1,0,485.9,0,-35,-24,0,339,105,-0.0292,87.3569,6.8213,0.4212,54.890961,9.796283,108.3,5.845,1.85,335.95,54.890675,9.795424,54.895069,9.793790
1386793066,1,0,485.9,0,-35,-28,0,422,130,-0.0292,96.6902,6.8213,0.4212,54.890961,9.796313,108.3,5.845,1.85,335.95,54.890675,9.795424,54.895069,9.793790
1386793067,1,0,485.9,0,-29,-32,0,499,155,-0.0292,104.4236,6.8213,0.4212,54.890957,9.796344,108.3,5.845,1.85,335.95,54.890675,9.795424,54.895069,9.793790
1386793067,1,0,485.9,0,-22,-28,0,500,180,-0.0292,110.2902,6.8213,0.4212,54.890953,9.796373,108.3,5.845,1.85,335.95,54.890675,9.795424,54.895069,9.793790
1386793067,1,0,485.9,0,-16,-24,0,500,205,-0.0292,114.5569,6.8213,0.4212,54.890945,9.796402,108.3,5.845,1.85,335.95,54.890675,9.795424,54.895069,9.793790
1386793067,1,0,485.9,0,-11,-20,0,409,230,-0.0292,117.4902,6.8213,0.4212,54.890938,9.796431,108.3,5.845,1.85,335.95,54.890675,9.795424,54.895069,9.793790
1386793068,1,0,485.9,0,-8,-16,0,409,255,-0.0292,119.6236,6.8213,0.4212,54.890926,9.796458,108.3,5.845,1.85,335.95,54.890675,9.795424,54.895069,9.793790
1386793068,1,0,485.9,0,-6,-12,0,0,230,-0.0292,121.2236,6.8213,0.4212,54.890919,9.796485,108.3,5.845,1.85,335.95,54.890675,9.795424,54.895069,9.793790
1386793068,1,0,485.9,0,-5,-8,0,0,205,-0.0292,122.5569,6.8213,0.4212,54.890907,9.796512,108.3,5.845,1.85,335.95,54.890675,9.795424,54.895069,9.793790
1386793068,1,0,485.9,0,-3,-4,0,0,180,-0.0292,123.3569,6.8213,0.4212,54.890900,9.796537,108.3,5.845,1.85,335.95,54.890675,9.795424,54.895069,9.793790
1386793069,1,0,485.9,0,-3,0,0,0,155,-0.0292,124.1569,6.8213,0.4212,54.890888,9.796563,108.3,5.845,1.85,335.95,54.890675,9.795424,54.895069,9.793790
1386793069,1,0,485.9,0,-2,-4,0,0,130,-0.0292,124.6902,6.8213,0.4212,54.890877,9.796589,108.3,5.845,1.85,335.95,54.890675,9.795424,54.895069,9.793790
1386793069,1,0,485.9,0,-1,0,0,0,105,-0.0292,124.9569,6.8213,0.4212,54.890865,9.796615,108.3,5.845,1.85,335.95,54.890675,9.795424,54.895069,9.793790
1386793069,1,0,485.9,0,-1,-4,0,0,80,-0.0292,125.2236,6.8213,0.4212,54.890854,9.796640,108.3,5.845,1.85,335.95,54.890675,9.795424,54.895069,9.793790
1386793070,1,0,485.9,0,-1,0,0,0,55,-0.0292,125.4903,6.8213,0.4212,54.890842,9.796666,108.3,5.845,1.85,335.95,54.890675,9.795424,54.895069,9.793790
1386793070,1,0,485.9,0,0,4,0,0,30,-0.0292,125.4903,6.8213,0.4212,54.890831,9.796691,108.3,5.845,1.85,335.95,54.890675,9.795424,54.895069,9.793790
1386793070,1,0,485.9,0,0,0,0,0,5,-0.0292,125.4903,6.8213,0.4212,54.890820,9.796717,108.3,5.845,1.85,335.95,54.890675,9.795424,54.895069,9.793790
1386793070,1,0,485.9,0,0,4,0,0,-20,-0.0292,125.4903,6.8213,0.4212,54.890808,9.796741,108.3,5.845,1.85,335.95,54.890675,9.795424,54.895069,9.793790
1386793071,1,0,545.9,0,-35,0,0,0,5,-0.0292,134.8236,6.8213,0.4212,54.890797,9.796764,108.3,5.845,1.85,335.95,54.890675,9.795424,54.895069,9.793790
1386793071,1,0,545.9,0,-35,-4,0,0,-20,-0.0292,144.1569,6.8213,0.4212,54.890781,9.796782,108.3,5.845,1.85,335.95,54.890675,9.795424,54.895069,9.793790
1386793071,1,0,545.9,0,-35,-8,0,0,5,-0.0292,153.4902,6.8213,0.4212,54.890766,9.796797,108.3,5.845,1.85,335.95,54.890675,9.795424,54.895069,9.793790
1386793071,1,0,545.9,0,-32,-12,0,0,-20,-0.0292,162.0236,6.8213,0.4212,54.890747,9.796806,108.3,5.845,1.85,335.95,54.890675,9.795424,54.895069,9.793790
1386793072,1,0,545.9,0,-24,-16,0,0,5,-0.0292,168.4236,6.8213,0.4212,54.890728,9.796812,108.3,5.845,1.85,335.95,54.890675,9.795424,54.895069,9.793790
1386793072,1,0,545.9,0,-18,-20,0,0,-20,-0.0292,173.2236,6.8213,0.4212,54.890709,9.796816,108.3,5.845,1.85,335.95,54.890675,9.795424,54.895069,9.793790
1386793072,1,0,545.9,0,-13,-16,0,0,5,-0.0292,176.6902,6.8213,0.4212,54.890694,9.796818,108.3,5.845,1.85,335.95,54.890675,9.795424,54.895069,9.793790
1386793072,1,0,545.9,0,-9,-12,0,0,-20,-0.0292,179.0902,6.8213,0.4212,54.890675,9.796819,108.3,5.845,1.85,335.95,54.890675,9.795424,54.895069,9.793790
1386793073,1,0,545.9,0,-7,-8,0,409,5,-0.0292,180.9569,6.8213,0.4212,54.890656,9.796819,108.3,5.845,1.85,335.95,54.890675,9.795424,54.895069,9.793790
1386793073,1,0,545.9,0,-5,-4,0,409,30,-0.0292,182.2902,6.8213,0.4212,54.890636,9.796818,108.3,5.845,1.85,335.95,54.890675,9.795424,54.895069,9.793790
1386793073,1,0,545.9,0,-4,0,0,409,55,-0.0292,183.3569,6.8213,0.4212,54.890621,9.796816,108.3,5.845,1.85,335.95,54.890675,9.795424,54.895069,9.793790
1386793073,1,0,545.9,0,-3,-4,0,409,80,-0.0292,184.1569,6.8213,0.4212,54.890602,9.796814,108.3,5.845,1.85,335.95,54.890675,9.795424,54.895069,9.793790
1386793074,1,0,545.9,0,-2,0,0,409,105,-0.0292,184.6902,6.8213,0.4212,54.890583,9.796811,108.3,5.845,1.85,335.95,54.890675,9.795424,54.895069,9.793790
1386793074,1,0,545.9,0,-1,-4,0,409,130,-0.0292,184.9569,6.8213,0.4212,54.890564,9.796808,108.3,5.845,1.85,335.95,54.890675,9.795424,54.895069,9.793790
1386793074,1,0,545.9,0,-1,0,0,409,155,-0.0292,185.2236,6.8213,0.4212,54.890549,9.796805,108.3,5.845,1.85,335.95,54.890675,9.795424,54.895069,9.793790
1386793074,1,0,545.9,0,-1,-4,0,409,180,-0.0292,185.4902,6.8213,0.4212,54.890530,9.796803,108.3,5.845,1.85,335.95,54.890675,9.795424,54.895069,9.793790
1386793075,1,0,545.9,0,0,0,0,409,205,-0.0292,185.4902,6.8213,0.4212,54.890511,9.796800,108.3,5.845,1.85,335.95,54.890675,9.795424,54.895069,9.793790
1386793075,1,0,545.9,0,0,4,0,409,230,-0.0292,185.4902,6.8213,0.4212,54.890491,9.796797,108.3,5.845,1.85,335.95,54.890675,9.795424,54.895069,9.793790
1386793075,1,0,545.9,0,0,0,0,409,255,-0.0292,185.4902,6.8213,0.4212,54.890476,9.796794,108.3,5.845,1.85,335.95,54.890675,9.795424,54.895069,9.793790
1386793075,1,0,545.9,0,0,4,0,409,280,-0.0292,185.4902,6.8213,0.4212,54.890457,9.796790,108.3,5.845,1.85,335.95,54.890675,9.795424,54.895069,9.793790
1386793076,1,0,545.9,0,0,0,0,409,305,-0.0292,185.4902,6.8213,0.4212,54.890438,9.796786,108.3,5.845,1.85,335.95,54.890675,9.795424,54.895069,9.793790
1386793076,1,0,545.9,0,0,4,0,409,330,-0.0292,185.4902,6.8213,0.4212,54.890423,9.796783,108.3,5.845,1.85,335.95,54.890675,9.795424,54.895069,9.793790
1386793076,1,0,545.9,0,0,0,0,409,355,-0.0292,185.4902,6.8213,0.4212,54.890404,9.796781,108.3,5.845,1.85,335.95,54.890675,9.795424,54.895069,9.793790
1386793076,1,0,545.9,0,0,4,0,409,380,-0.0292,185.4902,6.8213,0.4212,54.890385,9.796778,108.3,5.845,1.85,335.95,54.890675,9.795424,54.895069,9.793790
1386793077,1,0,545.9,0,0,0,0,409,405,-0.0292,185.4902,6.8213,0.4212,54.890366,9.796775,108.3,5.845,1.85,335.95,54.890675,9.795424,54.895069,9.793790
1386793077,1,0,545.9,0,0,4,0,409,430,-0.0292,185.4902,6.8213,0.4212,54.890350,9.796772,108.3,5.845,1.85,335.95,54.890675,9.795424,54.895069,9.793790
1386793077,1,0,545.9,0,0,0,0,409,405,-0.0292,185.4902,6.8213,0.4212,54.890331,9.796769,108.3,5.845,1.85,335.95,54.890675,9.795424,54.895069,9.793790
1386793077,1,0,545.9,0,0,4,0,409,430,-0.0292,185.4902,6.8213,0.4212,54.890312,9.796766,108.3,5.845,1.85,335.95,54.890675,9.795424,54.895069,9.793790
1386793078,1,0,545.9,0,0,0,0,409,405,-0.0292,185.4902,6.8213,0.4212,54.890293,9.796763,108.3,5.845,1.85,335.95,54.890675,9.795424,54.895069,9.793790
1386793078,1,0,545.9,0,0,4,0,409,430,-0.0292,185.4902,6.8213,0.4212,54.890278,9.796761,108.3,5.845,1.85,335.95,54.890675,9.795424,54.895069,9.793790
1386793078,1,0,545.9,0,0,0,0,409,405,-0.0292,185.4902,6.8213,0.4212,54.890259,9.796758,108.3,5.845,1.85,335.95,54.890675,9.795424,54.895069,9.793790
1386793079,1,0,545.9,0,0,4,0,409,430,-0.0292,185.4902,6.8213,0.4212,54.890240,9.796755,108.3,5.845,1.85,335.95,54.890675,9.795424,54.895069,9.793790
1386793079,1,0,545.9,0,0,0,0,409,405,-0.0292,185.4902,6.8213,0.4212,54.890221,9.796752,108.3,5.845,1.85,335.95,54.890675,9.795424,54.895069,9.793790
1386793079,1,0,545.9,0,0,4,0,409,430,-0.0292,185.4902,6.8213,0.4212,54.890205,9.796748,108.3,5.845,1.85,335.95,54.890675,9.795424,54.895069,9.793790
1386793079,1,0,545.9,0,0,0,0,409,405,-0.0292,185.4902,6.8213,0.4212,54.890186,9.796744,108.3,5.845,1.85,335.95,54.890675,9.795424,54.895069,9.793790
1386793080,1,0,545.9,0,0,4,0,409,430,-0.0292,185.4902,6.8213,0.4212,54.890167,9.796741,108.3,5.845,1.85,335.95,54.890675,9.795424,54.895069,9.793790
1386793080,1,0,545.9,0,0,0,0,409,405,-0.0292,185.4902,6.8213,0.4212,54.890152,9.796739,108.3,5.845,1.85,335.95,54.890675,9.795424,54.895069,9.793790
1386793080,1,0,545.9,0,0,4,0,409,430,-0.0292,185.4902,6.8213,0.4212,54.890133,9.796736,108.3,5.845,1.85,335.95,54.890675,9.795424,54.895069,9.793790
1386793080,1,0,545.9,0,0,0,0,409,405,-0.0292,185.4902,6.8213,0.4212,54.890114,9.796733,108.3,5.845,1.85,335.95,54.890675,9.795424,54.895069,9.793790
1386793081,1,0,545.9,0,0,4,0,409,430,-0.0292,185.4902,6.8213,0.4212,54.890095,9.796730,108.3,5.845,1.85,335.95,54.890675,9.795424,54.895069,9.793790
1386793081,1,0,545.9,0,0,0,0,409,405,-0.0292,185.4902,6.8213,0.4212,54.890079,9.796727,108.3,5.845,1.85,335.95,54.890675,9.795424,54.895069,9.793790
1386793081,1,0,545.9,0,0,4,0,409,430,-0.0292,185.4902,6.8213,0.4212,54.890060,9.796724,108.3,5.845,1.85,335.95,54.890675,9.795424,54.895069,9.793790
1386793081,1,0,545.9,0,0,0,0,409,405,-0.0292,185.4902,6.8213,0.4212,54.890041,9.796721,108.3,5.845,1.85,335.95,54.890675,9.795424,54.895069,9.793790
1386793082,1,0,545.9,0,0,4,0,409,430,-0.0292,185.4902,6.8213,0.4212,54.890022,9.796719,108.3,5.845,1.85,335.95,54.890675,9.795424,54.895069,9.793790
1386793082,1,0,545.9,0,0,0,0,409,405,-0.0292,185.4902,6.8213,0.4212,54.890007,9.796716,108.3,5.845,1.85,335.95,54.890675,9.795424,54.895069,9.793790
1386793082,1,0,545.9,0,0,4,0,409,430,-0.0292,185.4902,6.8213,0.4212,54.889988,9.796713,108.3,5.845,1.85,335.95,54.890675,9.795424,54.895069,9.793790
1386793082,1,0,545.9,0,0,0,0,409,405,-0.0292,185.4902,6.8213,0.4212,54.889969,9.796710,108.3,5.845,1.85,335.95,54.890675,9.795424,54.895069,9.793790
1386793083,1,0,545.9,0,0,4,0,409,430,-0.0292,185.4902,6.8213,0.4212,54.889950,9.796707,108.3,5.845,1.85,335.95,54.890675,9.795424,54.895069,9.793790
1386793083,1,0,545.9,0,0,0,0,409,405,-0.0292,185.4902,6.8213,0.4212,54.889935,9.796703,108.3,5.845,1.85,335.95,54.890675,9.795424,54.895069,9.793790
1386793083,1,0,545.9,0,0,4,0,409,430,-0.0292,185.4902,6.8213,0.4212,54.889915,9.796700,108.3,5.845,1.85,335.95,54.890675,9.795424,54.895069,9.793790
1386793083,1,0,545.9,0,0,0,0,409,405,-0.0292,185.4902,6.8213,0.4212,54.889896,9.796698,108.3,5.845,1.85,335.95,54.890675,9.795424,54.895069,9.793790
1386793084,1,0,545.9,0,0,4,0,409,430,-0.0292,185.4902,6.8213,0.4212,54.889881,9.796695,108.3,5.845,1.85,335.95,54.890675,9.795424,54.895069,9.793790
1386793084,1,0,545.9,0,0,0,0,409,405,-0.0292,185.4902,6.8213,0.4212,54.889862,9.796692,108.3,5.845,1.85,335.95,54.890675,9.795424,54.895069,9.793790
1386793084,1,0,545.9,0,0,4,0,409,430,-0.0292,185.4902,6.8213,0.4212,54.889843,9.796689,108.3,5.845,1.85,335.95,54.890675,9.795424,54.895069,9.793790
1386793084,1,0,545.9,0,0,0,0,409,405,-0.0292,185.4902,6.8213,0.4212,54.889824,9.796686,108.3,5.845,1.85,335.95,54.890675,9.795424,54.895069,9.793790
1386793085,1,0,545.9,0,0,4,0,409,430,-0.0292,185.4902,6.8213,0.4212,54.889809,9.796683,108.3,5.845,1.85,335.95,54.890675,9.795424,54.895069,9.793790
1386793085,1,0,545.9,0,0,0,0,409,405,-0.0292,185.4902,6.8213,0.4212,54.889790,9.796680,108.3,5.845,1.85,335.95,54.890675,9.795424,54.895069,9.793790
1386793085,1,0,545.9,0,0,4,0,409,430,-0.0292,185.4902,6.8213,0.4212,54.889771,9.796678,108.3,5.845,1.85,335.95,54.890675,9.795424,54.895069,9.793790
1386793085,1,0,545.9,0,0,0,0,409,405,-0.0292,185.4902,6.8213,0.4212,54.889751,9.796675,108.3,5.845,1.85,335.95,54.890675,9.795424,54.895069,9.793790
1386793086,1,0,545.9,0,0,4,0,409,430,-0.0292,185.4902,6.8213,0.4212,54.889736,9.796672,108.3,5.845,1.85,335.95,54.890675,9.795424,54.895069,9.793790
1386793086,1,0,545.9,0,0,0,0,409,405,-0.0292,185.4902,6.8213,0.4212,54.889717,9.796669,108.3,5.845,1.85,335.95,54.890675,9.795424,54.895069,9.793790
1386793086,1,0,545.9,0,0,4,0,409,430,-0.0292,185.4902,6.8213,0.4212,54.889698,9.796666,108.3,5.845,1.85,335.95,54.890675,9.795424,54.895069,9.793790
1386793086,1,0,545.9,0,0,0,0,409,405,-0.0292,185.4902,6.8213,0.4212,54.889679,9.796662,108.3,5.845,1.85,335.95,54.890675,9.795424,54.895069,9.793790
1386793087,1,0,545.9,0,0,4,0,409,430,-0.0292,185.4902,6.8213,0.4212,54.889664,9.796659,108.3,5.845,1.85,335.95,54.890675,9.795424,54.895069,9.793790
1386793087,1,0,545.9,0,0,0,0,409,405,-0.0292,185.4902,6.8213,0.4212,54.889645,9.796656,108.3,5.845,1.85,335.95,54.890675,9.795424,54.895069,9.793790
1386793087,1,0,545.9,0,0,4,0,409,430,-0.0292,185.4902,6.8213,0.4212,54.889626,9.796653,108.3,5.845,1.85,335.95,54.890675,9.795424,54.895069,9.793790
1386793087,1,0,545.9,0,0,0,0,409,405,-0.0292,185.4902,6.8213,0.4212,54.889606,9.796650,108.3,5.845,1.85,335.95,54.890675,9.795424,54.895069,9.793790
1386793088,1,0,545.9,0,0,4,0,409,430,-0.0292,185.4902,6.8213,0.4212,54.889591,9.796647,108.3,5.845,1.85,335.95,54.890675,9.795424,54.895069,9.793790
1386793088,1,0,545.9,0,0,0,0,409,405,-0.0292,185.4902,6.8213,0.4212,54.889572,9.796644,108.3,5.845,1.85,335.95,54.890675,9.795424,54.895069,9.793790
1386793088,1,0,545.9,0,0,4,0,409,430,-0.0292,185.4902,6.8213,0.4212,54.889553,9.796641,108.3,5.845,1.85,335.95,54.890675,9.795424,54.895069,9.793790
1386793088,1,0,545.9,0,0,0,0,409,405,-0.0292,185.4902,6.8213,0.4212,54.889538,9.796638,108.3,5.845,1.85,335.95,54.890675,9.795424,54.895069,9.793790
1386793089,1,0,545.9,0,0,4,0,409,430,-0.0292,185.4902,6.8213,0.4212,54.889519,9.796636,108.3,5.845,1.85,335.95,54.890675,9.795424,54.895069,9.793790
1386793089,1,0,545.9,0,0,0,0,409,405,-0.0292,185.4902,6.8213,0.4212,54.889500,9.796633,108.3,5.845,1.85,335.95,54.890675,9.795424,54.895069,9.793790
1386793089,1,0,545.9,0,0,4,0,409,430,-0.0292,185.4902,6.8213,0.4212,54.889481,9.796630,108.3,5.845,1.85,335.95,54.890675,9.795424,54.895069,9.793790
1386793089,1,0,545.9,0,0,0,0,409,405,-0.0292,185.4902,6.8213,0.4212,54.889465,9.796627,108.3,5.845,1.85,335.95,54.890675,9.795424,54.895069,9.793790
1386793090,1,0,545.9,0,0,4,0,409,430,-0.0292,185.4902,6.8213,0.4212,54.889446,9.796624,108.3,5.845,1.85,335.95,54.890675,9.795424,54.895069,9.793790
1386793090,1,0,545.9,0,0,0,0,409,405,-0.0292,185.4902,6.8213,0.4212,54.889427,9.796621,108.3,5.845,1.85,335.95,54.890675,9.795424,54.895069,9.793790
1386793090,1,0,545.9,0,0,4,0,409,430,-0.0292,185.4902,6.8213,0.4212,54.889408,9.796618,108.3,5.845,1.85,335.95,54.890675,9.795424,54.895069,9.793790
1386793090,0,0,545.9,0,0,4,0,409,430,-0.0292,185.4902,6.8213,0.4212,54.889408,9.796618,108.3,5.845,1.85,335.95,54.890675,9.795424,54.895069,9.793790
1386793091,0,0,545.9,0,0,4,0,409,430,-0.0292,185.4902,6.8213,0.4212,54.889408,9.796618,108.3,5.845,1.85,335.95,54.890675,9.795424,54.895069,9.793790
1386793091,0,0,545.9,0,0,4,0,409,430,-0.0292,185.4902,6.8213,0.4212,54.889408,9.796618,108.3,5.845,1.85,335.95,54.890675,9.795424,54.895069,9.793790
1386793091,0,0,545.9,0,0,4,0,409,430,-0.0292,185.4902,6.8213,0.4212,54.889408,9.796618,108.3,5.845,1.85,335.95,54.890675,9.795424,54.895069,9.793790
1386793091,0,0,545.9,0,0,4,0,409,430,-0.0292,185.4902,6.8213,0.4212,54.889408,9.796618,108.3,5.845,1.85,335.95,54.890675,9.795424,54.895069,9.793790
1386793092,0,0,545.9,0,0,4,0,409,430,-0.0292,185.4902,6.8213,0.4212,54.889408,9.796618,108.3,5.845,1.85,335.95,54.890675,9.795424,54.895069,9.793790
1386793092,0,0,545.9,0,0,4,0,409,430,-0.0292,185.4902,6.8213,0.4212,54.889408,9.796618,108.3,5.845,1.85,335.95,54.890675,9.795424,54.895069,9.793790
1386793092,0,0,545.9,0,0,4,0,409,430,-0.0292,185.4902,6.8213,0.4212,54.889408,9.796618,108.3,5.845,1.85,335.95,54.890675,9.795424,54.895069,9.793790
1386793092,0,0,545.9,0,0,4,0,409,430,-0.0292,185.4902,6.8213,0.4212,54.889408,9.796618,108.3,5.845,1.85,335.95,54.890675,9.795424,54.895069,9.793790
1386793093,0,0,545.9,0,0,4,0,409,430,-0.0292,185.4902,6.8213,0.4212,54.889408,9.796618,108.3,5.845,1.85,335.95,54.890675,9.795424,54.895069,9.793790
1386793093,0,0,545.9,0,0,4,0,409,430,-0.0292,185.4902,6.8213,0.4212,54.889408,9.796618,108.3,5.845,1.85,335.95,54.890675,9.795424,54.895069,9.793790
1386793093,0,0,545.9,0,0,4,0,409,430,-0.0292,185.4902,6.8213,0.4212,54.889408,9.796618,108.3,5.845,1.85,335.95,54.890675,9.795424,54.895069,9.793790
1386793093,0,0,545.9,0,0,4,0,409,430,-0.0292,185.4902,6.8213,0.4212,54.889408,9.796618,108.3,5.845,1.85,335.95,54.890675,9.795424,54.895069,9.793790
1386793094,0,0,545.9,0,0,4,0,409,430,-0.0292,185.4902,6.8213,0.4212,54.889408,9.796618,108.3,5.845,1.85,335.95,54.890675,9.795424,54.895069,9.793790
1386793094,0,0,545.9,0,0,4,0,409,430,-0.0292,185.4902,6.8213,0.4212,54.889408,9.796618,108.3,5.845,1.85,335.95,54.890675,9.795424,54.895069,9.793790
1386793094,0,0,545.9,0,0,4,0,409,430,-0.0292,185.4902,6.8213,0.4212,54.889408,9.796618,108.3,5.845,1.85,335.95,54.890675,9.795424,54.895069,9.793790
1386793094,0,0,545.9,0,0,4,0,409,430,-0.0292,185.4902,6.8213,0.4212,54.889408,9.796618,108.3,5.845,1.85,335.95,54.890675,9.795424,54.895069,9.793790
1386793095,0,0,545.9,0,0,4,0,409,430,-0.0292,185.4902,6.8213,0.4212,54.889408,9.796618,108.3,5.845,1.85,335.95,54.890675,9.795424,54.895069,9.793790
1386793095,0,0,545.9,0,0,4,0,409,430,-0.0292,185.4902,6.8213,0.4212,54.889408,9.796618,108.3,5.845,1.85,335.95,54.890675,9.795424,54.895069,9.793790
1386793095,0,0,545.9,0,0,4,0,409,430,-0.0292,185.4902,6.8213,0.4212,54.889408,9.796618,108.3,5.845,1.85,335.95,54.890675,9.795424,54.895069,9.793790
1386793095,0,0,545.9,0,0,4,0,409,430,-0.0292,185.4902,6.8213,0.4212,54.889408,9.796618,108.3,5.845,1.85,335.95,54.890675,9.795424,54.895069,9.793790
1386793096,0,0,545.9,0,0,4,0,409,430,-0.0292,185.4902,6.8213,0.4212,54.889408,9.796618,108.3,5.845,1.85,335.95,54.890675,9.795424,54.895069,9.793790
1386793096,0,0,545.9,0,0,4,0,409,430,-0.0292,185.4902,6.8213,0.4212,54.889408,9.796618,108.3,5.845,1.85,335.95,54.890675,9.795424,54.895069,9.793790
1386793096,0,0,545.9,0,0,4,0,409,430,-0.0292,185.4902,6.8213,0.4212,54.889408,9.796618,108.3,5.845,1.85,335.95,54.890675,9.795424,54.895069,9.793790
1386793096,0,0,545.9,0,0,4,0,409,430,-0.0292,185.4902,6.8213,0.4212,54.889408,9.796618,108.3,5.845,1.85,335.95,54.890675,9.795424,54.895069,9.793790
1386793097,0,0,545.9,0,0,4,0,409,430,-0.0292,185.4902,6.8213,0.4212,54.889408,9.796618,108.3,5.845,1.85,335.95,54.890675,9.795424,54.895069,9.793790
1386793097,0,0,545.9,0,0,4,0,409,430,-0.0292,185.4902,6.8213,0.4212,54.889408,9.796618,108.3,5.845,1.85,335.95,54.890675,9.795424,54.895069,9.793790
1386793097,0,0,545.9,0,0,4,0,409,430,-0.0292,185.4902,6.8213,0.4212,54.889408,9.796618,108.3,5.845,1.85,335.95,54.890675,9.795424,54.895069,9.793790
1386793097,0,0,545.9,0,0,4,0,409,430,-0.0292,185.4902,6.8213,0.4212,54.889408,9.796618,108.3,5.845,1.85,335.95,54.890675,9.795424,54.895069,9.793790
1386793098,0,0,545.9,0,0,4,0,409,430,-0.0292,185.4902,6.8213,0.4212,54.889408,9.796618,108.3,5.845,1.85,335.95,54.890675,9.795424,54.895069,9.793790
1386793098,0,0,545.9,0,0,4,0,409,430,-0.0292,185.4902,6.8213,0.4212,54.889408,9.796618,108.3,5.845,1.85,335.95,54.890675,9.795424,54.895069,9.793790
1386793098,0,0,545.9,0,0,4,0,409,430,-0.0292,185.4902,6.8213,0.4212,54.889408,9.796618,108.3,5.845,1.85,335.95,54.890675,9.795424,54.895069,9.793790
