MCU_timestamp,Navigation_System,Manual_Control,Guidance_Heading,Manual_Ctrl_Rudder,Rudder_Desired_Angle,Rudder_Feedback,Manual_Ctrl_Sail,Sail_Desired_Pos,Sail_Feedback,Rate,Heading,Pitch,Roll,Latitude,Longitude,COG,SOG,Wind_Speed,Wind_Angle,Point_Start_Lat,Point_Start_Lon,Point_End_Lat,Point_End_Lon
1386930144,0,0,0.0,0,0,-4,0,0,0,-0.0292,-2490.7688,6.8213,0.4212,54.893356,9.791909,108.3,5.845,1.85,335.95,0.000000,0.000000,0.000000,0.000000
1386930144,0,0,0.0,0,0,-4,0,0,0,-0.0292,-2490.7688,6.8213,0.4212,54.893356,9.791909,108.3,5.845,1.85,335.95,0.000000,0.000000,0.000000,0.000000
1386930144,0,0,0.0,0,0,-4,0,0,0,-0.0292,-2490.7688,6.8213,0.4212,54.893356,9.791909,108.3,5.845,1.85,335.95,0.000000,0.000000,0.000000,0.000000
1386930145,0,0,0.0,0,0,-4,0,0,0,-0.0292,-2490.7688,6.8213,0.4212,54.893356,9.791909,108.3,5.845,1.85,335.95,0.000000,0.000000,0.000000,0.000000
1386930145,0,0,0.0,0,0,-4,0,0,0,-0.0292,-2490.7688,6.8213,0.4212,54.893356,9.791909,108.3,5.845,1.85,335.95,0.000000,0.000000,0.000000,0.000000
1386930145,0,0,0.0,0,0,-4,0,0,0,-0.0292,-2490.7688,6.8213,0.4212,54.893356,9.791909,108.3,5.845,1.85,335.95,0.000000,0.000000,0.000000,0.000000
1386930145,0,0,0.0,0,0,-4,0,0,0,-0.0292,-2490.7688,6.8213,0.4212,54.893356,9.791909,108.3,5.845,1.85,335.95,0.000000,0.000000,0.000000,0.000000
1386930146,0,0,0.0,0,0,-4,0,0,0,-0.0292,-2490.7688,6.8213,0.4212,54.893356,9.791909,108.3,5.845,1.85,335.95,0.000000,0.000000,0.000000,0.000000
1386930146,0,0,0.0,0,0,-4,0,0,0,-0.0292,-2490.7688,6.8213,0.4212,54.893356,9.791909,108.3,5.845,1.85,335.95,0.000000,0.000000,0.000000,0.000000
1386930146,0,0,0.0,0,0,-4,0,0,0,-0.0292,-2490.7688,6.8213,0.4212,54.893356,9.791909,108.3,5.845,1.85,335.95,0.000000,0.000000,0.000000,0.000000
1386930146,0,0,0.0,0,0,-4,0,0,0,-0.0292,-2490.7688,6.8213,0.4212,54.893356,9.791909,108.3,5.845,1.85,335.95,0.000000,0.000000,0.000000,0.000000
1386930147,0,0,0.0,0,0,-4,0,0,0,-0.0292,-2490.7688,6.8213,0.4212,54.893356,9.791909,108.3,5.845,1.85,335.95,0.000000,0.000000,0.000000,0.000000
1386930147,0,0,0.0,0,0,-4,0,0,0,-0.0292,-2490.7688,6.8213,0.4212,54.893356,9.791909,108.3,5.845,1.85,335.95,0.000000,0.000000,0.000000,0.000000
1386930147,0,0,0.0,0,0,-4,0,0,0,-0.0292,-2490.7688,6.8213,0.4212,54.893356,9.791909,108.3,5.845,1.85,335.95,0.000000,0.000000,0.000000,0.000000
1386930147,0,0,0.0,0,0,-4,0,0,0,-0.0292,-2490.7688,6.8213,0.4212,54.893356,9.791909,108.3,5.845,1.85,335.95,0.000000,0.000000,0.000000,0.000000
1386930148,0,0,0.0,0,0,-4,0,0,0,-0.0292,-2490.7688,6.8213,0.4212,54.893356,9.791909,108.3,5.845,1.85,335.95,0.000000,0.000000,0.000000,0.000000
1386930148,0,0,0.0,0,0,-4,0,0,0,-0.0292,-2490.7688,6.8213,0.4212,54.893356,9.791909,108.3,5.845,1.85,335.95,0.000000,0.000000,0.000000,0.000000
1386930148,0,0,0.0,0,0,-4,0,0,0,-0.0292,-2490.7688,6.8213,0.4212,54.893356,9.791909,108.3,5.845,1.85,335.95,0.000000,0.000000,0.000000,0.000000
1386930148,0,0,0.0,0,0,-4,0,0,0,-0.0292,-2490.7688,6.8213,0.4212,54.893356,9.791909,108.3,5.845,1.85,335.95,0.000000,0.000000,0.000000,0.000000
1386930149,0,0,0.0,0,0,-4,0,0,0,-0.0292,-2490.7688,6.8213,0.4212,54.893356,9.791909,108.3,5.845,1.85,335.95,0.000000,0.000000,0.000000,0.000000
1386930149,0,0,0.0,0,0,-4,0,0,0,-0.0292,-2490.7688,6.8213,0.4212,54.893356,9.791909,108.3,5.845,1.85,335.95,0.000000,0.000000,0.000000,0.000000
1386930149,0,0,0.0,0,0,-4,0,0,0,-0.0292,-2490.7688,6.8213,0.4212,54.893356,9.791909,108.3,5.845,1.85,335.95,0.000000,0.000000,0.000000,0.000000
1386930149,0,0,0.0,0,0,-4,0,0,0,-0.0292,-2490.7688,6.8213,0.4212,54.893356,9.791909,108.3,5.845,1.85,335.95,0.000000,0.000000,0.000000,0.000000
1386930150,0,0,0.0,0,0,-4,0,0,0,-0.0292,-2490.7688,6.8213,0.4212,54.893356,9.791909,108.3,5.845,1.85,335.95,0.000000,0.000000,0.000000,0.000000
1386930150,0,0,0.0,0,0,-4,0,0,0,-0.0292,-2490.7688,6.8213,0.4212,54.893356,9.791909,108.3,5.845,1.85,335.95,0.000000,0.000000,0.000000,0.000000
1386930150,0,0,0.0,0,0,-4,0,0,0,-0.0292,-2490.7688,6.8213,0.4212,54.893356,9.791909,108.3,5.845,1.85,335.95,0.000000,0.000000,0.000000,0.000000
1386930150,0,0,0.0,0,0,-4,0,0,0,-0.0292,-2490.7688,6.8213,0.4212,54.893356,9.791909,108.3,5.845,1.85,335.95,0.000000,0.000000,0.000000,0.000000
1386930151,0,0,0.0,0,0,-4,0,0,0,-0.0292,-2490.7688,6.8213,0.4212,54.893356,9.791909,108.3,5.845,1.85,335.95,0.000000,0.000000,0.000000,0.000000
1386930151,0,0,0.0,0,0,-4,0,0,0,-0.0292,-2490.7688,6.8213,0.4212,54.893356,9.791909,108.3,5.845,1.85,335.95,0.000000,0.000000,0.000000,0.000000
1386930151,0,0,0.0,0,0,-4,0,0,0,-0.0292,-2490.7688,6.8213,0.4212,54.893356,9.791909,108.3,5.845,1.85,335.95,0.000000,0.000000,0.000000,0.000000
1386930151,0,0,0.0,0,0,-4,0,0,0,-0.0292,-2490.7688,6.8213,0.4212,54.893356,9.791909,108.3,5.845,1.85,335.95,0.000000,0.000000,0.000000,0.000000
1386930152,0,0,0.0,0,0,-4,0,0,0,-0.0292,-2490.7688,6.8213,0.4212,54.893356,9.791909,108.3,5.845,1.85,335.95,0.000000,0.000000,0.000000,0.000000
1386930152,0,0,0.0,0,0,-4,0,0,0,-0.0292,-2490.7688,6.8213,0.4212,54.893356,9.791909,108.3,5.845,1.85,335.95,0.000000,0.000000,0.000000,0.000000
1386930152,0,0,0.0,0,0,-4,0,0,0,-0.0292,-2490.7688,6.8213,0.4212,54.893356,9.791909,108.3,5.845,1.85,335.95,0.000000,0.000000,0.000000,0.000000
1386930152,0,0,0.0,0,0,-4,0,0,0,-0.0292,-2490.7688,6.8213,0.4212,54.893356,9.791909,108.3,5.845,1.85,335.95,0.000000,0.000000,0.000000,0.000000
1386930153,0,0,0.0,0,0,-4,0,0,0,-0.0292,-2490.7688,6.8213,0.4212,54.893356,9.791909,108.3,5.845,1.85,335.95,0.000000,0.000000,0.000000,0.000000
1386930153,0,0,0.0,0,0,-4,0,0,0,-0.0292,-2490.7688,6.8213,0.4212,54.893356,9.791909,108.3,5.845,1.85,335.95,0.000000,0.000000,0.000000,0.000000
1386930153,0,0,0.0,0,0,-4,0,0,0,-0.0292,-2490.7688,6.8213,0.4212,54.893356,9.791909,108.3,5.845,1.85,335.95,0.000000,0.000000,0.000000,0.000000
1386930153,0,0,0.0,0,0,-4,0,0,0,-0.0292,-2490.7688,6.8213,0.4212,54.893356,9.791909,108.3,5.845,1.85,335.95,0.000000,0.000000,0.000000,0.000000
1386930154,0,0,0.0,0,0,-4,0,0,0,-0.0292,-2490.7688,6.8213,0.4212,54.893356,9.791909,108.3,5.845,1.85,335.95,0.000000,0.000000,0.000000,0.000000
1386930154,0,0,0.0,0,0,-4,0,0,0,-0.0292,-2490.7688,6.8213,0.4212,54.893986,9.779731,108.3,5.845,1.85,335.95,0.000000,0.000000,0.000000,0.000000
1386930154,0,0,0.0,0,0,-4,0,0,0,-0.0292,-2490.7688,6.8213,0.4212,54.893986,9.779731,108.3,5.845,1.85,335.95,0.000000,0.000000,0.000000,0.000000
1386930155,0,0,0.0,0,0,-4,0,0,0,-0.0292,-2490.7688,6.8213,0.4212,54.893986,9.779731,108.3,5.845,1.85,335.95,0.000000,0.000000,0.000000,0.000000
1386930155,0,0,0.0,0,0,-4,0,0,0,-0.0292,-2490.7688,6.8213,0.4212,54.893986,9.779731,108.3,5.845,1.85,335.95,0.000000,0.000000,0.000000,0.000000
1386930155,0,0,0.0,0,0,-4,0,0,0,-0.0292,-2490.7688,6.8213,0.4212,54.893986,9.779731,108.3,5.845,1.85,335.95,0.000000,0.000000,0.000000,0.000000
1386930155,0,0,0.0,0,0,-4,0,0,0,-0.0292,-2490.7688,6.8213,0.4212,54.893986,9.779731,108.3,5.845,1.85,335.95,0.000000,0.000000,0.000000,0.000000
1386930156,0,0,0.0,0,0,-4,0,0,0,-0.0292,-2490.7688,6.8213,0.4212,54.893986,9.779731,108.3,5.845,1.85,335.95,0.000000,0.000000,0.000000,0.000000
1386930156,0,0,0.0,0,0,-4,0,0,0,-0.0292,-2490.7688,6.8213,0.4212,54.893986,9.779731,108.3,5.845,1.85,335.95,0.000000,0.000000,0.000000,0.000000
1386930156,0,0,0.0,0,0,-4,0,0,0,-0.0292,-2490.7688,6.8213,0.4212,54.893986,9.779731,108.3,5.845,1.85,335.95,0.000000,0.000000,0.000000,0.000000
1386930156,0,0,0.0,0,0,-4,0,0,0,-0.0292,-2490.7688,6.8213,0.4212,54.893986,9.779731,108.3,5.845,1.85,335.95,0.000000,0.000000,0.000000,0.000000
1386930157,0,0,0.0,0,0,-4,0,0,0,-0.0292,-2490.7688,6.8213,0.4212,54.893986,9.779731,108.3,5.845,1.85,335.95,0.000000,0.000000,0.000000,0.000000
1386930157,0,0,0.0,0,0,-4,0,0,0,-0.0292,-2490.7688,6.8213,0.4212,54.893986,9.779731,108.3,5.845,1.85,335.95,0.000000,0.000000,0.000000,0.000000
1386930157,0,0,0.0,0,0,-4,0,0,0,-0.0292,-2490.7688,6.8213,0.4212,54.893986,9.779731,108.3,5.845,1.85,335.95,0.000000,0.000000,0.000000,0.000000
1386930157,0,0,0.0,0,0,-4,0,0,0,-0.0292,-2490.7688,6.8213,0.4212,54.893986,9.779731,108.3,5.845,1.85,335.95,0.000000,0.000000,0.000000,0.000000
1386930158,0,0,0.0,0,0,-4,0,0,0,-0.0292,-2490.7688,6.8213,0.4212,54.893986,9.779731,108.3,5.845,1.85,335.95,0.000000,0.000000,0.000000,0.000000
1386930158,0,0,0.0,0,0,-4,0,0,0,-0.0292,-2490.7688,6.8213,0.4212,54.893986,9.779731,108.3,5.845,1.85,335.95,0.000000,0.000000,0.000000,0.000000
1386930158,0,0,0.0,0,0,-4,0,0,0,-0.0292,-2490.7688,6.8213,0.4212,54.893986,9.779731,108.3,5.845,1.85,335.95,0.000000,0.000000,0.000000,0.000000
1386930158,0,0,0.0,0,0,-4,0,0,0,-0.0292,-2490.7688,6.8213,0.4212,54.893986,9.779731,108.3,5.845,1.85,335.95,0.000000,0.000000,0.000000,0.000000
1386930159,0,0,0.0,0,0,-4,0,0,0,-0.0292,-2490.7688,6.8213,0.4212,54.893986,9.779731,108.3,5.845,1.85,335.95,0.000000,0.000000,0.000000,0.000000
1386930159,0,0,0.0,0,0,-4,0,0,0,-0.0292,-2490.7688,6.8213,0.4212,54.893986,9.779731,108.3,5.845,1.85,335.95,0.000000,0.000000,0.000000,0.000000
1386930159,0,0,0.0,0,0,-4,0,0,0,-0.0292,-2490.7688,6.8213,0.4212,54.893986,9.779731,108.3,5.845,1.85,335.95,0.000000,0.000000,0.000000,0.000000
1386930159,0,0,0.0,0,0,-4,0,0,0,-0.0292,-2490.7688,6.8213,0.4212,54.893986,9.779731,108.3,5.845,1.85,335.95,0.000000,0.000000,0.000000,0.000000
1386930160,0,0,0.0,0,0,-4,0,0,0,-0.0292,-2490.7688,6.8213,0.4212,54.893986,9.779731,108.3,5.845,1.85,335.95,0.000000,0.000000,0.000000,0.000000
1386930160,0,0,0.0,0,0,-4,0,0,0,-0.0292,-2490.7688,6.8213,0.4212,54.893986,9.779731,108.3,5.845,1.85,335.95,0.000000,0.000000,0.000000,0.000000
1386930160,0,0,0.0,0,0,-4,0,0,0,-0.0292,-2490.7688,6.8213,0.4212,54.893986,9.779731,108.3,5.845,1.85,335.95,0.000000,0.000000,0.000000,0.000000
1386930160,0,0,0.0,0,0,-4,0,0,0,-0.0292,-2490.7688,6.8213,0.4212,54.893986,9.779731,108.3,5.845,1.85,335.95,0.000000,0.000000,0.000000,0.000000
1386930161,0,0,0.0,0,0,-4,0,0,0,-0.0292,-2490.7688,6.8213,0.4212,54.893986,9.779731,108.3,5.845,1.85,335.95,0.000000,0.000000,0.000000,0.000000
1386930161,0,0,0.0,0,0,-4,0,0,0,-0.0292,-2490.7688,6.8213,0.4212,54.893986,9.779731,108.3,5.845,1.85,335.95,0.000000,0.000000,0.000000,0.000000
1386930161,0,0,0.0,0,0,-4,0,0,0,-0.0292,-2490.7688,6.8213,0.4212,54.893986,9.779731,108.3,5.845,1.85,335.95,0.000000,0.000000,0.000000,0.000000
1386930161,0,0,0.0,0,0,-4,0,0,0,-0.0292,-2490.7688,6.8213,0.4212,54.893986,9.779731,108.3,5.845,1.85,335.95,0.000000,0.000000,0.000000,0.000000
1386930162,0,0,0.0,0,0,-4,0,0,0,-0.0292,-2490.7688,6.8213,0.4212,54.893986,9.779731,108.3,5.845,1.85,335.95,0.000000,0.000000,0.000000,0.000000
1386930162,0,0,0.0,0,0,-4,0,0,0,-0.0292,-2490.7688,6.8213,0.4212,54.893986,9.779731,108.3,5.845,1.85,335.95,0.000000,0.000000,0.000000,0.000000
1386930162,0,0,0.0,0,0,-4,0,0,0,-0.0292,-2490.7688,6.8213,0.4212,54.893986,9.779731,108.3,5.845,1.85,335.95,0.000000,0.000000,0.000000,0.000000
1386930162,0,0,0.0,0,0,-4,0,0,0,-0.0292,-2490.7688,6.8213,0.4212,54.893986,9.779731,108.3,5.845,1.85,335.95,0.000000,0.000000,0.000000,0.000000
1386930163,0,0,0.0,0,0,-4,0,0,0,-0.0292,-2490.7688,6.8213,0.4212,54.893986,9.779731,108.3,5.845,1.85,335.95,0.000000,0.000000,0.000000,0.000000
1386930163,0,0,0.0,0,0,-4,0,0,0,-0.0292,-2490.7688,6.8213,0.4212,54.893986,9.779731,108.3,5.845,1.85,335.95,0.000000,0.000000,0.000000,0.000000
1386930163,0,0,0.0,0,0,-4,0,0,0,-0.0292,-2490.7688,6.8213,0.4212,54.893986,9.779731,108.3,5.845,1.85,335.95,0.000000,0.000000,0.000000,0.000000
1386930163,0,0,0.0,0,0,-4,0,0,0,-0.0292,-2490.7688,6.8213,0.4212,54.893986,9.779731,108.3,5.845,1.85,335.95,0.000000,0.000000,0.000000,0.000000
1386930164,0,0,0.0,0,0,-4,0,0,0,-0.0292,-2490.7688,6.8213,0.4212,54.893986,9.779731,108.3,5.845,1.85,335.95,0.000000,0.000000,0.000000,0.000000
1386930164,4,0,0.0,0,0,-4,0,0,0,-0.0292,-2490.7688,6.8213,0.4212,54.893986,9.779731,108.3,5.845,1.85,335.95,0.000000,0.000000,0.000000,0.000000
1386930164,1,0,442.4,0,-35,-8,0,0,0,-0.0292,-2481.4355,6.8213,0.4212,54.894001,9.779750,108.3,5.845,1.85,335.95,54.893986,9.779731,54.895069,9.793790
1386930164,1,0,442.5,0,-35,-12,0,29,50,-0.0292,-2472.1023,6.8213,0.4212,54.894012,9.779773,108.3,5.845,1.85,335.95,54.893986,9.779731,54.895069,9.793790
1386930165,1,0,442.6,0,-35,-16,0,128,100,-0.0292,-2462.7690,6.8213,0.4212,54.894020,9.779799,108.3,5.845,1.85,335.95,54.893986,9.779731,54.895069,9.793790
1386930165,1,0,442.6,0,-25,-20,0,262,150,-0.0292,-2456.1023,6.8213,0.4212,54.894028,9.779827,108.3,5.845,1.85,335.95,54.893986,9.779731,54.895069,9.793790
1386930165,1,0,442.7,0,-19,-16,0,366,200,-0.0292,-2451.0356,6.8213,0.4212,54.894035,9.779856,108.3,5.845,1.85,335.95,54.893986,9.779731,54.895069,9.793790
1386930165,1,0,442.7,0,-14,-12,0,447,250,-0.0292,-2447.3022,6.8213,0.4212,54.894043,9.779886,108.3,5.845,1.85,335.95,54.893986,9.779731,54.895069,9.793790
1386930166,0,0,442.7,0,-14,-12,0,447,250,-0.0292,-2447.3022,6.8213,0.4212,54.894043,9.779886,108.3,5.845,1.85,335.95,54.893986,9.779731,54.895069,9.793790
1386930166,0,0,442.7,0,-14,-12,0,447,250,-0.0292,-2447.3022,6.8213,0.4212,54.894043,9.779886,108.3,5.845,1.85,335.95,54.893986,9.779731,54.895069,9.793790
1386930166,0,0,442.7,0,-14,-12,0,447,250,-0.0292,-2447.3022,6.8213,0.4212,54.894043,9.779886,108.3,5.845,1.85,335.95,54.893986,9.779731,54.895069,9.793790
1386930166,0,0,442.7,0,-14,-12,0,447,250,-0.0292,-2447.3022,6.8213,0.4212,54.894043,9.779886,108.3,5.845,1.85,335.95,54.893986,9.779731,54.895069,9.793790
1386930167,0,0,442.7,0,-14,-12,0,447,250,-0.0292,-2447.3022,6.8213,0.4212,54.894043,9.779886,108.3,5.845,1.85,335.95,54.893986,9.779731,54.895069,9.793790
1386930167,0,0,442.7,0,-14,-12,0,447,250,-0.0292,-2447.3022,6.8213,0.4212,54.894043,9.779886,108.3,5.845,1.85,335.95,54.893986,9.779731,54.895069,9.793790
1386930167,0,0,442.7,0,-14,-12,0,447,250,-0.0292,-2447.3022,6.8213,0.4212,54.894043,9.779886,108.3,5.845,1.85,335.95,54.893986,9.779731,54.895069,9.793790
1386930167,0,0,442.7,0,-14,-12,0,447,250,-0.0292,-2447.3022,6.8213,0.4212,54.894043,9.779886,108.3,5.845,1.85,335.95,54.893986,9.779731,54.895069,9.793790
1386930168,0,0,442.7,0,-14,-12,0,447,250,-0.0292,-2447.3022,6.8213,0.4212,54.894043,9.779886,108.3,5.845,1.85,335.95,54.893986,9.779731,54.895069,9.793790
1386930168,0,0,442.7,0,-14,-12,0,447,250,-0.0292,-2447.3022,6.8213,0.4212,54.894043,9.779886,108.3,5.845,1.85,335.95,54.893986,9.779731,54.895069,9.793790
1386930168,0,0,442.7,0,-14,-12,0,447,250,-0.0292,-2447.3022,6.8213,0.4212,54.894043,9.779886,108.3,5.845,1.85,335.95,54.893986,9.779731,54.895069,9.793790
1386930168,0,0,442.7,0,-14,-12,0,447,250,-0.0292,-2447.3022,6.8213,0.4212,54.894043,9.779886,108.3,5.845,1.85,335.95,54.893986,9.779731,54.895069,9.793790
1386930169,0,0,442.7,0,-14,-12,0,447,250,-0.0292,-2447.3022,6.8213,0.4212,54.894043,9.779886,108.3,5.845,1.85,335.95,54.893986,9.779731,54.895069,9.793790
1386930169,0,0,442.7,0,-14,-12,0,447,250,-0.0292,-2447.3022,6.8213,0.4212,54.894043,9.779886,108.3,5.845,1.85,335.95,54.893986,9.779731,54.895069,9.793790
1386930169,0,0,442.7,0,-14,-12,0,447,250,-0.0292,-2447.3022,6.8213,0.4212,54.894043,9.779886,108.3,5.845,1.85,335.95,54.893986,9.779731,54.895069,9.793790
1386930170,0,0,442.7,0,-14,-12,0,447,250,-0.0292,-2447.3022,6.8213,0.4212,54.894043,9.779886,108.3,5.845,1.85,335.95,54.893986,9.779731,54.895069,9.793790
1386930170,0,0,442.7,0,-14,-12,0,447,250,-0.0292,-2447.3022,6.8213,0.4212,54.894043,9.779886,108.3,5.845,1.85,335.95,54.893986,9.779731,54.895069,9.793790
1386930170,0,0,442.7,0,-14,-12,0,447,250,-0.0292,-2447.3022,6.8213,0.4212,54.894043,9.779886,108.3,5.845,1.85,335.95,54.893986,9.779731,54.895069,9.793790
1386930170,0,0,442.7,0,-14,-12,0,447,250,-0.0292,-2447.3022,6.8213,0.4212,54.894043,9.779886,108.3,5.845,1.85,335.95,54.893986,9.779731,54.895069,9.793790
1386930171,0,0,442.7,0,-14,-12,0,447,250,-0.0292,-2447.3022,6.8213,0.4212,54.894043,9.779886,108.3,5.845,1.85,335.95,54.893986,9.779731,54.895069,9.793790
1386930171,0,0,442.7,0,-14,-12,0,447,250,-0.0292,-2447.3022,6.8213,0.4212,54.894043,9.779886,108.3,5.845,1.85,335.95,54.893986,9.779731,54.895069,9.793790
1386930171,0,0,442.7,0,-14,-12,0,447,250,-0.0292,-2447.3022,6.8213,0.4212,54.894043,9.779886,108.3,5.845,1.85,335.95,54.893986,9.779731,54.895069,9.793790
1386930171,0,0,442.7,0,-14,-12,0,447,250,-0.0292,-2447.3022,6.8213,0.4212,54.894043,9.779886,108.3,5.845,1.85,335.95,54.893986,9.779731,54.895069,9.793790
1386930172,0,0,442.7,0,-14,-12,0,447,250,-0.0292,-2447.3022,6.8213,0.4212,54.894043,9.779886,108.3,5.845,1.85,335.95,54.893986,9.779731,54.895069,9.793790
1386930172,0,0,442.7,0,-14,-12,0,447,250,-0.0292,-2447.3022,6.8213,0.4212,54.894043,9.779886,108.3,5.845,1.85,335.95,54.893986,9.779731,54.895069,9.793790
1386930172,0,0,442.7,0,-14,-12,0,447,250,-0.0292,-2447.3022,6.8213,0.4212,54.894043,9.779886,108.3,5.845,1.85,335.95,54.893986,9.779731,54.895069,9.793790
1386930172,0,0,442.7,0,-14,-12,0,447,250,-0.0292,-2447.3022,6.8213,0.4212,54.894043,9.779886,108.3,5.845,1.85,335.95,54.893986,9.779731,54.895069,9.793790
1386930173,0,0,442.7,0,-14,-12,0,447,250,-0.0292,-2447.3022,6.8213,0.4212,54.894043,9.779886,108.3,5.845,1.85,335.95,54.893986,9.779731,54.895069,9.793790
1386930173,0,0,442.7,0,-14,-12,0,447,250,-0.0292,-2447.3022,6.8213,0.4212,54.894043,9.779886,108.3,5.845,1.85,335.95,54.893986,9.779731,54.895069,9.793790
1386930173,0,0,442.7,0,-14,-12,0,447,250,-0.0292,-2447.3022,6.8213,0.4212,54.894043,9.779886,108.3,5.845,1.85,335.95,54.893986,9.779731,54.895069,9.793790
1386930173,0,0,442.7,0,-14,-12,0,447,250,-0.0292,-2447.3022,6.8213,0.4212,54.894043,9.779886,108.3,5.845,1.85,335.95,54.893986,9.779731,54.895069,9.793790
1386930174,0,0,442.7,0,-14,-12,0,447,250,-0.0292,-2447.3022,6.8213,0.4212,54.894043,9.779886,108.3,5.845,1.85,335.95,54.893986,9.779731,54.895069,9.793790
1386930174,0,0,442.7,0,-14,-12,0,447,250,-0.0292,-2447.3022,6.8213,0.4212,54.894043,9.779886,108.3,5.845,1.85,335.95,54.893986,9.779731,54.895069,9.793790
1386930174,0,0,442.7,0,-14,-12,0,447,250,-0.0292,-2447.3022,6.8213,0.4212,54.894043,9.779886,108.3,5.845,1.85,335.95,54.893986,9.779731,54.895069,9.793790
1386930174,0,0,442.7,0,-14,-12,0,447,250,-0.0292,-2447.3022,6.8213,0.4212,54.894043,9.779886,108.3,5.845,1.85,335.95,54.893986,9.779731,54.895069,9.793790
1386930175,0,0,442.7,0,-14,-12,0,447,250,-0.0292,-2447.3022,6.8213,0.4212,54.894043,9.779886,108.3,5.845,1.85,335.95,54.893986,9.779731,54.895069,9.793790
1386930175,0,0,442.7,0,-14,-12,0,447,250,-0.0292,-2447.3022,6.8213,0.4212,54.894043,9.779886,108.3,5.845,1.85,335.95,54.893986,9.779731,54.895069,9.793790
1386930175,0,0,442.7,0,-14,-12,0,447,250,-0.0292,-2447.3022,6.8213,0.4212,54.894043,9.779886,108.3,5.845,1.85,335.95,54.893986,9.779731,54.895069,9.793790
1386930175,0,0,442.7,0,-14,-12,0,447,250,-0.0292,-2447.3022,6.8213,0.4212,54.894043,9.779886,108.3,5.845,1.85,335.95,54.893986,9.779731,54.895069,9.793790
1386930176,0,0,442.7,0,-14,-12,0,447,250,-0.0292,-2447.3022,6.8213,0.4212,54.894043,9.779886,108.3,5.845,1.85,335.95,54.893986,9.779731,54.895069,9.793790
1386930176,0,0,442.7,0,-14,-12,0,447,250,-0.0292,-2447.3022,6.8213,0.4212,54.894043,9.779886,108.3,5.845,1.85,335.95,54.893986,9.779731,54.895069,9.793790
1386930176,0,0,442.7,0,-14,-12,0,447,250,-0.0292,-2447.3022,6.8213,0.4212,54.894043,9.779886,108.3,5.845,1.85,335.95,54.893986,9.779731,54.895069,9.793790
1386930176,0,0,442.7,0,-14,-12,0,447,250,-0.0292,-2447.3022,6.8213,0.4212,54.894043,9.779886,108.3,5.845,1.85,335.95,54.893986,9.779731,54.895069,9.793790
1386930177,0,0,442.7,0,-14,-12,0,447,250,-0.0292,-2447.3022,6.8213,0.4212,54.894043,9.779886,108.3,5.845,1.85,335.95,54.893986,9.779731,54.895069,9.793790
1386930177,0,0,442.7,0,-14,-12,0,447,250,-0.0292,-2447.3022,6.8213,0.4212,54.894043,9.779886,108.3,5.845,1.85,335.95,54.893986,9.779731,54.895069,9.793790
1386930177,0,0,442.7,0,-14,-12,0,447,250,-0.0292,-2447.3022,6.8213,0.4212,54.894043,9.779886,108.3,5.845,1.85,335.95,54.893986,9.779731,54.895069,9.793790
1386930177,0,0,442.7,0,-14,-12,0,447,250,-0.0292,-2447.3022,6.8213,0.4212,54.894043,9.779886,108.3,5.845,1.85,335.95,54.893986,9.779731,54.895069,9.793790
1386930178,0,0,442.7,0,-14,-12,0,447,250,-0.0292,-2447.3022,6.8213,0.4212,54.894043,9.779886,108.3,5.845,1.85,335.95,54.893986,9.779731,54.895069,9.793790
1386930178,0,0,442.7,0,-14,-12,0,447,250,-0.0292,-2447.3022,6.8213,0.4212,54.894043,9.779886,108.3,5.845,1.85,335.95,54.893986,9.779731,54.895069,9.793790
1386930178,0,0,442.7,0,-14,-12,0,447,250,-0.0292,-2447.3022,6.8213,0.4212,54.894043,9.779886,108.3,5.845,1.85,335.95,54.893986,9.779731,54.895069,9.793790
1386930178,0,0,442.7,0,-14,-12,0,447,250,-0.0292,-2447.3022,6.8213,0.4212,54.894043,9.779886,108.3,5.845,1.85,335.95,54.893986,9.779731,54.895069,9.793790
1386930179,0,0,442.7,0,-14,-12,0,447,250,-0.0292,-2447.3022,6.8213,0.4212,54.894043,9.779886,108.3,5.845,1.85,335.95,54.893986,9.779731,54.895069,9.793790
1386930179,0,0,442.7,0,-14,-12,0,447,250,-0.0292,-2447.3022,6.8213,0.4212,54.894043,9.779886,108.3,5.845,1.85,335.95,54.893986,9.779731,54.895069,9.793790
1386930179,0,0,442.7,0,-14,-12,0,447,250,-0.0292,-2447.3022,6.8213,0.4212,54.894043,9.779886,108.3,5.845,1.85,335.95,54.893986,9.779731,54.895069,9.793790
1386930179,0,0,442.7,0,-14,-12,0,447,250,-0.0292,-2447.3022,6.8213,0.4212,54.894043,9.779886,108.3,5.845,1.85,335.95,54.893986,9.779731,54.895069,9.793790
1386930180,0,0,442.7,0,-14,-12,0,447,250,-0.0292,-2447.3022,6.8213,0.4212,54.894043,9.779886,108.3,5.845,1.85,335.95,54.893986,9.779731,54.895069,9.793790
1386930180,0,0,442.7,0,-14,-12,0,447,250,-0.0292,-2447.3022,6.8213,0.4212,54.894043,9.779886,108.3,5.845,1.85,335.95,54.893986,9.779731,54.895069,9.793790
1386930180,0,0,442.7,0,-14,-12,0,447,250,-0.0292,-2447.3022,6.8213,0.4212,54.894043,9.779886,108.3,5.845,1.85,335.95,54.893986,9.779731,54.895069,9.793790
1386930180,0,0,442.7,0,-14,-12,0,447,250,-0.0292,-2447.3022,6.8213,0.4212,54.894043,9.779886,108.3,5.845,1.85,335.95,54.893986,9.779731,54.895069,9.793790
1386930181,0,0,442.7,0,-14,-12,0,447,250,-0.0292,-2447.3022,6.8213,0.4212,54.894043,9.779886,108.3,5.845,1.85,335.95,54.893986,9.779731,54.895069,9.793790
1386930181,0,0,442.7,0,-14,-12,0,447,250,-0.0292,-2447.3022,6.8213,0.4212,54.894043,9.779886,108.3,5.845,1.85,335.95,54.893986,9.779731,54.895069,9.793790
1386930181,0,0,442.7,0,-14,-12,0,447,250,-0.0292,-2447.3022,6.8213,0.4212,54.894043,9.779886,108.3,5.845,1.85,335.95,54.893986,9.779731,54.895069,9.793790
1386930181,0,0,442.7,0,-14,-12,0,447,250,-0.0292,-2447.3022,6.8213,0.4212,54.894043,9.779886,108.3,5.845,1.85,335.95,54.893986,9.779731,54.895069,9.793790
1386930182,0,0,442.7,0,-14,-12,0,447,250,-0.0292,-2447.3022,6.8213,0.4212,54.894043,9.779886,108.3,5.845,1.85,335.95,54.893986,9.779731,54.895069,9.793790
1386930182,0,0,442.7,0,-14,-12,0,447,250,-0.0292,-2447.3022,6.8213,0.4212,54.894043,9.779886,108.3,5.845,1.85,335.95,54.893986,9.779731,54.895069,9.793790
1386930182,0,0,442.7,0,-14,-12,0,447,250,-0.0292,-2447.3022,6.8213,0.4212,54.894043,9.779886,108.3,5.845,1.85,335.95,54.893986,9.779731,54.895069,9.793790
1386930182,0,0,442.7,0,-14,-12,0,447,250,-0.0292,-2447.3022,6.8213,0.4212,54.894043,9.779886,108.3,5.845,1.85,335.95,54.893986,9.779731,54.895069,9.793790
1386930183,0,0,442.7,0,-14,-12,0,447,250,-0.0292,-2447.3022,6.8213,0.4212,54.894043,9.779886,108.3,5.845,1.85,335.95,54.893986,9.779731,54.895069,9.793790
1386930183,0,0,442.7,0,-14,-12,0,447,250,-0.0292,-2447.3022,6.8213,0.4212,54.894043,9.779886,108.3,5.845,1.85,335.95,54.893986,9.779731,54.895069,9.793790
1386930183,0,0,442.7,0,-14,-12,0,447,250,-0.0292,-2447.3022,6.8213,0.4212,54.894043,9.779886,108.3,5.845,1.85,335.95,54.893986,9.779731,54.895069,9.793790
1386930183,0,0,442.7,0,-14,-12,0,447,250,-0.0292,-2447.3022,6.8213,0.4212,54.894043,9.779886,108.3,5.845,1.85,335.95,54.893986,9.779731,54.895069,9.793790
1386930184,0,0,442.7,0,-14,-12,0,447,250,-0.0292,-2447.3022,6.8213,0.4212,54.894043,9.779886,108.3,5.845,1.85,335.95,54.893986,9.779731,54.895069,9.793790
1386930184,0,0,442.7,0,-14,-12,0,447,250,-0.0292,-2447.3022,6.8213,0.4212,54.894043,9.779886,108.3,5.845,1.85,335.95,54.893986,9.779731,54.895069,9.793790
1386930184,0,0,442.7,0,-14,-12,0,447,250,-0.0292,-2447.3022,6.8213,0.4212,54.894043,9.779886,108.3,5.845,1.85,335.95,54.893986,9.779731,54.895069,9.793790
1386930184,0,0,442.7,0,-14,-12,0,447,250,-0.0292,-2447.3022,6.8213,0.4212,54.894043,9.779886,108.3,5.845,1.85,335.95,54.893986,9.779731,54.895069,9.793790
1386930185,0,0,442.7,0,-14,-12,0,447,250,-0.0292,-2447.3022,6.8213,0.4212,54.894043,9.779886,108.3,5.845,1.85,335.95,54.893986,9.779731,54.895069,9.793790
1386930185,0,0,442.7,0,-14,-12,0,447,250,-0.0292,-2447.3022,6.8213,0.4212,54.894043,9.779886,108.3,5.845,1.85,335.95,54.893986,9.779731,54.895069,9.793790
1386930185,0,0,442.7,0,-14,-12,0,447,250,-0.0292,-2447.3022,6.8213,0.4212,54.894043,9.779886,108.3,5.845,1.85,335.95,54.893986,9.779731,54.895069,9.793790
1386930185,0,0,442.7,0,-14,-12,0,447,250,-0.0292,-2447.3022,6.8213,0.4212,54.894043,9.779886,108.3,5.845,1.85,335.95,54.893986,9.779731,54.895069,9.793790
1386930186,0,0,442.7,0,-14,-12,0,447,250,-0.0292,-2447.3022,6.8213,0.4212,54.894043,9.779886,108.3,5.845,1.85,335.95,54.893986,9.779731,54.895069,9.793790
1386930186,0,0,442.7,0,-14,-12,0,447,250,-0.0292,-2447.3022,6.8213,0.4212,54.894043,9.779886,108.3,5.845,1.85,335.95,54.893986,9.779731,54.895069,9.793790
1386930186,0,0,442.7,0,-14,-12,0,447,250,-0.0292,-2447.3022,6.8213,0.4212,54.894043,9.779886,108.3,5.845,1.85,335.95,54.893986,9.779731,54.895069,9.793790
1386930186,0,0,442.7,0,-14,-12,0,447,250,-0.0292,-2447.3022,6.8213,0.4212,54.894043,9.779886,108.3,5.845,1.85,335.95,54.893986,9.779731,54.895069,9.793790
1386930187,0,0,442.7,0,-14,-12,0,447,250,-0.0292,-2447.3022,6.8213,0.4212,54.894043,9.779886,108.3,5.845,1.85,335.95,54.893986,9.779731,54.895069,9.793790
1386930187,0,0,442.7,0,-14,-12,0,447,250,-0.0292,-2447.3022,6.8213,0.4212,54.894043,9.779886,108.3,5.845,1.85,335.95,54.893986,9.779731,54.895069,9.793790
1386930187,0,0,442.7,0,-14,-12,0,447,250,-0.0292,-2447.3022,6.8213,0.4212,54.894043,9.779886,108.3,5.845,1.85,335.95,54.893986,9.779731,54.895069,9.793790
1386930187,0,0,442.7,0,-14,-12,0,447,250,-0.0292,-2447.3022,6.8213,0.4212,54.894043,9.779886,108.3,5.845,1.85,335.95,54.893986,9.779731,54.895069,9.793790
1386930188,0,0,442.7,0,-14,-12,0,447,250,-0.0292,-2447.3022,6.8213,0.4212,54.894043,9.779886,108.3,5.845,1.85,335.95,54.893986,9.779731,54.895069,9.793790
1386930188,0,0,442.7,0,-14,-12,0,447,250,-0.0292,-2447.3022,6.8213,0.4212,54.894043,9.779886,108.3,5.845,1.85,335.95,54.893986,9.779731,54.895069,9.793790
1386930188,0,0,442.7,0,-14,-12,0,447,250,-0.0292,-2447.3022,6.8213,0.4212,54.894043,9.779886,108.3,5.845,1.85,335.95,54.893986,9.779731,54.895069,9.793790
1386930188,0,0,442.7,0,-14,-12,0,447,250,-0.0292,-2447.3022,6.8213,0.4212,54.894043,9.779886,108.3,5.845,1.85,335.95,54.893986,9.779731,54.895069,9.793790
1386930189,0,0,442.7,0,-14,-12,0,447,250,-0.0292,-2447.3022,6.8213,0.4212,54.894043,9.779886,108.3,5.845,1.85,335.95,54.893986,9.779731,54.895069,9.793790
1386930189,0,0,442.7,0,-14,-12,0,447,250,-0.0292,-2447.3022,6.8213,0.4212,54.894043,9.779886,108.3,5.845,1.85,335.95,54.893986,9.779731,54.895069,9.793790
1386930189,0,0,442.7,0,-14,-12,0,447,250,-0.0292,-2447.3022,6.8213,0.4212,54.894043,9.779886,108.3,5.845,1.85,335.95,54.893986,9.779731,54.895069,9.793790
1386930189,0,0,442.7,0,-14,-12,0,447,250,-0.0292,-2447.3022,6.8213,0.4212,54.894043,9.779886,108.3,5.845,1.85,335.95,54.893986,9.779731,54.895069,9.793790
1386930190,0,0,442.7,0,-14,-12,0,447,250,-0.0292,-2447.3022,6.8213,0.4212,54.894043,9.779886,108.3,5.845,1.85,335.95,54.893986,9.779731,54.895069,9.793790
1386930190,0,0,442.7,0,-14,-12,0,447,250,-0.0292,-2447.3022,6.8213,0.4212,54.894043,9.779886,108.3,5.845,1.85,335.95,54.893986,9.779731,54.895069,9.793790
1386930190,0,0,442.7,0,-14,-12,0,447,250,-0.0292,-2447.3022,6.8213,0.4212,54.894043,9.779886,108.3,5.845,1.85,335.95,54.893986,9.779731,54.895069,9.793790
1386930190,0,0,442.7,0,-14,-12,0,447,250,-0.0292,-2447.3022,6.8213,0.4212,54.894043,9.779886,108.3,5.845,1.85,335.95,54.893986,9.779731,54.895069,9.793790
1386930191,0,0,442.7,0,-14,-12,0,447,250,-0.0292,-2447.3022,6.8213,0.4212,54.894043,9.779886,108.3,5.845,1.85,335.95,54.893986,9.779731,54.895069,9.793790
1386930191,0,0,442.7,0,-14,-12,0,447,250,-0.0292,-2447.3022,6.8213,0.4212,54.894043,9.779886,108.3,5.845,1.85,335.95,54.893986,9.779731,54.895069,9.793790
1386930191,0,0,442.7,0,-14,-12,0,447,250,-0.0292,-2447.3022,6.8213,0.4212,54.894043,9.779886,108.3,5.845,1.85,335.95,54.893986,9.779731,54.895069,9.793790
1386930191,0,0,442.7,0,-14,-12,0,447,250,-0.0292,-2447.3022,6.8213,0.4212,54.894043,9.779886,108.3,5.845,1.85,335.95,54.893986,9.779731,54.895069,9.793790
1386930192,0,0,442.7,0,-14,-12,0,447,250,-0.0292,-2447.3022,6.8213,0.4212,54.894043,9.779886,108.3,5.845,1.85,335.95,54.893986,9.779731,54.895069,9.793790
1386930192,0,0,442.7,0,-14,-12,0,447,250,-0.0292,-2447.3022,6.8213,0.4212,54.894043,9.779886,108.3,5.845,1.85,335.95,54.893986,9.779731,54.895069,9.793790
1386930192,0,0,442.7,0,-14,-12,0,447,250,-0.0292,-2447.3022,6.8213,0.4212,54.894043,9.779886,108.3,5.845,1.85,335.95,54.893986,9.779731,54.895069,9.793790
1386930192,0,0,442.7,0,-14,-12,0,447,250,-0.0292,-2447.3022,6.8213,0.4212,54.894043,9.779886,108.3,5.845,1.85,335.95,54.893986,9.779731,54.895069,9.793790
1386930193,0,0,442.7,0,-14,-12,0,447,250,-0.0292,-2447.3022,6.8213,0.4212,54.894043,9.779886,108.3,5.845,1.85,335.95,54.893986,9.779731,54.895069,9.793790
1386930193,0,0,442.7,0,-14,-12,0,447,250,-0.0292,-2447.3022,6.8213,0.4212,54.894043,9.779886,108.3,5.845,1.85,335.95,54.893986,9.779731,54.895069,9.793790
1386930193,0,0,442.7,0,-14,-12,0,447,250,-0.0292,-2447.3022,6.8213,0.4212,54.894043,9.779886,108.3,5.845,1.85,335.95,54.893986,9.779731,54.895069,9.793790
1386930193,0,0,442.7,0,-14,-12,0,447,250,-0.0292,-2447.3022,6.8213,0.4212,54.894043,9.779886,108.3,5.845,1.85,335.95,54.893986,9.779731,54.895069,9.793790
1386930194,0,0,442.7,0,-14,-12,0,447,250,-0.0292,-2447.3022,6.8213,0.4212,54.894043,9.779886,108.3,5.845,1.85,335.95,54.893986,9.779731,54.895069,9.793790
1386930194,0,0,442.7,0,-14,-12,0,447,250,-0.0292,-2447.3022,6.8213,0.4212,54.894043,9.779886,108.3,5.845,1.85,335.95,54.893986,9.779731,54.895069,9.793790
1386930194,0,0,442.7,0,-14,-12,0,447,250,-0.0292,-2447.3022,6.8213,0.4212,54.894043,9.779886,108.3,5.845,1.85,335.95,54.893986,9.779731,54.895069,9.793790
1386930194,0,0,442.7,0,-14,-12,0,447,250,-0.0292,-2447.3022,6.8213,0.4212,54.894043,9.779886,108.3,5.845,1.85,335.95,54.893986,9.779731,54.895069,9.793790
1386930195,0,0,442.7,0,-14,-12,0,447,250,-0.0292,-2447.3022,6.8213,0.4212,54.894043,9.779886,108.3,5.845,1.85,335.95,54.893986,9.779731,54.895069,9.793790
1386930195,0,0,442.7,0,-14,-12,0,447,250,-0.0292,-2447.3022,6.8213,0.4212,54.894043,9.779886,108.3,5.845,1.85,335.95,54.893986,9.779731,54.895069,9.793790
1386930195,0,0,442.7,0,-14,-12,0,447,250,-0.0292,-2447.3022,6.8213,0.4212,54.894043,9.779886,108.3,5.845,1.85,335.95,54.893986,9.779731,54.895069,9.793790
1386930195,0,0,442.7,0,-14,-12,0,447,250,-0.0292,-2447.3022,6.8213,0.4212,54.894043,9.779886,108.3,5.845,1.85,335.95,54.893986,9.779731,54.895069,9.793790
1386930196,0,0,442.7,0,-14,-12,0,447,250,-0.0292,-2447.3022,6.8213,0.4212,54.894043,9.779886,108.3,5.845,1.85,335.95,54.893986,9.779731,54.895069,9.793790
1386930196,0,0,442.7,0,-14,-12,0,447,250,-0.0292,-2447.3022,6.8213,0.4212,54.894043,9.779886,108.3,5.845,1.85,335.95,54.893986,9.779731,54.895069,9.793790
1386930196,0,0,442.7,0,-14,-12,0,447,250,-0.0292,-2447.3022,6.8213,0.4212,54.894043,9.779886,108.3,5.845,1.85,335.95,54.893986,9.779731,54.895069,9.793790
1386930196,0,0,442.7,0,-14,-12,0,447,250,-0.0292,-2447.3022,6.8213,0.4212,54.894043,9.779886,108.3,5.845,1.85,335.95,54.893986,9.779731,54.895069,9.793790
1386930197,0,0,442.7,0,-14,-12,0,447,250,-0.0292,-2447.3022,6.8213,0.4212,54.894043,9.779886,108.3,5.845,1.85,335.95,54.893986,9.779731,54.895069,9.793790
1386930197,0,0,442.7,0,-14,-12,0,447,250,-0.0292,-2447.3022,6.8213,0.4212,54.894043,9.779886,108.3,5.845,1.85,335.95,54.893986,9.779731,54.895069,9.793790
1386930197,0,0,442.7,0,-14,-12,0,447,250,-0.0292,-2447.3022,6.8213,0.4212,54.894043,9.779886,108.3,5.845,1.85,335.95,54.893986,9.779731,54.895069,9.793790
1386930197,0,0,442.7,0,-14,-12,0,447,250,-0.0292,-2447.3022,6.8213,0.4212,54.894043,9.779886,108.3,5.845,1.85,335.95,54.893986,9.779731,54.895069,9.793790
1386930198,0,0,442.7,0,-14,-12,0,447,250,-0.0292,-2447.3022,6.8213,0.4212,54.894043,9.779886,108.3,5.845,1.85,335.95,54.893986,9.779731,54.895069,9.793790
1386930198,0,0,442.7,0,-14,-12,0,447,250,-0.0292,-2447.3022,6.8213,0.4212,54.894043,9.779886,108.3,5.845,1.85,335.95,54.893986,9.779731,54.895069,9.793790
1386930198,0,0,442.7,0,-14,-12,0,447,250,-0.0292,-2447.3022,6.8213,0.4212,54.894043,9.779886,108.3,5.845,1.85,335.95,54.893986,9.779731,54.895069,9.793790
1386930198,0,0,442.7,0,-14,-12,0,447,250,-0.0292,-2447.3022,6.8213,0.4212,54.894043,9.779886,108.3,5.845,1.85,335.95,54.893986,9.779731,54.895069,9.793790
1386930199,0,0,442.7,0,-14,-12,0,447,250,-0.0292,-2447.3022,6.8213,0.4212,54.894043,9.779886,108.3,5.845,1.85,335.95,54.893986,9.779731,54.895069,9.793790
1386930199,0,0,442.7,0,-14,-12,0,447,250,-0.0292,-2447.3022,6.8213,0.4212,54.894043,9.779886,108.3,5.845,1.85,335.95,54.893986,9.779731,54.895069,9.793790
1386930199,0,0,442.7,0,-14,-12,0,447,250,-0.0292,-2447.3022,6.8213,0.4212,54.894043,9.779886,108.3,5.845,1.85,335.95,54.893986,9.779731,54.895069,9.793790
1386930199,0,0,442.7,0,-14,-12,0,447,250,-0.0292,-2447.3022,6.8213,0.4212,54.894043,9.779886,108.3,5.845,1.85,335.95,54.893986,9.779731,54.895069,9.793790
1386930200,0,0,442.7,0,-14,-12,0,447,250,-0.0292,-2447.3022,6.8213,0.4212,54.894043,9.779886,108.3,5.845,1.85,335.95,54.893986,9.779731,54.895069,9.793790
1386930200,0,0,442.7,0,-14,-12,0,447,250,-0.0292,-2447.3022,6.8213,0.4212,54.894043,9.779886,108.3,5.845,1.85,335.95,54.893986,9.779731,54.895069,9.793790
1386930200,0,0,442.7,0,-14,-12,0,447,250,-0.0292,-2447.3022,6.8213,0.4212,54.894043,9.779886,108.3,5.845,1.85,335.95,54.893986,9.779731,54.895069,9.793790
