MCU_timestamp,Navigation_System,Manual_Control,Guidance_Heading,Manual_Ctrl_Rudder,Rudder_Desired_Angle,Rudder_Feedback,Manual_Ctrl_Sail,Sail_Desired_Pos,Sail_Feedback,Rate,Heading,Pitch,Roll,Latitude,Longitude,COG,SOG,Wind_Speed,Wind_Angle,Point_Start_Lat,Point_Start_Lon,Point_End_Lat,Point_End_Lon
1389997874,0,0,0.0,0,0,0,0,0,0,-0.0292,161.2921,6.8213,0.4212,54.891468,9.784635,108.3,5.845,1.85,335.95,0.000000,0.000000,0.000000,0.000000
1389997874,0,0,0.0,0,0,0,0,0,0,-0.0292,161.2921,6.8213,0.4212,54.891468,9.784635,108.3,5.845,1.85,335.95,0.000000,0.000000,0.000000,0.000000
1389997875,0,0,0.0,0,0,0,0,0,0,-0.0292,161.2921,6.8213,0.4212,54.891468,9.784635,108.3,5.845,1.85,335.95,0.000000,0.000000,0.000000,0.000000
1389997875,0,0,0.0,0,0,0,0,0,0,-0.0292,161.2921,6.8213,0.4212,54.891468,9.784635,108.3,5.845,1.85,335.95,0.000000,0.000000,0.000000,0.000000
1389997875,0,0,0.0,0,0,0,0,0,0,-0.0292,161.2921,6.8213,0.4212,54.891468,9.784635,108.3,5.845,1.85,335.95,0.000000,0.000000,0.000000,0.000000
1389997875,0,0,0.0,0,0,0,0,0,0,-0.0292,161.2921,6.8213,0.4212,54.891468,9.784635,108.3,5.845,1.85,335.95,0.000000,0.000000,0.000000,0.000000
1389997876,0,0,0.0,0,0,0,0,0,0,-0.0292,161.2921,6.8213,0.4212,54.891468,9.784635,108.3,5.845,1.85,335.95,0.000000,0.000000,0.000000,0.000000
1389997876,0,0,0.0,0,0,0,0,0,0,-0.0292,161.2921,6.8213,0.4212,54.891468,9.784635,108.3,5.845,1.85,335.95,0.000000,0.000000,0.000000,0.000000
1389997876,0,0,0.0,0,0,0,0,0,0,-0.0292,161.2921,6.8213,0.4212,54.891468,9.784635,108.3,5.845,1.85,335.95,0.000000,0.000000,0.000000,0.000000
1389997876,0,0,0.0,0,0,0,0,0,0,-0.0292,161.2921,6.8213,0.4212,54.891468,9.784635,108.3,5.845,1.85,335.95,0.000000,0.000000,0.000000,0.000000
1389997877,0,0,0.0,0,0,0,0,0,0,-0.0292,161.2921,6.8213,0.4212,54.891468,9.784635,108.3,5.845,1.85,335.95,0.000000,0.000000,0.000000,0.000000
1389997877,0,0,0.0,0,0,0,0,0,0,-0.0292,161.2921,6.8213,0.4212,54.891468,9.784635,108.3,5.845,1.85,335.95,0.000000,0.000000,0.000000,0.000000
1389997877,0,0,0.0,0,0,0,0,0,0,-0.0292,161.2921,6.8213,0.4212,54.891468,9.784635,108.3,5.845,1.85,335.95,0.000000,0.000000,0.000000,0.000000
1389997877,0,0,0.0,0,0,0,0,0,0,-0.0292,161.2921,6.8213,0.4212,54.891468,9.784635,108.3,5.845,1.85,335.95,0.000000,0.000000,0.000000,0.000000
1389997878,0,0,0.0,0,0,0,0,0,0,-0.0292,161.2921,6.8213,0.4212,54.891468,9.784635,108.3,5.845,1.85,335.95,0.000000,0.000000,0.000000,0.000000
1389997878,0,0,0.0,0,0,0,0,0,0,-0.0292,161.2921,6.8213,0.4212,54.891468,9.784635,108.3,5.845,1.85,335.95,0.000000,0.000000,0.000000,0.000000
1389997878,0,0,0.0,0,0,0,0,0,0,-0.0292,161.2921,6.8213,0.4212,54.891468,9.784635,108.3,5.845,1.85,335.95,0.000000,0.000000,0.000000,0.000000
1389997878,4,0,0.0,0,0,0,0,0,0,-0.0292,161.2921,6.8213,0.4212,54.891468,9.784635,108.3,5.845,1.85,335.95,0.000000,0.000000,0.000000,0.000000
1389997879,1,0,0.0,0,-19,-4,0,0,550,-0.0292,167.6254,6.8213,0.4212,54.891449,9.784641,108.3,5.845,1.85,335.95,54.895069,9.793790,54.895348,9.797490
1389997879,1,0,0.0,0,-2,0,0,713,600,-0.0292,168.2921,6.8213,0.4212,54.891434,9.784648,108.3,5.845,1.85,335.95,54.895348,9.797490,54.894039,9.801540
1389997879,1,0,0.0,0,-2,-4,0,713,650,-0.0292,168.9588,6.8213,0.4212,54.891415,9.784655,108.3,5.845,1.85,335.95,54.894039,9.801540,54.893795,9.802299
1389997879,1,0,0.0,0,-1,0,0,713,700,-0.0292,169.2921,6.8213,0.4212,54.891396,9.784661,108.3,5.845,1.85,335.95,54.893795,9.802299,54.893364,9.803688
1389997880,1,0,0.0,0,-1,-4,0,713,750,-0.0292,169.6254,6.8213,0.4212,54.891380,9.784666,108.3,5.845,1.85,335.95,54.893364,9.803688,54.892704,9.801139
1389997880,1,0,0.0,0,0,0,0,713,700,-0.0292,169.6254,6.8213,0.4212,54.891361,9.784672,108.3,5.845,1.85,335.95,54.892704,9.801139,54.891663,9.800174
1389997880,1,0,0.0,0,0,4,0,713,750,-0.0292,169.6254,6.8213,0.4212,54.891342,9.784678,108.3,5.845,1.85,335.95,54.891663,9.800174,54.892929,9.805077
1389997880,1,0,0.0,0,0,0,0,713,700,-0.0292,169.6254,6.8213,0.4212,54.891323,9.784683,108.3,5.845,1.85,335.95,54.892929,9.805077,54.892498,9.806466
1389997881,1,0,0.0,0,0,4,0,713,750,-0.0292,169.6254,6.8213,0.4212,54.891308,9.784689,108.3,5.845,1.85,335.95,54.892498,9.806466,54.891232,9.801563
1389997881,1,0,0.0,0,0,0,0,713,700,-0.0292,169.6254,6.8213,0.4212,54.891289,9.784695,108.3,5.845,1.85,335.95,54.891232,9.801563,54.890800,9.802953
1389997881,1,0,0.0,0,0,4,0,713,750,-0.0292,169.6254,6.8213,0.4212,54.891270,9.784700,108.3,5.845,1.85,335.95,54.890800,9.802953,54.891651,9.806246
1389997881,1,0,0.0,0,0,0,0,713,700,-0.0292,169.6254,6.8213,0.4212,54.891251,9.784706,108.3,5.845,1.85,335.95,54.891651,9.806246,54.890560,9.805087
1389997882,1,0,0.0,0,0,4,0,713,750,-0.0292,169.6254,6.8213,0.4212,54.891235,9.784712,108.3,5.845,1.85,335.95,54.890560,9.805087,54.890366,9.804342
1389997882,1,0,0.0,0,0,0,0,713,700,-0.0292,169.6254,6.8213,0.4212,54.891216,9.784718,108.3,5.845,1.85,335.95,54.890366,9.804342,54.890846,9.801930
1389997882,1,0,0.0,0,0,4,0,713,750,-0.0292,169.6254,6.8213,0.4212,54.891197,9.784723,108.3,5.845,1.85,335.95,54.890846,9.801930,54.889477,9.798280
1389997882,1,0,0.0,0,0,0,0,713,700,-0.0292,169.6254,6.8213,0.4212,54.891178,9.784729,108.3,5.845,1.85,335.95,54.889477,9.798280,54.891819,9.794550
1389997883,1,0,0.0,0,0,4,0,713,750,-0.0292,169.6254,6.8213,0.4212,54.891163,9.784735,108.3,5.845,1.85,335.95,54.891819,9.794550,54.895348,9.797490
1389997883,1,0,0.0,0,0,0,0,713,700,-0.0292,169.6254,6.8213,0.4212,54.891144,9.784740,108.3,5.845,1.85,335.95,54.895348,9.797490,54.895069,9.793790
1389997883,1,0,0.0,0,0,4,0,713,750,-0.0292,169.6254,6.8213,0.4212,54.891125,9.784746,108.3,5.845,1.85,335.95,54.895348,9.797490,54.895069,9.793790
1389997883,3,0,0.0,0,0,0,0,713,700,-0.0292,169.6254,6.8213,0.4212,54.891106,9.784751,108.3,5.845,1.85,335.95,54.895348,9.797490,54.891125,9.784746
1389997884,3,0,0.0,0,0,4,0,713,750,-0.0292,169.6254,6.8213,0.4212,54.891090,9.784757,108.3,5.845,1.85,335.95,54.895348,9.797490,54.891125,9.784746
1389997884,3,0,0.0,0,-10,0,0,713,700,-0.0292,172.9588,6.8213,0.4212,54.891071,9.784760,108.3,5.845,1.85,335.95,54.895348,9.797490,54.891125,9.784746
1389997884,3,0,0.0,0,-7,-4,0,713,750,-0.0292,175.2921,6.8213,0.4212,54.891052,9.784763,108.3,5.845,1.85,335.95,54.895348,9.797490,54.891125,9.784746
1389997884,3,0,0.0,0,-5,-8,0,713,700,-0.0292,176.9588,6.8213,0.4212,54.891033,9.784765,108.3,5.845,1.85,335.95,54.895348,9.797490,54.891125,9.784746
1389997885,3,0,0.0,0,-3,-4,0,713,750,-0.0292,177.9588,6.8213,0.4212,54.891018,9.784766,108.3,5.845,1.85,335.95,54.895348,9.797490,54.891125,9.784746
1389997885,3,0,0.0,0,-2,0,0,713,700,-0.0292,178.6254,6.8213,0.4212,54.890999,9.784767,108.3,5.845,1.85,335.95,54.895348,9.797490,54.891125,9.784746
1389997885,3,0,0.0,0,-1,-4,0,713,750,-0.0292,178.9588,6.8213,0.4212,54.890980,9.784768,108.3,5.845,1.85,335.95,54.895348,9.797490,54.891125,9.784746
1389997885,3,0,0.0,0,-1,0,0,713,700,-0.0292,179.2921,6.8213,0.4212,54.890965,9.784768,108.3,5.845,1.85,335.95,54.895348,9.797490,54.891125,9.784746
1389997886,3,0,0.0,0,-1,-4,0,713,750,-0.0292,179.6254,6.8213,0.4212,54.890945,9.784768,108.3,5.845,1.85,335.95,54.895348,9.797490,54.891125,9.784746
1389997886,3,0,0.0,0,0,0,0,713,700,-0.0292,179.6254,6.8213,0.4212,54.890926,9.784768,108.3,5.845,1.85,335.95,54.895348,9.797490,54.891125,9.784746
1389997886,3,0,0.0,0,0,4,0,713,750,-0.0292,179.6254,6.8213,0.4212,54.890907,9.784768,108.3,5.845,1.85,335.95,54.895348,9.797490,54.891125,9.784746
1389997886,3,0,0.0,0,0,0,0,713,700,-0.0292,179.6254,6.8213,0.4212,54.890892,9.784768,108.3,5.845,1.85,335.95,54.895348,9.797490,54.891125,9.784746
1389997887,3,0,0.0,0,0,4,0,713,750,-0.0292,179.6254,6.8213,0.4212,54.890873,9.784768,108.3,5.845,1.85,335.95,54.895348,9.797490,54.891125,9.784746
1389997887,3,0,0.0,0,0,0,0,713,700,-0.0292,179.6254,6.8213,0.4212,54.890854,9.784768,108.3,5.845,1.85,335.95,54.895348,9.797490,54.891125,9.784746
1389997887,3,0,0.0,0,0,4,0,713,750,-0.0292,179.6254,6.8213,0.4212,54.890835,9.784768,108.3,5.845,1.85,335.95,54.895348,9.797490,54.891125,9.784746
1389997887,3,0,0.0,0,0,0,0,713,700,-0.0292,179.6254,6.8213,0.4212,54.890820,9.784768,108.3,5.845,1.85,335.95,54.895348,9.797490,54.891125,9.784746
1389997888,3,0,0.0,0,0,4,0,713,750,-0.0292,179.6254,6.8213,0.4212,54.890800,9.784768,108.3,5.845,1.85,335.95,54.895348,9.797490,54.891125,9.784746
1389997888,3,0,0.0,0,0,0,0,713,700,-0.0292,179.6254,6.8213,0.4212,54.890781,9.784768,108.3,5.845,1.85,335.95,54.895348,9.797490,54.891125,9.784746
1389997888,3,0,0.0,0,0,4,0,713,750,-0.0292,179.6254,6.8213,0.4212,54.890762,9.784768,108.3,5.845,1.85,335.95,54.895348,9.797490,54.891125,9.784746
1389997888,3,0,0.0,0,0,0,0,713,700,-0.0292,179.6254,6.8213,0.4212,54.890747,9.784768,108.3,5.845,1.85,335.95,54.895348,9.797490,54.891125,9.784746
1389997889,3,0,0.0,0,0,4,0,713,750,-0.0292,179.6254,6.8213,0.4212,54.890728,9.784768,108.3,5.845,1.85,335.95,54.895348,9.797490,54.891125,9.784746
1389997889,3,0,0.0,0,-10,0,0,713,700,-0.0292,182.9588,6.8213,0.4212,54.890709,9.784766,108.3,5.845,1.85,335.95,54.895348,9.797490,54.891125,9.784746
1389997889,3,0,0.0,0,-7,-4,0,713,750,-0.0292,185.2921,6.8213,0.4212,54.890694,9.784763,108.3,5.845,1.85,335.95,54.895348,9.797490,54.891125,9.784746
1389997889,3,0,0.0,0,-5,-8,0,713,700,-0.0292,186.9588,6.8213,0.4212,54.890675,9.784760,108.3,5.845,1.85,335.95,54.895348,9.797490,54.891125,9.784746
1389997890,3,0,0.0,0,-3,-4,0,713,750,-0.0292,187.9588,6.8213,0.4212,54.890656,9.784755,108.3,5.845,1.85,335.95,54.895348,9.797490,54.891125,9.784746
1389997890,3,0,0.0,0,-2,0,0,713,700,-0.0292,188.6254,6.8213,0.4212,54.890636,9.784750,108.3,5.845,1.85,335.95,54.895348,9.797490,54.891125,9.784746
1389997890,3,0,0.0,0,-1,-4,0,713,750,-0.0292,188.9588,6.8213,0.4212,54.890621,9.784745,108.3,5.845,1.85,335.95,54.895348,9.797490,54.891125,9.784746
1389997890,3,0,0.0,0,-1,0,0,713,700,-0.0292,189.2921,6.8213,0.4212,54.890602,9.784739,108.3,5.845,1.85,335.95,54.895348,9.797490,54.891125,9.784746
1389997891,3,0,0.0,0,-1,-4,0,713,750,-0.0292,189.6254,6.8213,0.4212,54.890583,9.784735,108.3,5.845,1.85,335.95,54.895348,9.797490,54.891125,9.784746
1389997891,3,0,0.0,0,0,0,0,713,700,-0.0292,189.6254,6.8213,0.4212,54.890564,9.784730,108.3,5.845,1.85,335.95,54.895348,9.797490,54.891125,9.784746
1389997891,3,0,0.0,0,0,4,0,713,750,-0.0292,189.6254,6.8213,0.4212,54.890549,9.784725,108.3,5.845,1.85,335.95,54.895348,9.797490,54.891125,9.784746
1389997891,3,0,0.0,0,0,0,0,713,700,-0.0292,189.6254,6.8213,0.4212,54.890530,9.784720,108.3,5.845,1.85,335.95,54.895348,9.797490,54.891125,9.784746
1389997892,3,0,0.0,0,0,4,0,713,750,-0.0292,189.6254,6.8213,0.4212,54.890511,9.784715,108.3,5.845,1.85,335.95,54.895348,9.797490,54.891125,9.784746
1389997892,3,0,0.0,0,0,0,0,713,700,-0.0292,189.6254,6.8213,0.4212,54.890495,9.784709,108.3,5.845,1.85,335.95,54.895348,9.797490,54.891125,9.784746
1389997892,3,0,0.0,0,0,4,0,713,750,-0.0292,189.6254,6.8213,0.4212,54.890476,9.784703,108.3,5.845,1.85,335.95,54.895348,9.797490,54.891125,9.784746
1389997892,3,0,0.0,0,0,0,0,713,700,-0.0292,189.6254,6.8213,0.4212,54.890457,9.784698,108.3,5.845,1.85,335.95,54.895348,9.797490,54.891125,9.784746
1389997893,3,0,0.0,0,0,4,0,713,750,-0.0292,189.6254,6.8213,0.4212,54.890438,9.784693,108.3,5.845,1.85,335.95,54.895348,9.797490,54.891125,9.784746
1389997893,3,0,0.0,0,0,0,0,713,700,-0.0292,189.6254,6.8213,0.4212,54.890423,9.784688,108.3,5.845,1.85,335.95,54.895348,9.797490,54.891125,9.784746
1389997893,3,0,0.0,0,0,4,0,713,750,-0.0292,189.6254,6.8213,0.4212,54.890404,9.784683,108.3,5.845,1.85,335.95,54.895348,9.797490,54.891125,9.784746
1389997893,3,0,0.0,0,0,0,0,713,700,-0.0292,189.6254,6.8213,0.4212,54.890385,9.784678,108.3,5.845,1.85,335.95,54.895348,9.797490,54.891125,9.784746
1389997894,3,0,0.0,0,0,4,0,713,750,-0.0292,189.6254,6.8213,0.4212,54.890366,9.784674,108.3,5.845,1.85,335.95,54.895348,9.797490,54.891125,9.784746
1389997894,3,0,0.0,0,10,8,0,713,700,-0.0292,186.2921,6.8213,0.4212,54.890350,9.784670,108.3,5.845,1.85,335.95,54.895348,9.797490,54.891125,9.784746
1389997894,3,0,0.0,0,6,4,0,713,750,-0.0292,184.2921,6.8213,0.4212,54.890331,9.784667,108.3,5.845,1.85,335.95,54.895348,9.797490,54.891125,9.784746
1389997894,3,0,0.0,0,4,8,0,713,700,-0.0292,182.9588,6.8213,0.4212,54.890312,9.784665,108.3,5.845,1.85,335.95,54.895348,9.797490,54.891125,9.784746
1389997895,3,0,0.0,0,3,4,0,713,750,-0.0292,181.9588,6.8213,0.4212,54.890293,9.784664,108.3,5.845,1.85,335.95,54.895348,9.797490,54.891125,9.784746
1389997895,3,0,0.0,0,2,0,0,713,700,-0.0292,181.2921,6.8213,0.4212,54.890278,9.784663,108.3,5.845,1.85,335.95,54.895348,9.797490,54.891125,9.784746
1389997895,0,0,0.0,0,2,0,0,713,700,-0.0292,181.2921,6.8213,0.4212,54.890278,9.784663,108.3,5.845,1.85,335.95,54.895348,9.797490,54.891125,9.784746
1389997895,0,0,0.0,0,2,0,0,713,700,-0.0292,181.2921,6.8213,0.4212,54.890278,9.784663,108.3,5.845,1.85,335.95,54.895348,9.797490,54.891125,9.784746
1389997896,0,0,0.0,0,2,0,0,713,700,-0.0292,181.2921,6.8213,0.4212,54.890278,9.784663,108.3,5.845,1.85,335.95,54.895348,9.797490,54.891125,9.784746
1389997896,0,0,0.0,0,2,0,0,713,700,-0.0292,181.2921,6.8213,0.4212,54.890278,9.784663,108.3,5.845,1.85,335.95,54.895348,9.797490,54.891125,9.784746
1389997896,0,0,0.0,0,2,0,0,713,700,-0.0292,181.2921,6.8213,0.4212,54.890278,9.784663,108.3,5.845,1.85,335.95,54.895348,9.797490,54.891125,9.784746
1389997896,0,0,0.0,0,2,0,0,713,700,-0.0292,181.2921,6.8213,0.4212,54.890278,9.784663,108.3,5.845,1.85,335.95,54.895348,9.797490,54.891125,9.784746
1389997897,0,0,0.0,0,2,0,0,713,700,-0.0292,181.2921,6.8213,0.4212,54.890278,9.784663,108.3,5.845,1.85,335.95,54.895348,9.797490,54.891125,9.784746
1389997897,0,0,0.0,0,2,0,0,713,700,-0.0292,181.2921,6.8213,0.4212,54.890278,9.784663,108.3,5.845,1.85,335.95,54.895348,9.797490,54.891125,9.784746
1389997897,0,0,0.0,0,2,0,0,713,700,-0.0292,181.2921,6.8213,0.4212,54.890278,9.784663,108.3,5.845,1.85,335.95,54.895348,9.797490,54.891125,9.784746
1389997897,0,0,0.0,0,2,0,0,713,700,-0.0292,181.2921,6.8213,0.4212,54.890278,9.784663,108.3,5.845,1.85,335.95,54.895348,9.797490,54.891125,9.784746
1389997898,0,0,0.0,0,2,0,0,713,700,-0.0292,181.2921,6.8213,0.4212,54.890278,9.784663,108.3,5.845,1.85,335.95,54.895348,9.797490,54.891125,9.784746
1389997898,0,0,0.0,0,2,0,0,713,700,-0.0292,181.2921,6.8213,0.4212,54.890278,9.784663,108.3,5.845,1.85,335.95,54.895348,9.797490,54.891125,9.784746
1389997898,0,0,0.0,0,2,0,0,713,700,-0.0292,181.2921,6.8213,0.4212,54.890278,9.784663,108.3,5.845,1.85,335.95,54.895348,9.797490,54.891125,9.784746
1389997898,0,0,0.0,0,2,0,0,713,700,-0.0292,181.2921,6.8213,0.4212,54.890278,9.784663,108.3,5.845,1.85,335.95,54.895348,9.797490,54.891125,9.784746
1389997899,0,0,0.0,0,2,0,0,713,700,-0.0292,181.2921,6.8213,0.4212,54.890278,9.784663,108.3,5.845,1.85,335.95,54.895348,9.797490,54.891125,9.784746
1389997899,0,0,0.0,0,2,0,0,713,700,-0.0292,181.2921,6.8213,0.4212,54.890278,9.784663,108.3,5.845,1.85,335.95,54.895348,9.797490,54.891125,9.784746
1389997899,0,0,0.0,0,2,0,0,713,700,-0.0292,181.2921,6.8213,0.4212,54.890278,9.784663,108.3,5.845,1.85,335.95,54.895348,9.797490,54.891125,9.784746
1389997900,0,0,0.0,0,2,0,0,713,700,-0.0292,181.2921,6.8213,0.4212,54.890278,9.784663,108.3,5.845,1.85,335.95,54.895348,9.797490,54.891125,9.784746
1389997900,0,0,0.0,0,2,0,0,713,700,-0.0292,181.2921,6.8213,0.4212,54.890278,9.784663,108.3,5.845,1.85,335.95,54.895348,9.797490,54.891125,9.784746
1389997900,0,0,0.0,0,2,0,0,713,700,-0.0292,181.2921,6.8213,0.4212,54.890278,9.784663,108.3,5.845,1.85,335.95,54.895348,9.797490,54.891125,9.784746
1389997900,0,0,0.0,0,2,0,0,713,700,-0.0292,181.2921,6.8213,0.4212,54.890278,9.784663,108.3,5.845,1.85,335.95,54.895348,9.797490,54.891125,9.784746
1389997901,0,0,0.0,0,2,0,0,713,700,-0.0292,181.2921,6.8213,0.4212,54.890278,9.784663,108.3,5.845,1.85,335.95,54.895348,9.797490,54.891125,9.784746
1389997901,0,0,0.0,0,2,0,0,713,700,-0.0292,181.2921,6.8213,0.4212,54.890278,9.784663,108.3,5.845,1.85,335.95,54.895348,9.797490,54.891125,9.784746
1389997901,0,0,0.0,0,2,0,0,713,700,-0.0292,181.2921,6.8213,0.4212,54.890278,9.784663,108.3,5.845,1.85,335.95,54.895348,9.797490,54.891125,9.784746
1389997901,0,0,0.0,0,2,0,0,713,700,-0.0292,181.2921,6.8213,0.4212,54.890278,9.784663,108.3,5.845,1.85,335.95,54.895348,9.797490,54.891125,9.784746
1389997902,0,0,0.0,0,2,0,0,713,700,-0.0292,181.2921,6.8213,0.4212,54.890278,9.784663,108.3,5.845,1.85,335.95,54.895348,9.797490,54.891125,9.784746
1389997902,0,0,0.0,0,2,0,0,713,700,-0.0292,181.2921,6.8213,0.4212,54.890278,9.784663,108.3,5.845,1.85,335.95,54.895348,9.797490,54.891125,9.784746
1389997902,0,0,0.0,0,2,0,0,713,700,-0.0292,181.2921,6.8213,0.4212,54.890278,9.784663,108.3,5.845,1.85,335.95,54.895348,9.797490,54.891125,9.784746
1389997902,0,0,0.0,0,2,0,0,713,700,-0.0292,181.2921,6.8213,0.4212,54.890278,9.784663,108.3,5.845,1.85,335.95,54.895348,9.797490,54.891125,9.784746
1389997903,0,0,0.0,0,2,0,0,713,700,-0.0292,181.2921,6.8213,0.4212,54.890278,9.784663,108.3,5.845,1.85,335.95,54.895348,9.797490,54.891125,9.784746
1389997903,0,0,0.0,0,2,0,0,713,700,-0.0292,181.2921,6.8213,0.4212,54.890278,9.784663,108.3,5.845,1.85,335.95,54.895348,9.797490,54.891125,9.784746
1389997903,0,0,0.0,0,2,0,0,713,700,-0.0292,181.2921,6.8213,0.4212,54.890278,9.784663,108.3,5.845,1.85,335.95,54.895348,9.797490,54.891125,9.784746
1389997903,0,0,0.0,0,2,0,0,713,700,-0.0292,181.2921,6.8213,0.4212,54.890278,9.784663,108.3,5.845,1.85,335.95,54.895348,9.797490,54.891125,9.784746
1389997904,0,0,0.0,0,2,0,0,713,700,-0.0292,181.2921,6.8213,0.4212,54.890278,9.784663,108.3,5.845,1.85,335.95,54.895348,9.797490,54.891125,9.784746
1389997904,0,0,0.0,0,2,0,0,713,700,-0.0292,181.2921,6.8213,0.4212,54.890278,9.784663,108.3,5.845,1.85,335.95,54.895348,9.797490,54.891125,9.784746
1389997904,0,0,0.0,0,2,0,0,713,700,-0.0292,181.2921,6.8213,0.4212,54.890278,9.784663,108.3,5.845,1.85,335.95,54.895348,9.797490,54.891125,9.784746
1389997904,0,0,0.0,0,2,0,0,713,700,-0.0292,181.2921,6.8213,0.4212,54.890278,9.784663,108.3,5.845,1.85,335.95,54.895348,9.797490,54.891125,9.784746
1389997905,0,0,0.0,0,2,0,0,713,700,-0.0292,181.2921,6.8213,0.4212,54.890278,9.784663,108.3,5.845,1.85,335.95,54.895348,9.797490,54.891125,9.784746
1389997905,0,0,0.0,0,2,0,0,713,700,-0.0292,181.2921,6.8213,0.4212,54.890278,9.784663,108.3,5.845,1.85,335.95,54.895348,9.797490,54.891125,9.784746
1389997905,0,0,0.0,0,2,0,0,713,700,-0.0292,181.2921,6.8213,0.4212,54.890278,9.784663,108.3,5.845,1.85,335.95,54.895348,9.797490,54.891125,9.784746
1389997905,0,0,0.0,0,2,0,0,713,700,-0.0292,181.2921,6.8213,0.4212,54.890278,9.784663,108.3,5.845,1.85,335.95,54.895348,9.797490,54.891125,9.784746
1389997906,0,0,0.0,0,2,0,0,713,700,-0.0292,181.2921,6.8213,0.4212,54.890278,9.784663,108.3,5.845,1.85,335.95,54.895348,9.797490,54.891125,9.784746
1389997906,0,0,0.0,0,2,0,0,713,700,-0.0292,181.2921,6.8213,0.4212,54.890278,9.784663,108.3,5.845,1.85,335.95,54.895348,9.797490,54.891125,9.784746
1389997906,0,0,0.0,0,2,0,0,713,700,-0.0292,181.2921,6.8213,0.4212,54.890278,9.784663,108.3,5.845,1.85,335.95,54.895348,9.797490,54.891125,9.784746
