MCU_timestamp,Navigation_System,Manual_Control,Guidance_Heading,Manual_Ctrl_Rudder,Rudder_Desired_Angle,Rudder_Feedback,Manual_Ctrl_Sail,Sail_Desired_Pos,Sail_Feedback,Rate,Heading,Pitch,Roll,Latitude,Longitude,COG,SOG,Wind_Speed,Wind_Angle,Point_Start_Lat,Point_Start_Lon,Point_End_Lat,Point_End_Lon
1386836118,0,0,0.0,0,0,20,0,0,0,-0.0292,-746.2413,6.8213,0.4212,54.897556,9.791129,108.3,5.845,1.85,335.95,0.000000,0.000000,0.000000,0.000000
1386836118,0,0,0.0,0,0,20,0,0,0,-0.0292,-746.2413,6.8213,0.4212,54.897556,9.791129,108.3,5.845,1.85,335.95,0.000000,0.000000,0.000000,0.000000
1386836119,0,0,0.0,0,0,20,0,0,0,-0.0292,-746.2413,6.8213,0.4212,54.897556,9.791129,108.3,5.845,1.85,335.95,0.000000,0.000000,0.000000,0.000000
1386836119,0,0,0.0,0,0,20,0,0,0,-0.0292,-746.2413,6.8213,0.4212,54.897556,9.791129,108.3,5.845,1.85,335.95,0.000000,0.000000,0.000000,0.000000
1386836119,0,0,0.0,0,0,20,0,0,0,-0.0292,-746.2413,6.8213,0.4212,54.897556,9.791129,108.3,5.845,1.85,335.95,0.000000,0.000000,0.000000,0.000000
1386836119,0,0,0.0,0,0,20,0,0,0,-0.0292,-746.2413,6.8213,0.4212,54.897556,9.791129,108.3,5.845,1.85,335.95,0.000000,0.000000,0.000000,0.000000
1386836120,0,0,0.0,0,0,20,0,0,0,-0.0292,-746.2413,6.8213,0.4212,54.897556,9.791129,108.3,5.845,1.85,335.95,0.000000,0.000000,0.000000,0.000000
1386836120,0,0,0.0,0,0,20,0,0,0,-0.0292,-746.2413,6.8213,0.4212,54.897556,9.791129,108.3,5.845,1.85,335.95,0.000000,0.000000,0.000000,0.000000
1386836120,0,0,0.0,0,0,20,0,0,0,-0.0292,-746.2413,6.8213,0.4212,54.897556,9.791129,108.3,5.845,1.85,335.95,0.000000,0.000000,0.000000,0.000000
1386836120,0,0,0.0,0,0,20,0,0,0,-0.0292,-746.2413,6.8213,0.4212,54.897556,9.791129,108.3,5.845,1.85,335.95,0.000000,0.000000,0.000000,0.000000
1386836121,0,0,0.0,0,0,20,0,0,0,-0.0292,-746.2413,6.8213,0.4212,54.897556,9.791129,108.3,5.845,1.85,335.95,0.000000,0.000000,0.000000,0.000000
1386836121,0,0,0.0,0,0,20,0,0,0,-0.0292,-746.2413,6.8213,0.4212,54.897556,9.791129,108.3,5.845,1.85,335.95,0.000000,0.000000,0.000000,0.000000
1386836121,0,0,0.0,0,0,20,0,0,0,-0.0292,-746.2413,6.8213,0.4212,54.897556,9.791129,108.3,5.845,1.85,335.95,0.000000,0.000000,0.000000,0.000000
1386836121,0,0,0.0,0,0,20,0,0,0,-0.0292,-746.2413,6.8213,0.4212,54.897556,9.791129,108.3,5.845,1.85,335.95,0.000000,0.000000,0.000000,0.000000
1386836122,0,0,0.0,0,0,20,0,0,0,-0.0292,-746.2413,6.8213,0.4212,54.897556,9.791129,108.3,5.845,1.85,335.95,0.000000,0.000000,0.000000,0.000000
1386836122,0,0,0.0,0,0,20,0,0,0,-0.0292,-746.2413,6.8213,0.4212,54.897556,9.791129,108.3,5.845,1.85,335.95,0.000000,0.000000,0.000000,0.000000
1386836122,0,0,0.0,0,0,20,0,0,0,-0.0292,-746.2413,6.8213,0.4212,54.897556,9.791129,108.3,5.845,1.85,335.95,0.000000,0.000000,0.000000,0.000000
1386836122,0,0,0.0,0,0,20,0,0,0,-0.0292,-746.2413,6.8213,0.4212,54.897556,9.791129,108.3,5.845,1.85,335.95,0.000000,0.000000,0.000000,0.000000
1386836123,0,0,0.0,0,0,20,0,0,0,-0.0292,-746.2413,6.8213,0.4212,54.897556,9.791129,108.3,5.845,1.85,335.95,0.000000,0.000000,0.000000,0.000000
1386836123,0,0,0.0,0,0,20,0,0,0,-0.0292,-746.2413,6.8213,0.4212,54.897556,9.791129,108.3,5.845,1.85,335.95,0.000000,0.000000,0.000000,0.000000
1386836123,0,0,0.0,0,0,20,0,0,0,-0.0292,-746.2413,6.8213,0.4212,54.897556,9.791129,108.3,5.845,1.85,335.95,0.000000,0.000000,0.000000,0.000000
1386836123,4,0,0.0,0,0,20,0,0,0,-0.0292,-746.2413,6.8213,0.4212,54.897556,9.791129,108.3,5.845,1.85,335.95,0.000000,0.000000,0.000000,0.000000
1386836124,1,0,485.9,0,-35,16,0,0,0,-0.0292,-736.9080,6.8213,0.4212,54.897572,9.791121,108.3,5.845,1.85,335.95,54.897556,9.791129,54.895069,9.793790
1386836124,1,0,485.9,0,-35,12,0,0,25,-0.0292,-727.5747,6.8213,0.4212,54.897591,9.791117,108.3,5.845,1.85,335.95,54.897556,9.791129,54.895069,9.793790
1386836124,1,0,485.9,0,-35,8,0,0,0,-0.0292,-718.2414,6.8213,0.4212,54.897610,9.791118,108.3,5.845,1.85,335.95,54.897556,9.791129,54.895069,9.793790
1386836124,1,0,485.9,0,-35,4,0,0,25,-0.0292,-708.9081,6.8213,0.4212,54.897625,9.791123,108.3,5.845,1.85,335.95,54.897556,9.791129,54.895069,9.793790
1386836125,1,0,485.9,0,-35,0,0,0,0,-0.0292,-699.5748,6.8213,0.4212,54.897644,9.791135,108.3,5.845,1.85,335.95,54.897556,9.791129,54.895069,9.793790
1386836125,1,0,485.9,0,-35,-4,0,0,25,-0.0292,-690.2415,6.8213,0.4212,54.897659,9.791150,108.3,5.845,1.85,335.95,54.897556,9.791129,54.895069,9.793790
1386836125,1,0,485.9,0,-35,-8,0,0,0,-0.0292,-680.9081,6.8213,0.4212,54.897671,9.791170,108.3,5.845,1.85,335.95,54.897556,9.791129,54.895069,9.793790
1386836125,1,0,485.9,0,-35,-12,0,19,25,-0.0292,-671.5748,6.8213,0.4212,54.897682,9.791194,108.3,5.845,1.85,335.95,54.897556,9.791129,54.895069,9.793790
1386836126,1,0,485.9,0,-35,-16,0,77,50,-0.0292,-662.2415,6.8213,0.4212,54.897690,9.791221,108.3,5.845,1.85,335.95,54.897556,9.791129,54.895069,9.793790
1386836126,1,0,485.9,0,-35,-20,0,155,75,-0.0292,-652.9082,6.8213,0.4212,54.897697,9.791249,108.3,5.845,1.85,335.95,54.897556,9.791129,54.895069,9.793790
1386836126,1,0,485.9,0,-35,-24,0,239,100,-0.0292,-643.5749,6.8213,0.4212,54.897705,9.791280,108.3,5.845,1.85,335.95,54.897556,9.791129,54.895069,9.793790
1386836126,1,0,485.9,0,-35,-28,0,325,125,-0.0292,-634.2416,6.8213,0.4212,54.897705,9.791311,108.3,5.845,1.85,335.95,54.897556,9.791129,54.895069,9.793790
1386836127,1,0,485.9,0,-35,-32,0,408,150,-0.0292,-624.9083,6.8213,0.4212,54.897701,9.791342,108.3,5.845,1.85,335.95,54.897556,9.791129,54.895069,9.793790
1386836127,1,0,485.9,0,-31,-28,0,486,175,-0.0292,-616.6416,6.8213,0.4212,54.897694,9.791372,108.3,5.845,1.85,335.95,54.897556,9.791129,54.895069,9.793790
1386836127,1,0,485.9,0,-23,-24,0,551,200,-0.0292,-610.5082,6.8213,0.4212,54.897690,9.791402,108.3,5.845,1.85,335.95,54.897556,9.791129,54.895069,9.793790
1386836127,1,0,485.9,0,-16,-20,0,578,225,-0.0292,-606.2416,6.8213,0.4212,54.897682,9.791430,108.3,5.845,1.85,335.95,54.897556,9.791129,54.895069,9.793790
1386836128,1,0,485.9,0,-12,-16,0,409,250,-0.0292,-603.0416,6.8213,0.4212,54.897675,9.791459,108.3,5.845,1.85,335.95,54.897556,9.791129,54.895069,9.793790
1386836128,1,0,485.9,0,-9,-12,0,409,275,-0.0292,-600.6415,6.8213,0.4212,54.897667,9.791487,108.3,5.845,1.85,335.95,54.897556,9.791129,54.895069,9.793790
1386836128,1,0,485.9,0,-7,-8,0,409,300,-0.0292,-598.7749,6.8213,0.4212,54.897659,9.791513,108.3,5.845,1.85,335.95,54.897556,9.791129,54.895069,9.793790
1386836128,1,0,485.9,0,-5,-4,0,409,325,-0.0292,-597.4416,6.8213,0.4212,54.897648,9.791540,108.3,5.845,1.85,335.95,54.897556,9.791129,54.895069,9.793790
1386836129,1,0,485.9,0,-3,0,0,409,350,-0.0292,-596.6416,6.8213,0.4212,54.897640,9.791566,108.3,5.845,1.85,335.95,54.897556,9.791129,54.895069,9.793790
1386836129,1,0,485.9,0,-3,-4,0,409,375,-0.0292,-595.8416,6.8213,0.4212,54.897629,9.791592,108.3,5.845,1.85,335.95,54.897556,9.791129,54.895069,9.793790
1386836129,1,0,485.9,0,-2,0,0,409,400,-0.0292,-595.3083,6.8213,0.4212,54.897617,9.791617,108.3,5.845,1.85,335.95,54.897556,9.791129,54.895069,9.793790
1386836129,1,0,485.9,0,-1,-4,0,409,425,-0.0292,-595.0416,6.8213,0.4212,54.897606,9.791643,108.3,5.845,1.85,335.95,54.897556,9.791129,54.895069,9.793790
1386836130,1,0,485.9,0,-1,0,0,409,400,-0.0292,-594.7750,6.8213,0.4212,54.897594,9.791669,108.3,5.845,1.85,335.95,54.897556,9.791129,54.895069,9.793790
1386836130,1,0,485.9,0,-1,-4,0,409,425,-0.0292,-594.5083,6.8213,0.4212,54.897583,9.791695,108.3,5.845,1.85,335.95,54.897556,9.791129,54.895069,9.793790
1386836130,1,0,485.9,0,0,0,0,409,400,-0.0292,-594.5083,6.8213,0.4212,54.897572,9.791719,108.3,5.845,1.85,335.95,54.897556,9.791129,54.895069,9.793790
1386836130,1,0,485.9,0,0,4,0,409,425,-0.0292,-594.5083,6.8213,0.4212,54.897564,9.791745,108.3,5.845,1.85,335.95,54.897556,9.791129,54.895069,9.793790
1386836131,1,0,485.9,0,0,0,0,409,400,-0.0292,-594.5083,6.8213,0.4212,54.897552,9.791770,108.3,5.845,1.85,335.95,54.897556,9.791129,54.895069,9.793790
1386836131,1,0,485.9,0,0,4,0,409,425,-0.0292,-594.5083,6.8213,0.4212,54.897545,9.791796,108.3,5.845,1.85,335.95,54.897556,9.791129,54.895069,9.793790
1386836131,1,0,485.9,0,0,0,0,409,400,-0.0292,-594.5083,6.8213,0.4212,54.897533,9.791821,108.3,5.845,1.85,335.95,54.897556,9.791129,54.895069,9.793790
1386836131,1,0,485.9,0,0,4,0,409,425,-0.0292,-594.5083,6.8213,0.4212,54.897522,9.791846,108.3,5.845,1.85,335.95,54.897556,9.791129,54.895069,9.793790
1386836132,1,0,485.9,0,0,0,0,409,400,-0.0292,-594.5083,6.8213,0.4212,54.897514,9.791872,108.3,5.845,1.85,335.95,54.897556,9.791129,54.895069,9.793790
1386836132,1,0,485.9,0,0,4,0,409,425,-0.0292,-594.5083,6.8213,0.4212,54.897503,9.791897,108.3,5.845,1.85,335.95,54.897556,9.791129,54.895069,9.793790
1386836132,1,0,485.9,0,0,0,0,409,400,-0.0292,-594.5083,6.8213,0.4212,54.897495,9.791923,108.3,5.845,1.85,335.95,54.897556,9.791129,54.895069,9.793790
1386836132,1,0,485.9,0,0,4,0,409,425,-0.0292,-594.5083,6.8213,0.4212,54.897484,9.791948,108.3,5.845,1.85,335.95,54.897556,9.791129,54.895069,9.793790
1386836133,1,0,485.9,0,0,0,0,409,400,-0.0292,-594.5083,6.8213,0.4212,54.897472,9.791973,108.3,5.845,1.85,335.95,54.897556,9.791129,54.895069,9.793790
1386836133,1,0,485.9,0,0,4,0,409,425,-0.0292,-594.5083,6.8213,0.4212,54.897465,9.791999,108.3,5.845,1.85,335.95,54.897556,9.791129,54.895069,9.793790
1386836133,1,0,485.9,0,0,0,0,409,400,-0.0292,-594.5083,6.8213,0.4212,54.897453,9.792024,108.3,5.845,1.85,335.95,54.897556,9.791129,54.895069,9.793790
1386836133,1,0,485.9,0,0,4,0,409,425,-0.0292,-594.5083,6.8213,0.4212,54.897446,9.792049,108.3,5.845,1.85,335.95,54.897556,9.791129,54.895069,9.793790
1386836134,1,0,485.9,0,0,0,0,409,400,-0.0292,-594.5083,6.8213,0.4212,54.897434,9.792075,108.3,5.845,1.85,335.95,54.897556,9.791129,54.895069,9.793790
1386836134,1,0,485.9,0,0,4,0,409,425,-0.0292,-594.5083,6.8213,0.4212,54.897423,9.792100,108.3,5.845,1.85,335.95,54.897556,9.791129,54.895069,9.793790
1386836134,1,0,485.9,0,0,0,0,409,400,-0.0292,-594.5083,6.8213,0.4212,54.897415,9.792126,108.3,5.845,1.85,335.95,54.897556,9.791129,54.895069,9.793790
1386836134,1,0,485.9,0,0,4,0,409,425,-0.0292,-594.5083,6.8213,0.4212,54.897404,9.792150,108.3,5.845,1.85,335.95,54.897556,9.791129,54.895069,9.793790
1386836135,1,0,485.9,0,0,0,0,409,400,-0.0292,-594.5083,6.8213,0.4212,54.897396,9.792176,108.3,5.845,1.85,335.95,54.897556,9.791129,54.895069,9.793790
1386836135,1,0,485.9,0,0,4,0,409,425,-0.0292,-594.5083,6.8213,0.4212,54.897385,9.792202,108.3,5.845,1.85,335.95,54.897556,9.791129,54.895069,9.793790
1386836135,1,0,485.9,0,0,0,0,409,400,-0.0292,-594.5083,6.8213,0.4212,54.897373,9.792228,108.3,5.845,1.85,335.95,54.897556,9.791129,54.895069,9.793790
1386836135,1,0,485.9,0,0,4,0,409,425,-0.0292,-594.5083,6.8213,0.4212,54.897362,9.792253,108.3,5.845,1.85,335.95,54.897556,9.791129,54.895069,9.793790
1386836136,1,0,485.9,0,0,0,0,409,400,-0.0292,-594.5083,6.8213,0.4212,54.897350,9.792278,108.3,5.845,1.85,335.95,54.897556,9.791129,54.895069,9.793790
1386836136,1,0,485.9,0,0,4,0,409,425,-0.0292,-594.5083,6.8213,0.4212,54.897343,9.792304,108.3,5.845,1.85,335.95,54.897556,9.791129,54.895069,9.793790
1386836136,1,0,485.9,0,0,0,0,409,400,-0.0292,-594.5083,6.8213,0.4212,54.897331,9.792330,108.3,5.845,1.85,335.95,54.897556,9.791129,54.895069,9.793790
1386836136,1,0,485.9,0,0,4,0,409,425,-0.0292,-594.5083,6.8213,0.4212,54.897324,9.792356,108.3,5.845,1.85,335.95,54.897556,9.791129,54.895069,9.793790
1386836137,1,0,485.9,0,0,0,0,409,400,-0.0292,-594.5083,6.8213,0.4212,54.897312,9.792381,108.3,5.845,1.85,335.95,54.897556,9.791129,54.895069,9.793790
1386836137,1,0,485.9,0,0,4,0,409,425,-0.0292,-594.5083,6.8213,0.4212,54.897301,9.792406,108.3,5.845,1.85,335.95,54.897556,9.791129,54.895069,9.793790
1386836137,1,0,485.9,0,0,0,0,409,400,-0.0292,-594.5083,6.8213,0.4212,54.897293,9.792432,108.3,5.845,1.85,335.95,54.897556,9.791129,54.895069,9.793790
1386836137,1,0,485.9,0,0,4,0,409,425,-0.0292,-594.5083,6.8213,0.4212,54.897282,9.792457,108.3,5.845,1.85,335.95,54.897556,9.791129,54.895069,9.793790
1386836138,1,0,485.9,0,0,0,0,409,400,-0.0292,-594.5083,6.8213,0.4212,54.897274,9.792482,108.3,5.845,1.85,335.95,54.897556,9.791129,54.895069,9.793790
1386836138,1,0,485.9,0,0,4,0,409,425,-0.0292,-594.5083,6.8213,0.4212,54.897263,9.792508,108.3,5.845,1.85,335.95,54.897556,9.791129,54.895069,9.793790
1386836138,1,0,485.9,0,0,0,0,409,400,-0.0292,-594.5083,6.8213,0.4212,54.897251,9.792533,108.3,5.845,1.85,335.95,54.897556,9.791129,54.895069,9.793790
1386836138,1,0,485.9,0,0,4,0,409,425,-0.0292,-594.5083,6.8213,0.4212,54.897243,9.792559,108.3,5.845,1.85,335.95,54.897556,9.791129,54.895069,9.793790
1386836139,1,0,485.9,0,0,0,0,409,400,-0.0292,-594.5083,6.8213,0.4212,54.897232,9.792583,108.3,5.845,1.85,335.95,54.897556,9.791129,54.895069,9.793790
1386836139,1,0,485.9,0,0,4,0,409,425,-0.0292,-594.5083,6.8213,0.4212,54.897224,9.792609,108.3,5.845,1.85,335.95,54.897556,9.791129,54.895069,9.793790
1386836139,1,0,485.9,0,0,0,0,409,400,-0.0292,-594.5083,6.8213,0.4212,54.897213,9.792635,108.3,5.845,1.85,335.95,54.897556,9.791129,54.895069,9.793790
1386836139,1,0,485.9,0,0,4,0,409,425,-0.0292,-594.5083,6.8213,0.4212,54.897202,9.792660,108.3,5.845,1.85,335.95,54.897556,9.791129,54.895069,9.793790
1386836140,1,0,485.9,0,0,0,0,409,400,-0.0292,-594.5083,6.8213,0.4212,54.897194,9.792686,108.3,5.845,1.85,335.95,54.897556,9.791129,54.895069,9.793790
1386836140,1,0,485.9,0,0,4,0,409,425,-0.0292,-594.5083,6.8213,0.4212,54.897182,9.792710,108.3,5.845,1.85,335.95,54.897556,9.791129,54.895069,9.793790
1386836140,1,0,485.9,0,0,0,0,409,400,-0.0292,-594.5083,6.8213,0.4212,54.897175,9.792736,108.3,5.845,1.85,335.95,54.897556,9.791129,54.895069,9.793790
1386836140,1,0,485.9,0,0,4,0,409,425,-0.0292,-594.5083,6.8213,0.4212,54.897163,9.792762,108.3,5.845,1.85,335.95,54.897556,9.791129,54.895069,9.793790
1386836141,1,0,485.9,0,0,0,0,409,400,-0.0292,-594.5083,6.8213,0.4212,54.897152,9.792787,108.3,5.845,1.85,335.95,54.897556,9.791129,54.895069,9.793790
1386836141,1,0,485.9,0,0,4,0,409,425,-0.0292,-594.5083,6.8213,0.4212,54.897141,9.792812,108.3,5.845,1.85,335.95,54.897556,9.791129,54.895069,9.793790
1386836141,1,0,485.9,0,0,0,0,409,400,-0.0292,-594.5083,6.8213,0.4212,54.897129,9.792837,108.3,5.845,1.85,335.95,54.897556,9.791129,54.895069,9.793790
1386836141,1,0,485.9,0,0,4,0,409,425,-0.0292,-594.5083,6.8213,0.4212,54.897121,9.792863,108.3,5.845,1.85,335.95,54.897556,9.791129,54.895069,9.793790
1386836142,1,0,485.9,0,0,0,0,409,400,-0.0292,-594.5083,6.8213,0.4212,54.897110,9.792889,108.3,5.845,1.85,335.95,54.897556,9.791129,54.895069,9.793790
1386836142,1,0,485.9,0,0,4,0,409,425,-0.0292,-594.5083,6.8213,0.4212,54.897102,9.792913,108.3,5.845,1.85,335.95,54.897556,9.791129,54.895069,9.793790
1386836142,1,0,485.9,0,0,0,0,409,400,-0.0292,-594.5083,6.8213,0.4212,54.897091,9.792939,108.3,5.845,1.85,335.95,54.897556,9.791129,54.895069,9.793790
1386836143,1,0,485.9,0,0,4,0,409,425,-0.0292,-594.5083,6.8213,0.4212,54.897079,9.792964,108.3,5.845,1.85,335.95,54.897556,9.791129,54.895069,9.793790
1386836143,1,0,485.9,0,0,0,0,409,400,-0.0292,-594.5083,6.8213,0.4212,54.897072,9.792990,108.3,5.845,1.85,335.95,54.897556,9.791129,54.895069,9.793790
1386836143,1,0,485.9,0,0,4,0,409,425,-0.0292,-594.5083,6.8213,0.4212,54.897060,9.793015,108.3,5.845,1.85,335.95,54.897556,9.791129,54.895069,9.793790
1386836143,1,0,485.9,0,0,0,0,409,400,-0.0292,-594.5083,6.8213,0.4212,54.897053,9.793041,108.3,5.845,1.85,335.95,54.897556,9.791129,54.895069,9.793790
1386836144,1,0,485.9,0,0,4,0,409,425,-0.0292,-594.5083,6.8213,0.4212,54.897041,9.793067,108.3,5.845,1.85,335.95,54.897556,9.791129,54.895069,9.793790
1386836144,1,0,485.9,0,0,0,0,409,400,-0.0292,-594.5083,6.8213,0.4212,54.897030,9.793092,108.3,5.845,1.85,335.95,54.897556,9.791129,54.895069,9.793790
1386836144,1,0,485.9,0,0,4,0,409,425,-0.0292,-594.5083,6.8213,0.4212,54.897022,9.793118,108.3,5.845,1.85,335.95,54.897556,9.791129,54.895069,9.793790
1386836144,1,0,485.9,0,0,0,0,409,400,-0.0292,-594.5083,6.8213,0.4212,54.897011,9.793142,108.3,5.845,1.85,335.95,54.897556,9.791129,54.895069,9.793790
1386836145,1,0,485.9,0,0,4,0,409,425,-0.0292,-594.5083,6.8213,0.4212,54.897003,9.793168,108.3,5.845,1.85,335.95,54.897556,9.791129,54.895069,9.793790
1386836145,1,0,485.9,0,0,0,0,409,400,-0.0292,-594.5083,6.8213,0.4212,54.896992,9.793194,108.3,5.845,1.85,335.95,54.897556,9.791129,54.895069,9.793790
1386836145,1,0,485.9,0,0,4,0,409,425,-0.0292,-594.5083,6.8213,0.4212,54.896980,9.793219,108.3,5.845,1.85,335.95,54.897556,9.791129,54.895069,9.793790
1386836145,1,0,485.9,0,0,0,0,409,400,-0.0292,-594.5083,6.8213,0.4212,54.896973,9.793244,108.3,5.845,1.85,335.95,54.897556,9.791129,54.895069,9.793790
1386836146,1,0,485.9,0,0,4,0,409,425,-0.0292,-594.5083,6.8213,0.4212,54.896961,9.793269,108.3,5.845,1.85,335.95,54.897556,9.791129,54.895069,9.793790
1386836146,1,0,485.9,0,0,0,0,409,400,-0.0292,-594.5083,6.8213,0.4212,54.896954,9.793295,108.3,5.845,1.85,335.95,54.897556,9.791129,54.895069,9.793790
1386836146,1,0,485.9,0,0,4,0,409,425,-0.0292,-594.5083,6.8213,0.4212,54.896942,9.793321,108.3,5.845,1.85,335.95,54.897556,9.791129,54.895069,9.793790
1386836146,1,0,485.9,0,0,0,0,409,400,-0.0292,-594.5083,6.8213,0.4212,54.896931,9.793345,108.3,5.845,1.85,335.95,54.897556,9.791129,54.895069,9.793790
1386836147,1,0,485.9,0,0,4,0,409,425,-0.0292,-594.5083,6.8213,0.4212,54.896919,9.793371,108.3,5.845,1.85,335.95,54.897556,9.791129,54.895069,9.793790
1386836147,1,0,485.9,0,0,0,0,409,400,-0.0292,-594.5083,6.8213,0.4212,54.896908,9.793396,108.3,5.845,1.85,335.95,54.897556,9.791129,54.895069,9.793790
1386836147,1,0,485.9,0,0,4,0,409,425,-0.0292,-594.5083,6.8213,0.4212,54.896900,9.793422,108.3,5.845,1.85,335.95,54.897556,9.791129,54.895069,9.793790
1386836147,1,0,485.9,0,0,0,0,409,400,-0.0292,-594.5083,6.8213,0.4212,54.896889,9.793447,108.3,5.845,1.85,335.95,54.897556,9.791129,54.895069,9.793790
1386836148,1,0,485.9,0,0,4,0,409,425,-0.0292,-594.5083,6.8213,0.4212,54.896881,9.793472,108.3,5.845,1.85,335.95,54.897556,9.791129,54.895069,9.793790
1386836148,1,0,485.9,0,0,0,0,409,400,-0.0292,-594.5083,6.8213,0.4212,54.896870,9.793498,108.3,5.845,1.85,335.95,54.897556,9.791129,54.895069,9.793790
1386836148,1,0,485.9,0,0,4,0,409,425,-0.0292,-594.5083,6.8213,0.4212,54.896858,9.793523,108.3,5.845,1.85,335.95,54.897556,9.791129,54.895069,9.793790
1386836148,1,0,485.9,0,0,0,0,409,400,-0.0292,-594.5083,6.8213,0.4212,54.896851,9.793549,108.3,5.845,1.85,335.95,54.897556,9.791129,54.895069,9.793790
1386836149,1,0,485.9,0,0,4,0,409,425,-0.0292,-594.5083,6.8213,0.4212,54.896839,9.793574,108.3,5.845,1.85,335.95,54.897556,9.791129,54.895069,9.793790
1386836149,1,0,485.9,0,0,0,0,409,400,-0.0292,-594.5083,6.8213,0.4212,54.896832,9.793599,108.3,5.845,1.85,335.95,54.897556,9.791129,54.895069,9.793790
1386836149,1,0,485.9,0,0,4,0,409,425,-0.0292,-594.5083,6.8213,0.4212,54.896820,9.793625,108.3,5.845,1.85,335.95,54.897556,9.791129,54.895069,9.793790
1386836149,1,0,485.9,0,0,0,0,409,400,-0.0292,-594.5083,6.8213,0.4212,54.896809,9.793650,108.3,5.845,1.85,335.95,54.897556,9.791129,54.895069,9.793790
1386836150,1,0,485.9,0,0,4,0,409,425,-0.0292,-594.5083,6.8213,0.4212,54.896801,9.793675,108.3,5.845,1.85,335.95,54.897556,9.791129,54.895069,9.793790
1386836150,1,0,485.9,0,0,0,0,409,400,-0.0292,-594.5083,6.8213,0.4212,54.896790,9.793701,108.3,5.845,1.85,335.95,54.897556,9.791129,54.895069,9.793790
1386836150,1,0,485.9,0,0,4,0,409,425,-0.0292,-594.5083,6.8213,0.4212,54.896782,9.793727,108.3,5.845,1.85,335.95,54.897556,9.791129,54.895069,9.793790
1386836150,1,0,485.9,0,0,0,0,409,400,-0.0292,-594.5083,6.8213,0.4212,54.896770,9.793753,108.3,5.845,1.85,335.95,54.897556,9.791129,54.895069,9.793790
1386836151,1,0,485.9,0,0,4,0,409,425,-0.0292,-594.5083,6.8213,0.4212,54.896759,9.793777,108.3,5.845,1.85,335.95,54.897556,9.791129,54.895069,9.793790
1386836151,1,0,485.9,0,0,0,0,409,400,-0.0292,-594.5083,6.8213,0.4212,54.896751,9.793803,108.3,5.845,1.85,335.95,54.897556,9.791129,54.895069,9.793790
1386836151,1,0,485.9,0,0,4,0,409,425,-0.0292,-594.5083,6.8213,0.4212,54.896740,9.793828,108.3,5.845,1.85,335.95,54.897556,9.791129,54.895069,9.793790
1386836151,1,0,485.9,0,0,0,0,409,400,-0.0292,-594.5083,6.8213,0.4212,54.896732,9.793854,108.3,5.845,1.85,335.95,54.897556,9.791129,54.895069,9.793790
1386836152,1,0,485.9,0,0,4,0,409,425,-0.0292,-594.5083,6.8213,0.4212,54.896721,9.793880,108.3,5.845,1.85,335.95,54.897556,9.791129,54.895069,9.793790
1386836152,1,0,485.9,0,0,0,0,409,400,-0.0292,-594.5083,6.8213,0.4212,54.896709,9.793904,108.3,5.845,1.85,335.95,54.897556,9.791129,54.895069,9.793790
1386836152,1,0,485.9,0,0,4,0,409,425,-0.0292,-594.5083,6.8213,0.4212,54.896698,9.793930,108.3,5.845,1.85,335.95,54.897556,9.791129,54.895069,9.793790
1386836152,1,0,485.9,0,0,0,0,409,400,-0.0292,-594.5083,6.8213,0.4212,54.896687,9.793955,108.3,5.845,1.85,335.95,54.897556,9.791129,54.895069,9.793790
1386836153,1,0,485.9,0,0,4,0,409,425,-0.0292,-594.5083,6.8213,0.4212,54.896679,9.793981,108.3,5.845,1.85,335.95,54.897556,9.791129,54.895069,9.793790
1386836153,1,0,485.9,0,0,0,0,409,400,-0.0292,-594.5083,6.8213,0.4212,54.896667,9.794006,108.3,5.845,1.85,335.95,54.897556,9.791129,54.895069,9.793790
1386836153,1,0,485.9,0,0,4,0,409,425,-0.0292,-594.5083,6.8213,0.4212,54.896660,9.794031,108.3,5.845,1.85,335.95,54.897556,9.791129,54.895069,9.793790
1386836153,1,0,485.9,0,0,0,0,409,400,-0.0292,-594.5083,6.8213,0.4212,54.896648,9.794057,108.3,5.845,1.85,335.95,54.897556,9.791129,54.895069,9.793790
1386836154,1,0,485.9,0,0,4,0,409,425,-0.0292,-594.5083,6.8213,0.4212,54.896637,9.794082,108.3,5.845,1.85,335.95,54.897556,9.791129,54.895069,9.793790
1386836154,1,0,485.9,0,0,0,0,409,400,-0.0292,-594.5083,6.8213,0.4212,54.896629,9.794107,108.3,5.845,1.85,335.95,54.897556,9.791129,54.895069,9.793790
1386836154,1,0,485.9,0,0,4,0,0,375,-0.0292,-594.5083,6.8213,0.4212,54.896618,9.794133,108.3,5.845,1.85,335.95,54.897556,9.791129,54.895069,9.793790
1386836154,1,0,485.9,0,0,0,0,0,350,-0.0292,-594.5083,6.8213,0.4212,54.896610,9.794158,108.3,5.845,1.85,335.95,54.897556,9.791129,54.895069,9.793790
1386836155,1,0,485.9,0,0,4,0,0,325,-0.0292,-594.5083,6.8213,0.4212,54.896599,9.794184,108.3,5.845,1.85,335.95,54.897556,9.791129,54.895069,9.793790
1386836155,1,0,485.9,0,0,0,0,0,300,-0.0292,-594.5083,6.8213,0.4212,54.896587,9.794209,108.3,5.845,1.85,335.95,54.897556,9.791129,54.895069,9.793790
1386836155,1,0,485.9,0,0,4,0,0,275,-0.0292,-594.5083,6.8213,0.4212,54.896580,9.794234,108.3,5.845,1.85,335.95,54.897556,9.791129,54.895069,9.793790
1386836155,1,0,485.9,0,0,0,0,0,250,-0.0292,-594.5083,6.8213,0.4212,54.896568,9.794260,108.3,5.845,1.85,335.95,54.897556,9.791129,54.895069,9.793790
1386836156,1,0,485.9,0,0,4,0,0,225,-0.0292,-594.5083,6.8213,0.4212,54.896561,9.794286,108.3,5.845,1.85,335.95,54.897556,9.791129,54.895069,9.793790
1386836156,1,0,485.9,0,0,0,0,0,200,-0.0292,-594.5083,6.8213,0.4212,54.896549,9.794312,108.3,5.845,1.85,335.95,54.897556,9.791129,54.895069,9.793790
1386836156,1,0,485.9,0,0,4,0,0,175,-0.0292,-594.5083,6.8213,0.4212,54.896538,9.794336,108.3,5.845,1.85,335.95,54.897556,9.791129,54.895069,9.793790
1386836156,1,0,485.9,0,0,0,0,0,150,-0.0292,-594.5083,6.8213,0.4212,54.896530,9.794362,108.3,5.845,1.85,335.95,54.897556,9.791129,54.895069,9.793790
1386836157,1,0,485.9,0,0,4,0,0,125,-0.0292,-594.5083,6.8213,0.4212,54.896519,9.794388,108.3,5.845,1.85,335.95,54.897556,9.791129,54.895069,9.793790
1386836157,1,0,485.9,0,0,0,0,0,100,-0.0292,-594.5083,6.8213,0.4212,54.896511,9.794414,108.3,5.845,1.85,335.95,54.897556,9.791129,54.895069,9.793790
1386836157,1,0,485.9,0,0,4,0,0,75,-0.0292,-594.5083,6.8213,0.4212,54.896500,9.794439,108.3,5.845,1.85,335.95,54.897556,9.791129,54.895069,9.793790
1386836157,1,0,485.9,0,0,0,0,0,50,-0.0292,-594.5083,6.8213,0.4212,54.896488,9.794464,108.3,5.845,1.85,335.95,54.897556,9.791129,54.895069,9.793790
1386836158,1,0,485.9,0,0,4,0,0,25,-0.0292,-594.5083,6.8213,0.4212,54.896477,9.794490,108.3,5.845,1.85,335.95,54.897556,9.791129,54.895069,9.793790
1386836158,1,0,485.9,0,0,0,0,0,0,-0.0292,-594.5083,6.8213,0.4212,54.896465,9.794516,108.3,5.845,1.85,335.95,54.897556,9.791129,54.895069,9.793790
1386836158,1,0,485.9,0,0,4,0,0,25,-0.0292,-594.5083,6.8213,0.4212,54.896458,9.794541,108.3,5.845,1.85,335.95,54.897556,9.791129,54.895069,9.793790
1386836158,1,0,425.9,0,35,8,0,0,0,-0.0292,-603.8416,6.8213,0.4212,54.896450,9.794569,108.3,5.845,1.85,335.95,54.897556,9.791129,54.895069,9.793790
1386836159,1,0,335.9,0,35,12,0,0,25,-0.0292,-613.1749,6.8213,0.4212,54.896442,9.794599,108.3,5.845,1.85,335.95,54.897556,9.791129,54.895069,9.793790
1386836159,1,0,245.9,0,-35,8,0,0,0,-0.0292,-603.8416,6.8213,0.4212,54.896435,9.794627,108.3,5.845,1.85,335.95,54.897556,9.791129,54.895069,9.793790
1386836159,1,0,364.4,0,35,12,0,0,25,-0.0292,-613.1749,6.8213,0.4212,54.896431,9.794657,108.3,5.845,1.85,335.95,54.897556,9.791129,54.895069,9.793790
1386836159,1,0,335.9,0,35,16,0,0,0,-0.0292,-622.5082,6.8213,0.4212,54.896427,9.794687,108.3,5.845,1.85,335.95,54.897556,9.791129,54.895069,9.793790
1386836160,1,0,335.9,0,35,20,0,0,25,-0.0292,-631.8416,6.8213,0.4212,54.896427,9.794719,108.3,5.845,1.85,335.95,54.897556,9.791129,54.895069,9.793790
1386836160,1,0,307.5,0,35,24,0,0,0,-0.0292,-641.1749,6.8213,0.4212,54.896431,9.794749,108.3,5.845,1.85,335.95,54.897556,9.791129,54.895069,9.793790
1386836160,1,0,364.3,0,35,28,0,0,25,-0.0292,-650.5082,6.8213,0.4212,54.896439,9.794779,108.3,5.845,1.85,335.95,54.897556,9.791129,54.895069,9.793790
1386836160,1,0,335.9,0,35,32,0,0,0,-0.0292,-659.8415,6.8213,0.4212,54.896450,9.794806,108.3,5.845,1.85,335.95,54.897556,9.791129,54.895069,9.793790
1386836161,1,0,335.9,0,35,36,0,0,25,-0.0292,-669.1748,6.8213,0.4212,54.896461,9.794830,108.3,5.845,1.85,335.95,54.897556,9.791129,54.895069,9.793790
1386836161,1,0,335.9,0,35,32,0,0,0,-0.0292,-678.5081,6.8213,0.4212,54.896477,9.794850,108.3,5.845,1.85,335.95,54.897556,9.791129,54.895069,9.793790
1386836161,1,0,307.7,0,35,36,0,0,25,-0.0292,-687.8414,6.8213,0.4212,54.896492,9.794868,108.3,5.845,1.85,335.95,54.897556,9.791129,54.895069,9.793790
1386836161,1,0,307.7,0,35,32,0,0,0,-0.0292,-697.1747,6.8213,0.4212,54.896511,9.794879,108.3,5.845,1.85,335.95,54.897556,9.791129,54.895069,9.793790
1386836162,1,0,335.9,0,35,36,0,0,25,-0.0292,-706.5081,6.8213,0.4212,54.896530,9.794887,108.3,5.845,1.85,335.95,54.897556,9.791129,54.895069,9.793790
1386836162,1,0,335.9,0,35,32,0,0,0,-0.0292,-715.8414,6.8213,0.4212,54.896549,9.794888,108.3,5.845,1.85,335.95,54.897556,9.791129,54.895069,9.793790
1386836162,1,0,335.9,0,28,28,0,0,25,-0.0292,-723.3080,6.8213,0.4212,54.896564,9.794887,108.3,5.845,1.85,335.95,54.897556,9.791129,54.895069,9.793790
1386836162,1,0,335.9,0,21,24,0,0,0,-0.0292,-728.9080,6.8213,0.4212,54.896584,9.794882,108.3,5.845,1.85,335.95,54.897556,9.791129,54.895069,9.793790
1386836163,1,0,245.9,0,35,28,0,0,25,-0.0292,-738.2413,6.8213,0.4212,54.896603,9.794872,108.3,5.845,1.85,335.95,54.897556,9.791129,54.895069,9.793790
1386836163,0,0,245.9,0,35,28,0,0,25,-0.0292,-738.2413,6.8213,0.4212,54.896603,9.794872,108.3,5.845,1.85,335.95,54.897556,9.791129,54.895069,9.793790
1386836163,0,0,245.9,0,35,28,0,0,25,-0.0292,-738.2413,6.8213,0.4212,54.896603,9.794872,108.3,5.845,1.85,335.95,54.897556,9.791129,54.895069,9.793790
1386836163,0,0,245.9,0,35,28,0,0,25,-0.0292,-738.2413,6.8213,0.4212,54.896603,9.794872,108.3,5.845,1.85,335.95,54.897556,9.791129,54.895069,9.793790
1386836164,0,0,245.9,0,35,28,0,0,25,-0.0292,-738.2413,6.8213,0.4212,54.896603,9.794872,108.3,5.845,1.85,335.95,54.897556,9.791129,54.895069,9.793790
1386836164,0,0,245.9,0,35,28,0,0,25,-0.0292,-738.2413,6.8213,0.4212,54.896603,9.794872,108.3,5.845,1.85,335.95,54.897556,9.791129,54.895069,9.793790
1386836164,0,0,245.9,0,35,28,0,0,25,-0.0292,-738.2413,6.8213,0.4212,54.896603,9.794872,108.3,5.845,1.85,335.95,54.897556,9.791129,54.895069,9.793790
1386836164,0,0,245.9,0,35,28,0,0,25,-0.0292,-738.2413,6.8213,0.4212,54.896603,9.794872,108.3,5.845,1.85,335.95,54.897556,9.791129,54.895069,9.793790
1386836165,0,0,245.9,0,35,28,0,0,25,-0.0292,-738.2413,6.8213,0.4212,54.896603,9.794872,108.3,5.845,1.85,335.95,54.897556,9.791129,54.895069,9.793790
1386836165,0,0,245.9,0,35,28,0,0,25,-0.0292,-738.2413,6.8213,0.4212,54.896603,9.794872,108.3,5.845,1.85,335.95,54.897556,9.791129,54.895069,9.793790
1386836165,0,0,245.9,0,35,28,0,0,25,-0.0292,-738.2413,6.8213,0.4212,54.896603,9.794872,108.3,5.845,1.85,335.95,54.897556,9.791129,54.895069,9.793790
1386836165,0,0,245.9,0,35,28,0,0,25,-0.0292,-738.2413,6.8213,0.4212,54.896603,9.794872,108.3,5.845,1.85,335.95,54.897556,9.791129,54.895069,9.793790
1386836166,0,0,245.9,0,35,28,0,0,25,-0.0292,-738.2413,6.8213,0.4212,54.896603,9.794872,108.3,5.845,1.85,335.95,54.897556,9.791129,54.895069,9.793790
1386836166,0,0,245.9,0,35,28,0,0,25,-0.0292,-738.2413,6.8213,0.4212,54.896603,9.794872,108.3,5.845,1.85,335.95,54.897556,9.791129,54.895069,9.793790
1386836166,0,0,245.9,0,35,28,0,0,25,-0.0292,-738.2413,6.8213,0.4212,54.896603,9.794872,108.3,5.845,1.85,335.95,54.897556,9.791129,54.895069,9.793790
