MCU_timestamp,Navigation_System,Manual_Control,Guidance_Heading,Manual_Ctrl_Rudder,Rudder_Desired_Angle,Rudder_Feedback,Manual_Ctrl_Sail,Sail_Desired_Pos,Sail_Feedback,Rate,Heading,Pitch,Roll,Latitude,Longitude,COG,SOG,Wind_Speed,Wind_Angle,Point_Start_Lat,Point_Start_Lon,Point_End_Lat,Point_End_Lon
1386960481,1,0,150.0,0,35,4,0,713,50,-0.0292,5227.8921,6.8213,0.4212,54.894043,9.790827,108.3,5.845,1.85,0.00,54.894058,9.790831,0.000000,0.000000
1386960482,1,0,150.0,0,35,8,0,0,0,-0.0292,5218.5586,6.8213,0.4212,54.894024,9.790828,108.3,5.845,1.85,0.00,54.894058,9.790831,0.000000,0.000000
1386960482,1,0,150.0,0,29,12,0,0,0,-0.0292,5210.8252,6.8213,0.4212,54.894005,9.790833,108.3,5.845,1.85,0.00,54.894058,9.790831,0.000000,0.000000
1386960482,1,0,150.0,0,21,16,0,0,0,-0.0292,5205.2251,6.8213,0.4212,54.893990,9.790841,108.3,5.845,1.85,0.00,54.894058,9.790831,0.000000,0.000000
1386960482,1,0,150.0,0,15,12,0,713,50,-0.0292,5201.2251,6.8213,0.4212,54.893970,9.790851,108.3,5.845,1.85,0.00,54.894058,9.790831,0.000000,0.000000
1386960483,1,0,150.0,0,11,8,0,713,100,-0.0292,5198.2920,6.8213,0.4212,54.893951,9.790862,108.3,5.845,1.85,0.00,54.894058,9.790831,0.000000,0.000000
1386960483,1,0,150.0,0,8,12,0,713,150,-0.0292,5196.1587,6.8213,0.4212,54.893936,9.790874,108.3,5.845,1.85,0.00,54.894058,9.790831,0.000000,0.000000
1386960483,1,0,150.0,0,6,8,0,713,200,-0.0292,5194.5586,6.8213,0.4212,54.893921,9.790888,108.3,5.845,1.85,0.00,54.894058,9.790831,0.000000,0.000000
1386960483,1,0,150.0,0,5,4,0,713,250,-0.0292,5193.2251,6.8213,0.4212,54.893906,9.790902,108.3,5.845,1.85,0.00,54.894058,9.790831,0.000000,0.000000
1386960484,1,0,150.0,0,3,0,0,0,200,-0.0292,5192.4253,6.8213,0.4212,54.893890,9.790916,108.3,5.845,1.85,0.00,54.894058,9.790831,0.000000,0.000000
1386960484,1,0,150.0,0,2,4,0,0,150,-0.0292,5191.8921,6.8213,0.4212,54.893871,9.790932,108.3,5.845,1.85,0.00,54.894058,9.790831,0.000000,0.000000
1386960484,1,0,150.0,0,2,0,0,0,100,-0.0292,5191.3589,6.8213,0.4212,54.893856,9.790947,108.3,5.845,1.85,0.00,54.894058,9.790831,0.000000,0.000000
1386960484,1,0,150.0,0,1,4,0,0,50,-0.0292,5191.0923,6.8213,0.4212,54.893841,9.790962,108.3,5.845,1.85,0.00,54.894058,9.790831,0.000000,0.000000
1386960485,1,0,150.0,0,1,0,0,0,0,-0.0292,5190.8257,6.8213,0.4212,54.893822,9.790977,108.3,5.845,1.85,0.00,54.894058,9.790831,0.000000,0.000000
1386960485,1,0,150.0,0,1,4,0,0,0,-0.0292,5190.5591,6.8213,0.4212,54.893806,9.790993,108.3,5.845,1.85,0.00,54.894058,9.790831,0.000000,0.000000
1386960485,1,0,210.0,0,-35,0,0,0,0,-0.0292,5199.8926,6.8213,0.4212,54.893791,9.791004,108.3,5.845,1.85,0.00,54.894058,9.790831,0.000000,0.000000
1386960485,1,0,210.0,0,-35,-4,0,0,0,-0.0292,5209.2261,6.8213,0.4212,54.893772,9.791010,108.3,5.845,1.85,0.00,54.894058,9.790831,0.000000,0.000000
1386960486,1,0,210.0,0,-35,-8,0,0,0,-0.0292,5218.5596,6.8213,0.4212,54.893753,9.791010,108.3,5.845,1.85,0.00,54.894058,9.790831,0.000000,0.000000
1386960486,1,0,210.0,0,-31,-12,0,0,0,-0.0292,5226.8262,6.8213,0.4212,54.893734,9.791006,108.3,5.845,1.85,0.00,54.894058,9.790831,0.000000,0.000000
1386960486,1,0,210.0,0,-23,-16,0,0,0,-0.0292,5232.9595,6.8213,0.4212,54.893719,9.790998,108.3,5.845,1.85,0.00,54.894058,9.790831,0.000000,0.000000
1386960486,1,0,210.0,0,-17,-20,0,0,0,-0.0292,5237.4927,6.8213,0.4212,54.893700,9.790990,108.3,5.845,1.85,0.00,54.894058,9.790831,0.000000,0.000000
1386960487,1,0,210.0,0,-13,-16,0,0,0,-0.0292,5240.9595,6.8213,0.4212,54.893681,9.790979,108.3,5.845,1.85,0.00,54.894058,9.790831,0.000000,0.000000
1386960487,1,0,210.0,0,-9,-12,0,0,0,-0.0292,5243.3594,6.8213,0.4212,54.893665,9.790967,108.3,5.845,1.85,0.00,54.894058,9.790831,0.000000,0.000000
1386960487,1,0,210.0,0,-7,-8,0,0,0,-0.0292,5245.2261,6.8213,0.4212,54.893650,9.790954,108.3,5.845,1.85,0.00,54.894058,9.790831,0.000000,0.000000
1386960487,1,0,210.0,0,-5,-4,0,0,0,-0.0292,5246.5596,6.8213,0.4212,54.893635,9.790940,108.3,5.845,1.85,0.00,54.894058,9.790831,0.000000,0.000000
1386960488,1,0,210.0,0,-3,0,0,713,50,-0.0292,5247.3594,6.8213,0.4212,54.893620,9.790926,108.3,5.845,1.85,0.00,54.894058,9.790831,0.000000,0.000000
1386960488,1,0,210.0,0,-3,-4,0,713,100,-0.0292,5248.1592,6.8213,0.4212,54.893600,9.790911,108.3,5.845,1.85,0.00,54.894058,9.790831,0.000000,0.000000
1386960488,1,0,210.0,0,-2,0,0,713,150,-0.0292,5248.6924,6.8213,0.4212,54.893585,9.790896,108.3,5.845,1.85,0.00,54.894058,9.790831,0.000000,0.000000
1386960488,1,0,210.0,0,-1,-4,0,713,200,-0.0292,5248.9590,6.8213,0.4212,54.893570,9.790881,108.3,5.845,1.85,0.00,54.894058,9.790831,0.000000,0.000000
1386960489,1,0,210.0,0,-1,0,0,713,250,-0.0292,5249.2256,6.8213,0.4212,54.893551,9.790866,108.3,5.845,1.85,0.00,54.894058,9.790831,0.000000,0.000000
1386960489,1,0,210.0,0,-1,-4,0,713,300,-0.0292,5249.4922,6.8213,0.4212,54.893536,9.790851,108.3,5.845,1.85,0.00,54.894058,9.790831,0.000000,0.000000
1386960489,1,0,210.0,0,-1,0,0,713,350,-0.0292,5249.7588,6.8213,0.4212,54.893520,9.790835,108.3,5.845,1.85,0.00,54.894058,9.790831,0.000000,0.000000
1386960489,1,0,210.0,0,0,4,0,713,400,-0.0292,5249.7588,6.8213,0.4212,54.893501,9.790819,108.3,5.845,1.85,0.00,54.894058,9.790831,0.000000,0.000000
1386960490,1,0,210.0,0,0,0,0,713,450,-0.0292,5249.7588,6.8213,0.4212,54.893486,9.790804,108.3,5.845,1.85,0.00,54.894058,9.790831,0.000000,0.000000
1386960490,1,0,210.0,0,0,4,0,713,500,-0.0292,5249.7588,6.8213,0.4212,54.893471,9.790789,108.3,5.845,1.85,0.00,54.894058,9.790831,0.000000,0.000000
1386960490,1,0,210.0,0,0,0,0,713,550,-0.0292,5249.7588,6.8213,0.4212,54.893452,9.790772,108.3,5.845,1.85,0.00,54.894058,9.790831,0.000000,0.000000
1386960490,1,0,210.0,0,0,4,0,713,600,-0.0292,5249.7588,6.8213,0.4212,54.893436,9.790757,108.3,5.845,1.85,0.00,54.894058,9.790831,0.000000,0.000000
1386960491,1,0,210.0,0,0,0,0,713,650,-0.0292,5249.7588,6.8213,0.4212,54.893421,9.790742,108.3,5.845,1.85,0.00,54.894058,9.790831,0.000000,0.000000
1386960491,1,0,210.0,0,0,4,0,713,700,-0.0292,5249.7588,6.8213,0.4212,54.893402,9.790727,108.3,5.845,1.85,0.00,54.894058,9.790831,0.000000,0.000000
1386960491,1,0,210.0,0,0,0,0,713,750,-0.0292,5249.7588,6.8213,0.4212,54.893387,9.790711,108.3,5.845,1.85,0.00,54.894058,9.790831,0.000000,0.000000
1386960491,1,0,210.0,0,0,4,0,713,700,-0.0292,5249.7588,6.8213,0.4212,54.893372,9.790695,108.3,5.845,1.85,0.00,54.894058,9.790831,0.000000,0.000000
1386960492,1,0,210.0,0,0,0,0,713,750,-0.0292,5249.7588,6.8213,0.4212,54.893356,9.790680,108.3,5.845,1.85,0.00,54.894058,9.790831,0.000000,0.000000
1386960492,1,0,210.0,0,0,4,0,713,700,-0.0292,5249.7588,6.8213,0.4212,54.893341,9.790665,108.3,5.845,1.85,0.00,54.894058,9.790831,0.000000,0.000000
1386960492,1,0,210.0,0,0,0,0,713,750,-0.0292,5249.7588,6.8213,0.4212,54.893326,9.790648,108.3,5.845,1.85,0.00,54.894058,9.790831,0.000000,0.000000
1386960492,1,0,210.0,0,0,4,0,713,700,-0.0292,5249.7588,6.8213,0.4212,54.893307,9.790633,108.3,5.845,1.85,0.00,54.894058,9.790831,0.000000,0.000000
1386960493,1,0,210.0,0,0,0,0,713,750,-0.0292,5249.7588,6.8213,0.4212,54.893291,9.790618,108.3,5.845,1.85,0.00,54.894058,9.790831,0.000000,0.000000
1386960493,1,0,210.0,0,0,4,0,713,700,-0.0292,5249.7588,6.8213,0.4212,54.893276,9.790602,108.3,5.845,1.85,0.00,54.894058,9.790831,0.000000,0.000000
1386960493,1,0,210.0,0,0,0,0,713,750,-0.0292,5249.7588,6.8213,0.4212,54.893257,9.790586,108.3,5.845,1.85,0.00,54.894058,9.790831,0.000000,0.000000
1386960493,1,0,210.0,0,0,4,0,713,700,-0.0292,5249.7588,6.8213,0.4212,54.893242,9.790571,108.3,5.845,1.85,0.00,54.894058,9.790831,0.000000,0.000000
1386960494,1,0,210.0,0,0,0,0,713,750,-0.0292,5249.7588,6.8213,0.4212,54.893227,9.790556,108.3,5.845,1.85,0.00,54.894058,9.790831,0.000000,0.000000
1386960494,1,0,210.0,0,0,4,0,713,700,-0.0292,5249.7588,6.8213,0.4212,54.893208,9.790541,108.3,5.845,1.85,0.00,54.894058,9.790831,0.000000,0.000000
1386960494,1,0,210.0,0,0,0,0,713,750,-0.0292,5249.7588,6.8213,0.4212,54.893192,9.790524,108.3,5.845,1.85,0.00,54.894058,9.790831,0.000000,0.000000
1386960494,1,0,210.0,0,0,4,0,713,700,-0.0292,5249.7588,6.8213,0.4212,54.893177,9.790509,108.3,5.845,1.85,0.00,54.894058,9.790831,0.000000,0.000000
1386960495,1,0,210.0,0,0,0,0,713,750,-0.0292,5249.7588,6.8213,0.4212,54.893158,9.790494,108.3,5.845,1.85,0.00,54.894058,9.790831,0.000000,0.000000
1386960495,1,0,210.0,0,0,4,0,713,700,-0.0292,5249.7588,6.8213,0.4212,54.893143,9.790478,108.3,5.845,1.85,0.00,54.894058,9.790831,0.000000,0.000000
1386960495,1,0,210.0,0,0,0,0,713,750,-0.0292,5249.7588,6.8213,0.4212,54.893127,9.790462,108.3,5.845,1.85,0.00,54.894058,9.790831,0.000000,0.000000
1386960495,1,0,210.0,0,0,4,0,713,700,-0.0292,5249.7588,6.8213,0.4212,54.893108,9.790447,108.3,5.845,1.85,0.00,54.894058,9.790831,0.000000,0.000000
1386960496,1,0,210.0,0,0,0,0,713,750,-0.0292,5249.7588,6.8213,0.4212,54.893093,9.790431,108.3,5.845,1.85,0.00,54.894058,9.790831,0.000000,0.000000
1386960496,1,0,210.0,0,0,4,0,713,700,-0.0292,5249.7588,6.8213,0.4212,54.893078,9.790416,108.3,5.845,1.85,0.00,54.894058,9.790831,0.000000,0.000000
1386960496,1,0,210.0,0,0,0,0,713,750,-0.0292,5249.7588,6.8213,0.4212,54.893059,9.790401,108.3,5.845,1.85,0.00,54.894058,9.790831,0.000000,0.000000
1386960496,1,0,210.0,0,0,4,0,713,700,-0.0292,5249.7588,6.8213,0.4212,54.893044,9.790385,108.3,5.845,1.85,0.00,54.894058,9.790831,0.000000,0.000000
1386960497,1,0,210.0,0,0,0,0,713,750,-0.0292,5249.7588,6.8213,0.4212,54.893028,9.790370,108.3,5.845,1.85,0.00,54.894058,9.790831,0.000000,0.000000
1386960497,1,0,210.0,0,0,4,0,713,700,-0.0292,5249.7588,6.8213,0.4212,54.893009,9.790355,108.3,5.845,1.85,0.00,54.894058,9.790831,0.000000,0.000000
1386960497,1,0,210.0,0,0,0,0,713,750,-0.0292,5249.7588,6.8213,0.4212,54.892994,9.790339,108.3,5.845,1.85,0.00,54.894058,9.790831,0.000000,0.000000
1386960497,1,0,210.0,0,0,4,0,713,700,-0.0292,5249.7588,6.8213,0.4212,54.892979,9.790324,108.3,5.845,1.85,0.00,54.894058,9.790831,0.000000,0.000000
1386960498,1,0,210.0,0,0,0,0,713,750,-0.0292,5249.7588,6.8213,0.4212,54.892960,9.790308,108.3,5.845,1.85,0.00,54.894058,9.790831,0.000000,0.000000
1386960498,1,0,210.0,0,0,4,0,713,700,-0.0292,5249.7588,6.8213,0.4212,54.892944,9.790293,108.3,5.845,1.85,0.00,54.894058,9.790831,0.000000,0.000000
1386960498,1,0,210.0,0,0,0,0,713,750,-0.0292,5249.7588,6.8213,0.4212,54.892929,9.790277,108.3,5.845,1.85,0.00,54.894058,9.790831,0.000000,0.000000
1386960498,1,0,210.0,0,0,4,0,713,700,-0.0292,5249.7588,6.8213,0.4212,54.892914,9.790261,108.3,5.845,1.85,0.00,54.894058,9.790831,0.000000,0.000000
1386960499,1,0,210.0,0,0,0,0,713,750,-0.0292,5249.7588,6.8213,0.4212,54.892899,9.790246,108.3,5.845,1.85,0.00,54.894058,9.790831,0.000000,0.000000
1386960499,1,0,210.0,0,0,4,0,713,700,-0.0292,5249.7588,6.8213,0.4212,54.892883,9.790231,108.3,5.845,1.85,0.00,54.894058,9.790831,0.000000,0.000000
1386960499,1,0,210.0,0,0,0,0,713,750,-0.0292,5249.7588,6.8213,0.4212,54.892864,9.790215,108.3,5.845,1.85,0.00,54.894058,9.790831,0.000000,0.000000
1386960499,1,0,210.0,0,0,4,0,713,700,-0.0292,5249.7588,6.8213,0.4212,54.892849,9.790199,108.3,5.845,1.85,0.00,54.894058,9.790831,0.000000,0.000000
1386960500,1,0,210.0,0,0,0,0,713,750,-0.0292,5249.7588,6.8213,0.4212,54.892834,9.790184,108.3,5.845,1.85,0.00,54.894058,9.790831,0.000000,0.000000
1386960500,1,0,210.0,0,0,4,0,713,700,-0.0292,5249.7588,6.8213,0.4212,54.892815,9.790169,108.3,5.845,1.85,0.00,54.894058,9.790831,0.000000,0.000000
1386960500,1,0,210.0,0,0,0,0,713,750,-0.0292,5249.7588,6.8213,0.4212,54.892799,9.790154,108.3,5.845,1.85,0.00,54.894058,9.790831,0.000000,0.000000
1386960500,1,0,210.0,0,0,4,0,713,700,-0.0292,5249.7588,6.8213,0.4212,54.892784,9.790137,108.3,5.845,1.85,0.00,54.894058,9.790831,0.000000,0.000000
1386960501,1,0,210.0,0,0,0,0,713,750,-0.0292,5249.7588,6.8213,0.4212,54.892765,9.790122,108.3,5.845,1.85,0.00,54.894058,9.790831,0.000000,0.000000
1386960501,1,0,210.0,0,0,4,0,713,700,-0.0292,5249.7588,6.8213,0.4212,54.892750,9.790107,108.3,5.845,1.85,0.00,54.894058,9.790831,0.000000,0.000000
1386960501,1,0,210.0,0,0,0,0,713,750,-0.0292,5249.7588,6.8213,0.4212,54.892735,9.790091,108.3,5.845,1.85,0.00,54.894058,9.790831,0.000000,0.000000
1386960501,1,0,210.0,0,0,4,0,713,700,-0.0292,5249.7588,6.8213,0.4212,54.892715,9.790075,108.3,5.845,1.85,0.00,54.894058,9.790831,0.000000,0.000000
1386960502,1,0,210.0,0,0,0,0,713,750,-0.0292,5249.7588,6.8213,0.4212,54.892700,9.790060,108.3,5.845,1.85,0.00,54.894058,9.790831,0.000000,0.000000
1386960502,1,0,210.0,0,0,4,0,713,700,-0.0292,5249.7588,6.8213,0.4212,54.892685,9.790044,108.3,5.845,1.85,0.00,54.894058,9.790831,0.000000,0.000000
1386960502,1,0,210.0,0,0,0,0,713,750,-0.0292,5249.7588,6.8213,0.4212,54.892666,9.790029,108.3,5.845,1.85,0.00,54.894058,9.790831,0.000000,0.000000
1386960502,1,0,210.0,0,0,4,0,713,700,-0.0292,5249.7588,6.8213,0.4212,54.892651,9.790013,108.3,5.845,1.85,0.00,54.894058,9.790831,0.000000,0.000000
1386960503,1,0,210.0,0,0,0,0,713,750,-0.0292,5249.7588,6.8213,0.4212,54.892635,9.789998,108.3,5.845,1.85,0.00,54.894058,9.790831,0.000000,0.000000
1386960503,1,0,210.0,0,0,4,0,713,700,-0.0292,5249.7588,6.8213,0.4212,54.892616,9.789983,108.3,5.845,1.85,0.00,54.894058,9.790831,0.000000,0.000000
1386960503,1,0,210.0,0,0,0,0,713,750,-0.0292,5249.7588,6.8213,0.4212,54.892601,9.789967,108.3,5.845,1.85,0.00,54.894058,9.790831,0.000000,0.000000
1386960503,1,0,210.0,0,0,4,0,713,700,-0.0292,5249.7588,6.8213,0.4212,54.892586,9.789951,108.3,5.845,1.85,0.00,54.894058,9.790831,0.000000,0.000000
1386960504,1,0,210.0,0,0,0,0,713,750,-0.0292,5249.7588,6.8213,0.4212,54.892567,9.789936,108.3,5.845,1.85,0.00,54.894058,9.790831,0.000000,0.000000
1386960504,1,0,210.0,0,0,4,0,713,700,-0.0292,5249.7588,6.8213,0.4212,54.892551,9.789920,108.3,5.845,1.85,0.00,54.894058,9.790831,0.000000,0.000000
1386960504,1,0,210.0,0,0,0,0,713,750,-0.0292,5249.7588,6.8213,0.4212,54.892536,9.789905,108.3,5.845,1.85,0.00,54.894058,9.790831,0.000000,0.000000
1386960504,1,0,210.0,0,0,4,0,713,700,-0.0292,5249.7588,6.8213,0.4212,54.892517,9.789889,108.3,5.845,1.85,0.00,54.894058,9.790831,0.000000,0.000000
1386960505,1,0,210.0,0,0,0,0,713,750,-0.0292,5249.7588,6.8213,0.4212,54.892502,9.789873,108.3,5.845,1.85,0.00,54.894058,9.790831,0.000000,0.000000
1386960505,1,0,210.0,0,0,4,0,713,700,-0.0292,5249.7588,6.8213,0.4212,54.892487,9.789858,108.3,5.845,1.85,0.00,54.894058,9.790831,0.000000,0.000000
1386960505,1,0,210.0,0,0,0,0,713,750,-0.0292,5249.7588,6.8213,0.4212,54.892467,9.789843,108.3,5.845,1.85,0.00,54.894058,9.790831,0.000000,0.000000
1386960505,1,0,210.0,0,0,4,0,713,700,-0.0292,5249.7588,6.8213,0.4212,54.892452,9.789827,108.3,5.845,1.85,0.00,54.894058,9.790831,0.000000,0.000000
1386960506,1,0,210.0,0,0,0,0,713,750,-0.0292,5249.7588,6.8213,0.4212,54.892437,9.789812,108.3,5.845,1.85,0.00,54.894058,9.790831,0.000000,0.000000
1386960506,1,0,210.0,0,0,4,0,713,700,-0.0292,5249.7588,6.8213,0.4212,54.892422,9.789796,108.3,5.845,1.85,0.00,54.894058,9.790831,0.000000,0.000000
1386960506,1,0,210.0,0,0,0,0,713,750,-0.0292,5249.7588,6.8213,0.4212,54.892406,9.789781,108.3,5.845,1.85,0.00,54.894058,9.790831,0.000000,0.000000
1386960506,1,0,210.0,0,0,4,0,713,700,-0.0292,5249.7588,6.8213,0.4212,54.892391,9.789765,108.3,5.845,1.85,0.00,54.894058,9.790831,0.000000,0.000000
1386960507,1,0,210.0,0,0,0,0,713,750,-0.0292,5249.7588,6.8213,0.4212,54.892372,9.789749,108.3,5.845,1.85,0.00,54.894058,9.790831,0.000000,0.000000
1386960507,1,0,210.0,0,0,4,0,713,700,-0.0292,5249.7588,6.8213,0.4212,54.892357,9.789734,108.3,5.845,1.85,0.00,54.894058,9.790831,0.000000,0.000000
1386960507,1,0,210.0,0,0,0,0,713,750,-0.0292,5249.7588,6.8213,0.4212,54.892342,9.789719,108.3,5.845,1.85,0.00,54.894058,9.790831,0.000000,0.000000
1386960507,1,0,210.0,0,0,4,0,713,700,-0.0292,5249.7588,6.8213,0.4212,54.892323,9.789702,108.3,5.845,1.85,0.00,54.894058,9.790831,0.000000,0.000000
1386960508,1,0,210.0,0,0,0,0,713,750,-0.0292,5249.7588,6.8213,0.4212,54.892307,9.789687,108.3,5.845,1.85,0.00,54.894058,9.790831,0.000000,0.000000
1386960508,1,0,210.0,0,0,4,0,713,700,-0.0292,5249.7588,6.8213,0.4212,54.892292,9.789672,108.3,5.845,1.85,0.00,54.894058,9.790831,0.000000,0.000000
1386960508,1,0,210.0,0,0,0,0,713,750,-0.0292,5249.7588,6.8213,0.4212,54.892273,9.789657,108.3,5.845,1.85,0.00,54.894058,9.790831,0.000000,0.000000
1386960508,1,0,210.0,0,0,4,0,713,700,-0.0292,5249.7588,6.8213,0.4212,54.892258,9.789641,108.3,5.845,1.85,0.00,54.894058,9.790831,0.000000,0.000000
1386960509,1,0,210.0,0,0,0,0,713,750,-0.0292,5249.7588,6.8213,0.4212,54.892242,9.789626,108.3,5.845,1.85,0.00,54.894058,9.790831,0.000000,0.000000
1386960509,1,0,210.0,0,0,4,0,713,700,-0.0292,5249.7588,6.8213,0.4212,54.892223,9.789611,108.3,5.845,1.85,0.00,54.894058,9.790831,0.000000,0.000000
1386960509,1,0,210.0,0,0,0,0,713,750,-0.0292,5249.7588,6.8213,0.4212,54.892208,9.789596,108.3,5.845,1.85,0.00,54.894058,9.790831,0.000000,0.000000
1386960510,1,0,210.0,0,0,4,0,713,700,-0.0292,5249.7588,6.8213,0.4212,54.892193,9.789579,108.3,5.845,1.85,0.00,54.894058,9.790831,0.000000,0.000000
1386960510,1,0,210.0,0,0,0,0,713,750,-0.0292,5249.7588,6.8213,0.4212,54.892174,9.789564,108.3,5.845,1.85,0.00,54.894058,9.790831,0.000000,0.000000
1386960510,1,0,210.0,0,0,4,0,713,700,-0.0292,5249.7588,6.8213,0.4212,54.892159,9.789549,108.3,5.845,1.85,0.00,54.894058,9.790831,0.000000,0.000000
1386960510,1,0,210.0,0,0,0,0,713,750,-0.0292,5249.7588,6.8213,0.4212,54.892143,9.789533,108.3,5.845,1.85,0.00,54.894058,9.790831,0.000000,0.000000
1386960511,1,0,210.0,0,0,4,0,713,700,-0.0292,5249.7588,6.8213,0.4212,54.892124,9.789517,108.3,5.845,1.85,0.00,54.894058,9.790831,0.000000,0.000000
1386960511,1,0,210.0,0,0,0,0,713,750,-0.0292,5249.7588,6.8213,0.4212,54.892109,9.789502,108.3,5.845,1.85,0.00,54.894058,9.790831,0.000000,0.000000
1386960511,1,0,210.0,0,0,4,0,713,700,-0.0292,5249.7588,6.8213,0.4212,54.892094,9.789486,108.3,5.845,1.85,0.00,54.894058,9.790831,0.000000,0.000000
1386960511,1,0,210.0,0,0,0,0,713,750,-0.0292,5249.7588,6.8213,0.4212,54.892075,9.789471,108.3,5.845,1.85,0.00,54.894058,9.790831,0.000000,0.000000
1386960512,1,0,210.0,0,0,4,0,713,700,-0.0292,5249.7588,6.8213,0.4212,54.892059,9.789455,108.3,5.845,1.85,0.00,54.894058,9.790831,0.000000,0.000000
1386960512,1,0,210.0,0,0,0,0,713,750,-0.0292,5249.7588,6.8213,0.4212,54.892044,9.789440,108.3,5.845,1.85,0.00,54.894058,9.790831,0.000000,0.000000
1386960512,1,0,210.0,0,0,4,0,713,700,-0.0292,5249.7588,6.8213,0.4212,54.892025,9.789425,108.3,5.845,1.85,0.00,54.894058,9.790831,0.000000,0.000000
1386960512,1,0,210.0,0,0,0,0,713,750,-0.0292,5249.7588,6.8213,0.4212,54.892010,9.789409,108.3,5.845,1.85,0.00,54.894058,9.790831,0.000000,0.000000
1386960513,1,0,210.0,0,0,4,0,713,700,-0.0292,5249.7588,6.8213,0.4212,54.891994,9.789393,108.3,5.845,1.85,0.00,54.894058,9.790831,0.000000,0.000000
1386960513,1,0,210.0,0,0,0,0,713,750,-0.0292,5249.7588,6.8213,0.4212,54.891979,9.789378,108.3,5.845,1.85,0.00,54.894058,9.790831,0.000000,0.000000
1386960513,1,0,210.0,0,0,4,0,713,700,-0.0292,5249.7588,6.8213,0.4212,54.891964,9.789362,108.3,5.845,1.85,0.00,54.894058,9.790831,0.000000,0.000000
1386960513,1,0,210.0,0,0,0,0,713,750,-0.0292,5249.7588,6.8213,0.4212,54.891949,9.789347,108.3,5.845,1.85,0.00,54.894058,9.790831,0.000000,0.000000
1386960514,1,0,210.0,0,0,4,0,713,700,-0.0292,5249.7588,6.8213,0.4212,54.891930,9.789331,108.3,5.845,1.85,0.00,54.894058,9.790831,0.000000,0.000000
1386960514,1,0,210.0,0,0,0,0,713,750,-0.0292,5249.7588,6.8213,0.4212,54.891914,9.789315,108.3,5.845,1.85,0.00,54.894058,9.790831,0.000000,0.000000
1386960514,1,0,210.0,0,0,4,0,713,700,-0.0292,5249.7588,6.8213,0.4212,54.891899,9.789300,108.3,5.845,1.85,0.00,54.894058,9.790831,0.000000,0.000000
1386960514,1,0,210.0,0,0,0,0,713,750,-0.0292,5249.7588,6.8213,0.4212,54.891880,9.789285,108.3,5.845,1.85,0.00,54.894058,9.790831,0.000000,0.000000
1386960515,1,0,210.0,0,0,4,0,713,700,-0.0292,5249.7588,6.8213,0.4212,54.891865,9.789269,108.3,5.845,1.85,0.00,54.894058,9.790831,0.000000,0.000000
1386960515,1,0,210.0,0,0,0,0,713,750,-0.0292,5249.7588,6.8213,0.4212,54.891850,9.789254,108.3,5.845,1.85,0.00,54.894058,9.790831,0.000000,0.000000
1386960515,1,0,210.0,0,0,4,0,713,700,-0.0292,5249.7588,6.8213,0.4212,54.891830,9.789238,108.3,5.845,1.85,0.00,54.894058,9.790831,0.000000,0.000000
1386960515,1,0,210.0,0,0,0,0,713,750,-0.0292,5249.7588,6.8213,0.4212,54.891815,9.789223,108.3,5.845,1.85,0.00,54.894058,9.790831,0.000000,0.000000
1386960516,1,0,210.0,0,0,4,0,713,700,-0.0292,5249.7588,6.8213,0.4212,54.891800,9.789207,108.3,5.845,1.85,0.00,54.894058,9.790831,0.000000,0.000000
1386960516,1,0,210.0,0,0,0,0,713,750,-0.0292,5249.7588,6.8213,0.4212,54.891781,9.789191,108.3,5.845,1.85,0.00,54.894058,9.790831,0.000000,0.000000
1386960516,1,0,210.0,0,0,4,0,713,700,-0.0292,5249.7588,6.8213,0.4212,54.891766,9.789176,108.3,5.845,1.85,0.00,54.894058,9.790831,0.000000,0.000000
1386960516,1,0,210.0,0,0,0,0,713,750,-0.0292,5249.7588,6.8213,0.4212,54.891750,9.789161,108.3,5.845,1.85,0.00,54.894058,9.790831,0.000000,0.000000
1386960517,1,0,210.0,0,0,4,0,713,700,-0.0292,5249.7588,6.8213,0.4212,54.891731,9.789145,108.3,5.845,1.85,0.00,54.894058,9.790831,0.000000,0.000000
1386960517,1,0,210.0,0,0,0,0,713,750,-0.0292,5249.7588,6.8213,0.4212,54.891716,9.789129,108.3,5.845,1.85,0.00,54.894058,9.790831,0.000000,0.000000
1386960517,1,0,210.0,0,0,4,0,713,700,-0.0292,5249.7588,6.8213,0.4212,54.891701,9.789114,108.3,5.845,1.85,0.00,54.894058,9.790831,0.000000,0.000000
1386960517,1,0,210.0,0,0,0,0,713,750,-0.0292,5249.7588,6.8213,0.4212,54.891682,9.789099,108.3,5.845,1.85,0.00,54.894058,9.790831,0.000000,0.000000
1386960518,1,0,210.0,0,0,4,0,713,700,-0.0292,5249.7588,6.8213,0.4212,54.891666,9.789083,108.3,5.845,1.85,0.00,54.894058,9.790831,0.000000,0.000000
1386960518,1,0,210.0,0,0,0,0,713,750,-0.0292,5249.7588,6.8213,0.4212,54.891651,9.789067,108.3,5.845,1.85,0.00,54.894058,9.790831,0.000000,0.000000
1386960518,1,0,210.0,0,0,4,0,713,700,-0.0292,5249.7588,6.8213,0.4212,54.891632,9.789052,108.3,5.845,1.85,0.00,54.894058,9.790831,0.000000,0.000000
1386960518,1,0,210.0,0,0,0,0,713,750,-0.0292,5249.7588,6.8213,0.4212,54.891617,9.789037,108.3,5.845,1.85,0.00,54.894058,9.790831,0.000000,0.000000
1386960519,1,0,210.0,0,0,4,0,713,700,-0.0292,5249.7588,6.8213,0.4212,54.891602,9.789021,108.3,5.845,1.85,0.00,54.894058,9.790831,0.000000,0.000000
1386960519,1,0,210.0,0,0,0,0,713,750,-0.0292,5249.7588,6.8213,0.4212,54.891582,9.789005,108.3,5.845,1.85,0.00,54.894058,9.790831,0.000000,0.000000
1386960519,1,0,210.0,0,0,4,0,713,700,-0.0292,5249.7588,6.8213,0.4212,54.891567,9.788990,108.3,5.845,1.85,0.00,54.894058,9.790831,0.000000,0.000000
1386960519,1,0,210.0,0,0,0,0,713,750,-0.0292,5249.7588,6.8213,0.4212,54.891552,9.788974,108.3,5.845,1.85,0.00,54.894058,9.790831,0.000000,0.000000
1386960520,1,0,210.0,0,0,4,0,713,700,-0.0292,5249.7588,6.8213,0.4212,54.891533,9.788959,108.3,5.845,1.85,0.00,54.894058,9.790831,0.000000,0.000000
1386960520,1,0,210.0,0,0,0,0,713,750,-0.0292,5249.7588,6.8213,0.4212,54.891518,9.788943,108.3,5.845,1.85,0.00,54.894058,9.790831,0.000000,0.000000
1386960520,1,0,210.0,0,0,4,0,713,700,-0.0292,5249.7588,6.8213,0.4212,54.891502,9.788928,108.3,5.845,1.85,0.00,54.894058,9.790831,0.000000,0.000000
1386960520,1,0,210.0,0,0,0,0,713,750,-0.0292,5249.7588,6.8213,0.4212,54.891487,9.788913,108.3,5.845,1.85,0.00,54.894058,9.790831,0.000000,0.000000
1386960521,1,0,210.0,0,0,4,0,713,700,-0.0292,5249.7588,6.8213,0.4212,54.891472,9.788898,108.3,5.845,1.85,0.00,54.894058,9.790831,0.000000,0.000000
1386960521,1,0,210.0,0,0,0,0,713,750,-0.0292,5249.7588,6.8213,0.4212,54.891457,9.788882,108.3,5.845,1.85,0.00,54.894058,9.790831,0.000000,0.000000
1386960521,1,0,210.0,0,0,4,0,713,700,-0.0292,5249.7588,6.8213,0.4212,54.891438,9.788867,108.3,5.845,1.85,0.00,54.894058,9.790831,0.000000,0.000000
1386960521,1,0,210.0,0,0,0,0,713,750,-0.0292,5249.7588,6.8213,0.4212,54.891422,9.788851,108.3,5.845,1.85,0.00,54.894058,9.790831,0.000000,0.000000
1386960522,1,0,210.0,0,0,4,0,713,700,-0.0292,5249.7588,6.8213,0.4212,54.891407,9.788836,108.3,5.845,1.85,0.00,54.894058,9.790831,0.000000,0.000000
1386960522,1,0,210.0,0,0,0,0,713,750,-0.0292,5249.7588,6.8213,0.4212,54.891388,9.788820,108.3,5.845,1.85,0.00,54.894058,9.790831,0.000000,0.000000
1386960522,1,0,210.0,0,0,4,0,713,700,-0.0292,5249.7588,6.8213,0.4212,54.891373,9.788804,108.3,5.845,1.85,0.00,54.894058,9.790831,0.000000,0.000000
1386960522,1,0,210.0,0,0,0,0,713,750,-0.0292,5249.7588,6.8213,0.4212,54.891357,9.788789,108.3,5.845,1.85,0.00,54.894058,9.790831,0.000000,0.000000
1386960523,1,0,210.0,0,0,4,0,713,700,-0.0292,5249.7588,6.8213,0.4212,54.891338,9.788774,108.3,5.845,1.85,0.00,54.894058,9.790831,0.000000,0.000000
1386960523,1,0,210.0,0,0,0,0,713,750,-0.0292,5249.7588,6.8213,0.4212,54.891323,9.788757,108.3,5.845,1.85,0.00,54.894058,9.790831,0.000000,0.000000
1386960523,1,0,210.0,0,0,4,0,713,700,-0.0292,5249.7588,6.8213,0.4212,54.891308,9.788742,108.3,5.845,1.85,0.00,54.894058,9.790831,0.000000,0.000000
1386960523,1,0,210.0,0,0,0,0,713,750,-0.0292,5249.7588,6.8213,0.4212,54.891289,9.788727,108.3,5.845,1.85,0.00,54.894058,9.790831,0.000000,0.000000
1386960524,1,0,210.0,0,0,4,0,713,700,-0.0292,5249.7588,6.8213,0.4212,54.891273,9.788712,108.3,5.845,1.85,0.00,54.894058,9.790831,0.000000,0.000000
1386960524,1,0,210.0,0,0,0,0,713,750,-0.0292,5249.7588,6.8213,0.4212,54.891258,9.788696,108.3,5.845,1.85,0.00,54.894058,9.790831,0.000000,0.000000
1386960524,1,0,210.0,0,0,4,0,713,700,-0.0292,5249.7588,6.8213,0.4212,54.891239,9.788680,108.3,5.845,1.85,0.00,54.894058,9.790831,0.000000,0.000000
1386960524,1,0,210.0,0,0,0,0,713,750,-0.0292,5249.7588,6.8213,0.4212,54.891224,9.788665,108.3,5.845,1.85,0.00,54.894058,9.790831,0.000000,0.000000
1386960525,1,0,210.0,0,0,4,0,713,700,-0.0292,5249.7588,6.8213,0.4212,54.891209,9.788650,108.3,5.845,1.85,0.00,54.894058,9.790831,0.000000,0.000000
1386960525,1,0,210.0,0,0,0,0,713,750,-0.0292,5249.7588,6.8213,0.4212,54.891190,9.788633,108.3,5.845,1.85,0.00,54.894058,9.790831,0.000000,0.000000
1386960525,1,0,210.0,0,0,4,0,713,700,-0.0292,5249.7588,6.8213,0.4212,54.891174,9.788618,108.3,5.845,1.85,0.00,54.894058,9.790831,0.000000,0.000000
1386960525,1,0,210.0,0,0,0,0,713,750,-0.0292,5249.7588,6.8213,0.4212,54.891159,9.788603,108.3,5.845,1.85,0.00,54.894058,9.790831,0.000000,0.000000
1386960526,1,0,210.0,0,0,4,0,713,700,-0.0292,5249.7588,6.8213,0.4212,54.891140,9.788587,108.3,5.845,1.85,0.00,54.894058,9.790831,0.000000,0.000000
1386960526,1,0,210.0,0,0,0,0,713,750,-0.0292,5249.7588,6.8213,0.4212,54.891125,9.788571,108.3,5.845,1.85,0.00,54.894058,9.790831,0.000000,0.000000
1386960526,1,0,210.0,0,0,4,0,713,700,-0.0292,5249.7588,6.8213,0.4212,54.891109,9.788556,108.3,5.845,1.85,0.00,54.894058,9.790831,0.000000,0.000000
1386960526,1,0,210.0,0,0,0,0,713,750,-0.0292,5249.7588,6.8213,0.4212,54.891090,9.788541,108.3,5.845,1.85,0.00,54.894058,9.790831,0.000000,0.000000
1386960527,1,0,210.0,0,0,4,0,713,700,-0.0292,5249.7588,6.8213,0.4212,54.891075,9.788526,108.3,5.845,1.85,0.00,54.894058,9.790831,0.000000,0.000000
1386960527,1,0,210.0,0,0,0,0,713,750,-0.0292,5249.7588,6.8213,0.4212,54.891060,9.788509,108.3,5.845,1.85,0.00,54.894058,9.790831,0.000000,0.000000
1386960527,1,0,210.0,0,0,4,0,713,700,-0.0292,5249.7588,6.8213,0.4212,54.891045,9.788494,108.3,5.845,1.85,0.00,54.894058,9.790831,0.000000,0.000000
1386960527,1,0,210.0,0,0,0,0,713,750,-0.0292,5249.7588,6.8213,0.4212,54.891029,9.788479,108.3,5.845,1.85,0.00,54.894058,9.790831,0.000000,0.000000
1386960528,1,0,210.0,0,0,4,0,713,700,-0.0292,5249.7588,6.8213,0.4212,54.891014,9.788463,108.3,5.845,1.85,0.00,54.894058,9.790831,0.000000,0.000000
1386960528,1,0,210.0,0,0,0,0,713,750,-0.0292,5249.7588,6.8213,0.4212,54.890995,9.788447,108.3,5.845,1.85,0.00,54.894058,9.790831,0.000000,0.000000
1386960528,1,0,210.0,0,0,4,0,713,700,-0.0292,5249.7588,6.8213,0.4212,54.890980,9.788432,108.3,5.845,1.85,0.00,54.894058,9.790831,0.000000,0.000000
1386960528,1,0,210.0,0,0,0,0,713,750,-0.0292,5249.7588,6.8213,0.4212,54.890965,9.788416,108.3,5.845,1.85,0.00,54.894058,9.790831,0.000000,0.000000
1386960529,1,0,210.0,0,0,4,0,713,700,-0.0292,5249.7588,6.8213,0.4212,54.890945,9.788401,108.3,5.845,1.85,0.00,54.894058,9.790831,0.000000,0.000000
1386960529,1,0,210.0,0,0,0,0,713,750,-0.0292,5249.7588,6.8213,0.4212,54.890930,9.788385,108.3,5.845,1.85,0.00,54.894058,9.790831,0.000000,0.000000
1386960529,1,0,210.0,0,0,4,0,713,700,-0.0292,5249.7588,6.8213,0.4212,54.890915,9.788370,108.3,5.845,1.85,0.00,54.894058,9.790831,0.000000,0.000000
1386960529,1,0,210.0,0,0,0,0,713,750,-0.0292,5249.7588,6.8213,0.4212,54.890896,9.788355,108.3,5.845,1.85,0.00,54.894058,9.790831,0.000000,0.000000
1386960530,1,0,210.0,0,0,4,0,713,700,-0.0292,5249.7588,6.8213,0.4212,54.890881,9.788339,108.3,5.845,1.85,0.00,54.894058,9.790831,0.000000,0.000000
1386960530,1,0,210.0,0,0,0,0,713,750,-0.0292,5249.7588,6.8213,0.4212,54.890865,9.788323,108.3,5.845,1.85,0.00,54.894058,9.790831,0.000000,0.000000
1386960530,1,0,210.0,0,0,4,0,713,700,-0.0292,5249.7588,6.8213,0.4212,54.890846,9.788308,108.3,5.845,1.85,0.00,54.894058,9.790831,0.000000,0.000000
1386960530,1,0,210.0,0,0,0,0,713,750,-0.0292,5249.7588,6.8213,0.4212,54.890831,9.788292,108.3,5.845,1.85,0.00,54.894058,9.790831,0.000000,0.000000
1386960531,1,0,210.0,0,0,4,0,713,700,-0.0292,5249.7588,6.8213,0.4212,54.890816,9.788277,108.3,5.845,1.85,0.00,54.894058,9.790831,0.000000,0.000000
1386960531,1,0,210.0,0,0,0,0,713,750,-0.0292,5249.7588,6.8213,0.4212,54.890797,9.788261,108.3,5.845,1.85,0.00,54.894058,9.790831,0.000000,0.000000
1386960531,1,0,210.0,0,0,4,0,713,700,-0.0292,5249.7588,6.8213,0.4212,54.890781,9.788245,108.3,5.845,1.85,0.00,54.894058,9.790831,0.000000,0.000000
1386960531,1,0,210.0,0,0,0,0,713,750,-0.0292,5249.7588,6.8213,0.4212,54.890766,9.788230,108.3,5.845,1.85,0.00,54.894058,9.790831,0.000000,0.000000
1386960532,1,0,210.0,0,0,4,0,713,700,-0.0292,5249.7588,6.8213,0.4212,54.890747,9.788215,108.3,5.845,1.85,0.00,54.894058,9.790831,0.000000,0.000000
1386960532,1,0,210.0,0,0,0,0,713,750,-0.0292,5249.7588,6.8213,0.4212,54.890732,9.788199,108.3,5.845,1.85,0.00,54.894058,9.790831,0.000000,0.000000
1386960532,1,0,210.0,0,0,4,0,713,700,-0.0292,5249.7588,6.8213,0.4212,54.890717,9.788184,108.3,5.845,1.85,0.00,54.894058,9.790831,0.000000,0.000000
1386960532,1,0,210.0,0,0,0,0,713,750,-0.0292,5249.7588,6.8213,0.4212,54.890697,9.788169,108.3,5.845,1.85,0.00,54.894058,9.790831,0.000000,0.000000
1386960533,1,0,210.0,0,0,4,0,713,700,-0.0292,5249.7588,6.8213,0.4212,54.890682,9.788154,108.3,5.845,1.85,0.00,54.894058,9.790831,0.000000,0.000000
1386960533,1,0,210.0,0,0,0,0,713,750,-0.0292,5249.7588,6.8213,0.4212,54.890667,9.788138,108.3,5.845,1.85,0.00,54.894058,9.790831,0.000000,0.000000
1386960533,1,0,210.0,0,0,4,0,713,700,-0.0292,5249.7588,6.8213,0.4212,54.890648,9.788122,108.3,5.845,1.85,0.00,54.894058,9.790831,0.000000,0.000000
1386960533,1,0,210.0,0,0,0,0,713,750,-0.0292,5249.7588,6.8213,0.4212,54.890633,9.788107,108.3,5.845,1.85,0.00,54.894058,9.790831,0.000000,0.000000
1386960534,1,0,210.0,0,0,4,0,713,700,-0.0292,5249.7588,6.8213,0.4212,54.890617,9.788092,108.3,5.845,1.85,0.00,54.894058,9.790831,0.000000,0.000000
1386960534,1,0,210.0,0,0,0,0,713,750,-0.0292,5249.7588,6.8213,0.4212,54.890598,9.788075,108.3,5.845,1.85,0.00,54.894058,9.790831,0.000000,0.000000
1386960534,1,0,210.0,0,0,4,0,713,700,-0.0292,5249.7588,6.8213,0.4212,54.890583,9.788060,108.3,5.845,1.85,0.00,54.894058,9.790831,0.000000,0.000000
1386960534,1,0,210.0,0,0,0,0,713,750,-0.0292,5249.7588,6.8213,0.4212,54.890568,9.788045,108.3,5.845,1.85,0.00,54.894058,9.790831,0.000000,0.000000
1386960535,1,0,210.0,0,0,4,0,713,700,-0.0292,5249.7588,6.8213,0.4212,54.890553,9.788029,108.3,5.845,1.85,0.00,54.894058,9.790831,0.000000,0.000000
1386960535,1,0,210.0,0,0,0,0,713,750,-0.0292,5249.7588,6.8213,0.4212,54.890537,9.788013,108.3,5.845,1.85,0.00,54.894058,9.790831,0.000000,0.000000
1386960535,1,0,210.0,0,0,4,0,713,700,-0.0292,5249.7588,6.8213,0.4212,54.890522,9.787998,108.3,5.845,1.85,0.00,54.894058,9.790831,0.000000,0.000000
1386960535,1,0,210.0,0,0,0,0,713,750,-0.0292,5249.7588,6.8213,0.4212,54.890503,9.787983,108.3,5.845,1.85,0.00,54.894058,9.790831,0.000000,0.000000
1386960536,1,0,210.0,0,0,4,0,713,700,-0.0292,5249.7588,6.8213,0.4212,54.890488,9.787968,108.3,5.845,1.85,0.00,54.894058,9.790831,0.000000,0.000000
1386960536,1,0,210.0,0,0,0,0,713,750,-0.0292,5249.7588,6.8213,0.4212,54.890472,9.787951,108.3,5.845,1.85,0.00,54.894058,9.790831,0.000000,0.000000
1386960536,1,0,210.0,0,0,4,0,713,700,-0.0292,5249.7588,6.8213,0.4212,54.890453,9.787936,108.3,5.845,1.85,0.00,54.894058,9.790831,0.000000,0.000000
1386960536,1,0,210.0,0,0,0,0,713,750,-0.0292,5249.7588,6.8213,0.4212,54.890438,9.787921,108.3,5.845,1.85,0.00,54.894058,9.790831,0.000000,0.000000
1386960537,1,0,210.0,0,0,4,0,713,700,-0.0292,5249.7588,6.8213,0.4212,54.890423,9.787905,108.3,5.845,1.85,0.00,54.894058,9.790831,0.000000,0.000000
1386960537,1,0,210.0,0,0,0,0,713,750,-0.0292,5249.7588,6.8213,0.4212,54.890404,9.787889,108.3,5.845,1.85,0.00,54.894058,9.790831,0.000000,0.000000
1386960537,1,0,210.0,0,0,4,0,713,700,-0.0292,5249.7588,6.8213,0.4212,54.890388,9.787874,108.3,5.845,1.85,0.00,54.894058,9.790831,0.000000,0.000000
1386960537,1,0,210.0,0,0,0,0,713,750,-0.0292,5249.7588,6.8213,0.4212,54.890373,9.787858,108.3,5.845,1.85,0.00,54.894058,9.790831,0.000000,0.000000
1386960538,1,0,210.0,0,0,4,0,713,700,-0.0292,5249.7588,6.8213,0.4212,54.890354,9.787843,108.3,5.845,1.85,0.00,54.894058,9.790831,0.000000,0.000000
1386960538,1,0,210.0,0,0,0,0,713,750,-0.0292,5249.7588,6.8213,0.4212,54.890339,9.787827,108.3,5.845,1.85,0.00,54.894058,9.790831,0.000000,0.000000
1386960538,1,0,210.0,0,0,4,0,713,700,-0.0292,5249.7588,6.8213,0.4212,54.890324,9.787812,108.3,5.845,1.85,0.00,54.894058,9.790831,0.000000,0.000000
1386960538,1,0,210.0,0,0,0,0,713,750,-0.0292,5249.7588,6.8213,0.4212,54.890305,9.787797,108.3,5.845,1.85,0.00,54.894058,9.790831,0.000000,0.000000
1386960539,1,0,210.0,0,0,4,0,713,700,-0.0292,5249.7588,6.8213,0.4212,54.890289,9.787781,108.3,5.845,1.85,0.00,54.894058,9.790831,0.000000,0.000000
1386960539,1,0,210.0,0,0,0,0,713,750,-0.0292,5249.7588,6.8213,0.4212,54.890274,9.787766,108.3,5.845,1.85,0.00,54.894058,9.790831,0.000000,0.000000
1386960539,1,0,210.0,0,0,4,0,713,700,-0.0292,5249.7588,6.8213,0.4212,54.890255,9.787750,108.3,5.845,1.85,0.00,54.894058,9.790831,0.000000,0.000000
1386960539,1,0,210.0,0,0,0,0,713,750,-0.0292,5249.7588,6.8213,0.4212,54.890240,9.787734,108.3,5.845,1.85,0.00,54.894058,9.790831,0.000000,0.000000
1386960540,1,0,210.0,0,0,4,0,713,700,-0.0292,5249.7588,6.8213,0.4212,54.890224,9.787719,108.3,5.845,1.85,0.00,54.894058,9.790831,0.000000,0.000000
1386960540,1,0,210.0,0,0,0,0,713,750,-0.0292,5249.7588,6.8213,0.4212,54.890205,9.787704,108.3,5.845,1.85,0.00,54.894058,9.790831,0.000000,0.000000
1386960540,1,0,210.0,0,0,4,0,713,700,-0.0292,5249.7588,6.8213,0.4212,54.890190,9.787687,108.3,5.845,1.85,0.00,54.894058,9.790831,0.000000,0.000000
1386960540,1,0,210.0,0,0,0,0,713,750,-0.0292,5249.7588,6.8213,0.4212,54.890175,9.787672,108.3,5.845,1.85,0.00,54.894058,9.790831,0.000000,0.000000
1386960541,1,0,210.0,0,0,4,0,713,700,-0.0292,5249.7588,6.8213,0.4212,54.890156,9.787657,108.3,5.845,1.85,0.00,54.894058,9.790831,0.000000,0.000000
1386960541,1,0,210.0,0,0,0,0,713,750,-0.0292,5249.7588,6.8213,0.4212,54.890141,9.787642,108.3,5.845,1.85,0.00,54.894058,9.790831,0.000000,0.000000
1386960541,1,0,210.0,0,0,4,0,713,700,-0.0292,5249.7588,6.8213,0.4212,54.890125,9.787626,108.3,5.845,1.85,0.00,54.894058,9.790831,0.000000,0.000000
1386960542,1,0,210.0,0,0,0,0,713,750,-0.0292,5249.7588,6.8213,0.4212,54.890110,9.787610,108.3,5.845,1.85,0.00,54.894058,9.790831,0.000000,0.000000
1386960542,1,0,210.0,0,0,4,0,713,700,-0.0292,5249.7588,6.8213,0.4212,54.890095,9.787595,108.3,5.845,1.85,0.00,54.894058,9.790831,0.000000,0.000000
1386960542,1,0,210.0,0,0,0,0,713,750,-0.0292,5249.7588,6.8213,0.4212,54.890079,9.787580,108.3,5.845,1.85,0.00,54.894058,9.790831,0.000000,0.000000
1386960542,1,0,210.0,0,0,4,0,713,700,-0.0292,5249.7588,6.8213,0.4212,54.890060,9.787563,108.3,5.845,1.85,0.00,54.894058,9.790831,0.000000,0.000000
1386960543,1,0,210.0,0,0,0,0,713,750,-0.0292,5249.7588,6.8213,0.4212,54.890045,9.787548,108.3,5.845,1.85,0.00,54.894058,9.790831,0.000000,0.000000
1386960543,1,0,210.0,0,0,4,0,713,700,-0.0292,5249.7588,6.8213,0.4212,54.890030,9.787533,108.3,5.845,1.85,0.00,54.894058,9.790831,0.000000,0.000000
1386960543,1,0,210.0,0,0,0,0,713,750,-0.0292,5249.7588,6.8213,0.4212,54.890011,9.787517,108.3,5.845,1.85,0.00,54.894058,9.790831,0.000000,0.000000
1386960543,1,0,210.0,0,0,4,0,713,700,-0.0292,5249.7588,6.8213,0.4212,54.889996,9.787501,108.3,5.845,1.85,0.00,54.894058,9.790831,0.000000,0.000000
1386960544,1,0,210.0,0,0,0,0,713,750,-0.0292,5249.7588,6.8213,0.4212,54.889980,9.787486,108.3,5.845,1.85,0.00,54.894058,9.790831,0.000000,0.000000
1386960544,1,0,210.0,0,0,4,0,713,700,-0.0292,5249.7588,6.8213,0.4212,54.889961,9.787471,108.3,5.845,1.85,0.00,54.894058,9.790831,0.000000,0.000000
1386960544,1,0,210.0,0,0,0,0,713,750,-0.0292,5249.7588,6.8213,0.4212,54.889946,9.787456,108.3,5.845,1.85,0.00,54.894058,9.790831,0.000000,0.000000
1386960544,1,0,210.0,0,0,4,0,713,700,-0.0292,5249.7588,6.8213,0.4212,54.889931,9.787440,108.3,5.845,1.85,0.00,54.894058,9.790831,0.000000,0.000000
1386960545,1,0,210.0,0,0,0,0,713,750,-0.0292,5249.7588,6.8213,0.4212,54.889912,9.787425,108.3,5.845,1.85,0.00,54.894058,9.790831,0.000000,0.000000
1386960545,1,0,210.0,0,0,4,0,713,700,-0.0292,5249.7588,6.8213,0.4212,54.889896,9.787410,108.3,5.845,1.85,0.00,54.894058,9.790831,0.000000,0.000000
1386960545,1,0,210.0,0,0,0,0,713,750,-0.0292,5249.7588,6.8213,0.4212,54.889881,9.787394,108.3,5.845,1.85,0.00,54.894058,9.790831,0.000000,0.000000
1386960545,1,0,210.0,0,0,4,0,713,700,-0.0292,5249.7588,6.8213,0.4212,54.889862,9.787378,108.3,5.845,1.85,0.00,54.894058,9.790831,0.000000,0.000000
1386960546,1,0,210.0,0,0,0,0,713,750,-0.0292,5249.7588,6.8213,0.4212,54.889847,9.787363,108.3,5.845,1.85,0.00,54.894058,9.790831,0.000000,0.000000
1386960546,1,0,210.0,0,0,4,0,713,700,-0.0292,5249.7588,6.8213,0.4212,54.889832,9.787347,108.3,5.845,1.85,0.00,54.894058,9.790831,0.000000,0.000000
1386960546,1,0,210.0,0,0,0,0,713,750,-0.0292,5249.7588,6.8213,0.4212,54.889812,9.787332,108.3,5.845,1.85,0.00,54.894058,9.790831,0.000000,0.000000
1386960546,1,0,210.0,0,0,4,0,713,700,-0.0292,5249.7588,6.8213,0.4212,54.889797,9.787316,108.3,5.845,1.85,0.00,54.894058,9.790831,0.000000,0.000000
1386960547,0,0,210.0,0,0,4,0,713,700,-0.0292,5249.7588,6.8213,0.4212,54.889797,9.787316,108.3,5.845,1.85,0.00,54.894058,9.790831,0.000000,0.000000
1386960547,0,0,210.0,0,0,4,0,713,700,-0.0292,5249.7588,6.8213,0.4212,54.889797,9.787316,108.3,5.845,1.85,0.00,54.894058,9.790831,0.000000,0.000000
1386960547,0,0,210.0,0,0,4,0,713,700,-0.0292,5249.7588,6.8213,0.4212,54.889797,9.787316,108.3,5.845,1.85,0.00,54.894058,9.790831,0.000000,0.000000
1386960547,0,0,210.0,0,0,4,0,713,700,-0.0292,5249.7588,6.8213,0.4212,54.889797,9.787316,108.3,5.845,1.85,0.00,54.894058,9.790831,0.000000,0.000000
1386960548,0,0,210.0,0,0,4,0,713,700,-0.0292,5249.7588,6.8213,0.4212,54.889797,9.787316,108.3,5.845,1.85,0.00,54.894058,9.790831,0.000000,0.000000
1386960548,0,0,210.0,0,0,4,0,713,700,-0.0292,5249.7588,6.8213,0.4212,54.889797,9.787316,108.3,5.845,1.85,0.00,54.894058,9.790831,0.000000,0.000000
1386960548,0,0,210.0,0,0,4,0,713,700,-0.0292,5249.7588,6.8213,0.4212,54.889797,9.787316,108.3,5.845,1.85,0.00,54.894058,9.790831,0.000000,0.000000
1386960548,0,0,210.0,0,0,4,0,713,700,-0.0292,5249.7588,6.8213,0.4212,54.889797,9.787316,108.3,5.845,1.85,0.00,54.894058,9.790831,0.000000,0.000000
1386960549,0,0,210.0,0,0,4,0,713,700,-0.0292,5249.7588,6.8213,0.4212,54.889797,9.787316,108.3,5.845,1.85,0.00,54.894058,9.790831,0.000000,0.000000
1386960549,0,0,210.0,0,0,4,0,713,700,-0.0292,5249.7588,6.8213,0.4212,54.889797,9.787316,108.3,5.845,1.85,0.00,54.894058,9.790831,0.000000,0.000000
1386960549,4,0,210.0,0,0,4,0,713,700,-0.0292,5249.7588,6.8213,0.4212,54.889797,9.787316,108.3,5.845,1.85,0.00,54.894058,9.790831,0.000000,0.000000
1386960549,1,0,210.0,0,0,0,0,713,750,-0.0292,5249.7588,6.8213,0.4212,54.889782,9.787300,108.3,5.845,1.85,0.00,54.889797,9.787316,54.895069,9.793790
1386960550,1,0,210.0,0,0,4,0,0,700,-0.0292,5249.7588,6.8213,0.4212,54.889763,9.787285,108.3,5.845,1.85,0.00,54.889797,9.787316,54.895069,9.793790
1386960550,1,0,210.0,0,0,0,0,0,650,-0.0292,5249.7588,6.8213,0.4212,54.889748,9.787270,108.3,5.845,1.85,0.00,54.889797,9.787316,54.895069,9.793790
1386960550,1,0,210.0,0,0,4,0,0,600,-0.0292,5249.7588,6.8213,0.4212,54.889732,9.787254,108.3,5.845,1.85,0.00,54.889797,9.787316,54.895069,9.793790
1386960550,1,0,210.0,0,0,0,0,0,550,-0.0292,5249.7588,6.8213,0.4212,54.889713,9.787239,108.3,5.845,1.85,0.00,54.889797,9.787316,54.895069,9.793790
1386960551,1,0,210.0,0,0,4,0,0,500,-0.0292,5249.7588,6.8213,0.4212,54.889698,9.787223,108.3,5.845,1.85,0.00,54.889797,9.787316,54.895069,9.793790
1386960551,1,0,210.0,0,0,0,0,0,450,-0.0292,5249.7588,6.8213,0.4212,54.889683,9.787208,108.3,5.845,1.85,0.00,54.889797,9.787316,54.895069,9.793790
1386960551,1,0,210.0,0,0,4,0,0,400,-0.0292,5249.7588,6.8213,0.4212,54.889664,9.787192,108.3,5.845,1.85,0.00,54.889797,9.787316,54.895069,9.793790
1386960551,1,0,210.0,0,0,0,0,0,350,-0.0292,5249.7588,6.8213,0.4212,54.889648,9.787176,108.3,5.845,1.85,0.00,54.889797,9.787316,54.895069,9.793790
1386960552,1,0,210.0,0,0,4,0,0,300,-0.0292,5249.7588,6.8213,0.4212,54.889633,9.787161,108.3,5.845,1.85,0.00,54.889797,9.787316,54.895069,9.793790
1386960552,1,0,210.0,0,0,0,0,0,250,-0.0292,5249.7588,6.8213,0.4212,54.889618,9.787146,108.3,5.845,1.85,0.00,54.889797,9.787316,54.895069,9.793790
1386960552,1,0,210.0,0,0,4,0,0,200,-0.0292,5249.7588,6.8213,0.4212,54.889603,9.787129,108.3,5.845,1.85,0.00,54.889797,9.787316,54.895069,9.793790
1386960552,1,0,210.0,0,0,0,0,0,150,-0.0292,5249.7588,6.8213,0.4212,54.889587,9.787114,108.3,5.845,1.85,0.00,54.889797,9.787316,54.895069,9.793790
1386960553,1,0,210.0,0,0,4,0,0,100,-0.0292,5249.7588,6.8213,0.4212,54.889568,9.787099,108.3,5.845,1.85,0.00,54.889797,9.787316,54.895069,9.793790
1386960553,1,0,210.0,0,0,0,0,0,50,-0.0292,5249.7588,6.8213,0.4212,54.889553,9.787084,108.3,5.845,1.85,0.00,54.889797,9.787316,54.895069,9.793790
1386960553,1,0,210.0,0,0,4,0,0,0,-0.0292,5249.7588,6.8213,0.4212,54.889538,9.787068,108.3,5.845,1.85,0.00,54.889797,9.787316,54.895069,9.793790
1386960553,1,0,210.0,0,0,0,0,0,0,-0.0292,5249.7588,6.8213,0.4212,54.889519,9.787052,108.3,5.845,1.85,0.00,54.889797,9.787316,54.895069,9.793790
1386960554,1,0,150.0,0,35,4,0,0,0,-0.0292,5240.4253,6.8213,0.4212,54.889500,9.787042,108.3,5.845,1.85,0.00,54.889797,9.787316,54.895069,9.793790
1386960554,1,0,150.0,0,35,8,0,0,0,-0.0292,5231.0918,6.8213,0.4212,54.889481,9.787036,108.3,5.845,1.85,0.00,54.889797,9.787316,54.895069,9.793790
1386960554,1,0,150.0,0,35,12,0,0,0,-0.0292,5221.7583,6.8213,0.4212,54.889465,9.787035,108.3,5.845,1.85,0.00,54.889797,9.787316,54.895069,9.793790
1386960554,1,0,150.0,0,32,16,0,0,0,-0.0292,5213.2251,6.8213,0.4212,54.889446,9.787039,108.3,5.845,1.85,0.00,54.889797,9.787316,54.895069,9.793790
1386960555,1,0,150.0,0,23,20,0,0,0,-0.0292,5207.0918,6.8213,0.4212,54.889427,9.787045,108.3,5.845,1.85,0.00,54.889797,9.787316,54.895069,9.793790
1386960555,1,0,150.0,0,17,16,0,0,0,-0.0292,5202.5586,6.8213,0.4212,54.889412,9.787055,108.3,5.845,1.85,0.00,54.889797,9.787316,54.895069,9.793790
1386960555,1,0,150.0,0,13,12,0,0,0,-0.0292,5199.0918,6.8213,0.4212,54.889397,9.787066,108.3,5.845,1.85,0.00,54.889797,9.787316,54.895069,9.793790
1386960555,1,0,150.0,0,9,8,0,0,0,-0.0292,5196.6919,6.8213,0.4212,54.889378,9.787079,108.3,5.845,1.85,0.00,54.889797,9.787316,54.895069,9.793790
1386960556,0,0,150.0,0,9,8,0,0,0,-0.0292,5196.6919,6.8213,0.4212,54.889378,9.787079,108.3,5.845,1.85,0.00,54.889797,9.787316,54.895069,9.793790
1386960556,0,0,150.0,0,9,8,0,0,0,-0.0292,5196.6919,6.8213,0.4212,54.889378,9.787079,108.3,5.845,1.85,0.00,54.889797,9.787316,54.895069,9.793790
1386960556,0,0,150.0,0,9,8,0,0,0,-0.0292,5196.6919,6.8213,0.4212,54.889378,9.787079,108.3,5.845,1.85,0.00,54.889797,9.787316,54.895069,9.793790
1386960556,0,0,150.0,0,9,8,0,0,0,-0.0292,5196.6919,6.8213,0.4212,54.889378,9.787079,108.3,5.845,1.85,0.00,54.889797,9.787316,54.895069,9.793790
1386960557,4,0,150.0,0,9,8,0,0,0,-0.0292,5196.6919,6.8213,0.4212,54.889378,9.787079,108.3,5.845,1.85,0.00,54.889797,9.787316,54.895069,9.793790
1386960557,1,0,150.0,0,7,4,0,0,0,-0.0292,5194.8252,6.8213,0.4212,54.889362,9.787092,108.3,5.845,1.85,0.00,54.889378,9.787079,54.895069,9.793790
1386960557,1,0,150.0,0,5,8,0,0,0,-0.0292,5193.4917,6.8213,0.4212,54.889347,9.787107,108.3,5.845,1.85,0.00,54.889378,9.787079,54.895069,9.793790
1386960557,1,0,150.0,0,3,4,0,713,50,-0.0292,5192.6919,6.8213,0.4212,54.889332,9.787121,108.3,5.845,1.85,0.00,54.889378,9.787079,54.895069,9.793790
1386960558,1,0,150.0,0,3,0,0,713,100,-0.0292,5191.8921,6.8213,0.4212,54.889317,9.787135,108.3,5.845,1.85,0.00,54.889378,9.787079,54.895069,9.793790
1386960558,1,0,150.0,0,2,4,0,713,150,-0.0292,5191.3589,6.8213,0.4212,54.889297,9.787150,108.3,5.845,1.85,0.00,54.889378,9.787079,54.895069,9.793790
1386960558,1,0,150.0,0,1,0,0,713,200,-0.0292,5191.0923,6.8213,0.4212,54.889282,9.787165,108.3,5.845,1.85,0.00,54.889378,9.787079,54.895069,9.793790
1386960558,1,0,150.0,0,1,4,0,713,250,-0.0292,5190.8257,6.8213,0.4212,54.889267,9.787180,108.3,5.845,1.85,0.00,54.889378,9.787079,54.895069,9.793790
1386960559,1,0,150.0,0,1,0,0,713,300,-0.0292,5190.5591,6.8213,0.4212,54.889248,9.787195,108.3,5.845,1.85,0.00,54.889378,9.787079,54.895069,9.793790
1386960559,1,0,150.0,0,1,4,0,713,350,-0.0292,5190.2925,6.8213,0.4212,54.889233,9.787210,108.3,5.845,1.85,0.00,54.889378,9.787079,54.895069,9.793790
1386960559,1,0,55.0,0,35,8,0,713,400,-0.0292,5180.9590,6.8213,0.4212,54.889221,9.787230,108.3,5.845,1.85,0.00,54.889378,9.787079,54.895069,9.793790
1386960559,1,0,55.0,0,35,12,0,713,450,-0.0292,5171.6255,6.8213,0.4212,54.889210,9.787253,108.3,5.845,1.85,0.00,54.889378,9.787079,54.895069,9.793790
1386960560,1,0,55.0,0,35,16,0,870,500,-0.0292,5162.2920,6.8213,0.4212,54.889202,9.787280,108.3,5.845,1.85,0.00,54.889378,9.787079,54.895069,9.793790
1386960560,1,0,55.0,0,35,20,0,870,550,-0.0292,5152.9585,6.8213,0.4212,54.889194,9.787309,108.3,5.845,1.85,0.00,54.889378,9.787079,54.895069,9.793790
1386960560,1,0,55.0,0,35,24,0,758,600,-0.0292,5143.6250,6.8213,0.4212,54.889187,9.787339,108.3,5.845,1.85,0.00,54.889378,9.787079,54.895069,9.793790
1386960560,1,0,55.0,0,35,28,0,615,650,-0.0292,5134.2915,6.8213,0.4212,54.889187,9.787371,108.3,5.845,1.85,0.00,54.889378,9.787079,54.895069,9.793790
1386960561,1,0,55.0,0,35,32,0,468,600,-0.0292,5124.9580,6.8213,0.4212,54.889191,9.787401,108.3,5.845,1.85,0.00,54.889378,9.787079,54.895069,9.793790
1386960561,1,0,55.0,0,30,28,0,319,550,-0.0292,5116.9580,6.8213,0.4212,54.889198,9.787432,108.3,5.845,1.85,0.00,54.889378,9.787079,54.895069,9.793790
1386960561,1,0,55.0,0,22,24,0,198,500,-0.0292,5111.0913,6.8213,0.4212,54.889202,9.787461,108.3,5.845,1.85,0.00,54.889378,9.787079,54.895069,9.793790
1386960561,1,0,55.0,0,16,20,0,117,450,-0.0292,5106.8247,6.8213,0.4212,54.889210,9.787490,108.3,5.845,1.85,0.00,54.889378,9.787079,54.895069,9.793790
1386960562,1,0,55.0,0,12,16,0,68,400,-0.0292,5103.6245,6.8213,0.4212,54.889217,9.787518,108.3,5.845,1.85,0.00,54.889378,9.787079,54.895069,9.793790
1386960562,1,0,55.0,0,9,12,0,38,350,-0.0292,5101.2246,6.8213,0.4212,54.889225,9.787545,108.3,5.845,1.85,0.00,54.889378,9.787079,54.895069,9.793790
1386960562,1,0,55.0,0,6,8,0,20,300,-0.0292,5099.6245,6.8213,0.4212,54.889233,9.787572,108.3,5.845,1.85,0.00,54.889378,9.787079,54.895069,9.793790
1386960562,1,0,55.0,0,5,4,0,11,250,-0.0292,5098.2910,6.8213,0.4212,54.889244,9.787599,108.3,5.845,1.85,0.00,54.889378,9.787079,54.895069,9.793790
1386960563,1,0,55.0,0,3,0,0,6,200,-0.0292,5097.4912,6.8213,0.4212,54.889252,9.787625,108.3,5.845,1.85,0.00,54.889378,9.787079,54.895069,9.793790
1386960563,1,0,55.0,0,2,4,0,3,150,-0.0292,5096.9580,6.8213,0.4212,54.889263,9.787651,108.3,5.845,1.85,0.00,54.889378,9.787079,54.895069,9.793790
1386960563,1,0,55.0,0,2,0,0,2,100,-0.0292,5096.4248,6.8213,0.4212,54.889275,9.787678,108.3,5.845,1.85,0.00,54.889378,9.787079,54.895069,9.793790
1386960563,1,0,55.0,0,1,4,0,1,50,-0.0292,5096.1582,6.8213,0.4212,54.889286,9.787704,108.3,5.845,1.85,0.00,54.889378,9.787079,54.895069,9.793790
1386960564,1,0,55.0,0,1,0,0,1,0,-0.0292,5095.8916,6.8213,0.4212,54.889297,9.787729,108.3,5.845,1.85,0.00,54.889378,9.787079,54.895069,9.793790
1386960564,1,0,55.0,0,1,4,0,0,0,-0.0292,5095.6250,6.8213,0.4212,54.889305,9.787755,108.3,5.845,1.85,0.00,54.889378,9.787079,54.895069,9.793790
1386960564,1,0,55.0,0,1,0,0,0,0,-0.0292,5095.3584,6.8213,0.4212,54.889317,9.787781,108.3,5.845,1.85,0.00,54.889378,9.787079,54.895069,9.793790
1386960564,1,0,55.0,0,0,4,0,0,0,-0.0292,5095.3584,6.8213,0.4212,54.889324,9.787807,108.3,5.845,1.85,0.00,54.889378,9.787079,54.895069,9.793790
1386960565,1,0,55.0,0,0,0,0,0,0,-0.0292,5095.3584,6.8213,0.4212,54.889336,9.787832,108.3,5.845,1.85,0.00,54.889378,9.787079,54.895069,9.793790
1386960565,1,0,55.0,0,0,4,0,0,0,-0.0292,5095.3584,6.8213,0.4212,54.889347,9.787857,108.3,5.845,1.85,0.00,54.889378,9.787079,54.895069,9.793790
1386960565,1,0,55.0,0,0,0,0,0,0,-0.0292,5095.3584,6.8213,0.4212,54.889359,9.787883,108.3,5.845,1.85,0.00,54.889378,9.787079,54.895069,9.793790
1386960565,1,0,55.0,0,0,4,0,0,0,-0.0292,5095.3584,6.8213,0.4212,54.889370,9.787909,108.3,5.845,1.85,0.00,54.889378,9.787079,54.895069,9.793790
1386960566,1,0,55.0,0,0,0,0,0,0,-0.0292,5095.3584,6.8213,0.4212,54.889378,9.787934,108.3,5.845,1.85,0.00,54.889378,9.787079,54.895069,9.793790
1386960566,1,0,55.0,0,0,4,0,0,0,-0.0292,5095.3584,6.8213,0.4212,54.889389,9.787960,108.3,5.845,1.85,0.00,54.889378,9.787079,54.895069,9.793790
1386960566,1,0,55.0,0,0,0,0,0,0,-0.0292,5095.3584,6.8213,0.4212,54.889397,9.787985,108.3,5.845,1.85,0.00,54.889378,9.787079,54.895069,9.793790
1386960566,1,0,55.0,0,0,4,0,0,0,-0.0292,5095.3584,6.8213,0.4212,54.889408,9.788011,108.3,5.845,1.85,0.00,54.889378,9.787079,54.895069,9.793790
1386960567,1,0,55.0,0,0,0,0,0,0,-0.0292,5095.3584,6.8213,0.4212,54.889420,9.788036,108.3,5.845,1.85,0.00,54.889378,9.787079,54.895069,9.793790
1386960567,1,0,55.0,0,0,4,0,0,0,-0.0292,5095.3584,6.8213,0.4212,54.889427,9.788062,108.3,5.845,1.85,0.00,54.889378,9.787079,54.895069,9.793790
1386960567,1,0,55.0,0,0,0,0,0,0,-0.0292,5095.3584,6.8213,0.4212,54.889439,9.788088,108.3,5.845,1.85,0.00,54.889378,9.787079,54.895069,9.793790
1386960567,1,0,55.0,0,0,4,0,0,0,-0.0292,5095.3584,6.8213,0.4212,54.889446,9.788113,108.3,5.845,1.85,0.00,54.889378,9.787079,54.895069,9.793790
1386960568,1,0,-55.0,0,35,8,0,0,0,-0.0292,5086.0249,6.8213,0.4212,54.889458,9.788136,108.3,5.845,1.85,0.00,54.889378,9.787079,54.895069,9.793790
1386960568,1,0,-55.0,0,35,12,0,0,0,-0.0292,5076.6914,6.8213,0.4212,54.889473,9.788154,108.3,5.845,1.85,0.00,54.889378,9.787079,54.895069,9.793790
1386960568,1,0,-55.0,0,35,16,0,0,0,-0.0292,5067.3579,6.8213,0.4212,54.889488,9.788168,108.3,5.845,1.85,0.00,54.889378,9.787079,54.895069,9.793790
1386960568,1,0,-55.0,0,35,20,0,0,0,-0.0292,5058.0244,6.8213,0.4212,54.889503,9.788178,108.3,5.845,1.85,0.00,54.889378,9.787079,54.895069,9.793790
1386960569,1,0,-55.0,0,35,24,0,0,0,-0.0292,5048.6909,6.8213,0.4212,54.889523,9.788183,108.3,5.845,1.85,0.00,54.889378,9.787079,54.895069,9.793790
1386960569,1,0,-55.0,0,35,28,0,0,0,-0.0292,5039.3574,6.8213,0.4212,54.889542,9.788182,108.3,5.845,1.85,0.00,54.889378,9.787079,54.895069,9.793790
1386960569,1,0,-55.0,0,35,32,0,0,0,-0.0292,5030.0239,6.8213,0.4212,54.889557,9.788177,108.3,5.845,1.85,0.00,54.889378,9.787079,54.895069,9.793790
1386960569,1,0,-55.0,0,35,36,0,0,0,-0.0292,5020.6904,6.8213,0.4212,54.889576,9.788166,108.3,5.845,1.85,0.00,54.889378,9.787079,54.895069,9.793790
1386960570,1,0,-55.0,0,35,32,0,0,0,-0.0292,5011.3569,6.8213,0.4212,54.889591,9.788152,108.3,5.845,1.85,0.00,54.889378,9.787079,54.895069,9.793790
1386960570,1,0,-55.0,0,26,28,0,0,0,-0.0292,5004.4238,6.8213,0.4212,54.889606,9.788134,108.3,5.845,1.85,0.00,54.889378,9.787079,54.895069,9.793790
1386960570,1,0,-55.0,0,19,24,0,0,0,-0.0292,4999.3569,6.8213,0.4212,54.889622,9.788113,108.3,5.845,1.85,0.00,54.889378,9.787079,54.895069,9.793790
1386960570,1,0,-55.0,0,14,20,0,0,0,-0.0292,4995.6235,6.8213,0.4212,54.889633,9.788091,108.3,5.845,1.85,0.00,54.889378,9.787079,54.895069,9.793790
1386960571,1,0,-55.0,0,11,16,0,0,0,-0.0292,4992.6904,6.8213,0.4212,54.889648,9.788068,108.3,5.845,1.85,0.00,54.889378,9.787079,54.895069,9.793790
1386960571,1,0,-55.0,0,8,12,0,0,0,-0.0292,4990.5571,6.8213,0.4212,54.889660,9.788044,108.3,5.845,1.85,0.00,54.889378,9.787079,54.895069,9.793790
1386960571,1,0,-55.0,0,6,8,0,0,0,-0.0292,4988.9570,6.8213,0.4212,54.889668,9.788020,108.3,5.845,1.85,0.00,54.889378,9.787079,54.895069,9.793790
1386960571,1,0,-55.0,0,4,4,0,0,0,-0.0292,4987.8901,6.8213,0.4212,54.889679,9.787995,108.3,5.845,1.85,0.00,54.889378,9.787079,54.895069,9.793790
1386960572,1,0,-55.0,0,3,0,0,0,0,-0.0292,4987.0903,6.8213,0.4212,54.889690,9.787971,108.3,5.845,1.85,0.00,54.889378,9.787079,54.895069,9.793790
1386960572,1,0,-55.0,0,2,4,0,0,0,-0.0292,4986.5571,6.8213,0.4212,54.889702,9.787945,108.3,5.845,1.85,0.00,54.889378,9.787079,54.895069,9.793790
1386960572,1,0,-55.0,0,2,0,0,0,0,-0.0292,4986.0239,6.8213,0.4212,54.889713,9.787920,108.3,5.845,1.85,0.00,54.889378,9.787079,54.895069,9.793790
1386960572,1,0,-55.0,0,1,4,0,0,0,-0.0292,4985.7573,6.8213,0.4212,54.889721,9.787894,108.3,5.845,1.85,0.00,54.889378,9.787079,54.895069,9.793790
1386960573,1,0,-55.0,0,1,0,0,0,0,-0.0292,4985.4907,6.8213,0.4212,54.889732,9.787868,108.3,5.845,1.85,0.00,54.889378,9.787079,54.895069,9.793790
1386960573,1,0,-55.0,0,0,4,0,0,0,-0.0292,4985.4907,6.8213,0.4212,54.889740,9.787844,108.3,5.845,1.85,0.00,54.889378,9.787079,54.895069,9.793790
1386960573,1,0,-55.0,0,0,0,0,0,0,-0.0292,4985.4907,6.8213,0.4212,54.889751,9.787818,108.3,5.845,1.85,0.00,54.889378,9.787079,54.895069,9.793790
1386960573,1,0,-55.0,0,0,4,0,0,0,-0.0292,4985.4907,6.8213,0.4212,54.889763,9.787793,108.3,5.845,1.85,0.00,54.889378,9.787079,54.895069,9.793790
1386960574,1,0,-55.0,0,0,0,0,0,0,-0.0292,4985.4907,6.8213,0.4212,54.889771,9.787767,108.3,5.845,1.85,0.00,54.889378,9.787079,54.895069,9.793790
1386960574,1,0,-55.0,0,0,4,0,0,0,-0.0292,4985.4907,6.8213,0.4212,54.889782,9.787742,108.3,5.845,1.85,0.00,54.889378,9.787079,54.895069,9.793790
1386960574,1,0,-55.0,0,0,0,0,0,0,-0.0292,4985.4907,6.8213,0.4212,54.889790,9.787717,108.3,5.845,1.85,0.00,54.889378,9.787079,54.895069,9.793790
1386960575,1,0,-55.0,0,0,4,0,0,0,-0.0292,4985.4907,6.8213,0.4212,54.889801,9.787691,108.3,5.845,1.85,0.00,54.889378,9.787079,54.895069,9.793790
1386960575,1,0,-55.0,0,0,0,0,0,0,-0.0292,4985.4907,6.8213,0.4212,54.889812,9.787666,108.3,5.845,1.85,0.00,54.889378,9.787079,54.895069,9.793790
1386960575,1,0,-55.0,0,0,4,0,0,0,-0.0292,4985.4907,6.8213,0.4212,54.889820,9.787641,108.3,5.845,1.85,0.00,54.889378,9.787079,54.895069,9.793790
1386960575,1,0,-55.0,0,0,0,0,0,0,-0.0292,4985.4907,6.8213,0.4212,54.889832,9.787615,108.3,5.845,1.85,0.00,54.889378,9.787079,54.895069,9.793790
1386960576,1,0,-55.0,0,0,4,0,0,0,-0.0292,4985.4907,6.8213,0.4212,54.889839,9.787590,108.3,5.845,1.85,0.00,54.889378,9.787079,54.895069,9.793790
1386960576,1,0,-55.0,0,0,0,0,0,0,-0.0292,4985.4907,6.8213,0.4212,54.889851,9.787564,108.3,5.845,1.85,0.00,54.889378,9.787079,54.895069,9.793790
1386960576,1,0,-55.0,0,0,4,0,0,0,-0.0292,4985.4907,6.8213,0.4212,54.889862,9.787539,108.3,5.845,1.85,0.00,54.889378,9.787079,54.895069,9.793790
1386960576,1,0,-55.0,0,0,0,0,0,0,-0.0292,4985.4907,6.8213,0.4212,54.889874,9.787514,108.3,5.845,1.85,0.00,54.889378,9.787079,54.895069,9.793790
1386960577,1,0,-55.0,0,0,4,0,0,0,-0.0292,4985.4907,6.8213,0.4212,54.889885,9.787488,108.3,5.845,1.85,0.00,54.889378,9.787079,54.895069,9.793790
1386960577,1,0,-55.0,0,0,0,0,0,0,-0.0292,4985.4907,6.8213,0.4212,54.889893,9.787462,108.3,5.845,1.85,0.00,54.889378,9.787079,54.895069,9.793790
1386960577,1,0,-55.0,0,0,4,0,0,0,-0.0292,4985.4907,6.8213,0.4212,54.889904,9.787436,108.3,5.845,1.85,0.00,54.889378,9.787079,54.895069,9.793790
1386960577,1,0,-55.0,0,0,0,0,0,0,-0.0292,4985.4907,6.8213,0.4212,54.889915,9.787412,108.3,5.845,1.85,0.00,54.889378,9.787079,54.895069,9.793790
1386960578,1,0,-55.0,0,0,4,0,0,0,-0.0292,4985.4907,6.8213,0.4212,54.889927,9.787386,108.3,5.845,1.85,0.00,54.889378,9.787079,54.895069,9.793790
1386960578,1,0,-55.0,0,0,0,0,0,0,-0.0292,4985.4907,6.8213,0.4212,54.889938,9.787360,108.3,5.845,1.85,0.00,54.889378,9.787079,54.895069,9.793790
1386960578,1,0,-55.0,0,0,4,0,0,0,-0.0292,4985.4907,6.8213,0.4212,54.889950,9.787334,108.3,5.845,1.85,0.00,54.889378,9.787079,54.895069,9.793790
1386960578,1,0,-55.0,0,0,0,0,0,0,-0.0292,4985.4907,6.8213,0.4212,54.889961,9.787309,108.3,5.845,1.85,0.00,54.889378,9.787079,54.895069,9.793790
1386960579,1,0,-55.0,0,0,4,0,0,0,-0.0292,4985.4907,6.8213,0.4212,54.889973,9.787284,108.3,5.845,1.85,0.00,54.889378,9.787079,54.895069,9.793790
1386960579,1,0,-55.0,0,0,0,0,0,0,-0.0292,4985.4907,6.8213,0.4212,54.889984,9.787258,108.3,5.845,1.85,0.00,54.889378,9.787079,54.895069,9.793790
1386960579,1,0,-55.0,0,0,4,0,0,0,-0.0292,4985.4907,6.8213,0.4212,54.889992,9.787233,108.3,5.845,1.85,0.00,54.889378,9.787079,54.895069,9.793790
1386960579,1,0,-55.0,0,0,0,0,0,0,-0.0292,4985.4907,6.8213,0.4212,54.890003,9.787208,108.3,5.845,1.85,0.00,54.889378,9.787079,54.895069,9.793790
1386960580,1,0,-55.0,0,0,4,0,0,0,-0.0292,4985.4907,6.8213,0.4212,54.890011,9.787182,108.3,5.845,1.85,0.00,54.889378,9.787079,54.895069,9.793790
1386960580,1,0,-55.0,0,0,0,0,0,0,-0.0292,4985.4907,6.8213,0.4212,54.890022,9.787157,108.3,5.845,1.85,0.00,54.889378,9.787079,54.895069,9.793790
1386960580,1,0,-55.0,0,0,4,0,0,0,-0.0292,4985.4907,6.8213,0.4212,54.890034,9.787131,108.3,5.845,1.85,0.00,54.889378,9.787079,54.895069,9.793790
1386960580,1,0,-55.0,0,0,0,0,0,0,-0.0292,4985.4907,6.8213,0.4212,54.890041,9.787107,108.3,5.845,1.85,0.00,54.889378,9.787079,54.895069,9.793790
1386960581,1,0,-55.0,0,0,4,0,0,0,-0.0292,4985.4907,6.8213,0.4212,54.890053,9.787081,108.3,5.845,1.85,0.00,54.889378,9.787079,54.895069,9.793790
1386960581,1,0,-55.0,0,0,0,0,0,0,-0.0292,4985.4907,6.8213,0.4212,54.890060,9.787055,108.3,5.845,1.85,0.00,54.889378,9.787079,54.895069,9.793790
1386960581,1,0,-55.0,0,0,4,0,0,0,-0.0292,4985.4907,6.8213,0.4212,54.890072,9.787030,108.3,5.845,1.85,0.00,54.889378,9.787079,54.895069,9.793790
1386960581,1,0,-55.0,0,0,0,0,0,0,-0.0292,4985.4907,6.8213,0.4212,54.890083,9.787004,108.3,5.845,1.85,0.00,54.889378,9.787079,54.895069,9.793790
1386960582,1,0,-55.0,0,0,4,0,0,0,-0.0292,4985.4907,6.8213,0.4212,54.890091,9.786980,108.3,5.845,1.85,0.00,54.889378,9.787079,54.895069,9.793790
1386960582,1,0,-55.0,0,0,0,0,0,0,-0.0292,4985.4907,6.8213,0.4212,54.890102,9.786954,108.3,5.845,1.85,0.00,54.889378,9.787079,54.895069,9.793790
1386960582,1,0,55.0,0,-35,-4,0,0,0,-0.0292,4994.8242,6.8213,0.4212,54.890114,9.786932,108.3,5.845,1.85,0.00,54.889378,9.787079,54.895069,9.793790
1386960582,1,0,55.0,0,-35,-8,0,0,0,-0.0292,5004.1577,6.8213,0.4212,54.890129,9.786913,108.3,5.845,1.85,0.00,54.889378,9.787079,54.895069,9.793790
1386960583,1,0,55.0,0,-35,-12,0,0,0,-0.0292,5013.4912,6.8213,0.4212,54.890144,9.786899,108.3,5.845,1.85,0.00,54.889378,9.787079,54.895069,9.793790
1386960583,1,0,55.0,0,-35,-16,0,0,0,-0.0292,5022.8247,6.8213,0.4212,54.890163,9.786889,108.3,5.845,1.85,0.00,54.889378,9.787079,54.895069,9.793790
1386960583,1,0,55.0,0,-35,-20,0,0,0,-0.0292,5032.1582,6.8213,0.4212,54.890182,9.786884,108.3,5.845,1.85,0.00,54.889378,9.787079,54.895069,9.793790
1386960583,1,0,55.0,0,-35,-24,0,0,0,-0.0292,5041.4917,6.8213,0.4212,54.890202,9.786885,108.3,5.845,1.85,0.00,54.889378,9.787079,54.895069,9.793790
1386960584,1,0,55.0,0,-35,-28,0,0,0,-0.0292,5050.8252,6.8213,0.4212,54.890217,9.786892,108.3,5.845,1.85,0.00,54.889378,9.787079,54.895069,9.793790
