MCU_timestamp,Navigation_System,Manual_Control,Guidance_Heading,Manual_Ctrl_Rudder,Rudder_Desired_Angle,Rudder_Feedback,Manual_Ctrl_Sail,Sail_Desired_Pos,Sail_Feedback,Rate,Heading,Pitch,Roll,Latitude,Longitude,COG,SOG,Wind_Speed,Wind_Angle,Point_Start_Lat,Point_Start_Lon,Point_End_Lat,Point_End_Lon
1386870412,0,0,0.0,0,0,4,0,0,0,-0.0292,126.5587,6.8213,0.4212,54.887451,9.805910,108.3,5.845,1.85,335.95,0.000000,0.000000,0.000000,0.000000
1386870412,0,0,0.0,0,0,4,0,0,0,-0.0292,126.5587,6.8213,0.4212,54.887451,9.805910,108.3,5.845,1.85,335.95,0.000000,0.000000,0.000000,0.000000
1386870412,0,0,0.0,0,0,4,0,0,0,-0.0292,126.5587,6.8213,0.4212,54.887451,9.805910,108.3,5.845,1.85,335.95,0.000000,0.000000,0.000000,0.000000
1386870412,0,0,0.0,0,0,4,0,0,0,-0.0292,126.5587,6.8213,0.4212,54.887451,9.805910,108.3,5.845,1.85,335.95,0.000000,0.000000,0.000000,0.000000
1386870413,0,0,0.0,0,0,4,0,0,0,-0.0292,126.5587,6.8213,0.4212,54.887451,9.805910,108.3,5.845,1.85,335.95,0.000000,0.000000,0.000000,0.000000
1386870413,0,0,0.0,0,0,4,0,0,0,-0.0292,126.5587,6.8213,0.4212,54.887451,9.805910,108.3,5.845,1.85,335.95,0.000000,0.000000,0.000000,0.000000
1386870413,0,0,0.0,0,0,4,0,0,0,-0.0292,126.5587,6.8213,0.4212,54.887451,9.805910,108.3,5.845,1.85,335.95,0.000000,0.000000,0.000000,0.000000
1386870413,0,0,0.0,0,0,4,0,0,0,-0.0292,126.5587,6.8213,0.4212,54.887451,9.805910,108.3,5.845,1.85,335.95,0.000000,0.000000,0.000000,0.000000
1386870414,0,0,0.0,0,0,4,0,0,0,-0.0292,126.5587,6.8213,0.4212,54.887451,9.805910,108.3,5.845,1.85,335.95,0.000000,0.000000,0.000000,0.000000
1386870414,0,0,0.0,0,0,4,0,0,0,-0.0292,126.5587,6.8213,0.4212,54.887451,9.805910,108.3,5.845,1.85,335.95,0.000000,0.000000,0.000000,0.000000
1386870414,0,0,0.0,0,0,4,0,0,0,-0.0292,126.5587,6.8213,0.4212,54.887451,9.805910,108.3,5.845,1.85,335.95,0.000000,0.000000,0.000000,0.000000
1386870414,0,0,0.0,0,0,4,0,0,0,-0.0292,126.5587,6.8213,0.4212,54.887451,9.805910,108.3,5.845,1.85,335.95,0.000000,0.000000,0.000000,0.000000
1386870415,0,0,0.0,0,0,4,0,0,0,-0.0292,126.5587,6.8213,0.4212,54.887451,9.805910,108.3,5.845,1.85,335.95,0.000000,0.000000,0.000000,0.000000
1386870415,0,0,0.0,0,0,4,0,0,0,-0.0292,126.5587,6.8213,0.4212,54.887451,9.805910,108.3,5.845,1.85,335.95,0.000000,0.000000,0.000000,0.000000
1386870415,0,0,0.0,0,0,4,0,0,0,-0.0292,126.5587,6.8213,0.4212,54.887451,9.805910,108.3,5.845,1.85,335.95,0.000000,0.000000,0.000000,0.000000
1386870415,0,0,0.0,0,0,4,0,0,0,-0.0292,126.5587,6.8213,0.4212,54.887451,9.805910,108.3,5.845,1.85,335.95,0.000000,0.000000,0.000000,0.000000
1386870416,0,0,0.0,0,0,4,0,0,0,-0.0292,126.5587,6.8213,0.4212,54.887451,9.805910,108.3,5.845,1.85,335.95,0.000000,0.000000,0.000000,0.000000
1386870416,0,0,0.0,0,0,4,0,0,0,-0.0292,126.5587,6.8213,0.4212,54.887451,9.805910,108.3,5.845,1.85,335.95,0.000000,0.000000,0.000000,0.000000
1386870416,0,0,0.0,0,0,4,0,0,0,-0.0292,126.5587,6.8213,0.4212,54.887451,9.805910,108.3,5.845,1.85,335.95,0.000000,0.000000,0.000000,0.000000
1386870416,0,0,0.0,0,0,4,0,0,0,-0.0292,126.5587,6.8213,0.4212,54.887451,9.805910,108.3,5.845,1.85,335.95,0.000000,0.000000,0.000000,0.000000
1386870417,4,0,0.0,0,0,4,0,0,0,-0.0292,126.5587,6.8213,0.4212,54.887451,9.805910,108.3,5.845,1.85,335.95,0.000000,0.000000,0.000000,0.000000
1386870417,1,0,280.9,0,-35,0,0,409,250,-0.0292,135.8921,6.8213,0.4212,54.887436,9.805932,108.3,5.845,1.85,335.95,54.887451,9.805910,54.895069,9.793790
1386870417,1,0,280.9,0,-35,-4,0,409,275,-0.0292,145.2254,6.8213,0.4212,54.887421,9.805949,108.3,5.845,1.85,335.95,54.887451,9.805910,54.895069,9.793790
1386870417,1,0,280.9,0,-35,-8,0,409,300,-0.0292,154.5587,6.8213,0.4212,54.887402,9.805963,108.3,5.845,1.85,335.95,54.887451,9.805910,54.895069,9.793790
1386870418,1,0,280.9,0,-35,-12,0,0,275,-0.0292,163.8921,6.8213,0.4212,54.887383,9.805972,108.3,5.845,1.85,335.95,54.887451,9.805910,54.895069,9.793790
1386870418,1,0,280.9,0,-35,-16,0,0,250,-0.0292,173.2254,6.8213,0.4212,54.887363,9.805976,108.3,5.845,1.85,335.95,54.887451,9.805910,54.895069,9.793790
1386870418,1,0,280.9,0,-35,-20,0,409,275,-0.0292,182.5587,6.8213,0.4212,54.887348,9.805974,108.3,5.845,1.85,335.95,54.887451,9.805910,54.895069,9.793790
1386870418,1,0,280.9,0,-35,-24,0,409,300,-0.0292,191.8920,6.8213,0.4212,54.887329,9.805967,108.3,5.845,1.85,335.95,54.887451,9.805910,54.895069,9.793790
1386870419,1,0,280.9,0,-35,-28,0,409,325,-0.0292,201.2254,6.8213,0.4212,54.887310,9.805956,108.3,5.845,1.85,335.95,54.887451,9.805910,54.895069,9.793790
1386870419,1,0,280.9,0,-35,-32,0,578,350,-0.0292,210.5587,6.8213,0.4212,54.887295,9.805941,108.3,5.845,1.85,335.95,54.887451,9.805910,54.895069,9.793790
1386870419,1,0,280.9,0,-35,-36,0,535,375,-0.0292,219.8920,6.8213,0.4212,54.887283,9.805921,108.3,5.845,1.85,335.95,54.887451,9.805910,54.895069,9.793790
1386870419,1,0,280.9,0,-35,-32,0,461,400,-0.0292,229.2254,6.8213,0.4212,54.887272,9.805897,108.3,5.845,1.85,335.95,54.887451,9.805910,54.895069,9.793790
1386870420,1,0,280.9,0,-35,-36,0,381,375,-0.0292,238.5587,6.8213,0.4212,54.887264,9.805870,108.3,5.845,1.85,335.95,54.887451,9.805910,54.895069,9.793790
1386870420,1,0,280.9,0,-35,-32,0,297,350,-0.0292,247.8920,6.8213,0.4212,54.887257,9.805841,108.3,5.845,1.85,335.95,54.887451,9.805910,54.895069,9.793790
1386870420,1,0,280.9,0,-33,-36,0,211,325,-0.0292,256.6920,6.8213,0.4212,54.887253,9.805811,108.3,5.845,1.85,335.95,54.887451,9.805910,54.895069,9.793790
1386870420,1,0,280.9,0,-24,-32,0,132,300,-0.0292,263.0920,6.8213,0.4212,54.887249,9.805779,108.3,5.845,1.85,335.95,54.887451,9.805910,54.895069,9.793790
1386870421,1,0,280.9,0,-18,-28,0,80,275,-0.0292,267.8920,6.8213,0.4212,54.887245,9.805749,108.3,5.845,1.85,335.95,54.887451,9.805910,54.895069,9.793790
1386870421,1,0,280.9,0,-13,-24,0,46,250,-0.0292,271.3587,6.8213,0.4212,54.887249,9.805717,108.3,5.845,1.85,335.95,54.887451,9.805910,54.895069,9.793790
1386870421,1,0,280.9,0,-10,-20,0,26,225,-0.0292,274.0253,6.8213,0.4212,54.887249,9.805686,108.3,5.845,1.85,335.95,54.887451,9.805910,54.895069,9.793790
1386870421,1,0,280.9,0,-7,-16,0,14,200,-0.0292,275.8920,6.8213,0.4212,54.887249,9.805655,108.3,5.845,1.85,335.95,54.887451,9.805910,54.895069,9.793790
1386870422,1,0,280.9,0,-5,-12,0,7,175,-0.0292,277.2253,6.8213,0.4212,54.887249,9.805624,108.3,5.845,1.85,335.95,54.887451,9.805910,54.895069,9.793790
1386870422,1,0,280.9,0,-4,-8,0,4,150,-0.0292,278.2920,6.8213,0.4212,54.887249,9.805593,108.3,5.845,1.85,335.95,54.887451,9.805910,54.895069,9.793790
1386870422,1,0,280.9,0,-3,-4,0,2,125,-0.0292,279.0920,6.8213,0.4212,54.887249,9.805562,108.3,5.845,1.85,335.95,54.887451,9.805910,54.895069,9.793790
1386870422,1,0,280.9,0,-2,0,0,1,100,-0.0292,279.6253,6.8213,0.4212,54.887249,9.805532,108.3,5.845,1.85,335.95,54.887451,9.805910,54.895069,9.793790
1386870423,1,0,280.9,0,-1,-4,0,0,75,-0.0292,279.8920,6.8213,0.4212,54.887249,9.805501,108.3,5.845,1.85,335.95,54.887451,9.805910,54.895069,9.793790
1386870423,1,0,280.9,0,-1,0,0,0,50,-0.0292,280.1587,6.8213,0.4212,54.887249,9.805470,108.3,5.845,1.85,335.95,54.887451,9.805910,54.895069,9.793790
1386870423,1,0,280.9,0,-1,-4,0,0,25,-0.0292,280.4253,6.8213,0.4212,54.887249,9.805440,108.3,5.845,1.85,335.95,54.887451,9.805910,54.895069,9.793790
1386870423,1,0,280.9,0,-1,0,0,0,0,-0.0292,280.6920,6.8213,0.4212,54.887249,9.805409,108.3,5.845,1.85,335.95,54.887451,9.805910,54.895069,9.793790
1386870424,1,0,280.9,0,0,4,0,0,25,-0.0292,280.6920,6.8213,0.4212,54.887249,9.805378,108.3,5.845,1.85,335.95,54.887451,9.805910,54.895069,9.793790
1386870424,1,0,280.9,0,0,0,0,0,0,-0.0292,280.6920,6.8213,0.4212,54.887249,9.805347,108.3,5.845,1.85,335.95,54.887451,9.805910,54.895069,9.793790
1386870424,1,0,280.9,0,0,4,0,0,25,-0.0292,280.6920,6.8213,0.4212,54.887249,9.805317,108.3,5.845,1.85,335.95,54.887451,9.805910,54.895069,9.793790
1386870424,1,0,280.9,0,0,0,0,0,0,-0.0292,280.6920,6.8213,0.4212,54.887249,9.805286,108.3,5.845,1.85,335.95,54.887451,9.805910,54.895069,9.793790
1386870425,1,0,280.9,0,0,4,0,0,25,-0.0292,280.6920,6.8213,0.4212,54.887249,9.805256,108.3,5.845,1.85,335.95,54.887451,9.805910,54.895069,9.793790
1386870425,1,0,280.9,0,0,0,0,0,0,-0.0292,280.6920,6.8213,0.4212,54.887249,9.805225,108.3,5.845,1.85,335.95,54.887451,9.805910,54.895069,9.793790
1386870425,1,0,280.9,0,0,4,0,0,25,-0.0292,280.6920,6.8213,0.4212,54.887249,9.805195,108.3,5.845,1.85,335.95,54.887451,9.805910,54.895069,9.793790
1386870425,1,0,280.9,0,0,0,0,0,0,-0.0292,280.6920,6.8213,0.4212,54.887249,9.805163,108.3,5.845,1.85,335.95,54.887451,9.805910,54.895069,9.793790
1386870426,1,0,390.9,0,-35,-4,0,0,25,-0.0292,290.0253,6.8213,0.4212,54.887253,9.805134,108.3,5.845,1.85,335.95,54.887451,9.805910,54.895069,9.793790
1386870426,1,0,390.9,0,-35,-8,0,0,0,-0.0292,299.3587,6.8213,0.4212,54.887260,9.805107,108.3,5.845,1.85,335.95,54.887451,9.805910,54.895069,9.793790
1386870426,1,0,390.9,0,-35,-12,0,0,25,-0.0292,308.6920,6.8213,0.4212,54.887272,9.805082,108.3,5.845,1.85,335.95,54.887451,9.805910,54.895069,9.793790
1386870426,1,0,390.9,0,-35,-16,0,0,0,-0.0292,318.0254,6.8213,0.4212,54.887287,9.805061,108.3,5.845,1.85,335.95,54.887451,9.805910,54.895069,9.793790
1386870427,1,0,390.9,0,-35,-20,0,0,25,-0.0292,327.3587,6.8213,0.4212,54.887302,9.805045,108.3,5.845,1.85,335.95,54.887451,9.805910,54.895069,9.793790
1386870427,1,0,390.9,0,-35,-24,0,0,0,-0.0292,336.6920,6.8213,0.4212,54.887318,9.805033,108.3,5.845,1.85,335.95,54.887451,9.805910,54.895069,9.793790
1386870427,1,0,390.9,0,-35,-28,0,0,25,-0.0292,346.0254,6.8213,0.4212,54.887337,9.805025,108.3,5.845,1.85,335.95,54.887451,9.805910,54.895069,9.793790
1386870427,1,0,390.9,0,-35,-32,0,0,0,-0.0292,355.3587,6.8213,0.4212,54.887356,9.805022,108.3,5.845,1.85,335.95,54.887451,9.805910,54.895069,9.793790
1386870428,1,0,390.9,0,-35,-36,0,0,25,-0.0292,364.6921,6.8213,0.4212,54.887375,9.805024,108.3,5.845,1.85,335.95,54.887451,9.805910,54.895069,9.793790
1386870428,1,0,390.9,0,-26,-32,0,0,0,-0.0292,371.6254,6.8213,0.4212,54.887390,9.805030,108.3,5.845,1.85,335.95,54.887451,9.805910,54.895069,9.793790
1386870428,1,0,390.9,0,-19,-28,0,0,25,-0.0292,376.6921,6.8213,0.4212,54.887409,9.805038,108.3,5.845,1.85,335.95,54.887451,9.805910,54.895069,9.793790
1386870428,1,0,390.9,0,-14,-24,0,0,0,-0.0292,380.4254,6.8213,0.4212,54.887428,9.805049,108.3,5.845,1.85,335.95,54.887451,9.805910,54.895069,9.793790
1386870429,1,0,390.9,0,-11,-20,0,0,25,-0.0292,383.3587,6.8213,0.4212,54.887444,9.805061,108.3,5.845,1.85,335.95,54.887451,9.805910,54.895069,9.793790
1386870429,1,0,390.9,0,-8,-16,0,0,0,-0.0292,385.4921,6.8213,0.4212,54.887463,9.805076,108.3,5.845,1.85,335.95,54.887451,9.805910,54.895069,9.793790
1386870429,1,0,390.9,0,-5,-12,0,0,25,-0.0292,386.8254,6.8213,0.4212,54.887478,9.805090,108.3,5.845,1.85,335.95,54.887451,9.805910,54.895069,9.793790
1386870429,1,0,390.9,0,-4,-8,0,0,0,-0.0292,387.8921,6.8213,0.4212,54.887493,9.805104,108.3,5.845,1.85,335.95,54.887451,9.805910,54.895069,9.793790
1386870430,1,0,390.9,0,-3,-4,0,0,25,-0.0292,388.6921,6.8213,0.4212,54.887512,9.805120,108.3,5.845,1.85,335.95,54.887451,9.805910,54.895069,9.793790
1386870430,1,0,390.9,0,-2,0,0,0,0,-0.0292,389.2254,6.8213,0.4212,54.887527,9.805135,108.3,5.845,1.85,335.95,54.887451,9.805910,54.895069,9.793790
1386870430,1,0,390.9,0,-2,-4,0,0,25,-0.0292,389.7587,6.8213,0.4212,54.887543,9.805150,108.3,5.845,1.85,335.95,54.887451,9.805910,54.895069,9.793790
1386870430,1,0,390.9,0,-1,0,0,0,0,-0.0292,390.0254,6.8213,0.4212,54.887562,9.805165,108.3,5.845,1.85,335.95,54.887451,9.805910,54.895069,9.793790
1386870431,1,0,390.9,0,-1,-4,0,0,25,-0.0292,390.2921,6.8213,0.4212,54.887577,9.805181,108.3,5.845,1.85,335.95,54.887451,9.805910,54.895069,9.793790
1386870431,1,0,390.9,0,-1,0,0,0,0,-0.0292,390.5587,6.8213,0.4212,54.887592,9.805197,108.3,5.845,1.85,335.95,54.887451,9.805910,54.895069,9.793790
1386870431,1,0,390.9,0,0,4,0,0,25,-0.0292,390.5587,6.8213,0.4212,54.887604,9.805212,108.3,5.845,1.85,335.95,54.887451,9.805910,54.895069,9.793790
1386870431,1,0,390.9,0,0,0,0,0,0,-0.0292,390.5587,6.8213,0.4212,54.887619,9.805228,108.3,5.845,1.85,335.95,54.887451,9.805910,54.895069,9.793790
1386870432,1,0,390.9,0,0,4,0,0,25,-0.0292,390.5587,6.8213,0.4212,54.887634,9.805244,108.3,5.845,1.85,335.95,54.887451,9.805910,54.895069,9.793790
1386870432,1,0,390.9,0,0,0,0,0,0,-0.0292,390.5587,6.8213,0.4212,54.887650,9.805260,108.3,5.845,1.85,335.95,54.887451,9.805910,54.895069,9.793790
1386870432,1,0,390.9,0,0,4,0,0,25,-0.0292,390.5587,6.8213,0.4212,54.887665,9.805276,108.3,5.845,1.85,335.95,54.887451,9.805910,54.895069,9.793790
1386870432,1,0,390.9,0,0,0,0,0,0,-0.0292,390.5587,6.8213,0.4212,54.887684,9.805292,108.3,5.845,1.85,335.95,54.887451,9.805910,54.895069,9.793790
1386870433,1,0,390.9,0,0,4,0,0,25,-0.0292,390.5587,6.8213,0.4212,54.887699,9.805307,108.3,5.845,1.85,335.95,54.887451,9.805910,54.895069,9.793790
1386870433,1,0,390.9,0,0,0,0,0,0,-0.0292,390.5587,6.8213,0.4212,54.887714,9.805324,108.3,5.845,1.85,335.95,54.887451,9.805910,54.895069,9.793790
1386870433,1,0,390.9,0,0,4,0,0,25,-0.0292,390.5587,6.8213,0.4212,54.887733,9.805339,108.3,5.845,1.85,335.95,54.887451,9.805910,54.895069,9.793790
1386870433,1,0,390.9,0,0,0,0,0,0,-0.0292,390.5587,6.8213,0.4212,54.887749,9.805355,108.3,5.845,1.85,335.95,54.887451,9.805910,54.895069,9.793790
1386870434,1,0,390.9,0,0,4,0,0,25,-0.0292,390.5587,6.8213,0.4212,54.887764,9.805371,108.3,5.845,1.85,335.95,54.887451,9.805910,54.895069,9.793790
1386870434,1,0,390.9,0,0,0,0,0,0,-0.0292,390.5587,6.8213,0.4212,54.887783,9.805387,108.3,5.845,1.85,335.95,54.887451,9.805910,54.895069,9.793790
1386870434,1,0,390.9,0,0,4,0,0,25,-0.0292,390.5587,6.8213,0.4212,54.887798,9.805403,108.3,5.845,1.85,335.95,54.887451,9.805910,54.895069,9.793790
1386870434,1,0,390.9,0,0,0,0,0,0,-0.0292,390.5587,6.8213,0.4212,54.887814,9.805419,108.3,5.845,1.85,335.95,54.887451,9.805910,54.895069,9.793790
1386870435,1,0,390.9,0,0,4,0,0,25,-0.0292,390.5587,6.8213,0.4212,54.887833,9.805434,108.3,5.845,1.85,335.95,54.887451,9.805910,54.895069,9.793790
1386870435,1,0,390.9,0,0,0,0,0,0,-0.0292,390.5587,6.8213,0.4212,54.887848,9.805450,108.3,5.845,1.85,335.95,54.887451,9.805910,54.895069,9.793790
1386870435,1,0,390.9,0,0,4,0,0,25,-0.0292,390.5587,6.8213,0.4212,54.887863,9.805466,108.3,5.845,1.85,335.95,54.887451,9.805910,54.895069,9.793790
1386870436,1,0,390.9,0,0,0,0,0,0,-0.0292,390.5587,6.8213,0.4212,54.887878,9.805482,108.3,5.845,1.85,335.95,54.887451,9.805910,54.895069,9.793790
1386870436,1,0,390.9,0,0,4,0,0,25,-0.0292,390.5587,6.8213,0.4212,54.887894,9.805498,108.3,5.845,1.85,335.95,54.887451,9.805910,54.895069,9.793790
1386870436,1,0,390.9,0,0,0,0,0,0,-0.0292,390.5587,6.8213,0.4212,54.887909,9.805513,108.3,5.845,1.85,335.95,54.887451,9.805910,54.895069,9.793790
1386870436,1,0,390.9,0,0,4,0,0,25,-0.0292,390.5587,6.8213,0.4212,54.887928,9.805530,108.3,5.845,1.85,335.95,54.887451,9.805910,54.895069,9.793790
1386870437,1,0,390.9,0,0,0,0,0,0,-0.0292,390.5587,6.8213,0.4212,54.887943,9.805546,108.3,5.845,1.85,335.95,54.887451,9.805910,54.895069,9.793790
1386870437,1,0,390.9,0,0,4,0,0,25,-0.0292,390.5587,6.8213,0.4212,54.887959,9.805561,108.3,5.845,1.85,335.95,54.887451,9.805910,54.895069,9.793790
1386870437,1,0,390.9,0,0,0,0,0,0,-0.0292,390.5587,6.8213,0.4212,54.887978,9.805577,108.3,5.845,1.85,335.95,54.887451,9.805910,54.895069,9.793790
1386870437,1,0,390.9,0,0,4,0,0,25,-0.0292,390.5587,6.8213,0.4212,54.887993,9.805593,108.3,5.845,1.85,335.95,54.887451,9.805910,54.895069,9.793790
1386870438,1,0,390.9,0,0,0,0,0,0,-0.0292,390.5587,6.8213,0.4212,54.888008,9.805608,108.3,5.845,1.85,335.95,54.887451,9.805910,54.895069,9.793790
1386870438,1,0,390.9,0,0,4,0,0,25,-0.0292,390.5587,6.8213,0.4212,54.888027,9.805624,108.3,5.845,1.85,335.95,54.887451,9.805910,54.895069,9.793790
1386870438,1,0,390.9,0,0,0,0,0,0,-0.0292,390.5587,6.8213,0.4212,54.888042,9.805639,108.3,5.845,1.85,335.95,54.887451,9.805910,54.895069,9.793790
1386870438,1,0,390.9,0,0,4,0,0,25,-0.0292,390.5587,6.8213,0.4212,54.888058,9.805655,108.3,5.845,1.85,335.95,54.887451,9.805910,54.895069,9.793790
1386870439,1,0,390.9,0,0,0,0,0,0,-0.0292,390.5587,6.8213,0.4212,54.888077,9.805672,108.3,5.845,1.85,335.95,54.887451,9.805910,54.895069,9.793790
1386870439,1,0,390.9,0,0,4,0,0,25,-0.0292,390.5587,6.8213,0.4212,54.888092,9.805687,108.3,5.845,1.85,335.95,54.887451,9.805910,54.895069,9.793790
1386870439,1,0,390.9,0,0,0,0,0,0,-0.0292,390.5587,6.8213,0.4212,54.888107,9.805703,108.3,5.845,1.85,335.95,54.887451,9.805910,54.895069,9.793790
1386870439,1,0,390.9,0,0,4,0,0,25,-0.0292,390.5587,6.8213,0.4212,54.888126,9.805719,108.3,5.845,1.85,335.95,54.887451,9.805910,54.895069,9.793790
1386870440,1,0,390.9,0,0,0,0,0,0,-0.0292,390.5587,6.8213,0.4212,54.888142,9.805735,108.3,5.845,1.85,335.95,54.887451,9.805910,54.895069,9.793790
1386870440,1,0,390.9,0,0,4,0,0,25,-0.0292,390.5587,6.8213,0.4212,54.888157,9.805751,108.3,5.845,1.85,335.95,54.887451,9.805910,54.895069,9.793790
1386870440,1,0,390.9,0,0,0,0,0,0,-0.0292,390.5587,6.8213,0.4212,54.888176,9.805766,108.3,5.845,1.85,335.95,54.887451,9.805910,54.895069,9.793790
1386870440,1,0,390.9,0,0,4,0,0,25,-0.0292,390.5587,6.8213,0.4212,54.888191,9.805782,108.3,5.845,1.85,335.95,54.887451,9.805910,54.895069,9.793790
1386870441,1,0,390.9,0,0,0,0,0,0,-0.0292,390.5587,6.8213,0.4212,54.888206,9.805799,108.3,5.845,1.85,335.95,54.887451,9.805910,54.895069,9.793790
1386870441,1,0,280.9,0,35,4,0,0,25,-0.0292,381.2254,6.8213,0.4212,54.888226,9.805810,108.3,5.845,1.85,335.95,54.887451,9.805910,54.895069,9.793790
1386870441,1,0,280.9,0,35,8,0,0,0,-0.0292,371.8920,6.8213,0.4212,54.888245,9.805817,108.3,5.845,1.85,335.95,54.887451,9.805910,54.895069,9.793790
1386870441,1,0,280.9,0,35,12,0,0,25,-0.0292,362.5587,6.8213,0.4212,54.888264,9.805819,108.3,5.845,1.85,335.95,54.887451,9.805910,54.895069,9.793790
1386870442,1,0,280.9,0,35,16,0,0,0,-0.0292,353.2253,6.8213,0.4212,54.888279,9.805815,108.3,5.845,1.85,335.95,54.887451,9.805910,54.895069,9.793790
1386870442,1,0,280.9,0,35,20,0,0,25,-0.0292,343.8920,6.8213,0.4212,54.888298,9.805806,108.3,5.845,1.85,335.95,54.887451,9.805910,54.895069,9.793790
1386870442,1,0,280.9,0,35,24,0,0,0,-0.0292,334.5587,6.8213,0.4212,54.888317,9.805793,108.3,5.845,1.85,335.95,54.887451,9.805910,54.895069,9.793790
1386870442,1,0,280.9,0,35,28,0,0,25,-0.0292,325.2253,6.8213,0.4212,54.888332,9.805775,108.3,5.845,1.85,335.95,54.887451,9.805910,54.895069,9.793790
1386870443,1,0,280.9,0,35,32,0,0,0,-0.0292,315.8920,6.8213,0.4212,54.888344,9.805753,108.3,5.845,1.85,335.95,54.887451,9.805910,54.895069,9.793790
1386870443,1,0,280.9,0,35,36,0,0,25,-0.0292,306.5586,6.8213,0.4212,54.888355,9.805727,108.3,5.845,1.85,335.95,54.887451,9.805910,54.895069,9.793790
1386870443,1,0,280.9,0,26,32,0,0,0,-0.0292,299.6253,6.8213,0.4212,54.888363,9.805700,108.3,5.845,1.85,335.95,54.887451,9.805910,54.895069,9.793790
1386870443,1,0,280.9,0,19,28,0,0,25,-0.0292,294.5586,6.8213,0.4212,54.888371,9.805673,108.3,5.845,1.85,335.95,54.887451,9.805910,54.895069,9.793790
1386870444,1,0,280.9,0,14,24,0,0,0,-0.0292,290.8253,6.8213,0.4212,54.888378,9.805643,108.3,5.845,1.85,335.95,54.887451,9.805910,54.895069,9.793790
1386870444,1,0,280.9,0,10,20,0,0,25,-0.0292,288.1586,6.8213,0.4212,54.888386,9.805614,108.3,5.845,1.85,335.95,54.887451,9.805910,54.895069,9.793790
1386870444,1,0,280.9,0,7,16,0,0,0,-0.0292,286.2920,6.8213,0.4212,54.888390,9.805584,108.3,5.845,1.85,335.95,54.887451,9.805910,54.895069,9.793790
1386870444,1,0,280.9,0,5,12,0,0,25,-0.0292,284.9586,6.8213,0.4212,54.888393,9.805553,108.3,5.845,1.85,335.95,54.887451,9.805910,54.895069,9.793790
1386870445,1,0,280.9,0,4,8,0,0,0,-0.0292,283.8919,6.8213,0.4212,54.888397,9.805523,108.3,5.845,1.85,335.95,54.887451,9.805910,54.895069,9.793790
1386870445,1,0,280.9,0,3,4,0,0,25,-0.0292,283.0919,6.8213,0.4212,54.888401,9.805492,108.3,5.845,1.85,335.95,54.887451,9.805910,54.895069,9.793790
1386870445,1,0,280.9,0,2,0,0,0,0,-0.0292,282.5586,6.8213,0.4212,54.888405,9.805462,108.3,5.845,1.85,335.95,54.887451,9.805910,54.895069,9.793790
1386870445,1,0,280.9,0,2,4,0,0,25,-0.0292,282.0253,6.8213,0.4212,54.888405,9.805431,108.3,5.845,1.85,335.95,54.887451,9.805910,54.895069,9.793790
1386870446,1,0,280.9,0,1,0,0,0,0,-0.0292,281.7586,6.8213,0.4212,54.888405,9.805401,108.3,5.845,1.85,335.95,54.887451,9.805910,54.895069,9.793790
1386870446,1,0,280.9,0,1,4,0,0,25,-0.0292,281.4920,6.8213,0.4212,54.888405,9.805370,108.3,5.845,1.85,335.95,54.887451,9.805910,54.895069,9.793790
1386870446,1,0,280.9,0,1,0,0,0,0,-0.0292,281.2253,6.8213,0.4212,54.888405,9.805340,108.3,5.845,1.85,335.95,54.887451,9.805910,54.895069,9.793790
1386870446,1,0,280.9,0,0,4,0,0,25,-0.0292,281.2253,6.8213,0.4212,54.888405,9.805309,108.3,5.845,1.85,335.95,54.887451,9.805910,54.895069,9.793790
1386870447,1,0,280.9,0,0,0,0,0,0,-0.0292,281.2253,6.8213,0.4212,54.888405,9.805279,108.3,5.845,1.85,335.95,54.887451,9.805910,54.895069,9.793790
1386870447,1,0,280.9,0,0,4,0,0,25,-0.0292,281.2253,6.8213,0.4212,54.888405,9.805247,108.3,5.845,1.85,335.95,54.887451,9.805910,54.895069,9.793790
1386870447,1,0,280.9,0,0,0,0,0,0,-0.0292,281.2253,6.8213,0.4212,54.888405,9.805217,108.3,5.845,1.85,335.95,54.887451,9.805910,54.895069,9.793790
1386870447,1,0,280.9,0,0,4,0,0,25,-0.0292,281.2253,6.8213,0.4212,54.888405,9.805186,108.3,5.845,1.85,335.95,54.887451,9.805910,54.895069,9.793790
1386870448,1,0,280.9,0,0,0,0,0,0,-0.0292,281.2253,6.8213,0.4212,54.888405,9.805156,108.3,5.845,1.85,335.95,54.887451,9.805910,54.895069,9.793790
1386870448,1,0,280.9,0,0,4,0,0,25,-0.0292,281.2253,6.8213,0.4212,54.888405,9.805125,108.3,5.845,1.85,335.95,54.887451,9.805910,54.895069,9.793790
1386870448,1,0,280.9,0,0,0,0,0,0,-0.0292,281.2253,6.8213,0.4212,54.888405,9.805095,108.3,5.845,1.85,335.95,54.887451,9.805910,54.895069,9.793790
1386870448,1,0,280.9,0,0,4,0,0,25,-0.0292,281.2253,6.8213,0.4212,54.888405,9.805064,108.3,5.845,1.85,335.95,54.887451,9.805910,54.895069,9.793790
1386870449,1,0,280.9,0,0,0,0,0,0,-0.0292,281.2253,6.8213,0.4212,54.888405,9.805033,108.3,5.845,1.85,335.95,54.887451,9.805910,54.895069,9.793790
1386870449,1,0,280.9,0,0,4,0,0,25,-0.0292,281.2253,6.8213,0.4212,54.888405,9.805002,108.3,5.845,1.85,335.95,54.887451,9.805910,54.895069,9.793790
1386870449,1,0,280.9,0,0,0,0,0,0,-0.0292,281.2253,6.8213,0.4212,54.888405,9.804972,108.3,5.845,1.85,335.95,54.887451,9.805910,54.895069,9.793790
1386870449,1,0,280.9,0,0,4,0,0,25,-0.0292,281.2253,6.8213,0.4212,54.888405,9.804941,108.3,5.845,1.85,335.95,54.887451,9.805910,54.895069,9.793790
1386870450,1,0,280.9,0,0,0,0,0,0,-0.0292,281.2253,6.8213,0.4212,54.888405,9.804911,108.3,5.845,1.85,335.95,54.887451,9.805910,54.895069,9.793790
1386870450,1,0,280.9,0,0,4,0,0,25,-0.0292,281.2253,6.8213,0.4212,54.888405,9.804880,108.3,5.845,1.85,335.95,54.887451,9.805910,54.895069,9.793790
1386870450,1,0,280.9,0,0,0,0,0,0,-0.0292,281.2253,6.8213,0.4212,54.888405,9.804850,108.3,5.845,1.85,335.95,54.887451,9.805910,54.895069,9.793790
1386870450,1,0,280.9,0,0,4,0,0,25,-0.0292,281.2253,6.8213,0.4212,54.888405,9.804818,108.3,5.845,1.85,335.95,54.887451,9.805910,54.895069,9.793790
1386870451,1,0,280.9,0,0,0,0,0,0,-0.0292,281.2253,6.8213,0.4212,54.888405,9.804788,108.3,5.845,1.85,335.95,54.887451,9.805910,54.895069,9.793790
1386870451,1,0,280.9,0,0,4,0,0,25,-0.0292,281.2253,6.8213,0.4212,54.888405,9.804757,108.3,5.845,1.85,335.95,54.887451,9.805910,54.895069,9.793790
1386870451,1,0,280.9,0,0,0,0,0,0,-0.0292,281.2253,6.8213,0.4212,54.888405,9.804727,108.3,5.845,1.85,335.95,54.887451,9.805910,54.895069,9.793790
1386870451,1,0,280.9,0,0,4,0,0,25,-0.0292,281.2253,6.8213,0.4212,54.888405,9.804696,108.3,5.845,1.85,335.95,54.887451,9.805910,54.895069,9.793790
1386870452,1,0,280.9,0,0,0,0,0,0,-0.0292,281.2253,6.8213,0.4212,54.888405,9.804666,108.3,5.845,1.85,335.95,54.887451,9.805910,54.895069,9.793790
1386870452,1,0,280.9,0,0,4,0,0,25,-0.0292,281.2253,6.8213,0.4212,54.888405,9.804635,108.3,5.845,1.85,335.95,54.887451,9.805910,54.895069,9.793790
1386870452,1,0,280.9,0,0,0,0,0,0,-0.0292,281.2253,6.8213,0.4212,54.888405,9.804604,108.3,5.845,1.85,335.95,54.887451,9.805910,54.895069,9.793790
1386870452,1,0,280.9,0,0,4,0,0,25,-0.0292,281.2253,6.8213,0.4212,54.888405,9.804573,108.3,5.845,1.85,335.95,54.887451,9.805910,54.895069,9.793790
1386870453,1,0,280.9,0,0,0,0,0,0,-0.0292,281.2253,6.8213,0.4212,54.888405,9.804543,108.3,5.845,1.85,335.95,54.887451,9.805910,54.895069,9.793790
1386870453,1,0,280.9,0,0,4,0,0,25,-0.0292,281.2253,6.8213,0.4212,54.888405,9.804512,108.3,5.845,1.85,335.95,54.887451,9.805910,54.895069,9.793790
1386870453,1,0,280.9,0,0,0,0,0,0,-0.0292,281.2253,6.8213,0.4212,54.888405,9.804482,108.3,5.845,1.85,335.95,54.887451,9.805910,54.895069,9.793790
1386870453,1,0,280.9,0,0,4,0,0,25,-0.0292,281.2253,6.8213,0.4212,54.888405,9.804451,108.3,5.845,1.85,335.95,54.887451,9.805910,54.895069,9.793790
1386870454,1,0,280.9,0,0,0,0,0,0,-0.0292,281.2253,6.8213,0.4212,54.888405,9.804420,108.3,5.845,1.85,335.95,54.887451,9.805910,54.895069,9.793790
1386870454,1,0,280.9,0,0,4,0,0,25,-0.0292,281.2253,6.8213,0.4212,54.888405,9.804389,108.3,5.845,1.85,335.95,54.887451,9.805910,54.895069,9.793790
1386870454,1,0,280.9,0,0,0,0,0,0,-0.0292,281.2253,6.8213,0.4212,54.888405,9.804358,108.3,5.845,1.85,335.95,54.887451,9.805910,54.895069,9.793790
1386870454,1,0,280.9,0,0,4,0,0,25,-0.0292,281.2253,6.8213,0.4212,54.888405,9.804328,108.3,5.845,1.85,335.95,54.887451,9.805910,54.895069,9.793790
1386870455,1,0,280.9,0,0,0,0,0,0,-0.0292,281.2253,6.8213,0.4212,54.888405,9.804297,108.3,5.845,1.85,335.95,54.887451,9.805910,54.895069,9.793790
1386870455,1,0,280.9,0,0,4,0,0,25,-0.0292,281.2253,6.8213,0.4212,54.888405,9.804267,108.3,5.845,1.85,335.95,54.887451,9.805910,54.895069,9.793790
1386870455,1,0,280.9,0,0,0,0,0,0,-0.0292,281.2253,6.8213,0.4212,54.888405,9.804236,108.3,5.845,1.85,335.95,54.887451,9.805910,54.895069,9.793790
1386870455,1,0,280.9,0,0,4,0,0,25,-0.0292,281.2253,6.8213,0.4212,54.888405,9.804206,108.3,5.845,1.85,335.95,54.887451,9.805910,54.895069,9.793790
1386870456,1,0,280.9,0,0,0,0,0,0,-0.0292,281.2253,6.8213,0.4212,54.888405,9.804174,108.3,5.845,1.85,335.95,54.887451,9.805910,54.895069,9.793790
1386870456,1,0,280.9,0,0,4,0,0,25,-0.0292,281.2253,6.8213,0.4212,54.888405,9.804144,108.3,5.845,1.85,335.95,54.887451,9.805910,54.895069,9.793790
1386870456,1,0,280.9,0,0,0,0,0,0,-0.0292,281.2253,6.8213,0.4212,54.888405,9.804113,108.3,5.845,1.85,335.95,54.887451,9.805910,54.895069,9.793790
1386870456,1,0,280.9,0,0,4,0,0,25,-0.0292,281.2253,6.8213,0.4212,54.888405,9.804083,108.3,5.845,1.85,335.95,54.887451,9.805910,54.895069,9.793790
1386870457,1,0,280.9,0,0,0,0,0,0,-0.0292,281.2253,6.8213,0.4212,54.888405,9.804052,108.3,5.845,1.85,335.95,54.887451,9.805910,54.895069,9.793790
1386870457,1,0,280.9,0,0,4,0,0,25,-0.0292,281.2253,6.8213,0.4212,54.888405,9.804022,108.3,5.845,1.85,335.95,54.887451,9.805910,54.895069,9.793790
1386870457,1,0,280.9,0,0,0,0,0,0,-0.0292,281.2253,6.8213,0.4212,54.888405,9.803991,108.3,5.845,1.85,335.95,54.887451,9.805910,54.895069,9.793790
1386870457,1,0,280.9,0,0,4,0,0,25,-0.0292,281.2253,6.8213,0.4212,54.888405,9.803960,108.3,5.845,1.85,335.95,54.887451,9.805910,54.895069,9.793790
1386870458,1,0,280.9,0,0,0,0,0,0,-0.0292,281.2253,6.8213,0.4212,54.888405,9.803929,108.3,5.845,1.85,335.95,54.887451,9.805910,54.895069,9.793790
1386870458,1,0,280.9,0,0,4,0,0,25,-0.0292,281.2253,6.8213,0.4212,54.888405,9.803899,108.3,5.845,1.85,335.95,54.887451,9.805910,54.895069,9.793790
1386870458,1,0,280.9,0,0,0,0,0,0,-0.0292,281.2253,6.8213,0.4212,54.888405,9.803868,108.3,5.845,1.85,335.95,54.887451,9.805910,54.895069,9.793790
1386870458,1,0,280.9,0,0,4,0,0,25,-0.0292,281.2253,6.8213,0.4212,54.888405,9.803838,108.3,5.845,1.85,335.95,54.887451,9.805910,54.895069,9.793790
1386870459,1,0,280.9,0,0,0,0,0,0,-0.0292,281.2253,6.8213,0.4212,54.888405,9.803807,108.3,5.845,1.85,335.95,54.887451,9.805910,54.895069,9.793790
1386870459,1,0,280.9,0,0,4,0,0,25,-0.0292,281.2253,6.8213,0.4212,54.888405,9.803777,108.3,5.845,1.85,335.95,54.887451,9.805910,54.895069,9.793790
1386870459,1,0,280.9,0,0,0,0,0,0,-0.0292,281.2253,6.8213,0.4212,54.888405,9.803745,108.3,5.845,1.85,335.95,54.887451,9.805910,54.895069,9.793790
1386870459,1,0,280.9,0,0,4,0,0,25,-0.0292,281.2253,6.8213,0.4212,54.888405,9.803715,108.3,5.845,1.85,335.95,54.887451,9.805910,54.895069,9.793790
1386870460,1,0,280.9,0,0,0,0,0,0,-0.0292,281.2253,6.8213,0.4212,54.888405,9.803684,108.3,5.845,1.85,335.95,54.887451,9.805910,54.895069,9.793790
1386870460,1,0,280.9,0,0,4,0,0,25,-0.0292,281.2253,6.8213,0.4212,54.888405,9.803654,108.3,5.845,1.85,335.95,54.887451,9.805910,54.895069,9.793790
1386870460,1,0,280.9,0,0,0,0,0,0,-0.0292,281.2253,6.8213,0.4212,54.888405,9.803623,108.3,5.845,1.85,335.95,54.887451,9.805910,54.895069,9.793790
1386870460,1,0,280.9,0,0,4,0,0,25,-0.0292,281.2253,6.8213,0.4212,54.888405,9.803593,108.3,5.845,1.85,335.95,54.887451,9.805910,54.895069,9.793790
1386870461,1,0,280.9,0,0,0,0,0,0,-0.0292,281.2253,6.8213,0.4212,54.888405,9.803562,108.3,5.845,1.85,335.95,54.887451,9.805910,54.895069,9.793790
1386870461,1,0,280.9,0,0,4,0,0,25,-0.0292,281.2253,6.8213,0.4212,54.888405,9.803532,108.3,5.845,1.85,335.95,54.887451,9.805910,54.895069,9.793790
1386870461,1,0,280.9,0,0,0,0,0,0,-0.0292,281.2253,6.8213,0.4212,54.888405,9.803501,108.3,5.845,1.85,335.95,54.887451,9.805910,54.895069,9.793790
1386870461,1,0,280.9,0,0,4,0,0,25,-0.0292,281.2253,6.8213,0.4212,54.888405,9.803471,108.3,5.845,1.85,335.95,54.887451,9.805910,54.895069,9.793790
1386870462,1,0,280.9,0,0,0,0,0,0,-0.0292,281.2253,6.8213,0.4212,54.888405,9.803440,108.3,5.845,1.85,335.95,54.887451,9.805910,54.895069,9.793790
1386870462,1,0,280.9,0,0,4,0,0,25,-0.0292,281.2253,6.8213,0.4212,54.888405,9.803410,108.3,5.845,1.85,335.95,54.887451,9.805910,54.895069,9.793790
1386870462,1,0,280.9,0,0,0,0,0,0,-0.0292,281.2253,6.8213,0.4212,54.888405,9.803379,108.3,5.845,1.85,335.95,54.887451,9.805910,54.895069,9.793790
1386870462,1,0,280.9,0,0,4,0,0,25,-0.0292,281.2253,6.8213,0.4212,54.888405,9.803349,108.3,5.845,1.85,335.95,54.887451,9.805910,54.895069,9.793790
1386870463,1,0,390.9,0,-35,0,0,0,0,-0.0292,290.5587,6.8213,0.4212,54.888409,9.803319,108.3,5.845,1.85,335.95,54.887451,9.805910,54.895069,9.793790
1386870463,1,0,390.9,0,-35,-4,0,0,25,-0.0292,299.8920,6.8213,0.4212,54.888416,9.803291,108.3,5.845,1.85,335.95,54.887451,9.805910,54.895069,9.793790
1386870463,1,0,390.9,0,-35,-8,0,0,0,-0.0292,309.2253,6.8213,0.4212,54.888428,9.803267,108.3,5.845,1.85,335.95,54.887451,9.805910,54.895069,9.793790
1386870463,1,0,390.9,0,-35,-12,0,0,25,-0.0292,318.5587,6.8213,0.4212,54.888443,9.803246,108.3,5.845,1.85,335.95,54.887451,9.805910,54.895069,9.793790
1386870464,1,0,390.9,0,-35,-16,0,0,0,-0.0292,327.8920,6.8213,0.4212,54.888458,9.803230,108.3,5.845,1.85,335.95,54.887451,9.805910,54.895069,9.793790
1386870464,1,0,390.9,0,-35,-20,0,0,25,-0.0292,337.2254,6.8213,0.4212,54.888474,9.803218,108.3,5.845,1.85,335.95,54.887451,9.805910,54.895069,9.793790
1386870464,1,0,390.9,0,-35,-24,0,0,0,-0.0292,346.5587,6.8213,0.4212,54.888493,9.803211,108.3,5.845,1.85,335.95,54.887451,9.805910,54.895069,9.793790
1386870465,1,0,390.9,0,-35,-28,0,0,25,-0.0292,355.8921,6.8213,0.4212,54.888512,9.803209,108.3,5.845,1.85,335.95,54.887451,9.805910,54.895069,9.793790
1386870465,1,0,390.9,0,-35,-32,0,0,0,-0.0292,365.2254,6.8213,0.4212,54.888531,9.803212,108.3,5.845,1.85,335.95,54.887451,9.805910,54.895069,9.793790
1386870465,1,0,390.9,0,-26,-28,0,0,25,-0.0292,372.1587,6.8213,0.4212,54.888546,9.803219,108.3,5.845,1.85,335.95,54.887451,9.805910,54.895069,9.793790
1386870465,1,0,390.9,0,-19,-24,0,0,0,-0.0292,377.2254,6.8213,0.4212,54.888565,9.803228,108.3,5.845,1.85,335.95,54.887451,9.805910,54.895069,9.793790
1386870466,1,0,390.9,0,-14,-20,0,0,25,-0.0292,380.9587,6.8213,0.4212,54.888580,9.803239,108.3,5.845,1.85,335.95,54.887451,9.805910,54.895069,9.793790
1386870466,1,0,390.9,0,-10,-16,0,0,0,-0.0292,383.6254,6.8213,0.4212,54.888596,9.803251,108.3,5.845,1.85,335.95,54.887451,9.805910,54.895069,9.793790
1386870466,1,0,390.9,0,-7,-12,0,0,25,-0.0292,385.4921,6.8213,0.4212,54.888615,9.803265,108.3,5.845,1.85,335.95,54.887451,9.805910,54.895069,9.793790
1386870466,1,0,390.9,0,-5,-8,0,0,0,-0.0292,386.8254,6.8213,0.4212,54.888630,9.803278,108.3,5.845,1.85,335.95,54.887451,9.805910,54.895069,9.793790
1386870467,1,0,390.9,0,-4,-4,0,0,25,-0.0292,387.8921,6.8213,0.4212,54.888645,9.803292,108.3,5.845,1.85,335.95,54.887451,9.805910,54.895069,9.793790
1386870467,1,0,390.9,0,-3,0,0,0,0,-0.0292,388.6921,6.8213,0.4212,54.888664,9.803308,108.3,5.845,1.85,335.95,54.887451,9.805910,54.895069,9.793790
1386870467,1,0,390.9,0,-2,-4,0,0,25,-0.0292,389.2254,6.8213,0.4212,54.888680,9.803323,108.3,5.845,1.85,335.95,54.887451,9.805910,54.895069,9.793790
1386870467,1,0,390.9,0,-2,0,0,0,0,-0.0292,389.7587,6.8213,0.4212,54.888695,9.803338,108.3,5.845,1.85,335.95,54.887451,9.805910,54.895069,9.793790
1386870468,1,0,390.9,0,-1,-4,0,0,25,-0.0292,390.0254,6.8213,0.4212,54.888710,9.803354,108.3,5.845,1.85,335.95,54.887451,9.805910,54.895069,9.793790
1386870468,1,0,390.9,0,-1,0,0,0,0,-0.0292,390.2921,6.8213,0.4212,54.888725,9.803370,108.3,5.845,1.85,335.95,54.887451,9.805910,54.895069,9.793790
1386870468,1,0,390.9,0,-1,-4,0,0,25,-0.0292,390.5587,6.8213,0.4212,54.888741,9.803386,108.3,5.845,1.85,335.95,54.887451,9.805910,54.895069,9.793790
1386870468,1,0,390.9,0,0,0,0,0,0,-0.0292,390.5587,6.8213,0.4212,54.888756,9.803402,108.3,5.845,1.85,335.95,54.887451,9.805910,54.895069,9.793790
1386870469,1,0,390.9,0,0,4,0,0,25,-0.0292,390.5587,6.8213,0.4212,54.888771,9.803417,108.3,5.845,1.85,335.95,54.887451,9.805910,54.895069,9.793790
1386870469,1,0,390.9,0,0,0,0,0,0,-0.0292,390.5587,6.8213,0.4212,54.888790,9.803433,108.3,5.845,1.85,335.95,54.887451,9.805910,54.895069,9.793790
1386870469,1,0,390.9,0,0,4,0,0,25,-0.0292,390.5587,6.8213,0.4212,54.888805,9.803450,108.3,5.845,1.85,335.95,54.887451,9.805910,54.895069,9.793790
1386870469,1,0,390.9,0,0,0,0,0,0,-0.0292,390.5587,6.8213,0.4212,54.888821,9.803466,108.3,5.845,1.85,335.95,54.887451,9.805910,54.895069,9.793790
1386870470,1,0,390.9,0,0,4,0,0,25,-0.0292,390.5587,6.8213,0.4212,54.888840,9.803482,108.3,5.845,1.85,335.95,54.887451,9.805910,54.895069,9.793790
1386870470,1,0,390.9,0,0,0,0,0,0,-0.0292,390.5587,6.8213,0.4212,54.888855,9.803497,108.3,5.845,1.85,335.95,54.887451,9.805910,54.895069,9.793790
1386870470,1,0,390.9,0,0,4,0,0,25,-0.0292,390.5587,6.8213,0.4212,54.888870,9.803514,108.3,5.845,1.85,335.95,54.887451,9.805910,54.895069,9.793790
1386870470,1,0,390.9,0,0,0,0,0,0,-0.0292,390.5587,6.8213,0.4212,54.888889,9.803530,108.3,5.845,1.85,335.95,54.887451,9.805910,54.895069,9.793790
1386870471,1,0,390.9,0,0,4,0,0,25,-0.0292,390.5587,6.8213,0.4212,54.888905,9.803545,108.3,5.845,1.85,335.95,54.887451,9.805910,54.895069,9.793790
1386870471,1,0,390.9,0,0,0,0,0,0,-0.0292,390.5587,6.8213,0.4212,54.888920,9.803561,108.3,5.845,1.85,335.95,54.887451,9.805910,54.895069,9.793790
1386870471,1,0,390.9,0,0,4,0,0,25,-0.0292,390.5587,6.8213,0.4212,54.888939,9.803577,108.3,5.845,1.85,335.95,54.887451,9.805910,54.895069,9.793790
1386870471,1,0,390.9,0,0,0,0,0,0,-0.0292,390.5587,6.8213,0.4212,54.888954,9.803593,108.3,5.845,1.85,335.95,54.887451,9.805910,54.895069,9.793790
1386870472,1,0,390.9,0,0,4,0,0,25,-0.0292,390.5587,6.8213,0.4212,54.888969,9.803609,108.3,5.845,1.85,335.95,54.887451,9.805910,54.895069,9.793790
1386870472,1,0,390.9,0,0,0,0,0,0,-0.0292,390.5587,6.8213,0.4212,54.888988,9.803624,108.3,5.845,1.85,335.95,54.887451,9.805910,54.895069,9.793790
1386870472,1,0,390.9,0,0,4,0,0,25,-0.0292,390.5587,6.8213,0.4212,54.889004,9.803640,108.3,5.845,1.85,335.95,54.887451,9.805910,54.895069,9.793790
1386870472,1,0,390.9,0,0,0,0,0,0,-0.0292,390.5587,6.8213,0.4212,54.889019,9.803657,108.3,5.845,1.85,335.95,54.887451,9.805910,54.895069,9.793790
1386870473,1,0,390.9,0,0,4,0,0,25,-0.0292,390.5587,6.8213,0.4212,54.889034,9.803672,108.3,5.845,1.85,335.95,54.887451,9.805910,54.895069,9.793790
1386870473,1,0,390.9,0,0,0,0,0,0,-0.0292,390.5587,6.8213,0.4212,54.889050,9.803688,108.3,5.845,1.85,335.95,54.887451,9.805910,54.895069,9.793790
1386870473,1,0,390.9,0,0,4,0,0,25,-0.0292,390.5587,6.8213,0.4212,54.889065,9.803704,108.3,5.845,1.85,335.95,54.887451,9.805910,54.895069,9.793790
1386870473,1,0,390.9,0,0,0,0,0,0,-0.0292,390.5587,6.8213,0.4212,54.889084,9.803720,108.3,5.845,1.85,335.95,54.887451,9.805910,54.895069,9.793790
1386870474,1,0,390.9,0,0,4,0,0,25,-0.0292,390.5587,6.8213,0.4212,54.889099,9.803736,108.3,5.845,1.85,335.95,54.887451,9.805910,54.895069,9.793790
1386870474,1,0,390.9,0,0,0,0,0,0,-0.0292,390.5587,6.8213,0.4212,54.889114,9.803751,108.3,5.845,1.85,335.95,54.887451,9.805910,54.895069,9.793790
1386870474,1,0,390.9,0,0,4,0,0,25,-0.0292,390.5587,6.8213,0.4212,54.889133,9.803767,108.3,5.845,1.85,335.95,54.887451,9.805910,54.895069,9.793790
1386870474,1,0,390.9,0,0,0,0,0,0,-0.0292,390.5587,6.8213,0.4212,54.889149,9.803783,108.3,5.845,1.85,335.95,54.887451,9.805910,54.895069,9.793790
1386870475,1,0,390.9,0,0,4,0,0,25,-0.0292,390.5587,6.8213,0.4212,54.889164,9.803799,108.3,5.845,1.85,335.95,54.887451,9.805910,54.895069,9.793790
1386870475,1,0,390.9,0,0,0,0,0,0,-0.0292,390.5587,6.8213,0.4212,54.889183,9.803815,108.3,5.845,1.85,335.95,54.887451,9.805910,54.895069,9.793790
1386870475,1,0,390.9,0,0,4,0,0,25,-0.0292,390.5587,6.8213,0.4212,54.889198,9.803831,108.3,5.845,1.85,335.95,54.887451,9.805910,54.895069,9.793790
1386870475,1,0,390.9,0,0,0,0,0,0,-0.0292,390.5587,6.8213,0.4212,54.889214,9.803846,108.3,5.845,1.85,335.95,54.887451,9.805910,54.895069,9.793790
1386870476,1,0,390.9,0,0,4,0,0,25,-0.0292,390.5587,6.8213,0.4212,54.889233,9.803863,108.3,5.845,1.85,335.95,54.887451,9.805910,54.895069,9.793790
1386870476,1,0,390.9,0,0,0,0,0,0,-0.0292,390.5587,6.8213,0.4212,54.889248,9.803878,108.3,5.845,1.85,335.95,54.887451,9.805910,54.895069,9.793790
1386870476,1,0,390.9,0,0,4,0,0,25,-0.0292,390.5587,6.8213,0.4212,54.889263,9.803893,108.3,5.845,1.85,335.95,54.887451,9.805910,54.895069,9.793790
1386870476,1,0,390.9,0,0,0,0,0,0,-0.0292,390.5587,6.8213,0.4212,54.889282,9.803909,108.3,5.845,1.85,335.95,54.887451,9.805910,54.895069,9.793790
1386870477,1,0,390.9,0,0,4,0,0,25,-0.0292,390.5587,6.8213,0.4212,54.889297,9.803925,108.3,5.845,1.85,335.95,54.887451,9.805910,54.895069,9.793790
1386870477,1,0,390.9,0,0,0,0,0,0,-0.0292,390.5587,6.8213,0.4212,54.889313,9.803941,108.3,5.845,1.85,335.95,54.887451,9.805910,54.895069,9.793790
1386870477,1,0,390.9,0,0,4,0,0,25,-0.0292,390.5587,6.8213,0.4212,54.889332,9.803957,108.3,5.845,1.85,335.95,54.887451,9.805910,54.895069,9.793790
1386870477,1,0,390.9,0,0,0,0,0,0,-0.0292,390.5587,6.8213,0.4212,54.889347,9.803972,108.3,5.845,1.85,335.95,54.887451,9.805910,54.895069,9.793790
1386870478,1,0,390.9,0,0,4,0,0,25,-0.0292,390.5587,6.8213,0.4212,54.889362,9.803988,108.3,5.845,1.85,335.95,54.887451,9.805910,54.895069,9.793790
1386870478,1,0,280.9,0,35,8,0,0,0,-0.0292,381.2254,6.8213,0.4212,54.889381,9.804000,108.3,5.845,1.85,335.95,54.887451,9.805910,54.895069,9.793790
1386870478,1,0,280.9,0,35,12,0,0,25,-0.0292,371.8920,6.8213,0.4212,54.889400,9.804006,108.3,5.845,1.85,335.95,54.887451,9.805910,54.895069,9.793790
1386870478,1,0,280.9,0,35,16,0,0,0,-0.0292,362.5587,6.8213,0.4212,54.889420,9.804007,108.3,5.845,1.85,335.95,54.887451,9.805910,54.895069,9.793790
1386870479,1,0,280.9,0,35,20,0,0,25,-0.0292,353.2253,6.8213,0.4212,54.889435,9.804003,108.3,5.845,1.85,335.95,54.887451,9.805910,54.895069,9.793790
1386870479,1,0,280.9,0,35,24,0,0,0,-0.0292,343.8920,6.8213,0.4212,54.889454,9.803994,108.3,5.845,1.85,335.95,54.887451,9.805910,54.895069,9.793790
1386870479,1,0,280.9,0,35,28,0,0,25,-0.0292,334.5587,6.8213,0.4212,54.889473,9.803981,108.3,5.845,1.85,335.95,54.887451,9.805910,54.895069,9.793790
1386870479,1,0,280.9,0,35,32,0,0,0,-0.0292,325.2253,6.8213,0.4212,54.889488,9.803964,108.3,5.845,1.85,335.95,54.887451,9.805910,54.895069,9.793790
1386870480,1,0,280.9,0,35,36,0,0,25,-0.0292,315.8920,6.8213,0.4212,54.889500,9.803942,108.3,5.845,1.85,335.95,54.887451,9.805910,54.895069,9.793790
1386870480,1,0,280.9,0,35,32,0,0,0,-0.0292,306.5586,6.8213,0.4212,54.889511,9.803917,108.3,5.845,1.85,335.95,54.887451,9.805910,54.895069,9.793790
1386870480,1,0,280.9,0,26,28,0,0,25,-0.0292,299.6253,6.8213,0.4212,54.889519,9.803889,108.3,5.845,1.85,335.95,54.887451,9.805910,54.895069,9.793790
1386870480,1,0,280.9,0,19,24,0,0,0,-0.0292,294.5586,6.8213,0.4212,54.889526,9.803861,108.3,5.845,1.85,335.95,54.887451,9.805910,54.895069,9.793790
1386870481,1,0,280.9,0,14,20,0,0,25,-0.0292,290.8253,6.8213,0.4212,54.889534,9.803832,108.3,5.845,1.85,335.95,54.887451,9.805910,54.895069,9.793790
1386870481,1,0,280.9,0,10,16,0,0,0,-0.0292,288.1586,6.8213,0.4212,54.889542,9.803802,108.3,5.845,1.85,335.95,54.887451,9.805910,54.895069,9.793790
1386870481,1,0,280.9,0,7,12,0,0,25,-0.0292,286.2920,6.8213,0.4212,54.889545,9.803773,108.3,5.845,1.85,335.95,54.887451,9.805910,54.895069,9.793790
1386870481,1,0,280.9,0,5,8,0,0,0,-0.0292,284.9586,6.8213,0.4212,54.889549,9.803743,108.3,5.845,1.85,335.95,54.887451,9.805910,54.895069,9.793790
1386870482,1,0,280.9,0,4,4,0,0,25,-0.0292,283.8919,6.8213,0.4212,54.889553,9.803713,108.3,5.845,1.85,335.95,54.887451,9.805910,54.895069,9.793790
1386870482,1,0,280.9,0,3,0,0,0,0,-0.0292,283.0919,6.8213,0.4212,54.889557,9.803682,108.3,5.845,1.85,335.95,54.887451,9.805910,54.895069,9.793790
1386870482,1,0,280.9,0,2,4,0,0,25,-0.0292,282.5586,6.8213,0.4212,54.889561,9.803652,108.3,5.845,1.85,335.95,54.887451,9.805910,54.895069,9.793790
1386870482,1,0,280.9,0,2,0,0,0,0,-0.0292,282.0253,6.8213,0.4212,54.889561,9.803621,108.3,5.845,1.85,335.95,54.887451,9.805910,54.895069,9.793790
1386870483,1,0,280.9,0,1,4,0,0,25,-0.0292,281.7586,6.8213,0.4212,54.889561,9.803591,108.3,5.845,1.85,335.95,54.887451,9.805910,54.895069,9.793790
1386870483,1,0,280.9,0,1,0,0,0,0,-0.0292,281.4920,6.8213,0.4212,54.889561,9.803560,108.3,5.845,1.85,335.95,54.887451,9.805910,54.895069,9.793790
1386870483,1,0,280.9,0,1,4,0,0,25,-0.0292,281.2253,6.8213,0.4212,54.889561,9.803530,108.3,5.845,1.85,335.95,54.887451,9.805910,54.895069,9.793790
1386870483,1,0,280.9,0,0,0,0,0,0,-0.0292,281.2253,6.8213,0.4212,54.889561,9.803499,108.3,5.845,1.85,335.95,54.887451,9.805910,54.895069,9.793790
1386870484,1,0,280.9,0,0,4,0,0,25,-0.0292,281.2253,6.8213,0.4212,54.889561,9.803469,108.3,5.845,1.85,335.95,54.887451,9.805910,54.895069,9.793790
1386870484,1,0,280.9,0,0,0,0,0,0,-0.0292,281.2253,6.8213,0.4212,54.889561,9.803438,108.3,5.845,1.85,335.95,54.887451,9.805910,54.895069,9.793790
1386870484,1,0,280.9,0,0,4,0,0,25,-0.0292,281.2253,6.8213,0.4212,54.889561,9.803407,108.3,5.845,1.85,335.95,54.887451,9.805910,54.895069,9.793790
1386870484,1,0,280.9,0,0,0,0,0,0,-0.0292,281.2253,6.8213,0.4212,54.889561,9.803376,108.3,5.845,1.85,335.95,54.887451,9.805910,54.895069,9.793790
1386870485,1,0,280.9,0,0,4,0,0,25,-0.0292,281.2253,6.8213,0.4212,54.889561,9.803346,108.3,5.845,1.85,335.95,54.887451,9.805910,54.895069,9.793790
1386870485,1,0,280.9,0,0,0,0,0,0,-0.0292,281.2253,6.8213,0.4212,54.889561,9.803315,108.3,5.845,1.85,335.95,54.887451,9.805910,54.895069,9.793790
1386870485,1,0,280.9,0,0,4,0,0,25,-0.0292,281.2253,6.8213,0.4212,54.889561,9.803285,108.3,5.845,1.85,335.95,54.887451,9.805910,54.895069,9.793790
1386870485,1,0,280.9,0,0,0,0,0,0,-0.0292,281.2253,6.8213,0.4212,54.889561,9.803254,108.3,5.845,1.85,335.95,54.887451,9.805910,54.895069,9.793790
1386870486,1,0,280.9,0,0,4,0,0,25,-0.0292,281.2253,6.8213,0.4212,54.889561,9.803224,108.3,5.845,1.85,335.95,54.887451,9.805910,54.895069,9.793790
1386870486,1,0,280.9,0,0,0,0,0,0,-0.0292,281.2253,6.8213,0.4212,54.889561,9.803192,108.3,5.845,1.85,335.95,54.887451,9.805910,54.895069,9.793790
1386870486,1,0,280.9,0,0,4,0,0,25,-0.0292,281.2253,6.8213,0.4212,54.889561,9.803162,108.3,5.845,1.85,335.95,54.887451,9.805910,54.895069,9.793790
1386870486,1,0,280.9,0,0,0,0,0,0,-0.0292,281.2253,6.8213,0.4212,54.889561,9.803131,108.3,5.845,1.85,335.95,54.887451,9.805910,54.895069,9.793790
1386870487,1,0,280.9,0,0,4,0,0,25,-0.0292,281.2253,6.8213,0.4212,54.889561,9.803101,108.3,5.845,1.85,335.95,54.887451,9.805910,54.895069,9.793790
1386870487,1,0,280.9,0,0,0,0,0,0,-0.0292,281.2253,6.8213,0.4212,54.889561,9.803070,108.3,5.845,1.85,335.95,54.887451,9.805910,54.895069,9.793790
1386870487,1,0,280.9,0,0,4,0,0,25,-0.0292,281.2253,6.8213,0.4212,54.889561,9.803040,108.3,5.845,1.85,335.95,54.887451,9.805910,54.895069,9.793790
1386870487,1,0,280.9,0,0,0,0,0,0,-0.0292,281.2253,6.8213,0.4212,54.889561,9.803009,108.3,5.845,1.85,335.95,54.887451,9.805910,54.895069,9.793790
1386870488,1,0,280.9,0,0,4,0,0,25,-0.0292,281.2253,6.8213,0.4212,54.889561,9.802978,108.3,5.845,1.85,335.95,54.887451,9.805910,54.895069,9.793790
1386870488,1,0,280.9,0,0,0,0,0,0,-0.0292,281.2253,6.8213,0.4212,54.889561,9.802947,108.3,5.845,1.85,335.95,54.887451,9.805910,54.895069,9.793790
1386870488,1,0,280.9,0,0,4,0,0,25,-0.0292,281.2253,6.8213,0.4212,54.889561,9.802917,108.3,5.845,1.85,335.95,54.887451,9.805910,54.895069,9.793790
1386870488,1,0,280.9,0,0,0,0,0,0,-0.0292,281.2253,6.8213,0.4212,54.889561,9.802886,108.3,5.845,1.85,335.95,54.887451,9.805910,54.895069,9.793790
1386870489,1,0,280.9,0,0,4,0,0,25,-0.0292,281.2253,6.8213,0.4212,54.889561,9.802855,108.3,5.845,1.85,335.95,54.887451,9.805910,54.895069,9.793790
1386870489,1,0,280.9,0,0,0,0,0,0,-0.0292,281.2253,6.8213,0.4212,54.889561,9.802825,108.3,5.845,1.85,335.95,54.887451,9.805910,54.895069,9.793790
1386870489,1,0,280.9,0,0,4,0,0,25,-0.0292,281.2253,6.8213,0.4212,54.889561,9.802794,108.3,5.845,1.85,335.95,54.887451,9.805910,54.895069,9.793790
1386870489,1,0,280.9,0,0,0,0,0,0,-0.0292,281.2253,6.8213,0.4212,54.889561,9.802763,108.3,5.845,1.85,335.95,54.887451,9.805910,54.895069,9.793790
1386870490,1,0,280.9,0,0,4,0,0,25,-0.0292,281.2253,6.8213,0.4212,54.889561,9.802732,108.3,5.845,1.85,335.95,54.887451,9.805910,54.895069,9.793790
1386870490,1,0,280.9,0,0,0,0,0,0,-0.0292,281.2253,6.8213,0.4212,54.889561,9.802702,108.3,5.845,1.85,335.95,54.887451,9.805910,54.895069,9.793790
1386870490,1,0,280.9,0,0,4,0,0,25,-0.0292,281.2253,6.8213,0.4212,54.889561,9.802671,108.3,5.845,1.85,335.95,54.887451,9.805910,54.895069,9.793790
1386870490,1,0,280.9,0,0,0,0,0,0,-0.0292,281.2253,6.8213,0.4212,54.889561,9.802641,108.3,5.845,1.85,335.95,54.887451,9.805910,54.895069,9.793790
1386870491,1,0,280.9,0,0,4,0,0,25,-0.0292,281.2253,6.8213,0.4212,54.889561,9.802610,108.3,5.845,1.85,335.95,54.887451,9.805910,54.895069,9.793790
1386870491,1,0,280.9,0,0,0,0,0,0,-0.0292,281.2253,6.8213,0.4212,54.889561,9.802580,108.3,5.845,1.85,335.95,54.887451,9.805910,54.895069,9.793790
1386870491,1,0,280.9,0,0,4,0,0,25,-0.0292,281.2253,6.8213,0.4212,54.889561,9.802548,108.3,5.845,1.85,335.95,54.887451,9.805910,54.895069,9.793790
1386870491,1,0,280.9,0,0,0,0,0,0,-0.0292,281.2253,6.8213,0.4212,54.889561,9.802518,108.3,5.845,1.85,335.95,54.887451,9.805910,54.895069,9.793790
1386870492,1,0,280.9,0,0,4,0,0,25,-0.0292,281.2253,6.8213,0.4212,54.889561,9.802487,108.3,5.845,1.85,335.95,54.887451,9.805910,54.895069,9.793790
1386870492,1,0,280.9,0,0,0,0,0,0,-0.0292,281.2253,6.8213,0.4212,54.889561,9.802457,108.3,5.845,1.85,335.95,54.887451,9.805910,54.895069,9.793790
1386870492,1,0,280.9,0,0,4,0,0,25,-0.0292,281.2253,6.8213,0.4212,54.889561,9.802426,108.3,5.845,1.85,335.95,54.887451,9.805910,54.895069,9.793790
1386870492,1,0,280.9,0,0,0,0,0,0,-0.0292,281.2253,6.8213,0.4212,54.889561,9.802396,108.3,5.845,1.85,335.95,54.887451,9.805910,54.895069,9.793790
1386870493,1,0,280.9,0,0,4,0,0,25,-0.0292,281.2253,6.8213,0.4212,54.889561,9.802365,108.3,5.845,1.85,335.95,54.887451,9.805910,54.895069,9.793790
1386870493,1,0,280.9,0,0,0,0,0,0,-0.0292,281.2253,6.8213,0.4212,54.889561,9.802334,108.3,5.845,1.85,335.95,54.887451,9.805910,54.895069,9.793790
1386870493,1,0,280.9,0,0,4,0,0,25,-0.0292,281.2253,6.8213,0.4212,54.889561,9.802303,108.3,5.845,1.85,335.95,54.887451,9.805910,54.895069,9.793790
1386870493,1,0,280.9,0,0,0,0,0,0,-0.0292,281.2253,6.8213,0.4212,54.889561,9.802273,108.3,5.845,1.85,335.95,54.887451,9.805910,54.895069,9.793790
1386870494,1,0,280.9,0,0,4,0,0,25,-0.0292,281.2253,6.8213,0.4212,54.889561,9.802242,108.3,5.845,1.85,335.95,54.887451,9.805910,54.895069,9.793790
1386870494,1,0,280.9,0,0,0,0,0,0,-0.0292,281.2253,6.8213,0.4212,54.889561,9.802212,108.3,5.845,1.85,335.95,54.887451,9.805910,54.895069,9.793790
1386870494,1,0,280.9,0,0,4,0,0,25,-0.0292,281.2253,6.8213,0.4212,54.889561,9.802181,108.3,5.845,1.85,335.95,54.887451,9.805910,54.895069,9.793790
1386870494,1,0,280.9,0,0,0,0,0,0,-0.0292,281.2253,6.8213,0.4212,54.889561,9.802151,108.3,5.845,1.85,335.95,54.887451,9.805910,54.895069,9.793790
1386870495,1,0,280.9,0,0,4,0,0,25,-0.0292,281.2253,6.8213,0.4212,54.889561,9.802119,108.3,5.845,1.85,335.95,54.887451,9.805910,54.895069,9.793790
1386870495,1,0,280.9,0,0,0,0,0,0,-0.0292,281.2253,6.8213,0.4212,54.889561,9.802089,108.3,5.845,1.85,335.95,54.887451,9.805910,54.895069,9.793790
1386870495,1,0,280.9,0,0,4,0,0,25,-0.0292,281.2253,6.8213,0.4212,54.889561,9.802058,108.3,5.845,1.85,335.95,54.887451,9.805910,54.895069,9.793790
1386870496,1,0,280.9,0,0,0,0,0,0,-0.0292,281.2253,6.8213,0.4212,54.889561,9.802028,108.3,5.845,1.85,335.95,54.887451,9.805910,54.895069,9.793790
1386870496,1,0,280.9,0,0,4,0,0,25,-0.0292,281.2253,6.8213,0.4212,54.889561,9.801997,108.3,5.845,1.85,335.95,54.887451,9.805910,54.895069,9.793790
1386870496,1,0,280.9,0,0,0,0,0,0,-0.0292,281.2253,6.8213,0.4212,54.889561,9.801967,108.3,5.845,1.85,335.95,54.887451,9.805910,54.895069,9.793790
1386870496,1,0,280.9,0,0,4,0,0,25,-0.0292,281.2253,6.8213,0.4212,54.889561,9.801936,108.3,5.845,1.85,335.95,54.887451,9.805910,54.895069,9.793790
1386870497,1,0,280.9,0,0,0,0,0,0,-0.0292,281.2253,6.8213,0.4212,54.889561,9.801905,108.3,5.845,1.85,335.95,54.887451,9.805910,54.895069,9.793790
1386870497,1,0,280.9,0,0,4,0,0,25,-0.0292,281.2253,6.8213,0.4212,54.889561,9.801874,108.3,5.845,1.85,335.95,54.887451,9.805910,54.895069,9.793790
1386870497,1,0,280.9,0,0,0,0,0,0,-0.0292,281.2253,6.8213,0.4212,54.889561,9.801844,108.3,5.845,1.85,335.95,54.887451,9.805910,54.895069,9.793790
1386870497,1,0,280.9,0,0,4,0,0,25,-0.0292,281.2253,6.8213,0.4212,54.889561,9.801813,108.3,5.845,1.85,335.95,54.887451,9.805910,54.895069,9.793790
1386870498,1,0,280.9,0,0,0,0,0,0,-0.0292,281.2253,6.8213,0.4212,54.889561,9.801783,108.3,5.845,1.85,335.95,54.887451,9.805910,54.895069,9.793790
1386870498,1,0,280.9,0,0,4,0,0,25,-0.0292,281.2253,6.8213,0.4212,54.889561,9.801752,108.3,5.845,1.85,335.95,54.887451,9.805910,54.895069,9.793790
1386870498,1,0,280.9,0,0,0,0,0,0,-0.0292,281.2253,6.8213,0.4212,54.889561,9.801722,108.3,5.845,1.85,335.95,54.887451,9.805910,54.895069,9.793790
1386870498,1,0,280.9,0,0,4,0,0,25,-0.0292,281.2253,6.8213,0.4212,54.889561,9.801690,108.3,5.845,1.85,335.95,54.887451,9.805910,54.895069,9.793790
1386870499,1,0,280.9,0,0,0,0,0,0,-0.0292,281.2253,6.8213,0.4212,54.889561,9.801660,108.3,5.845,1.85,335.95,54.887451,9.805910,54.895069,9.793790
1386870499,1,0,280.9,0,0,4,0,0,25,-0.0292,281.2253,6.8213,0.4212,54.889561,9.801629,108.3,5.845,1.85,335.95,54.887451,9.805910,54.895069,9.793790
1386870499,1,0,280.9,0,0,0,0,0,0,-0.0292,281.2253,6.8213,0.4212,54.889561,9.801599,108.3,5.845,1.85,335.95,54.887451,9.805910,54.895069,9.793790
1386870499,1,0,280.9,0,0,4,0,0,25,-0.0292,281.2253,6.8213,0.4212,54.889561,9.801568,108.3,5.845,1.85,335.95,54.887451,9.805910,54.895069,9.793790
1386870500,1,0,280.9,0,0,0,0,0,0,-0.0292,281.2253,6.8213,0.4212,54.889561,9.801538,108.3,5.845,1.85,335.95,54.887451,9.805910,54.895069,9.793790
1386870500,1,0,280.9,0,0,4,0,0,25,-0.0292,281.2253,6.8213,0.4212,54.889561,9.801507,108.3,5.845,1.85,335.95,54.887451,9.805910,54.895069,9.793790
1386870500,1,0,390.9,0,-35,0,0,0,0,-0.0292,290.5587,6.8213,0.4212,54.889565,9.801477,108.3,5.845,1.85,335.95,54.887451,9.805910,54.895069,9.793790
1386870500,1,0,390.9,0,-35,-4,0,0,25,-0.0292,299.8920,6.8213,0.4212,54.889572,9.801450,108.3,5.845,1.85,335.95,54.887451,9.805910,54.895069,9.793790
1386870501,1,0,390.9,0,-35,-8,0,0,0,-0.0292,309.2253,6.8213,0.4212,54.889584,9.801426,108.3,5.845,1.85,335.95,54.887451,9.805910,54.895069,9.793790
1386870501,1,0,390.9,0,-35,-12,0,0,25,-0.0292,318.5587,6.8213,0.4212,54.889599,9.801405,108.3,5.845,1.85,335.95,54.887451,9.805910,54.895069,9.793790
1386870501,1,0,390.9,0,-35,-16,0,0,0,-0.0292,327.8920,6.8213,0.4212,54.889614,9.801389,108.3,5.845,1.85,335.95,54.887451,9.805910,54.895069,9.793790
1386870501,1,0,390.9,0,-35,-20,0,0,25,-0.0292,337.2254,6.8213,0.4212,54.889629,9.801376,108.3,5.845,1.85,335.95,54.887451,9.805910,54.895069,9.793790
1386870502,1,0,390.9,0,-35,-24,0,0,0,-0.0292,346.5587,6.8213,0.4212,54.889648,9.801369,108.3,5.845,1.85,335.95,54.887451,9.805910,54.895069,9.793790
1386870502,1,0,390.9,0,-35,-28,0,0,25,-0.0292,355.8921,6.8213,0.4212,54.889668,9.801367,108.3,5.845,1.85,335.95,54.887451,9.805910,54.895069,9.793790
1386870502,1,0,390.9,0,-35,-32,0,0,0,-0.0292,365.2254,6.8213,0.4212,54.889687,9.801370,108.3,5.845,1.85,335.95,54.887451,9.805910,54.895069,9.793790
1386870502,1,0,390.9,0,-26,-28,0,0,25,-0.0292,372.1587,6.8213,0.4212,54.889702,9.801376,108.3,5.845,1.85,335.95,54.887451,9.805910,54.895069,9.793790
1386870503,1,0,390.9,0,-19,-24,0,0,0,-0.0292,377.2254,6.8213,0.4212,54.889721,9.801385,108.3,5.845,1.85,335.95,54.887451,9.805910,54.895069,9.793790
1386870503,1,0,390.9,0,-14,-20,0,0,25,-0.0292,380.9587,6.8213,0.4212,54.889736,9.801395,108.3,5.845,1.85,335.95,54.887451,9.805910,54.895069,9.793790
1386870503,1,0,390.9,0,-10,-16,0,0,0,-0.0292,383.6254,6.8213,0.4212,54.889751,9.801408,108.3,5.845,1.85,335.95,54.887451,9.805910,54.895069,9.793790
1386870503,1,0,390.9,0,-7,-12,0,0,25,-0.0292,385.4921,6.8213,0.4212,54.889771,9.801421,108.3,5.845,1.85,335.95,54.887451,9.805910,54.895069,9.793790
1386870504,1,0,390.9,0,-5,-8,0,0,0,-0.0292,386.8254,6.8213,0.4212,54.889786,9.801435,108.3,5.845,1.85,335.95,54.887451,9.805910,54.895069,9.793790
1386870504,1,0,390.9,0,-4,-4,0,0,25,-0.0292,387.8921,6.8213,0.4212,54.889801,9.801449,108.3,5.845,1.85,335.95,54.887451,9.805910,54.895069,9.793790
1386870504,1,0,390.9,0,-3,0,0,0,0,-0.0292,388.6921,6.8213,0.4212,54.889820,9.801464,108.3,5.845,1.85,335.95,54.887451,9.805910,54.895069,9.793790
1386870504,1,0,390.9,0,-2,-4,0,0,25,-0.0292,389.2254,6.8213,0.4212,54.889835,9.801479,108.3,5.845,1.85,335.95,54.887451,9.805910,54.895069,9.793790
1386870505,1,0,390.9,0,-2,0,0,0,0,-0.0292,389.7587,6.8213,0.4212,54.889851,9.801495,108.3,5.845,1.85,335.95,54.887451,9.805910,54.895069,9.793790
1386870505,1,0,390.9,0,-1,-4,0,0,25,-0.0292,390.0254,6.8213,0.4212,54.889866,9.801511,108.3,5.845,1.85,335.95,54.887451,9.805910,54.895069,9.793790
1386870505,1,0,390.9,0,-1,0,0,0,0,-0.0292,390.2921,6.8213,0.4212,54.889881,9.801526,108.3,5.845,1.85,335.95,54.887451,9.805910,54.895069,9.793790
1386870505,1,0,390.9,0,-1,-4,0,0,25,-0.0292,390.5587,6.8213,0.4212,54.889896,9.801542,108.3,5.845,1.85,335.95,54.887451,9.805910,54.895069,9.793790
1386870506,1,0,390.9,0,0,0,0,0,0,-0.0292,390.5587,6.8213,0.4212,54.889912,9.801558,108.3,5.845,1.85,335.95,54.887451,9.805910,54.895069,9.793790
1386870506,1,0,390.9,0,0,4,0,0,25,-0.0292,390.5587,6.8213,0.4212,54.889927,9.801574,108.3,5.845,1.85,335.95,54.887451,9.805910,54.895069,9.793790
1386870506,1,0,390.9,0,0,0,0,0,0,-0.0292,390.5587,6.8213,0.4212,54.889946,9.801590,108.3,5.845,1.85,335.95,54.887451,9.805910,54.895069,9.793790
1386870506,1,0,390.9,0,0,4,0,0,25,-0.0292,390.5587,6.8213,0.4212,54.889961,9.801606,108.3,5.845,1.85,335.95,54.887451,9.805910,54.895069,9.793790
1386870507,1,0,390.9,0,0,0,0,0,0,-0.0292,390.5587,6.8213,0.4212,54.889977,9.801622,108.3,5.845,1.85,335.95,54.887451,9.805910,54.895069,9.793790
1386870507,1,0,390.9,0,0,4,0,0,25,-0.0292,390.5587,6.8213,0.4212,54.889996,9.801639,108.3,5.845,1.85,335.95,54.887451,9.805910,54.895069,9.793790
1386870507,1,0,390.9,0,0,0,0,0,0,-0.0292,390.5587,6.8213,0.4212,54.890011,9.801654,108.3,5.845,1.85,335.95,54.887451,9.805910,54.895069,9.793790
1386870507,1,0,390.9,0,0,4,0,0,25,-0.0292,390.5587,6.8213,0.4212,54.890026,9.801670,108.3,5.845,1.85,335.95,54.887451,9.805910,54.895069,9.793790
1386870508,1,0,390.9,0,0,0,0,0,0,-0.0292,390.5587,6.8213,0.4212,54.890045,9.801686,108.3,5.845,1.85,335.95,54.887451,9.805910,54.895069,9.793790
1386870508,1,0,390.9,0,0,4,0,0,25,-0.0292,390.5587,6.8213,0.4212,54.890060,9.801702,108.3,5.845,1.85,335.95,54.887451,9.805910,54.895069,9.793790
1386870508,1,0,390.9,0,0,0,0,0,0,-0.0292,390.5587,6.8213,0.4212,54.890076,9.801718,108.3,5.845,1.85,335.95,54.887451,9.805910,54.895069,9.793790
1386870508,1,0,390.9,0,0,4,0,0,25,-0.0292,390.5587,6.8213,0.4212,54.890095,9.801734,108.3,5.845,1.85,335.95,54.887451,9.805910,54.895069,9.793790
1386870509,1,0,390.9,0,0,0,0,0,0,-0.0292,390.5587,6.8213,0.4212,54.890110,9.801749,108.3,5.845,1.85,335.95,54.887451,9.805910,54.895069,9.793790
1386870509,1,0,390.9,0,0,4,0,0,25,-0.0292,390.5587,6.8213,0.4212,54.890125,9.801765,108.3,5.845,1.85,335.95,54.887451,9.805910,54.895069,9.793790
1386870509,1,0,390.9,0,0,0,0,0,0,-0.0292,390.5587,6.8213,0.4212,54.890144,9.801781,108.3,5.845,1.85,335.95,54.887451,9.805910,54.895069,9.793790
1386870509,1,0,390.9,0,0,4,0,0,25,-0.0292,390.5587,6.8213,0.4212,54.890160,9.801797,108.3,5.845,1.85,335.95,54.887451,9.805910,54.895069,9.793790
1386870510,1,0,390.9,0,0,0,0,0,0,-0.0292,390.5587,6.8213,0.4212,54.890175,9.801813,108.3,5.845,1.85,335.95,54.887451,9.805910,54.895069,9.793790
1386870510,1,0,390.9,0,0,4,0,0,25,-0.0292,390.5587,6.8213,0.4212,54.890186,9.801828,108.3,5.845,1.85,335.95,54.887451,9.805910,54.895069,9.793790
1386870510,1,0,390.9,0,0,0,0,0,0,-0.0292,390.5587,6.8213,0.4212,54.890202,9.801845,108.3,5.845,1.85,335.95,54.887451,9.805910,54.895069,9.793790
1386870510,1,0,390.9,0,0,4,0,0,25,-0.0292,390.5587,6.8213,0.4212,54.890217,9.801861,108.3,5.845,1.85,335.95,54.887451,9.805910,54.895069,9.793790
1386870511,1,0,390.9,0,0,0,0,0,0,-0.0292,390.5587,6.8213,0.4212,54.890232,9.801876,108.3,5.845,1.85,335.95,54.887451,9.805910,54.895069,9.793790
1386870511,1,0,390.9,0,0,4,0,0,25,-0.0292,390.5587,6.8213,0.4212,54.890247,9.801892,108.3,5.845,1.85,335.95,54.887451,9.805910,54.895069,9.793790
1386870511,1,0,390.9,0,0,0,0,0,0,-0.0292,390.5587,6.8213,0.4212,54.890266,9.801908,108.3,5.845,1.85,335.95,54.887451,9.805910,54.895069,9.793790
1386870511,1,0,390.9,0,0,4,0,0,25,-0.0292,390.5587,6.8213,0.4212,54.890282,9.801924,108.3,5.845,1.85,335.95,54.887451,9.805910,54.895069,9.793790
1386870512,1,0,390.9,0,0,0,0,0,0,-0.0292,390.5587,6.8213,0.4212,54.890297,9.801940,108.3,5.845,1.85,335.95,54.887451,9.805910,54.895069,9.793790
1386870512,1,0,390.9,0,0,4,0,0,25,-0.0292,390.5587,6.8213,0.4212,54.890316,9.801955,108.3,5.845,1.85,335.95,54.887451,9.805910,54.895069,9.793790
1386870512,0,0,390.9,0,0,4,0,0,25,-0.0292,390.5587,6.8213,0.4212,54.890316,9.801955,108.3,5.845,1.85,335.95,54.887451,9.805910,54.895069,9.793790
1386870512,0,0,390.9,0,0,4,0,0,25,-0.0292,390.5587,6.8213,0.4212,54.890316,9.801955,108.3,5.845,1.85,335.95,54.887451,9.805910,54.895069,9.793790
1386870513,0,0,390.9,0,0,4,0,0,25,-0.0292,390.5587,6.8213,0.4212,54.890316,9.801955,108.3,5.845,1.85,335.95,54.887451,9.805910,54.895069,9.793790
1386870513,0,0,390.9,0,0,4,0,0,25,-0.0292,390.5587,6.8213,0.4212,54.890316,9.801955,108.3,5.845,1.85,335.95,54.887451,9.805910,54.895069,9.793790
1386870513,0,0,390.9,0,0,4,0,0,25,-0.0292,390.5587,6.8213,0.4212,54.890316,9.801955,108.3,5.845,1.85,335.95,54.887451,9.805910,54.895069,9.793790
1386870513,0,0,390.9,0,0,4,0,0,25,-0.0292,390.5587,6.8213,0.4212,54.890316,9.801955,108.3,5.845,1.85,335.95,54.887451,9.805910,54.895069,9.793790
1386870514,0,0,390.9,0,0,4,0,0,25,-0.0292,390.5587,6.8213,0.4212,54.890316,9.801955,108.3,5.845,1.85,335.95,54.887451,9.805910,54.895069,9.793790
1386870514,0,0,390.9,0,0,4,0,0,25,-0.0292,390.5587,6.8213,0.4212,54.890316,9.801955,108.3,5.845,1.85,335.95,54.887451,9.805910,54.895069,9.793790
1386870514,0,0,390.9,0,0,4,0,0,25,-0.0292,390.5587,6.8213,0.4212,54.890316,9.801955,108.3,5.845,1.85,335.95,54.887451,9.805910,54.895069,9.793790
