MCU_timestamp,Navigation_System,Manual_Control,Guidance_Heading,Manual_Ctrl_Rudder,Rudder_Desired_Angle,Rudder_Feedback,Manual_Ctrl_Sail,Sail_Desired_Pos,Sail_Feedback,Rate,Heading,Pitch,Roll,Latitude,Longitude,COG,SOG,Wind_Speed,Wind_Angle,Point_Start_Lat,Point_Start_Lon,Point_End_Lat,Point_End_Lon
1386863338,0,0,0.0,0,0,4,0,0,0,-0.0292,-24.3745,6.8213,0.4212,54.894295,9.794971,108.3,5.845,1.85,335.95,0.000000,0.000000,0.000000,0.000000
1386863339,0,0,0.0,0,0,4,0,0,0,-0.0292,-24.3745,6.8213,0.4212,54.894295,9.794971,108.3,5.845,1.85,335.95,0.000000,0.000000,0.000000,0.000000
1386863339,0,0,0.0,0,0,4,0,0,0,-0.0292,-24.3745,6.8213,0.4212,54.894295,9.794971,108.3,5.845,1.85,335.95,0.000000,0.000000,0.000000,0.000000
1386863339,0,0,0.0,0,0,4,0,0,0,-0.0292,-24.3745,6.8213,0.4212,54.894295,9.794971,108.3,5.845,1.85,335.95,0.000000,0.000000,0.000000,0.000000
1386863339,0,0,0.0,0,0,4,0,0,0,-0.0292,-24.3745,6.8213,0.4212,54.894295,9.794971,108.3,5.845,1.85,335.95,0.000000,0.000000,0.000000,0.000000
1386863340,0,0,0.0,0,0,4,0,0,0,-0.0292,-24.3745,6.8213,0.4212,54.894295,9.794971,108.3,5.845,1.85,335.95,0.000000,0.000000,0.000000,0.000000
1386863340,0,0,0.0,0,0,4,0,0,0,-0.0292,-24.3745,6.8213,0.4212,54.894295,9.794971,108.3,5.845,1.85,335.95,0.000000,0.000000,0.000000,0.000000
1386863340,0,0,0.0,0,0,4,0,0,0,-0.0292,-24.3745,6.8213,0.4212,54.894295,9.794971,108.3,5.845,1.85,335.95,0.000000,0.000000,0.000000,0.000000
1386863340,0,0,0.0,0,0,4,0,0,0,-0.0292,-24.3745,6.8213,0.4212,54.894295,9.794971,108.3,5.845,1.85,335.95,0.000000,0.000000,0.000000,0.000000
1386863341,0,0,0.0,0,0,4,0,0,0,-0.0292,-24.3745,6.8213,0.4212,54.894295,9.794971,108.3,5.845,1.85,335.95,0.000000,0.000000,0.000000,0.000000
1386863341,0,0,0.0,0,0,4,0,0,0,-0.0292,-24.3745,6.8213,0.4212,54.894295,9.794971,108.3,5.845,1.85,335.95,0.000000,0.000000,0.000000,0.000000
1386863341,0,0,0.0,0,0,4,0,0,0,-0.0292,-24.3745,6.8213,0.4212,54.894295,9.794971,108.3,5.845,1.85,335.95,0.000000,0.000000,0.000000,0.000000
1386863341,0,0,0.0,0,0,4,0,0,0,-0.0292,-24.3745,6.8213,0.4212,54.894295,9.794971,108.3,5.845,1.85,335.95,0.000000,0.000000,0.000000,0.000000
1386863342,0,0,0.0,0,0,4,0,0,0,-0.0292,-24.3745,6.8213,0.4212,54.894295,9.794971,108.3,5.845,1.85,335.95,0.000000,0.000000,0.000000,0.000000
1386863342,0,0,0.0,0,0,4,0,0,0,-0.0292,-24.3745,6.8213,0.4212,54.894295,9.794971,108.3,5.845,1.85,335.95,0.000000,0.000000,0.000000,0.000000
1386863342,0,0,0.0,0,0,4,0,0,0,-0.0292,-24.3745,6.8213,0.4212,54.894295,9.794971,108.3,5.845,1.85,335.95,0.000000,0.000000,0.000000,0.000000
1386863342,0,0,0.0,0,0,4,0,0,0,-0.0292,-24.3745,6.8213,0.4212,54.894295,9.794971,108.3,5.845,1.85,335.95,0.000000,0.000000,0.000000,0.000000
1386863343,0,0,0.0,0,0,4,0,0,0,-0.0292,-24.3745,6.8213,0.4212,54.894295,9.794971,108.3,5.845,1.85,335.95,0.000000,0.000000,0.000000,0.000000
1386863343,0,0,0.0,0,0,4,0,0,0,-0.0292,-24.3745,6.8213,0.4212,54.894295,9.794971,108.3,5.845,1.85,335.95,0.000000,0.000000,0.000000,0.000000
1386863343,0,0,0.0,0,0,4,0,0,0,-0.0292,-24.3745,6.8213,0.4212,54.894295,9.794971,108.3,5.845,1.85,335.95,0.000000,0.000000,0.000000,0.000000
1386863343,0,0,0.0,0,0,4,0,0,0,-0.0292,-24.3745,6.8213,0.4212,54.894295,9.794971,108.3,5.845,1.85,335.95,0.000000,0.000000,0.000000,0.000000
1386863344,0,0,0.0,0,0,4,0,0,0,-0.0292,-24.3745,6.8213,0.4212,54.894295,9.794971,108.3,5.845,1.85,335.95,0.000000,0.000000,0.000000,0.000000
1386863344,0,0,0.0,0,0,4,0,0,0,-0.0292,-24.3745,6.8213,0.4212,54.894295,9.794971,108.3,5.845,1.85,335.95,0.000000,0.000000,0.000000,0.000000
1386863344,0,0,0.0,0,0,4,0,0,0,-0.0292,-24.3745,6.8213,0.4212,54.894295,9.794971,108.3,5.845,1.85,335.95,0.000000,0.000000,0.000000,0.000000
1386863344,0,0,0.0,0,0,4,0,0,0,-0.0292,-24.3745,6.8213,0.4212,54.898384,9.790975,108.3,5.845,1.85,335.95,0.000000,0.000000,0.000000,0.000000
1386863345,0,0,0.0,0,0,4,0,0,0,-0.0292,-24.3745,6.8213,0.4212,54.898384,9.790975,108.3,5.845,1.85,335.95,0.000000,0.000000,0.000000,0.000000
1386863345,0,0,0.0,0,0,4,0,0,0,-0.0292,-24.3745,6.8213,0.4212,54.898384,9.790975,108.3,5.845,1.85,335.95,0.000000,0.000000,0.000000,0.000000
1386863345,0,0,0.0,0,0,4,0,0,0,-0.0292,-24.3745,6.8213,0.4212,54.898384,9.790975,108.3,5.845,1.85,335.95,0.000000,0.000000,0.000000,0.000000
1386863345,0,0,0.0,0,0,4,0,0,0,-0.0292,-24.3745,6.8213,0.4212,54.898136,9.790846,108.3,5.845,1.85,335.95,0.000000,0.000000,0.000000,0.000000
1386863346,0,0,0.0,0,0,4,0,0,0,-0.0292,-24.3745,6.8213,0.4212,54.898136,9.790846,108.3,5.845,1.85,335.95,0.000000,0.000000,0.000000,0.000000
1386863346,0,0,0.0,0,0,4,0,0,0,-0.0292,-24.3745,6.8213,0.4212,54.898136,9.790846,108.3,5.845,1.85,335.95,0.000000,0.000000,0.000000,0.000000
1386863346,0,0,0.0,0,0,4,0,0,0,-0.0292,-24.3745,6.8213,0.4212,54.898136,9.790846,108.3,5.845,1.85,335.95,0.000000,0.000000,0.000000,0.000000
1386863346,0,0,0.0,0,0,4,0,0,0,-0.0292,-24.3745,6.8213,0.4212,54.898136,9.790846,108.3,5.845,1.85,335.95,0.000000,0.000000,0.000000,0.000000
1386863347,0,0,0.0,0,0,4,0,0,0,-0.0292,-24.3745,6.8213,0.4212,54.898136,9.790846,108.3,5.845,1.85,335.95,0.000000,0.000000,0.000000,0.000000
1386863347,0,0,0.0,0,0,4,0,0,0,-0.0292,-24.3745,6.8213,0.4212,54.898136,9.790846,108.3,5.845,1.85,335.95,0.000000,0.000000,0.000000,0.000000
1386863347,0,0,0.0,0,0,4,0,0,0,-0.0292,-24.3745,6.8213,0.4212,54.898136,9.790846,108.3,5.845,1.85,335.95,0.000000,0.000000,0.000000,0.000000
1386863347,0,0,0.0,0,0,4,0,0,0,-0.0292,-24.3745,6.8213,0.4212,54.898136,9.790846,108.3,5.845,1.85,335.95,0.000000,0.000000,0.000000,0.000000
1386863348,4,0,0.0,0,0,4,0,0,0,-0.0292,-24.3745,6.8213,0.4212,54.898136,9.790846,108.3,5.845,1.85,335.95,0.000000,0.000000,0.000000,0.000000
1386863348,1,0,485.9,0,-35,0,0,0,25,-0.0292,-15.0411,6.8213,0.4212,54.898155,9.790837,108.3,5.845,1.85,335.95,54.898136,9.790846,54.895069,9.793790
1386863348,1,0,485.9,0,-35,-4,0,0,0,-0.0292,-5.7078,6.8213,0.4212,54.898174,9.790833,108.3,5.845,1.85,335.95,54.898136,9.790846,54.895069,9.793790
1386863348,1,0,485.9,0,-35,-8,0,0,25,-0.0292,3.6255,6.8213,0.4212,54.898190,9.790835,108.3,5.845,1.85,335.95,54.898136,9.790846,54.895069,9.793790
1386863349,1,0,485.9,0,-35,-12,0,0,0,-0.0292,12.9589,6.8213,0.4212,54.898209,9.790842,108.3,5.845,1.85,335.95,54.898136,9.790846,54.895069,9.793790
1386863349,1,0,485.9,0,-35,-16,0,0,25,-0.0292,22.2922,6.8213,0.4212,54.898228,9.790854,108.3,5.845,1.85,335.95,54.898136,9.790846,54.895069,9.793790
1386863349,1,0,485.9,0,-35,-20,0,0,0,-0.0292,31.6255,6.8213,0.4212,54.898243,9.790870,108.3,5.845,1.85,335.95,54.898136,9.790846,54.895069,9.793790
1386863349,1,0,485.9,0,-35,-24,0,0,25,-0.0292,40.9589,6.8213,0.4212,54.898254,9.790891,108.3,5.845,1.85,335.95,54.898136,9.790846,54.895069,9.793790
1386863350,1,0,485.9,0,-35,-28,0,28,50,-0.0292,50.2922,6.8213,0.4212,54.898266,9.790915,108.3,5.845,1.85,335.95,54.898136,9.790846,54.895069,9.793790
1386863350,1,0,485.9,0,-35,-32,0,92,75,-0.0292,59.6255,6.8213,0.4212,54.898277,9.790942,108.3,5.845,1.85,335.95,54.898136,9.790846,54.895069,9.793790
1386863350,1,0,485.9,0,-35,-36,0,171,100,-0.0292,68.9589,6.8213,0.4212,54.898285,9.790972,108.3,5.845,1.85,335.95,54.898136,9.790846,54.895069,9.793790
1386863350,1,0,485.9,0,-35,-32,0,257,125,-0.0292,78.2922,6.8213,0.4212,54.898289,9.791002,108.3,5.845,1.85,335.95,54.898136,9.790846,54.895069,9.793790
1386863351,1,0,485.9,0,-35,-36,0,342,150,-0.0292,87.6255,6.8213,0.4212,54.898293,9.791033,108.3,5.845,1.85,335.95,54.898136,9.790846,54.895069,9.793790
1386863351,1,0,485.9,0,-35,-32,0,424,175,-0.0292,96.9589,6.8213,0.4212,54.898289,9.791064,108.3,5.845,1.85,335.95,54.898136,9.790846,54.895069,9.793790
1386863351,1,0,485.9,0,-29,-28,0,501,200,-0.0292,104.6922,6.8213,0.4212,54.898285,9.791095,108.3,5.845,1.85,335.95,54.898136,9.790846,54.895069,9.793790
1386863351,1,0,485.9,0,-21,-24,0,561,225,-0.0292,110.2922,6.8213,0.4212,54.898281,9.791123,108.3,5.845,1.85,335.95,54.898136,9.790846,54.895069,9.793790
1386863352,1,0,485.9,0,-16,-20,0,578,250,-0.0292,114.5589,6.8213,0.4212,54.898273,9.791152,108.3,5.845,1.85,335.95,54.898136,9.790846,54.895069,9.793790
1386863352,1,0,485.9,0,-11,-16,0,409,275,-0.0292,117.4922,6.8213,0.4212,54.898266,9.791180,108.3,5.845,1.85,335.95,54.898136,9.790846,54.895069,9.793790
1386863352,1,0,485.9,0,-8,-12,0,409,300,-0.0292,119.6255,6.8213,0.4212,54.898258,9.791206,108.3,5.845,1.85,335.95,54.898136,9.790846,54.895069,9.793790
1386863352,1,0,485.9,0,-6,-8,0,409,325,-0.0292,121.2255,6.8213,0.4212,54.898251,9.791233,108.3,5.845,1.85,335.95,54.898136,9.790846,54.895069,9.793790
1386863353,1,0,485.9,0,-5,-4,0,409,350,-0.0292,122.5589,6.8213,0.4212,54.898239,9.791259,108.3,5.845,1.85,335.95,54.898136,9.790846,54.895069,9.793790
1386863353,1,0,485.9,0,-3,0,0,409,375,-0.0292,123.3589,6.8213,0.4212,54.898232,9.791286,108.3,5.845,1.85,335.95,54.898136,9.790846,54.895069,9.793790
1386863353,1,0,485.9,0,-3,-4,0,409,400,-0.0292,124.1589,6.8213,0.4212,54.898220,9.791311,108.3,5.845,1.85,335.95,54.898136,9.790846,54.895069,9.793790
1386863353,1,0,485.9,0,-2,0,0,409,425,-0.0292,124.6922,6.8213,0.4212,54.898209,9.791337,108.3,5.845,1.85,335.95,54.898136,9.790846,54.895069,9.793790
1386863354,1,0,485.9,0,-1,-4,0,409,400,-0.0292,124.9589,6.8213,0.4212,54.898197,9.791363,108.3,5.845,1.85,335.95,54.898136,9.790846,54.895069,9.793790
1386863354,1,0,485.9,0,-1,0,0,409,425,-0.0292,125.2255,6.8213,0.4212,54.898186,9.791389,108.3,5.845,1.85,335.95,54.898136,9.790846,54.895069,9.793790
1386863354,1,0,485.9,0,-1,-4,0,409,400,-0.0292,125.4922,6.8213,0.4212,54.898178,9.791413,108.3,5.845,1.85,335.95,54.898136,9.790846,54.895069,9.793790
1386863354,1,0,485.9,0,0,0,0,409,425,-0.0292,125.4922,6.8213,0.4212,54.898167,9.791439,108.3,5.845,1.85,335.95,54.898136,9.790846,54.895069,9.793790
1386863355,1,0,485.9,0,0,4,0,409,400,-0.0292,125.4922,6.8213,0.4212,54.898159,9.791464,108.3,5.845,1.85,335.95,54.898136,9.790846,54.895069,9.793790
1386863355,1,0,485.9,0,0,0,0,409,425,-0.0292,125.4922,6.8213,0.4212,54.898148,9.791490,108.3,5.845,1.85,335.95,54.898136,9.790846,54.895069,9.793790
1386863355,1,0,485.9,0,0,4,0,409,400,-0.0292,125.4922,6.8213,0.4212,54.898136,9.791515,108.3,5.845,1.85,335.95,54.898136,9.790846,54.895069,9.793790
1386863355,1,0,485.9,0,0,0,0,409,425,-0.0292,125.4922,6.8213,0.4212,54.898129,9.791541,108.3,5.845,1.85,335.95,54.898136,9.790846,54.895069,9.793790
1386863356,1,0,485.9,0,0,4,0,409,400,-0.0292,125.4922,6.8213,0.4212,54.898117,9.791567,108.3,5.845,1.85,335.95,54.898136,9.790846,54.895069,9.793790
1386863356,1,0,485.9,0,0,0,0,409,425,-0.0292,125.4922,6.8213,0.4212,54.898109,9.791592,108.3,5.845,1.85,335.95,54.898136,9.790846,54.895069,9.793790
1386863356,1,0,485.9,0,0,4,0,409,400,-0.0292,125.4922,6.8213,0.4212,54.898098,9.791617,108.3,5.845,1.85,335.95,54.898136,9.790846,54.895069,9.793790
1386863356,1,0,485.9,0,0,0,0,409,425,-0.0292,125.4922,6.8213,0.4212,54.898087,9.791642,108.3,5.845,1.85,335.95,54.898136,9.790846,54.895069,9.793790
1386863357,1,0,485.9,0,0,4,0,409,400,-0.0292,125.4922,6.8213,0.4212,54.898075,9.791668,108.3,5.845,1.85,335.95,54.898136,9.790846,54.895069,9.793790
1386863357,1,0,485.9,0,0,0,0,409,425,-0.0292,125.4922,6.8213,0.4212,54.898064,9.791694,108.3,5.845,1.85,335.95,54.898136,9.790846,54.895069,9.793790
1386863357,1,0,485.9,0,0,4,0,409,400,-0.0292,125.4922,6.8213,0.4212,54.898056,9.791718,108.3,5.845,1.85,335.95,54.898136,9.790846,54.895069,9.793790
1386863357,1,0,485.9,0,0,0,0,409,425,-0.0292,125.4922,6.8213,0.4212,54.898045,9.791744,108.3,5.845,1.85,335.95,54.898136,9.790846,54.895069,9.793790
1386863358,1,0,485.9,0,0,4,0,409,400,-0.0292,125.4922,6.8213,0.4212,54.898037,9.791769,108.3,5.845,1.85,335.95,54.898136,9.790846,54.895069,9.793790
1386863358,1,0,485.9,0,0,0,0,409,425,-0.0292,125.4922,6.8213,0.4212,54.898026,9.791795,108.3,5.845,1.85,335.95,54.898136,9.790846,54.895069,9.793790
1386863358,1,0,485.9,0,0,4,0,409,400,-0.0292,125.4922,6.8213,0.4212,54.898014,9.791821,108.3,5.845,1.85,335.95,54.898136,9.790846,54.895069,9.793790
1386863358,1,0,485.9,0,0,0,0,409,425,-0.0292,125.4922,6.8213,0.4212,54.898006,9.791845,108.3,5.845,1.85,335.95,54.898136,9.790846,54.895069,9.793790
1386863359,1,0,485.9,0,0,4,0,409,400,-0.0292,125.4922,6.8213,0.4212,54.897995,9.791871,108.3,5.845,1.85,335.95,54.898136,9.790846,54.895069,9.793790
1386863359,1,0,485.9,0,0,0,0,409,425,-0.0292,125.4922,6.8213,0.4212,54.897987,9.791896,108.3,5.845,1.85,335.95,54.898136,9.790846,54.895069,9.793790
1386863359,1,0,485.9,0,0,4,0,409,400,-0.0292,125.4922,6.8213,0.4212,54.897976,9.791922,108.3,5.845,1.85,335.95,54.898136,9.790846,54.895069,9.793790
1386863359,1,0,485.9,0,0,0,0,409,425,-0.0292,125.4922,6.8213,0.4212,54.897964,9.791947,108.3,5.845,1.85,335.95,54.898136,9.790846,54.895069,9.793790
1386863360,1,0,485.9,0,0,4,0,409,400,-0.0292,125.4922,6.8213,0.4212,54.897957,9.791972,108.3,5.845,1.85,335.95,54.898136,9.790846,54.895069,9.793790
1386863360,1,0,485.9,0,0,0,0,409,425,-0.0292,125.4922,6.8213,0.4212,54.897945,9.791998,108.3,5.845,1.85,335.95,54.898136,9.790846,54.895069,9.793790
1386863360,1,0,485.9,0,0,4,0,409,400,-0.0292,125.4922,6.8213,0.4212,54.897938,9.792023,108.3,5.845,1.85,335.95,54.898136,9.790846,54.895069,9.793790
1386863360,1,0,485.9,0,0,0,0,409,425,-0.0292,125.4922,6.8213,0.4212,54.897926,9.792048,108.3,5.845,1.85,335.95,54.898136,9.790846,54.895069,9.793790
1386863361,1,0,485.9,0,0,4,0,409,400,-0.0292,125.4922,6.8213,0.4212,54.897915,9.792074,108.3,5.845,1.85,335.95,54.898136,9.790846,54.895069,9.793790
1386863361,1,0,485.9,0,0,0,0,409,425,-0.0292,125.4922,6.8213,0.4212,54.897907,9.792099,108.3,5.845,1.85,335.95,54.898136,9.790846,54.895069,9.793790
1386863361,1,0,485.9,0,0,4,0,409,400,-0.0292,125.4922,6.8213,0.4212,54.897896,9.792125,108.3,5.845,1.85,335.95,54.898136,9.790846,54.895069,9.793790
1386863361,1,0,485.9,0,0,0,0,409,425,-0.0292,125.4922,6.8213,0.4212,54.897888,9.792150,108.3,5.845,1.85,335.95,54.898136,9.790846,54.895069,9.793790
1386863362,1,0,485.9,0,0,4,0,409,400,-0.0292,125.4922,6.8213,0.4212,54.897877,9.792175,108.3,5.845,1.85,335.95,54.898136,9.790846,54.895069,9.793790
1386863362,1,0,485.9,0,0,0,0,409,425,-0.0292,125.4922,6.8213,0.4212,54.897865,9.792201,108.3,5.845,1.85,335.95,54.898136,9.790846,54.895069,9.793790
1386863362,1,0,485.9,0,0,4,0,409,400,-0.0292,125.4922,6.8213,0.4212,54.897854,9.792227,108.3,5.845,1.85,335.95,54.898136,9.790846,54.895069,9.793790
1386863362,1,0,485.9,0,0,0,0,409,425,-0.0292,125.4922,6.8213,0.4212,54.897842,9.792253,108.3,5.845,1.85,335.95,54.898136,9.790846,54.895069,9.793790
1386863363,1,0,485.9,0,0,4,0,409,400,-0.0292,125.4922,6.8213,0.4212,54.897835,9.792277,108.3,5.845,1.85,335.95,54.898136,9.790846,54.895069,9.793790
1386863363,1,0,485.9,0,0,0,0,409,425,-0.0292,125.4922,6.8213,0.4212,54.897823,9.792303,108.3,5.845,1.85,335.95,54.898136,9.790846,54.895069,9.793790
1386863363,1,0,485.9,0,0,4,0,409,400,-0.0292,125.4922,6.8213,0.4212,54.897816,9.792328,108.3,5.845,1.85,335.95,54.898136,9.790846,54.895069,9.793790
1386863363,1,0,485.9,0,0,0,0,409,425,-0.0292,125.4922,6.8213,0.4212,54.897804,9.792354,108.3,5.845,1.85,335.95,54.898136,9.790846,54.895069,9.793790
1386863364,1,0,485.9,0,0,4,0,409,400,-0.0292,125.4922,6.8213,0.4212,54.897793,9.792379,108.3,5.845,1.85,335.95,54.898136,9.790846,54.895069,9.793790
1386863364,1,0,485.9,0,0,0,0,409,425,-0.0292,125.4922,6.8213,0.4212,54.897785,9.792404,108.3,5.845,1.85,335.95,54.898136,9.790846,54.895069,9.793790
1386863364,1,0,485.9,0,0,4,0,409,400,-0.0292,125.4922,6.8213,0.4212,54.897774,9.792430,108.3,5.845,1.85,335.95,54.898136,9.790846,54.895069,9.793790
1386863365,1,0,485.9,0,0,0,0,409,425,-0.0292,125.4922,6.8213,0.4212,54.897766,9.792455,108.3,5.845,1.85,335.95,54.898136,9.790846,54.895069,9.793790
1386863365,1,0,485.9,0,0,4,0,409,400,-0.0292,125.4922,6.8213,0.4212,54.897755,9.792480,108.3,5.845,1.85,335.95,54.898136,9.790846,54.895069,9.793790
1386863365,1,0,485.9,0,0,0,0,409,425,-0.0292,125.4922,6.8213,0.4212,54.897743,9.792506,108.3,5.845,1.85,335.95,54.898136,9.790846,54.895069,9.793790
1386863365,1,0,485.9,0,0,4,0,409,400,-0.0292,125.4922,6.8213,0.4212,54.897736,9.792531,108.3,5.845,1.85,335.95,54.898136,9.790846,54.895069,9.793790
1386863366,1,0,485.9,0,0,0,0,409,425,-0.0292,125.4922,6.8213,0.4212,54.897724,9.792557,108.3,5.845,1.85,335.95,54.898136,9.790846,54.895069,9.793790
1386863366,1,0,485.9,0,0,4,0,409,400,-0.0292,125.4922,6.8213,0.4212,54.897717,9.792582,108.3,5.845,1.85,335.95,54.898136,9.790846,54.895069,9.793790
1386863366,1,0,485.9,0,0,0,0,409,425,-0.0292,125.4922,6.8213,0.4212,54.897705,9.792607,108.3,5.845,1.85,335.95,54.898136,9.790846,54.895069,9.793790
1386863366,1,0,485.9,0,0,4,0,409,400,-0.0292,125.4922,6.8213,0.4212,54.897694,9.792633,108.3,5.845,1.85,335.95,54.898136,9.790846,54.895069,9.793790
1386863367,1,0,485.9,0,0,0,0,409,425,-0.0292,125.4922,6.8213,0.4212,54.897686,9.792658,108.3,5.845,1.85,335.95,54.898136,9.790846,54.895069,9.793790
1386863367,1,0,485.9,0,0,4,0,409,400,-0.0292,125.4922,6.8213,0.4212,54.897675,9.792684,108.3,5.845,1.85,335.95,54.898136,9.790846,54.895069,9.793790
1386863367,1,0,485.9,0,0,0,0,409,425,-0.0292,125.4922,6.8213,0.4212,54.897667,9.792708,108.3,5.845,1.85,335.95,54.898136,9.790846,54.895069,9.793790
1386863367,1,0,485.9,0,0,4,0,409,400,-0.0292,125.4922,6.8213,0.4212,54.897655,9.792734,108.3,5.845,1.85,335.95,54.898136,9.790846,54.895069,9.793790
1386863368,1,0,485.9,0,0,0,0,409,425,-0.0292,125.4922,6.8213,0.4212,54.897644,9.792760,108.3,5.845,1.85,335.95,54.898136,9.790846,54.895069,9.793790
1386863368,1,0,485.9,0,0,4,0,409,400,-0.0292,125.4922,6.8213,0.4212,54.897633,9.792785,108.3,5.845,1.85,335.95,54.898136,9.790846,54.895069,9.793790
1386863368,1,0,485.9,0,0,0,0,409,425,-0.0292,125.4922,6.8213,0.4212,54.897621,9.792810,108.3,5.845,1.85,335.95,54.898136,9.790846,54.895069,9.793790
1386863368,1,0,485.9,0,0,4,0,409,400,-0.0292,125.4922,6.8213,0.4212,54.897614,9.792835,108.3,5.845,1.85,335.95,54.898136,9.790846,54.895069,9.793790
1386863369,1,0,485.9,0,0,0,0,409,425,-0.0292,125.4922,6.8213,0.4212,54.897602,9.792861,108.3,5.845,1.85,335.95,54.898136,9.790846,54.895069,9.793790
1386863369,1,0,485.9,0,0,4,0,409,400,-0.0292,125.4922,6.8213,0.4212,54.897591,9.792887,108.3,5.845,1.85,335.95,54.898136,9.790846,54.895069,9.793790
1386863369,1,0,485.9,0,0,0,0,409,425,-0.0292,125.4922,6.8213,0.4212,54.897579,9.792912,108.3,5.845,1.85,335.95,54.898136,9.790846,54.895069,9.793790
1386863369,1,0,485.9,0,0,4,0,409,400,-0.0292,125.4922,6.8213,0.4212,54.897568,9.792938,108.3,5.845,1.85,335.95,54.898136,9.790846,54.895069,9.793790
1386863370,1,0,485.9,0,0,0,0,409,425,-0.0292,125.4922,6.8213,0.4212,54.897556,9.792963,108.3,5.845,1.85,335.95,54.898136,9.790846,54.895069,9.793790
1386863370,1,0,485.9,0,0,4,0,409,400,-0.0292,125.4922,6.8213,0.4212,54.897545,9.792989,108.3,5.845,1.85,335.95,54.898136,9.790846,54.895069,9.793790
1386863370,1,0,485.9,0,0,0,0,409,425,-0.0292,125.4922,6.8213,0.4212,54.897533,9.793014,108.3,5.845,1.85,335.95,54.898136,9.790846,54.895069,9.793790
1386863370,1,0,485.9,0,0,4,0,409,400,-0.0292,125.4922,6.8213,0.4212,54.897522,9.793039,108.3,5.845,1.85,335.95,54.898136,9.790846,54.895069,9.793790
1386863371,1,0,485.9,0,0,0,0,409,425,-0.0292,125.4922,6.8213,0.4212,54.897514,9.793065,108.3,5.845,1.85,335.95,54.898136,9.790846,54.895069,9.793790
1386863371,1,0,485.9,0,0,4,0,409,400,-0.0292,125.4922,6.8213,0.4212,54.897503,9.793090,108.3,5.845,1.85,335.95,54.898136,9.790846,54.895069,9.793790
1386863371,1,0,485.9,0,0,0,0,409,425,-0.0292,125.4922,6.8213,0.4212,54.897495,9.793116,108.3,5.845,1.85,335.95,54.898136,9.790846,54.895069,9.793790
1386863371,1,0,485.9,0,0,4,0,409,400,-0.0292,125.4922,6.8213,0.4212,54.897484,9.793140,108.3,5.845,1.85,335.95,54.898136,9.790846,54.895069,9.793790
1386863372,1,0,485.9,0,0,0,0,409,425,-0.0292,125.4922,6.8213,0.4212,54.897472,9.793166,108.3,5.845,1.85,335.95,54.898136,9.790846,54.895069,9.793790
1386863372,1,0,485.9,0,0,4,0,409,400,-0.0292,125.4922,6.8213,0.4212,54.897465,9.793192,108.3,5.845,1.85,335.95,54.898136,9.790846,54.895069,9.793790
1386863372,1,0,485.9,0,0,0,0,409,425,-0.0292,125.4922,6.8213,0.4212,54.897453,9.793217,108.3,5.845,1.85,335.95,54.898136,9.790846,54.895069,9.793790
1386863372,1,0,485.9,0,0,4,0,409,400,-0.0292,125.4922,6.8213,0.4212,54.897446,9.793242,108.3,5.845,1.85,335.95,54.898136,9.790846,54.895069,9.793790
1386863373,1,0,485.9,0,0,0,0,409,425,-0.0292,125.4922,6.8213,0.4212,54.897434,9.793267,108.3,5.845,1.85,335.95,54.898136,9.790846,54.895069,9.793790
1386863373,1,0,485.9,0,0,4,0,409,400,-0.0292,125.4922,6.8213,0.4212,54.897423,9.793293,108.3,5.845,1.85,335.95,54.898136,9.790846,54.895069,9.793790
1386863373,1,0,485.9,0,0,0,0,409,425,-0.0292,125.4922,6.8213,0.4212,54.897415,9.793319,108.3,5.845,1.85,335.95,54.898136,9.790846,54.895069,9.793790
1386863373,1,0,485.9,0,0,4,0,409,400,-0.0292,125.4922,6.8213,0.4212,54.897404,9.793344,108.3,5.845,1.85,335.95,54.898136,9.790846,54.895069,9.793790
1386863374,1,0,485.9,0,0,0,0,409,425,-0.0292,125.4922,6.8213,0.4212,54.897396,9.793369,108.3,5.845,1.85,335.95,54.898136,9.790846,54.895069,9.793790
1386863374,1,0,485.9,0,0,4,0,409,400,-0.0292,125.4922,6.8213,0.4212,54.897385,9.793394,108.3,5.845,1.85,335.95,54.898136,9.790846,54.895069,9.793790
1386863374,1,0,485.9,0,0,0,0,409,425,-0.0292,125.4922,6.8213,0.4212,54.897373,9.793420,108.3,5.845,1.85,335.95,54.898136,9.790846,54.895069,9.793790
1386863374,1,0,485.9,0,0,4,0,409,400,-0.0292,125.4922,6.8213,0.4212,54.897362,9.793446,108.3,5.845,1.85,335.95,54.898136,9.790846,54.895069,9.793790
1386863375,1,0,485.9,0,0,0,0,409,425,-0.0292,125.4922,6.8213,0.4212,54.897350,9.793471,108.3,5.845,1.85,335.95,54.898136,9.790846,54.895069,9.793790
1386863375,1,0,485.9,0,0,4,0,409,400,-0.0292,125.4922,6.8213,0.4212,54.897343,9.793497,108.3,5.845,1.85,335.95,54.898136,9.790846,54.895069,9.793790
1386863375,1,0,485.9,0,0,0,0,409,425,-0.0292,125.4922,6.8213,0.4212,54.897331,9.793522,108.3,5.845,1.85,335.95,54.898136,9.790846,54.895069,9.793790
1386863375,1,0,485.9,0,0,4,0,409,400,-0.0292,125.4922,6.8213,0.4212,54.897324,9.793548,108.3,5.845,1.85,335.95,54.898136,9.790846,54.895069,9.793790
1386863376,1,0,485.9,0,0,0,0,409,425,-0.0292,125.4922,6.8213,0.4212,54.897312,9.793573,108.3,5.845,1.85,335.95,54.898136,9.790846,54.895069,9.793790
1386863376,1,0,485.9,0,0,4,0,409,400,-0.0292,125.4922,6.8213,0.4212,54.897301,9.793599,108.3,5.845,1.85,335.95,54.898136,9.790846,54.895069,9.793790
1386863376,1,0,485.9,0,0,0,0,409,425,-0.0292,125.4922,6.8213,0.4212,54.897293,9.793625,108.3,5.845,1.85,335.95,54.898136,9.790846,54.895069,9.793790
1386863376,1,0,485.9,0,0,4,0,409,400,-0.0292,125.4922,6.8213,0.4212,54.897282,9.793650,108.3,5.845,1.85,335.95,54.898136,9.790846,54.895069,9.793790
1386863377,1,0,485.9,0,0,0,0,409,425,-0.0292,125.4922,6.8213,0.4212,54.897274,9.793675,108.3,5.845,1.85,335.95,54.898136,9.790846,54.895069,9.793790
1386863377,1,0,485.9,0,0,4,0,409,400,-0.0292,125.4922,6.8213,0.4212,54.897263,9.793701,108.3,5.845,1.85,335.95,54.898136,9.790846,54.895069,9.793790
1386863377,1,0,485.9,0,0,0,0,409,425,-0.0292,125.4922,6.8213,0.4212,54.897251,9.793727,108.3,5.845,1.85,335.95,54.898136,9.790846,54.895069,9.793790
1386863377,1,0,485.9,0,0,4,0,409,400,-0.0292,125.4922,6.8213,0.4212,54.897243,9.793753,108.3,5.845,1.85,335.95,54.898136,9.790846,54.895069,9.793790
1386863378,1,0,485.9,0,0,0,0,409,425,-0.0292,125.4922,6.8213,0.4212,54.897232,9.793777,108.3,5.845,1.85,335.95,54.898136,9.790846,54.895069,9.793790
1386863378,1,0,485.9,0,0,4,0,409,400,-0.0292,125.4922,6.8213,0.4212,54.897224,9.793803,108.3,5.845,1.85,335.95,54.898136,9.790846,54.895069,9.793790
1386863378,1,0,485.9,0,0,0,0,409,425,-0.0292,125.4922,6.8213,0.4212,54.897213,9.793828,108.3,5.845,1.85,335.95,54.898136,9.790846,54.895069,9.793790
1386863378,1,0,485.9,0,0,4,0,409,400,-0.0292,125.4922,6.8213,0.4212,54.897202,9.793854,108.3,5.845,1.85,335.95,54.898136,9.790846,54.895069,9.793790
1386863379,1,0,485.9,0,0,0,0,409,425,-0.0292,125.4922,6.8213,0.4212,54.897194,9.793880,108.3,5.845,1.85,335.95,54.898136,9.790846,54.895069,9.793790
1386863379,1,0,485.9,0,0,4,0,409,400,-0.0292,125.4922,6.8213,0.4212,54.897182,9.793904,108.3,5.845,1.85,335.95,54.898136,9.790846,54.895069,9.793790
1386863379,1,0,485.9,0,0,0,0,409,425,-0.0292,125.4922,6.8213,0.4212,54.897175,9.793930,108.3,5.845,1.85,335.95,54.898136,9.790846,54.895069,9.793790
1386863379,1,0,485.9,0,0,4,0,409,400,-0.0292,125.4922,6.8213,0.4212,54.897163,9.793955,108.3,5.845,1.85,335.95,54.898136,9.790846,54.895069,9.793790
1386863380,1,0,485.9,0,0,0,0,409,425,-0.0292,125.4922,6.8213,0.4212,54.897152,9.793981,108.3,5.845,1.85,335.95,54.898136,9.790846,54.895069,9.793790
1386863380,1,0,485.9,0,0,4,0,409,400,-0.0292,125.4922,6.8213,0.4212,54.897141,9.794006,108.3,5.845,1.85,335.95,54.898136,9.790846,54.895069,9.793790
1386863380,1,0,485.9,0,0,0,0,409,425,-0.0292,125.4922,6.8213,0.4212,54.897129,9.794031,108.3,5.845,1.85,335.95,54.898136,9.790846,54.895069,9.793790
1386863380,1,0,485.9,0,0,4,0,409,400,-0.0292,125.4922,6.8213,0.4212,54.897121,9.794057,108.3,5.845,1.85,335.95,54.898136,9.790846,54.895069,9.793790
1386863381,1,0,485.9,0,0,0,0,409,425,-0.0292,125.4922,6.8213,0.4212,54.897110,9.794082,108.3,5.845,1.85,335.95,54.898136,9.790846,54.895069,9.793790
1386863381,1,0,485.9,0,0,4,0,409,400,-0.0292,125.4922,6.8213,0.4212,54.897102,9.794107,108.3,5.845,1.85,335.95,54.898136,9.790846,54.895069,9.793790
1386863381,1,0,485.9,0,0,0,0,409,425,-0.0292,125.4922,6.8213,0.4212,54.897091,9.794133,108.3,5.845,1.85,335.95,54.898136,9.790846,54.895069,9.793790
1386863381,1,0,485.9,0,0,4,0,409,400,-0.0292,125.4922,6.8213,0.4212,54.897079,9.794158,108.3,5.845,1.85,335.95,54.898136,9.790846,54.895069,9.793790
1386863382,1,0,485.9,0,0,0,0,409,425,-0.0292,125.4922,6.8213,0.4212,54.897072,9.794184,108.3,5.845,1.85,335.95,54.898136,9.790846,54.895069,9.793790
1386863382,1,0,485.9,0,0,4,0,0,400,-0.0292,125.4922,6.8213,0.4212,54.897060,9.794209,108.3,5.845,1.85,335.95,54.898136,9.790846,54.895069,9.793790
1386863382,1,0,485.9,0,0,0,0,0,375,-0.0292,125.4922,6.8213,0.4212,54.897053,9.794234,108.3,5.845,1.85,335.95,54.898136,9.790846,54.895069,9.793790
1386863382,1,0,485.9,0,0,4,0,0,350,-0.0292,125.4922,6.8213,0.4212,54.897041,9.794260,108.3,5.845,1.85,335.95,54.898136,9.790846,54.895069,9.793790
1386863383,1,0,485.9,0,0,0,0,0,325,-0.0292,125.4922,6.8213,0.4212,54.897030,9.794286,108.3,5.845,1.85,335.95,54.898136,9.790846,54.895069,9.793790
1386863383,1,0,485.9,0,0,4,0,0,300,-0.0292,125.4922,6.8213,0.4212,54.897022,9.794312,108.3,5.845,1.85,335.95,54.898136,9.790846,54.895069,9.793790
1386863383,1,0,485.9,0,0,0,0,0,275,-0.0292,125.4922,6.8213,0.4212,54.897011,9.794336,108.3,5.845,1.85,335.95,54.898136,9.790846,54.895069,9.793790
1386863383,1,0,485.9,0,0,4,0,0,250,-0.0292,125.4922,6.8213,0.4212,54.897003,9.794362,108.3,5.845,1.85,335.95,54.898136,9.790846,54.895069,9.793790
1386863384,1,0,485.9,0,0,0,0,0,225,-0.0292,125.4922,6.8213,0.4212,54.896992,9.794388,108.3,5.845,1.85,335.95,54.898136,9.790846,54.895069,9.793790
1386863384,1,0,485.9,0,0,4,0,0,200,-0.0292,125.4922,6.8213,0.4212,54.896980,9.794414,108.3,5.845,1.85,335.95,54.898136,9.790846,54.895069,9.793790
1386863384,1,0,485.9,0,0,0,0,0,175,-0.0292,125.4922,6.8213,0.4212,54.896973,9.794439,108.3,5.845,1.85,335.95,54.898136,9.790846,54.895069,9.793790
1386863384,1,0,485.9,0,0,4,0,0,150,-0.0292,125.4922,6.8213,0.4212,54.896961,9.794464,108.3,5.845,1.85,335.95,54.898136,9.790846,54.895069,9.793790
1386863385,1,0,485.9,0,0,0,0,0,125,-0.0292,125.4922,6.8213,0.4212,54.896954,9.794490,108.3,5.845,1.85,335.95,54.898136,9.790846,54.895069,9.793790
1386863385,1,0,485.9,0,0,4,0,0,100,-0.0292,125.4922,6.8213,0.4212,54.896942,9.794516,108.3,5.845,1.85,335.95,54.898136,9.790846,54.895069,9.793790
1386863385,1,0,485.9,0,0,0,0,0,75,-0.0292,125.4922,6.8213,0.4212,54.896931,9.794541,108.3,5.845,1.85,335.95,54.898136,9.790846,54.895069,9.793790
1386863385,1,0,485.9,0,0,4,0,0,50,-0.0292,125.4922,6.8213,0.4212,54.896919,9.794567,108.3,5.845,1.85,335.95,54.898136,9.790846,54.895069,9.793790
1386863386,1,0,485.9,0,0,0,0,0,25,-0.0292,125.4922,6.8213,0.4212,54.896908,9.794592,108.3,5.845,1.85,335.95,54.898136,9.790846,54.895069,9.793790
1386863386,1,0,485.9,0,0,4,0,0,0,-0.0292,125.4922,6.8213,0.4212,54.896900,9.794618,108.3,5.845,1.85,335.95,54.898136,9.790846,54.895069,9.793790
1386863386,1,0,485.9,0,0,0,0,0,25,-0.0292,125.4922,6.8213,0.4212,54.896889,9.794642,108.3,5.845,1.85,335.95,54.898136,9.790846,54.895069,9.793790
1386863386,1,0,245.9,0,-35,-4,0,0,0,-0.0292,134.8255,6.8213,0.4212,54.896877,9.794665,108.3,5.845,1.85,335.95,54.898136,9.790846,54.895069,9.793790
1386863387,1,0,335.9,0,35,0,0,0,25,-0.0292,125.4922,6.8213,0.4212,54.896866,9.794691,108.3,5.845,1.85,335.95,54.898136,9.790846,54.895069,9.793790
1386863387,1,0,335.9,0,35,4,0,0,0,-0.0292,116.1589,6.8213,0.4212,54.896854,9.794719,108.3,5.845,1.85,335.95,54.898136,9.790846,54.895069,9.793790
1386863387,1,0,335.9,0,35,8,0,0,25,-0.0292,106.8255,6.8213,0.4212,54.896851,9.794749,108.3,5.845,1.85,335.95,54.898136,9.790846,54.895069,9.793790
1386863387,1,0,335.9,0,35,12,0,0,0,-0.0292,97.4922,6.8213,0.4212,54.896847,9.794780,108.3,5.845,1.85,335.95,54.898136,9.790846,54.895069,9.793790
1386863388,1,0,335.9,0,35,16,0,0,25,-0.0292,88.1589,6.8213,0.4212,54.896847,9.794810,108.3,5.845,1.85,335.95,54.898136,9.790846,54.895069,9.793790
1386863388,1,0,335.9,0,35,20,0,0,0,-0.0292,78.8255,6.8213,0.4212,54.896851,9.794841,108.3,5.845,1.85,335.95,54.898136,9.790846,54.895069,9.793790
1386863388,1,0,335.9,0,35,24,0,0,25,-0.0292,69.4922,6.8213,0.4212,54.896858,9.794870,108.3,5.845,1.85,335.95,54.898136,9.790846,54.895069,9.793790
1386863388,1,0,307.9,0,35,28,0,0,0,-0.0292,60.1589,6.8213,0.4212,54.896870,9.794897,108.3,5.845,1.85,335.95,54.898136,9.790846,54.895069,9.793790
1386863389,1,0,364.0,0,35,32,0,0,25,-0.0292,50.8255,6.8213,0.4212,54.896881,9.794922,108.3,5.845,1.85,335.95,54.898136,9.790846,54.895069,9.793790
1386863389,1,0,364.0,0,35,36,0,0,0,-0.0292,41.4922,6.8213,0.4212,54.896896,9.794943,108.3,5.845,1.85,335.95,54.898136,9.790846,54.895069,9.793790
1386863389,1,0,335.9,0,35,32,0,0,25,-0.0292,32.1589,6.8213,0.4212,54.896912,9.794960,108.3,5.845,1.85,335.95,54.898136,9.790846,54.895069,9.793790
1386863389,1,0,425.9,0,-34,28,0,0,0,-0.0292,41.2255,6.8213,0.4212,54.896927,9.794980,108.3,5.845,1.85,335.95,54.898136,9.790846,54.895069,9.793790
1386863390,1,0,245.9,0,35,32,0,0,25,-0.0292,31.8922,6.8213,0.4212,54.896942,9.794997,108.3,5.845,1.85,335.95,54.898136,9.790846,54.895069,9.793790
1386863390,1,0,364.0,0,28,28,0,0,0,-0.0292,24.4255,6.8213,0.4212,54.896957,9.795010,108.3,5.845,1.85,335.95,54.898136,9.790846,54.895069,9.793790
1386863390,1,0,364.0,0,20,24,0,0,25,-0.0292,19.0922,6.8213,0.4212,54.896976,9.795020,108.3,5.845,1.85,335.95,54.898136,9.790846,54.895069,9.793790
1386863390,0,0,364.0,0,20,24,0,0,25,-0.0292,19.0922,6.8213,0.4212,54.896976,9.795020,108.3,5.845,1.85,335.95,54.898136,9.790846,54.895069,9.793790
1386863391,0,0,364.0,0,20,24,0,0,25,-0.0292,19.0922,6.8213,0.4212,54.896976,9.795020,108.3,5.845,1.85,335.95,54.898136,9.790846,54.895069,9.793790
1386863391,0,0,364.0,0,20,24,0,0,25,-0.0292,19.0922,6.8213,0.4212,54.896976,9.795020,108.3,5.845,1.85,335.95,54.898136,9.790846,54.895069,9.793790
1386863391,0,0,364.0,0,20,24,0,0,25,-0.0292,19.0922,6.8213,0.4212,54.896976,9.795020,108.3,5.845,1.85,335.95,54.898136,9.790846,54.895069,9.793790
1386863391,0,0,364.0,0,20,24,0,0,25,-0.0292,19.0922,6.8213,0.4212,54.896976,9.795020,108.3,5.845,1.85,335.95,54.898136,9.790846,54.895069,9.793790
1386863392,0,0,364.0,0,20,24,0,0,25,-0.0292,19.0922,6.8213,0.4212,54.896976,9.795020,108.3,5.845,1.85,335.95,54.898136,9.790846,54.895069,9.793790
1386863392,0,0,364.0,0,20,24,0,0,25,-0.0292,19.0922,6.8213,0.4212,54.896976,9.795020,108.3,5.845,1.85,335.95,54.898136,9.790846,54.895069,9.793790
1386863392,0,0,364.0,0,20,24,0,0,25,-0.0292,19.0922,6.8213,0.4212,54.896976,9.795020,108.3,5.845,1.85,335.95,54.898136,9.790846,54.895069,9.793790
1386863392,0,0,364.0,0,20,24,0,0,25,-0.0292,19.0922,6.8213,0.4212,54.896976,9.795020,108.3,5.845,1.85,335.95,54.898136,9.790846,54.895069,9.793790
1386863393,0,0,364.0,0,20,24,0,0,25,-0.0292,19.0922,6.8213,0.4212,54.896976,9.795020,108.3,5.845,1.85,335.95,54.898136,9.790846,54.895069,9.793790
1386863393,0,0,364.0,0,20,24,0,0,25,-0.0292,19.0922,6.8213,0.4212,54.896976,9.795020,108.3,5.845,1.85,335.95,54.898136,9.790846,54.895069,9.793790
1386863393,0,0,364.0,0,20,24,0,0,25,-0.0292,19.0922,6.8213,0.4212,54.896976,9.795020,108.3,5.845,1.85,335.95,54.898136,9.790846,54.895069,9.793790
1386863393,0,0,364.0,0,20,24,0,0,25,-0.0292,19.0922,6.8213,0.4212,54.896976,9.795020,108.3,5.845,1.85,335.95,54.898136,9.790846,54.895069,9.793790
1386863394,0,0,364.0,0,20,24,0,0,25,-0.0292,19.0922,6.8213,0.4212,54.896976,9.795020,108.3,5.845,1.85,335.95,54.898136,9.790846,54.895069,9.793790
1386863394,0,0,364.0,0,20,24,0,0,25,-0.0292,19.0922,6.8213,0.4212,54.896976,9.795020,108.3,5.845,1.85,335.95,54.898136,9.790846,54.895069,9.793790
1386863394,0,0,364.0,0,20,24,0,0,25,-0.0292,19.0922,6.8213,0.4212,54.896976,9.795020,108.3,5.845,1.85,335.95,54.898136,9.790846,54.895069,9.793790
1386863394,0,0,364.0,0,20,24,0,0,25,-0.0292,19.0922,6.8213,0.4212,54.896976,9.795020,108.3,5.845,1.85,335.95,54.898136,9.790846,54.895069,9.793790
1386863395,0,0,364.0,0,20,24,0,0,25,-0.0292,19.0922,6.8213,0.4212,54.896976,9.795020,108.3,5.845,1.85,335.95,54.898136,9.790846,54.895069,9.793790
1386863395,0,0,364.0,0,20,24,0,0,25,-0.0292,19.0922,6.8213,0.4212,54.896976,9.795020,108.3,5.845,1.85,335.95,54.898136,9.790846,54.895069,9.793790
1386863395,0,0,364.0,0,20,24,0,0,25,-0.0292,19.0922,6.8213,0.4212,54.896976,9.795020,108.3,5.845,1.85,335.95,54.898136,9.790846,54.895069,9.793790
1386863395,0,0,364.0,0,20,24,0,0,25,-0.0292,19.0922,6.8213,0.4212,54.896976,9.795020,108.3,5.845,1.85,335.95,54.898136,9.790846,54.895069,9.793790
1386863396,0,0,364.0,0,20,24,0,0,25,-0.0292,19.0922,6.8213,0.4212,54.896976,9.795020,108.3,5.845,1.85,335.95,54.898136,9.790846,54.895069,9.793790
1386863396,0,0,364.0,0,20,24,0,0,25,-0.0292,19.0922,6.8213,0.4212,54.896976,9.795020,108.3,5.845,1.85,335.95,54.898136,9.790846,54.895069,9.793790
1386863396,0,0,364.0,0,20,24,0,0,25,-0.0292,19.0922,6.8213,0.4212,54.896976,9.795020,108.3,5.845,1.85,335.95,54.898136,9.790846,54.895069,9.793790
1386863396,0,0,364.0,0,20,24,0,0,25,-0.0292,19.0922,6.8213,0.4212,54.896976,9.795020,108.3,5.845,1.85,335.95,54.898136,9.790846,54.895069,9.793790
1386863397,0,0,364.0,0,20,24,0,0,25,-0.0292,19.0922,6.8213,0.4212,54.896976,9.795020,108.3,5.845,1.85,335.95,54.898136,9.790846,54.895069,9.793790
1386863397,0,0,364.0,0,20,24,0,0,25,-0.0292,19.0922,6.8213,0.4212,54.896976,9.795020,108.3,5.845,1.85,335.95,54.898136,9.790846,54.895069,9.793790
1386863397,0,0,364.0,0,20,24,0,0,25,-0.0292,19.0922,6.8213,0.4212,54.896976,9.795020,108.3,5.845,1.85,335.95,54.898136,9.790846,54.895069,9.793790
1386863397,0,0,364.0,0,20,24,0,0,25,-0.0292,19.0922,6.8213,0.4212,54.896976,9.795020,108.3,5.845,1.85,335.95,54.898136,9.790846,54.895069,9.793790
1386863398,0,0,364.0,0,20,24,0,0,25,-0.0292,19.0922,6.8213,0.4212,54.896976,9.795020,108.3,5.845,1.85,335.95,54.898136,9.790846,54.895069,9.793790
1386863398,0,0,364.0,0,20,24,0,0,25,-0.0292,19.0922,6.8213,0.4212,54.896976,9.795020,108.3,5.845,1.85,335.95,54.898136,9.790846,54.895069,9.793790
1386863398,0,0,364.0,0,20,24,0,0,25,-0.0292,19.0922,6.8213,0.4212,54.896976,9.795020,108.3,5.845,1.85,335.95,54.898136,9.790846,54.895069,9.793790
1386863398,0,0,364.0,0,20,24,0,0,25,-0.0292,19.0922,6.8213,0.4212,54.896976,9.795020,108.3,5.845,1.85,335.95,54.898136,9.790846,54.895069,9.793790
1386863399,0,0,364.0,0,20,24,0,0,25,-0.0292,19.0922,6.8213,0.4212,54.896976,9.795020,108.3,5.845,1.85,335.95,54.898136,9.790846,54.895069,9.793790
1386863399,0,0,364.0,0,20,24,0,0,25,-0.0292,19.0922,6.8213,0.4212,54.896976,9.795020,108.3,5.845,1.85,335.95,54.898136,9.790846,54.895069,9.793790
1386863399,0,0,364.0,0,20,24,0,0,25,-0.0292,19.0922,6.8213,0.4212,54.896976,9.795020,108.3,5.845,1.85,335.95,54.898136,9.790846,54.895069,9.793790
1386863399,0,0,364.0,0,20,24,0,0,25,-0.0292,19.0922,6.8213,0.4212,54.896976,9.795020,108.3,5.845,1.85,335.95,54.898136,9.790846,54.895069,9.793790
1386863400,0,0,364.0,0,20,24,0,0,25,-0.0292,19.0922,6.8213,0.4212,54.896976,9.795020,108.3,5.845,1.85,335.95,54.898136,9.790846,54.895069,9.793790
1386863400,0,0,364.0,0,20,24,0,0,25,-0.0292,19.0922,6.8213,0.4212,54.896976,9.795020,108.3,5.845,1.85,335.95,54.898136,9.790846,54.895069,9.793790
1386863400,0,0,364.0,0,20,24,0,0,25,-0.0292,19.0922,6.8213,0.4212,54.896976,9.795020,108.3,5.845,1.85,335.95,54.898136,9.790846,54.895069,9.793790
1386863400,0,0,364.0,0,20,24,0,0,25,-0.0292,19.0922,6.8213,0.4212,54.896976,9.795020,108.3,5.845,1.85,335.95,54.898136,9.790846,54.895069,9.793790
1386863401,0,0,364.0,0,20,24,0,0,25,-0.0292,19.0922,6.8213,0.4212,54.896976,9.795020,108.3,5.845,1.85,335.95,54.898136,9.790846,54.895069,9.793790
1386863401,0,0,364.0,0,20,24,0,0,25,-0.0292,19.0922,6.8213,0.4212,54.896976,9.795020,108.3,5.845,1.85,335.95,54.898136,9.790846,54.895069,9.793790
1386863401,0,0,364.0,0,20,24,0,0,25,-0.0292,19.0922,6.8213,0.4212,54.896976,9.795020,108.3,5.845,1.85,335.95,54.898136,9.790846,54.895069,9.793790
1386863401,0,0,364.0,0,20,24,0,0,25,-0.0292,19.0922,6.8213,0.4212,54.896976,9.795020,108.3,5.845,1.85,335.95,54.898136,9.790846,54.895069,9.793790
1386863402,0,0,364.0,0,20,24,0,0,25,-0.0292,19.0922,6.8213,0.4212,54.896976,9.795020,108.3,5.845,1.85,335.95,54.898136,9.790846,54.895069,9.793790
1386863402,0,0,364.0,0,20,24,0,0,25,-0.0292,19.0922,6.8213,0.4212,54.896976,9.795020,108.3,5.845,1.85,335.95,54.898136,9.790846,54.895069,9.793790
1386863402,0,0,364.0,0,20,24,0,0,25,-0.0292,19.0922,6.8213,0.4212,54.896976,9.795020,108.3,5.845,1.85,335.95,54.898136,9.790846,54.895069,9.793790
1386863402,0,0,364.0,0,20,24,0,0,25,-0.0292,19.0922,6.8213,0.4212,54.896976,9.795020,108.3,5.845,1.85,335.95,54.898136,9.790846,54.895069,9.793790
1386863403,0,0,364.0,0,20,24,0,0,25,-0.0292,19.0922,6.8213,0.4212,54.896976,9.795020,108.3,5.845,1.85,335.95,54.898136,9.790846,54.895069,9.793790
1386863403,0,0,364.0,0,20,24,0,0,25,-0.0292,19.0922,6.8213,0.4212,54.896976,9.795020,108.3,5.845,1.85,335.95,54.898136,9.790846,54.895069,9.793790
1386863403,0,0,364.0,0,20,24,0,0,25,-0.0292,19.0922,6.8213,0.4212,54.896976,9.795020,108.3,5.845,1.85,335.95,54.898136,9.790846,54.895069,9.793790
1386863403,0,0,364.0,0,20,24,0,0,25,-0.0292,19.0922,6.8213,0.4212,54.896976,9.795020,108.3,5.845,1.85,335.95,54.898136,9.790846,54.895069,9.793790
1386863404,0,0,364.0,0,20,24,0,0,25,-0.0292,19.0922,6.8213,0.4212,54.896976,9.795020,108.3,5.845,1.85,335.95,54.898136,9.790846,54.895069,9.793790
1386863404,0,0,364.0,0,20,24,0,0,25,-0.0292,19.0922,6.8213,0.4212,54.896976,9.795020,108.3,5.845,1.85,335.95,54.898136,9.790846,54.895069,9.793790
1386863404,0,0,364.0,0,20,24,0,0,25,-0.0292,19.0922,6.8213,0.4212,54.896976,9.795020,108.3,5.845,1.85,335.95,54.898136,9.790846,54.895069,9.793790
1386863405,0,0,364.0,0,20,24,0,0,25,-0.0292,19.0922,6.8213,0.4212,54.896976,9.795020,108.3,5.845,1.85,335.95,54.898136,9.790846,54.895069,9.793790
1386863405,0,0,364.0,0,20,24,0,0,25,-0.0292,19.0922,6.8213,0.4212,54.896976,9.795020,108.3,5.845,1.85,335.95,54.898136,9.790846,54.895069,9.793790
1386863405,0,0,364.0,0,20,24,0,0,25,-0.0292,19.0922,6.8213,0.4212,54.896976,9.795020,108.3,5.845,1.85,335.95,54.898136,9.790846,54.895069,9.793790
1386863405,0,0,364.0,0,20,24,0,0,25,-0.0292,19.0922,6.8213,0.4212,54.896976,9.795020,108.3,5.845,1.85,335.95,54.898136,9.790846,54.895069,9.793790
1386863406,0,0,364.0,0,20,24,0,0,25,-0.0292,19.0922,6.8213,0.4212,54.896976,9.795020,108.3,5.845,1.85,335.95,54.898136,9.790846,54.895069,9.793790
1386863406,0,0,364.0,0,20,24,0,0,25,-0.0292,19.0922,6.8213,0.4212,54.896976,9.795020,108.3,5.845,1.85,335.95,54.898136,9.790846,54.895069,9.793790
1386863406,0,0,364.0,0,20,24,0,0,25,-0.0292,19.0922,6.8213,0.4212,54.896976,9.795020,108.3,5.845,1.85,335.95,54.898136,9.790846,54.895069,9.793790
1386863406,0,0,364.0,0,20,24,0,0,25,-0.0292,19.0922,6.8213,0.4212,54.896976,9.795020,108.3,5.845,1.85,335.95,54.898136,9.790846,54.895069,9.793790
1386863407,0,0,364.0,0,20,24,0,0,25,-0.0292,19.0922,6.8213,0.4212,54.896976,9.795020,108.3,5.845,1.85,335.95,54.898136,9.790846,54.895069,9.793790
1386863407,0,0,364.0,0,20,24,0,0,25,-0.0292,19.0922,6.8213,0.4212,54.896976,9.795020,108.3,5.845,1.85,335.95,54.898136,9.790846,54.895069,9.793790
1386863407,0,0,364.0,0,20,24,0,0,25,-0.0292,19.0922,6.8213,0.4212,54.896976,9.795020,108.3,5.845,1.85,335.95,54.898136,9.790846,54.895069,9.793790
1386863407,0,0,364.0,0,20,24,0,0,25,-0.0292,19.0922,6.8213,0.4212,54.896976,9.795020,108.3,5.845,1.85,335.95,54.898136,9.790846,54.895069,9.793790
1386863408,0,0,364.0,0,20,24,0,0,25,-0.0292,19.0922,6.8213,0.4212,54.896976,9.795020,108.3,5.845,1.85,335.95,54.898136,9.790846,54.895069,9.793790
1386863408,0,0,364.0,0,20,24,0,0,25,-0.0292,19.0922,6.8213,0.4212,54.896976,9.795020,108.3,5.845,1.85,335.95,54.898136,9.790846,54.895069,9.793790
1386863408,0,0,364.0,0,20,24,0,0,25,-0.0292,19.0922,6.8213,0.4212,54.896976,9.795020,108.3,5.845,1.85,335.95,54.898136,9.790846,54.895069,9.793790
1386863408,0,0,364.0,0,20,24,0,0,25,-0.0292,19.0922,6.8213,0.4212,54.896976,9.795020,108.3,5.845,1.85,335.95,54.898136,9.790846,54.895069,9.793790
1386863409,0,0,364.0,0,20,24,0,0,25,-0.0292,19.0922,6.8213,0.4212,54.896976,9.795020,108.3,5.845,1.85,335.95,54.898136,9.790846,54.895069,9.793790
1386863409,0,0,364.0,0,20,24,0,0,25,-0.0292,19.0922,6.8213,0.4212,54.896976,9.795020,108.3,5.845,1.85,335.95,54.898136,9.790846,54.895069,9.793790
1386863409,0,0,364.0,0,20,24,0,0,25,-0.0292,19.0922,6.8213,0.4212,54.896976,9.795020,108.3,5.845,1.85,335.95,54.898136,9.790846,54.895069,9.793790
1386863409,0,0,364.0,0,20,24,0,0,25,-0.0292,19.0922,6.8213,0.4212,54.896976,9.795020,108.3,5.845,1.85,335.95,54.898136,9.790846,54.895069,9.793790
1386863410,0,0,364.0,0,20,24,0,0,25,-0.0292,19.0922,6.8213,0.4212,54.896976,9.795020,108.3,5.845,1.85,335.95,54.898136,9.790846,54.895069,9.793790
1386863410,0,0,364.0,0,20,24,0,0,25,-0.0292,19.0922,6.8213,0.4212,54.896976,9.795020,108.3,5.845,1.85,335.95,54.898136,9.790846,54.895069,9.793790
1386863410,0,0,364.0,0,20,24,0,0,25,-0.0292,19.0922,6.8213,0.4212,54.896976,9.795020,108.3,5.845,1.85,335.95,54.898136,9.790846,54.895069,9.793790
1386863410,0,0,364.0,0,20,24,0,0,25,-0.0292,19.0922,6.8213,0.4212,54.896976,9.795020,108.3,5.845,1.85,335.95,54.898136,9.790846,54.895069,9.793790
1386863411,0,0,364.0,0,20,24,0,0,25,-0.0292,19.0922,6.8213,0.4212,54.896976,9.795020,108.3,5.845,1.85,335.95,54.898136,9.790846,54.895069,9.793790
1386863411,0,0,364.0,0,20,24,0,0,25,-0.0292,19.0922,6.8213,0.4212,54.896976,9.795020,108.3,5.845,1.85,335.95,54.898136,9.790846,54.895069,9.793790
1386863411,0,0,364.0,0,20,24,0,0,25,-0.0292,19.0922,6.8213,0.4212,54.896976,9.795020,108.3,5.845,1.85,335.95,54.898136,9.790846,54.895069,9.793790
1386863411,0,0,364.0,0,20,24,0,0,25,-0.0292,19.0922,6.8213,0.4212,54.896976,9.795020,108.3,5.845,1.85,335.95,54.898136,9.790846,54.895069,9.793790
1386863412,0,0,364.0,0,20,24,0,0,25,-0.0292,19.0922,6.8213,0.4212,54.896976,9.795020,108.3,5.845,1.85,335.95,54.898136,9.790846,54.895069,9.793790
1386863412,0,0,364.0,0,20,24,0,0,25,-0.0292,19.0922,6.8213,0.4212,54.896976,9.795020,108.3,5.845,1.85,335.95,54.898136,9.790846,54.895069,9.793790
1386863412,0,0,364.0,0,20,24,0,0,25,-0.0292,19.0922,6.8213,0.4212,54.896976,9.795020,108.3,5.845,1.85,335.95,54.898136,9.790846,54.895069,9.793790
1386863412,0,0,364.0,0,20,24,0,0,25,-0.0292,19.0922,6.8213,0.4212,54.896976,9.795020,108.3,5.845,1.85,335.95,54.898136,9.790846,54.895069,9.793790
1386863413,0,0,364.0,0,20,24,0,0,25,-0.0292,19.0922,6.8213,0.4212,54.896976,9.795020,108.3,5.845,1.85,335.95,54.898136,9.790846,54.895069,9.793790
1386863413,0,0,364.0,0,20,24,0,0,25,-0.0292,19.0922,6.8213,0.4212,54.896976,9.795020,108.3,5.845,1.85,335.95,54.898136,9.790846,54.895069,9.793790
1386863413,0,0,364.0,0,20,24,0,0,25,-0.0292,19.0922,6.8213,0.4212,54.896976,9.795020,108.3,5.845,1.85,335.95,54.898136,9.790846,54.895069,9.793790
1386863413,0,0,364.0,0,20,24,0,0,25,-0.0292,19.0922,6.8213,0.4212,54.896976,9.795020,108.3,5.845,1.85,335.95,54.898136,9.790846,54.895069,9.793790
1386863414,0,0,364.0,0,20,24,0,0,25,-0.0292,19.0922,6.8213,0.4212,54.896976,9.795020,108.3,5.845,1.85,335.95,54.898136,9.790846,54.895069,9.793790
1386863414,0,0,364.0,0,20,24,0,0,25,-0.0292,19.0922,6.8213,0.4212,54.896976,9.795020,108.3,5.845,1.85,335.95,54.898136,9.790846,54.895069,9.793790
1386863414,0,0,364.0,0,20,24,0,0,25,-0.0292,19.0922,6.8213,0.4212,54.896976,9.795020,108.3,5.845,1.85,335.95,54.898136,9.790846,54.895069,9.793790
1386863414,0,0,364.0,0,20,24,0,0,25,-0.0292,19.0922,6.8213,0.4212,54.896976,9.795020,108.3,5.845,1.85,335.95,54.898136,9.790846,54.895069,9.793790
1386863415,0,0,364.0,0,20,24,0,0,25,-0.0292,19.0922,6.8213,0.4212,54.896976,9.795020,108.3,5.845,1.85,335.95,54.898136,9.790846,54.895069,9.793790
1386863415,0,0,364.0,0,20,24,0,0,25,-0.0292,19.0922,6.8213,0.4212,54.896976,9.795020,108.3,5.845,1.85,335.95,54.898136,9.790846,54.895069,9.793790
1386863415,0,0,364.0,0,20,24,0,0,25,-0.0292,19.0922,6.8213,0.4212,54.896976,9.795020,108.3,5.845,1.85,335.95,54.898136,9.790846,54.895069,9.793790
1386863415,0,0,364.0,0,20,24,0,0,25,-0.0292,19.0922,6.8213,0.4212,54.896976,9.795020,108.3,5.845,1.85,335.95,54.898136,9.790846,54.895069,9.793790
1386863416,0,0,364.0,0,20,24,0,0,25,-0.0292,19.0922,6.8213,0.4212,54.896976,9.795020,108.3,5.845,1.85,335.95,54.898136,9.790846,54.895069,9.793790
1386863416,0,0,364.0,0,20,24,0,0,25,-0.0292,19.0922,6.8213,0.4212,54.896976,9.795020,108.3,5.845,1.85,335.95,54.898136,9.790846,54.895069,9.793790
1386863416,0,0,364.0,0,20,24,0,0,25,-0.0292,19.0922,6.8213,0.4212,54.896976,9.795020,108.3,5.845,1.85,335.95,54.898136,9.790846,54.895069,9.793790
1386863416,0,0,364.0,0,20,24,0,0,25,-0.0292,19.0922,6.8213,0.4212,54.896976,9.795020,108.3,5.845,1.85,335.95,54.898136,9.790846,54.895069,9.793790
1386863417,0,0,364.0,0,20,24,0,0,25,-0.0292,19.0922,6.8213,0.4212,54.896976,9.795020,108.3,5.845,1.85,335.95,54.898136,9.790846,54.895069,9.793790
1386863417,0,0,364.0,0,20,24,0,0,25,-0.0292,19.0922,6.8213,0.4212,54.896976,9.795020,108.3,5.845,1.85,335.95,54.898136,9.790846,54.895069,9.793790
1386863417,0,0,364.0,0,20,24,0,0,25,-0.0292,19.0922,6.8213,0.4212,54.896976,9.795020,108.3,5.845,1.85,335.95,54.898136,9.790846,54.895069,9.793790
1386863417,0,0,364.0,0,20,24,0,0,25,-0.0292,19.0922,6.8213,0.4212,54.896976,9.795020,108.3,5.845,1.85,335.95,54.898136,9.790846,54.895069,9.793790
1386863418,0,0,364.0,0,20,24,0,0,25,-0.0292,19.0922,6.8213,0.4212,54.896976,9.795020,108.3,5.845,1.85,335.95,54.898136,9.790846,54.895069,9.793790
1386863418,0,0,364.0,0,20,24,0,0,25,-0.0292,19.0922,6.8213,0.4212,54.896976,9.795020,108.3,5.845,1.85,335.95,54.898136,9.790846,54.895069,9.793790
1386863418,0,0,364.0,0,20,24,0,0,25,-0.0292,19.0922,6.8213,0.4212,54.896976,9.795020,108.3,5.845,1.85,335.95,54.898136,9.790846,54.895069,9.793790
1386863418,0,0,364.0,0,20,24,0,0,25,-0.0292,19.0922,6.8213,0.4212,54.896976,9.795020,108.3,5.845,1.85,335.95,54.898136,9.790846,54.895069,9.793790
1386863419,0,0,364.0,0,20,24,0,0,25,-0.0292,19.0922,6.8213,0.4212,54.896976,9.795020,108.3,5.845,1.85,335.95,54.898136,9.790846,54.895069,9.793790
1386863419,0,0,364.0,0,20,24,0,0,25,-0.0292,19.0922,6.8213,0.4212,54.896976,9.795020,108.3,5.845,1.85,335.95,54.898136,9.790846,54.895069,9.793790
1386863419,0,0,364.0,0,20,24,0,0,25,-0.0292,19.0922,6.8213,0.4212,54.896976,9.795020,108.3,5.845,1.85,335.95,54.898136,9.790846,54.895069,9.793790
1386863419,0,0,364.0,0,20,24,0,0,25,-0.0292,19.0922,6.8213,0.4212,54.896976,9.795020,108.3,5.845,1.85,335.95,54.898136,9.790846,54.895069,9.793790
1386863420,0,0,364.0,0,20,24,0,0,25,-0.0292,19.0922,6.8213,0.4212,54.896976,9.795020,108.3,5.845,1.85,335.95,54.898136,9.790846,54.895069,9.793790
1386863420,0,0,364.0,0,20,24,0,0,25,-0.0292,19.0922,6.8213,0.4212,54.896976,9.795020,108.3,5.845,1.85,335.95,54.898136,9.790846,54.895069,9.793790
1386863420,0,0,364.0,0,20,24,0,0,25,-0.0292,19.0922,6.8213,0.4212,54.896976,9.795020,108.3,5.845,1.85,335.95,54.898136,9.790846,54.895069,9.793790
1386863420,0,0,364.0,0,20,24,0,0,25,-0.0292,19.0922,6.8213,0.4212,54.896976,9.795020,108.3,5.845,1.85,335.95,54.898136,9.790846,54.895069,9.793790
1386863421,0,0,364.0,0,20,24,0,0,25,-0.0292,19.0922,6.8213,0.4212,54.896976,9.795020,108.3,5.845,1.85,335.95,54.898136,9.790846,54.895069,9.793790
1386863421,0,0,364.0,0,20,24,0,0,25,-0.0292,19.0922,6.8213,0.4212,54.896976,9.795020,108.3,5.845,1.85,335.95,54.898136,9.790846,54.895069,9.793790
1386863421,0,0,364.0,0,20,24,0,0,25,-0.0292,19.0922,6.8213,0.4212,54.896976,9.795020,108.3,5.845,1.85,335.95,54.898136,9.790846,54.895069,9.793790
1386863421,0,0,364.0,0,20,24,0,0,25,-0.0292,19.0922,6.8213,0.4212,54.896976,9.795020,108.3,5.845,1.85,335.95,54.898136,9.790846,54.895069,9.793790
1386863422,0,0,364.0,0,20,24,0,0,25,-0.0292,19.0922,6.8213,0.4212,54.896976,9.795020,108.3,5.845,1.85,335.95,54.898136,9.790846,54.895069,9.793790
1386863422,0,0,364.0,0,20,24,0,0,25,-0.0292,19.0922,6.8213,0.4212,54.896976,9.795020,108.3,5.845,1.85,335.95,54.898136,9.790846,54.895069,9.793790
1386863422,0,0,364.0,0,20,24,0,0,25,-0.0292,19.0922,6.8213,0.4212,54.896976,9.795020,108.3,5.845,1.85,335.95,54.898136,9.790846,54.895069,9.793790
1386863422,0,0,364.0,0,20,24,0,0,25,-0.0292,19.0922,6.8213,0.4212,54.896976,9.795020,108.3,5.845,1.85,335.95,54.898136,9.790846,54.895069,9.793790
1386863423,0,0,364.0,0,20,24,0,0,25,-0.0292,19.0922,6.8213,0.4212,54.896976,9.795020,108.3,5.845,1.85,335.95,54.898136,9.790846,54.895069,9.793790
1386863423,0,0,364.0,0,20,24,0,0,25,-0.0292,19.0922,6.8213,0.4212,54.896976,9.795020,108.3,5.845,1.85,335.95,54.898136,9.790846,54.895069,9.793790
1386863423,0,0,364.0,0,20,24,0,0,25,-0.0292,19.0922,6.8213,0.4212,54.896976,9.795020,108.3,5.845,1.85,335.95,54.898136,9.790846,54.895069,9.793790
1386863423,0,0,364.0,0,20,24,0,0,25,-0.0292,19.0922,6.8213,0.4212,54.896976,9.795020,108.3,5.845,1.85,335.95,54.898136,9.790846,54.895069,9.793790
1386863424,0,0,364.0,0,20,24,0,0,25,-0.0292,19.0922,6.8213,0.4212,54.896976,9.795020,108.3,5.845,1.85,335.95,54.898136,9.790846,54.895069,9.793790
1386863424,0,0,364.0,0,20,24,0,0,25,-0.0292,19.0922,6.8213,0.4212,54.896976,9.795020,108.3,5.845,1.85,335.95,54.898136,9.790846,54.895069,9.793790
1386863424,0,0,364.0,0,20,24,0,0,25,-0.0292,19.0922,6.8213,0.4212,54.896976,9.795020,108.3,5.845,1.85,335.95,54.898136,9.790846,54.895069,9.793790
1386863424,0,0,364.0,0,20,24,0,0,25,-0.0292,19.0922,6.8213,0.4212,54.896976,9.795020,108.3,5.845,1.85,335.95,54.898136,9.790846,54.895069,9.793790
1386863425,0,0,364.0,0,20,24,0,0,25,-0.0292,19.0922,6.8213,0.4212,54.896976,9.795020,108.3,5.845,1.85,335.95,54.898136,9.790846,54.895069,9.793790
1386863425,0,0,364.0,0,20,24,0,0,25,-0.0292,19.0922,6.8213,0.4212,54.896976,9.795020,108.3,5.845,1.85,335.95,54.898136,9.790846,54.895069,9.793790
1386863425,0,0,364.0,0,20,24,0,0,25,-0.0292,19.0922,6.8213,0.4212,54.896976,9.795020,108.3,5.845,1.85,335.95,54.898136,9.790846,54.895069,9.793790
1386863425,0,0,364.0,0,20,24,0,0,25,-0.0292,19.0922,6.8213,0.4212,54.896976,9.795020,108.3,5.845,1.85,335.95,54.898136,9.790846,54.895069,9.793790
1386863426,0,0,364.0,0,20,24,0,0,25,-0.0292,19.0922,6.8213,0.4212,54.896976,9.795020,108.3,5.845,1.85,335.95,54.898136,9.790846,54.895069,9.793790
1386863426,0,0,364.0,0,20,24,0,0,25,-0.0292,19.0922,6.8213,0.4212,54.896976,9.795020,108.3,5.845,1.85,335.95,54.898136,9.790846,54.895069,9.793790
1386863426,0,0,364.0,0,20,24,0,0,25,-0.0292,19.0922,6.8213,0.4212,54.896976,9.795020,108.3,5.845,1.85,335.95,54.898136,9.790846,54.895069,9.793790
1386863426,0,0,364.0,0,20,24,0,0,25,-0.0292,19.0922,6.8213,0.4212,54.896976,9.795020,108.3,5.845,1.85,335.95,54.898136,9.790846,54.895069,9.793790
1386863427,0,0,364.0,0,20,24,0,0,25,-0.0292,19.0922,6.8213,0.4212,54.896976,9.795020,108.3,5.845,1.85,335.95,54.898136,9.790846,54.895069,9.793790
1386863427,0,0,364.0,0,20,24,0,0,25,-0.0292,19.0922,6.8213,0.4212,54.896976,9.795020,108.3,5.845,1.85,335.95,54.898136,9.790846,54.895069,9.793790
1386863427,0,0,364.0,0,20,24,0,0,25,-0.0292,19.0922,6.8213,0.4212,54.896976,9.795020,108.3,5.845,1.85,335.95,54.898136,9.790846,54.895069,9.793790
1386863427,0,0,364.0,0,20,24,0,0,25,-0.0292,19.0922,6.8213,0.4212,54.896976,9.795020,108.3,5.845,1.85,335.95,54.898136,9.790846,54.895069,9.793790
1386863428,0,0,364.0,0,20,24,0,0,25,-0.0292,19.0922,6.8213,0.4212,54.896976,9.795020,108.3,5.845,1.85,335.95,54.898136,9.790846,54.895069,9.793790
1386863428,0,0,364.0,0,20,24,0,0,25,-0.0292,19.0922,6.8213,0.4212,54.896976,9.795020,108.3,5.845,1.85,335.95,54.898136,9.790846,54.895069,9.793790
1386863428,0,0,364.0,0,20,24,0,0,25,-0.0292,19.0922,6.8213,0.4212,54.896976,9.795020,108.3,5.845,1.85,335.95,54.898136,9.790846,54.895069,9.793790
1386863428,0,0,364.0,0,20,24,0,0,25,-0.0292,19.0922,6.8213,0.4212,54.896976,9.795020,108.3,5.845,1.85,335.95,54.898136,9.790846,54.895069,9.793790
1386863429,0,0,364.0,0,20,24,0,0,25,-0.0292,19.0922,6.8213,0.4212,54.896976,9.795020,108.3,5.845,1.85,335.95,54.898136,9.790846,54.895069,9.793790
1386863429,0,0,364.0,0,20,24,0,0,25,-0.0292,19.0922,6.8213,0.4212,54.896976,9.795020,108.3,5.845,1.85,335.95,54.898136,9.790846,54.895069,9.793790
1386863429,0,0,364.0,0,20,24,0,0,25,-0.0292,19.0922,6.8213,0.4212,54.896976,9.795020,108.3,5.845,1.85,335.95,54.898136,9.790846,54.895069,9.793790
1386863429,0,0,364.0,0,20,24,0,0,25,-0.0292,19.0922,6.8213,0.4212,54.896976,9.795020,108.3,5.845,1.85,335.95,54.898136,9.790846,54.895069,9.793790
1386863430,0,0,364.0,0,20,24,0,0,25,-0.0292,19.0922,6.8213,0.4212,54.896976,9.795020,108.3,5.845,1.85,335.95,54.898136,9.790846,54.895069,9.793790
1386863430,0,0,364.0,0,20,24,0,0,25,-0.0292,19.0922,6.8213,0.4212,54.896976,9.795020,108.3,5.845,1.85,335.95,54.898136,9.790846,54.895069,9.793790
1386863430,0,0,364.0,0,20,24,0,0,25,-0.0292,19.0922,6.8213,0.4212,54.896976,9.795020,108.3,5.845,1.85,335.95,54.898136,9.790846,54.895069,9.793790
1386863430,0,0,364.0,0,20,24,0,0,25,-0.0292,19.0922,6.8213,0.4212,54.896976,9.795020,108.3,5.845,1.85,335.95,54.898136,9.790846,54.895069,9.793790
1386863431,0,0,364.0,0,20,24,0,0,25,-0.0292,19.0922,6.8213,0.4212,54.896976,9.795020,108.3,5.845,1.85,335.95,54.898136,9.790846,54.895069,9.793790
1386863431,0,0,364.0,0,20,24,0,0,25,-0.0292,19.0922,6.8213,0.4212,54.896976,9.795020,108.3,5.845,1.85,335.95,54.898136,9.790846,54.895069,9.793790
1386863431,0,0,364.0,0,20,24,0,0,25,-0.0292,19.0922,6.8213,0.4212,54.896976,9.795020,108.3,5.845,1.85,335.95,54.898136,9.790846,54.895069,9.793790
1386863431,0,0,364.0,0,20,24,0,0,25,-0.0292,19.0922,6.8213,0.4212,54.896976,9.795020,108.3,5.845,1.85,335.95,54.898136,9.790846,54.895069,9.793790
1386863432,0,0,364.0,0,20,24,0,0,25,-0.0292,19.0922,6.8213,0.4212,54.896976,9.795020,108.3,5.845,1.85,335.95,54.898136,9.790846,54.895069,9.793790
1386863432,0,0,364.0,0,20,24,0,0,25,-0.0292,19.0922,6.8213,0.4212,54.896976,9.795020,108.3,5.845,1.85,335.95,54.898136,9.790846,54.895069,9.793790
1386863432,0,0,364.0,0,20,24,0,0,25,-0.0292,19.0922,6.8213,0.4212,54.896976,9.795020,108.3,5.845,1.85,335.95,54.898136,9.790846,54.895069,9.793790
1386863432,0,0,364.0,0,20,24,0,0,25,-0.0292,19.0922,6.8213,0.4212,54.896976,9.795020,108.3,5.845,1.85,335.95,54.898136,9.790846,54.895069,9.793790
1386863433,0,0,364.0,0,20,24,0,0,25,-0.0292,19.0922,6.8213,0.4212,54.896976,9.795020,108.3,5.845,1.85,335.95,54.898136,9.790846,54.895069,9.793790
1386863433,0,0,364.0,0,20,24,0,0,25,-0.0292,19.0922,6.8213,0.4212,54.896976,9.795020,108.3,5.845,1.85,335.95,54.898136,9.790846,54.895069,9.793790
1386863433,0,0,364.0,0,20,24,0,0,25,-0.0292,19.0922,6.8213,0.4212,54.896976,9.795020,108.3,5.845,1.85,335.95,54.898136,9.790846,54.895069,9.793790
1386863433,0,0,364.0,0,20,24,0,0,25,-0.0292,19.0922,6.8213,0.4212,54.896976,9.795020,108.3,5.845,1.85,335.95,54.898136,9.790846,54.895069,9.793790
1386863434,0,0,364.0,0,20,24,0,0,25,-0.0292,19.0922,6.8213,0.4212,54.896976,9.795020,108.3,5.845,1.85,335.95,54.898136,9.790846,54.895069,9.793790
1386863434,0,0,364.0,0,20,24,0,0,25,-0.0292,19.0922,6.8213,0.4212,54.896976,9.795020,108.3,5.845,1.85,335.95,54.898136,9.790846,54.895069,9.793790
1386863434,0,0,364.0,0,20,24,0,0,25,-0.0292,19.0922,6.8213,0.4212,54.896976,9.795020,108.3,5.845,1.85,335.95,54.898136,9.790846,54.895069,9.793790
1386863434,0,0,364.0,0,20,24,0,0,25,-0.0292,19.0922,6.8213,0.4212,54.896976,9.795020,108.3,5.845,1.85,335.95,54.898136,9.790846,54.895069,9.793790
1386863435,0,0,364.0,0,20,24,0,0,25,-0.0292,19.0922,6.8213,0.4212,54.896976,9.795020,108.3,5.845,1.85,335.95,54.898136,9.790846,54.895069,9.793790
1386863435,0,0,364.0,0,20,24,0,0,25,-0.0292,19.0922,6.8213,0.4212,54.896976,9.795020,108.3,5.845,1.85,335.95,54.898136,9.790846,54.895069,9.793790
1386863435,0,0,364.0,0,20,24,0,0,25,-0.0292,19.0922,6.8213,0.4212,54.896976,9.795020,108.3,5.845,1.85,335.95,54.898136,9.790846,54.895069,9.793790
1386863435,0,0,364.0,0,20,24,0,0,25,-0.0292,19.0922,6.8213,0.4212,54.896976,9.795020,108.3,5.845,1.85,335.95,54.898136,9.790846,54.895069,9.793790
1386863436,0,0,364.0,0,20,24,0,0,25,-0.0292,19.0922,6.8213,0.4212,54.896976,9.795020,108.3,5.845,1.85,335.95,54.898136,9.790846,54.895069,9.793790
1386863436,0,0,364.0,0,20,24,0,0,25,-0.0292,19.0922,6.8213,0.4212,54.896976,9.795020,108.3,5.845,1.85,335.95,54.898136,9.790846,54.895069,9.793790
1386863436,0,0,364.0,0,20,24,0,0,25,-0.0292,19.0922,6.8213,0.4212,54.896976,9.795020,108.3,5.845,1.85,335.95,54.898136,9.790846,54.895069,9.793790
1386863436,0,0,364.0,0,20,24,0,0,25,-0.0292,19.0922,6.8213,0.4212,54.896976,9.795020,108.3,5.845,1.85,335.95,54.898136,9.790846,54.895069,9.793790
1386863437,0,0,364.0,0,20,24,0,0,25,-0.0292,19.0922,6.8213,0.4212,54.896976,9.795020,108.3,5.845,1.85,335.95,54.898136,9.790846,54.895069,9.793790
1386863437,0,0,364.0,0,20,24,0,0,25,-0.0292,19.0922,6.8213,0.4212,54.896976,9.795020,108.3,5.845,1.85,335.95,54.898136,9.790846,54.895069,9.793790
1386863437,0,0,364.0,0,20,24,0,0,25,-0.0292,19.0922,6.8213,0.4212,54.896976,9.795020,108.3,5.845,1.85,335.95,54.898136,9.790846,54.895069,9.793790
1386863437,0,0,364.0,0,20,24,0,0,25,-0.0292,19.0922,6.8213,0.4212,54.896976,9.795020,108.3,5.845,1.85,335.95,54.898136,9.790846,54.895069,9.793790
1386863438,0,0,364.0,0,20,24,0,0,25,-0.0292,19.0922,6.8213,0.4212,54.896976,9.795020,108.3,5.845,1.85,335.95,54.898136,9.790846,54.895069,9.793790
1386863438,0,0,364.0,0,20,24,0,0,25,-0.0292,19.0922,6.8213,0.4212,54.896976,9.795020,108.3,5.845,1.85,335.95,54.898136,9.790846,54.895069,9.793790
1386863438,0,0,364.0,0,20,24,0,0,25,-0.0292,19.0922,6.8213,0.4212,54.896976,9.795020,108.3,5.845,1.85,335.95,54.898136,9.790846,54.895069,9.793790
1386863438,0,0,364.0,0,20,24,0,0,25,-0.0292,19.0922,6.8213,0.4212,54.896976,9.795020,108.3,5.845,1.85,335.95,54.898136,9.790846,54.895069,9.793790
1386863439,0,0,364.0,0,20,24,0,0,25,-0.0292,19.0922,6.8213,0.4212,54.896976,9.795020,108.3,5.845,1.85,335.95,54.898136,9.790846,54.895069,9.793790
1386863439,0,0,364.0,0,20,24,0,0,25,-0.0292,19.0922,6.8213,0.4212,54.896976,9.795020,108.3,5.845,1.85,335.95,54.898136,9.790846,54.895069,9.793790
1386863439,0,0,364.0,0,20,24,0,0,25,-0.0292,19.0922,6.8213,0.4212,54.896976,9.795020,108.3,5.845,1.85,335.95,54.898136,9.790846,54.895069,9.793790
1386863439,0,0,364.0,0,20,24,0,0,25,-0.0292,19.0922,6.8213,0.4212,54.896976,9.795020,108.3,5.845,1.85,335.95,54.898136,9.790846,54.895069,9.793790
1386863440,0,0,364.0,0,20,24,0,0,25,-0.0292,19.0922,6.8213,0.4212,54.896976,9.795020,108.3,5.845,1.85,335.95,54.898136,9.790846,54.895069,9.793790
1386863440,0,0,364.0,0,20,24,0,0,25,-0.0292,19.0922,6.8213,0.4212,54.896976,9.795020,108.3,5.845,1.85,335.95,54.898136,9.790846,54.895069,9.793790
