MCU_timestamp,Navigation_System,Manual_Control,Guidance_Heading,Manual_Ctrl_Rudder,Rudder_Desired_Angle,Rudder_Feedback,Manual_Ctrl_Sail,Sail_Desired_Pos,Sail_Feedback,Rate,Heading,Pitch,Roll,Latitude,Longitude,COG,SOG,Wind_Speed,Wind_Angle,Point_Start_Lat,Point_Start_Lon,Point_End_Lat,Point_End_Lon
1386864902,1,0,545.9,0,35,4,0,0,25,-0.0292,-32.9079,6.8213,0.4212,54.899055,9.796105,108.3,5.845,1.85,335.95,54.899040,9.796123,0.000000,0.000000
1386864902,1,0,545.9,0,35,8,0,0,0,-0.0292,-42.2412,6.8213,0.4212,54.899067,9.796084,108.3,5.845,1.85,335.95,54.899040,9.796123,0.000000,0.000000
1386864902,1,0,545.9,0,35,12,0,0,25,-0.0292,-51.5746,6.8213,0.4212,54.899078,9.796060,108.3,5.845,1.85,335.95,54.899040,9.796123,0.000000,0.000000
1386864902,1,0,545.9,0,35,16,0,0,0,-0.0292,-60.9079,6.8213,0.4212,54.899086,9.796033,108.3,5.845,1.85,335.95,54.899040,9.796123,0.000000,0.000000
1386864903,1,0,545.9,0,35,20,0,0,25,-0.0292,-70.2412,6.8213,0.4212,54.899090,9.796003,108.3,5.845,1.85,335.95,54.899040,9.796123,0.000000,0.000000
1386864903,1,0,545.9,0,35,24,0,0,0,-0.0292,-79.5746,6.8213,0.4212,54.899094,9.795973,108.3,5.845,1.85,335.95,54.899040,9.796123,0.000000,0.000000
1386864903,1,0,545.9,0,35,28,0,0,25,-0.0292,-88.9079,6.8213,0.4212,54.899094,9.795942,108.3,5.845,1.85,335.95,54.899040,9.796123,0.000000,0.000000
1386864903,1,0,545.9,0,35,32,0,27,50,-0.0292,-98.2412,6.8213,0.4212,54.899090,9.795911,108.3,5.845,1.85,335.95,54.899040,9.796123,0.000000,0.000000
1386864904,1,0,545.9,0,35,36,0,90,75,-0.0292,-107.5746,6.8213,0.4212,54.899086,9.795881,108.3,5.845,1.85,335.95,54.899040,9.796123,0.000000,0.000000
1386864904,1,0,545.9,0,35,32,0,170,100,-0.0292,-116.9079,6.8213,0.4212,54.899078,9.795854,108.3,5.845,1.85,335.95,54.899040,9.796123,0.000000,0.000000
1386864904,1,0,545.9,0,35,36,0,255,125,-0.0292,-126.2412,6.8213,0.4212,54.899067,9.795828,108.3,5.845,1.85,335.95,54.899040,9.796123,0.000000,0.000000
1386864904,1,0,545.9,0,35,32,0,340,150,-0.0292,-135.5746,6.8213,0.4212,54.899055,9.795806,108.3,5.845,1.85,335.95,54.899040,9.796123,0.000000,0.000000
1386864905,1,0,545.9,0,35,36,0,423,175,-0.0292,-144.9079,6.8213,0.4212,54.899040,9.795788,108.3,5.845,1.85,335.95,54.899040,9.796123,0.000000,0.000000
1386864905,1,0,545.9,0,29,32,0,500,200,-0.0292,-152.6413,6.8213,0.4212,54.899025,9.795774,108.3,5.845,1.85,335.95,54.899040,9.796123,0.000000,0.000000
1386864905,1,0,545.9,0,21,28,0,560,225,-0.0292,-158.2413,6.8213,0.4212,54.899010,9.795762,108.3,5.845,1.85,335.95,54.899040,9.796123,0.000000,0.000000
1386864905,1,0,545.9,0,16,24,0,578,250,-0.0292,-162.5079,6.8213,0.4212,54.898991,9.795753,108.3,5.845,1.85,335.95,54.899040,9.796123,0.000000,0.000000
1386864906,1,0,545.9,0,12,20,0,409,275,-0.0292,-165.7079,6.8213,0.4212,54.898972,9.795745,108.3,5.845,1.85,335.95,54.899040,9.796123,0.000000,0.000000
1386864906,1,0,545.9,0,8,16,0,409,300,-0.0292,-167.8412,6.8213,0.4212,54.898956,9.795738,108.3,5.845,1.85,335.95,54.899040,9.796123,0.000000,0.000000
1386864906,1,0,545.9,0,6,12,0,409,325,-0.0292,-169.4413,6.8213,0.4212,54.898937,9.795732,108.3,5.845,1.85,335.95,54.899040,9.796123,0.000000,0.000000
1386864906,1,0,545.9,0,5,8,0,409,350,-0.0292,-170.7746,6.8213,0.4212,54.898918,9.795728,108.3,5.845,1.85,335.95,54.899040,9.796123,0.000000,0.000000
1386864907,1,0,545.9,0,3,4,0,409,375,-0.0292,-171.5746,6.8213,0.4212,54.898899,9.795723,108.3,5.845,1.85,335.95,54.899040,9.796123,0.000000,0.000000
1386864907,1,0,545.9,0,2,0,0,409,400,-0.0292,-172.1079,6.8213,0.4212,54.898884,9.795718,108.3,5.845,1.85,335.95,54.899040,9.796123,0.000000,0.000000
1386864907,1,0,545.9,0,2,4,0,409,425,-0.0292,-172.6413,6.8213,0.4212,54.898865,9.795713,108.3,5.845,1.85,335.95,54.899040,9.796123,0.000000,0.000000
1386864907,1,0,545.9,0,1,0,0,409,400,-0.0292,-172.9079,6.8213,0.4212,54.898846,9.795710,108.3,5.845,1.85,335.95,54.899040,9.796123,0.000000,0.000000
1386864908,1,0,545.9,0,1,4,0,409,425,-0.0292,-173.1746,6.8213,0.4212,54.898827,9.795706,108.3,5.845,1.85,335.95,54.899040,9.796123,0.000000,0.000000
1386864908,1,0,545.9,0,1,0,0,409,400,-0.0292,-173.4413,6.8213,0.4212,54.898811,9.795702,108.3,5.845,1.85,335.95,54.899040,9.796123,0.000000,0.000000
1386864908,1,0,545.9,0,1,4,0,409,425,-0.0292,-173.7079,6.8213,0.4212,54.898792,9.795699,108.3,5.845,1.85,335.95,54.899040,9.796123,0.000000,0.000000
1386864908,1,0,545.9,0,0,0,0,409,400,-0.0292,-173.7079,6.8213,0.4212,54.898773,9.795695,108.3,5.845,1.85,335.95,54.899040,9.796123,0.000000,0.000000
1386864909,1,0,545.9,0,0,4,0,409,425,-0.0292,-173.7079,6.8213,0.4212,54.898754,9.795691,108.3,5.845,1.85,335.95,54.899040,9.796123,0.000000,0.000000
1386864909,1,0,545.9,0,0,0,0,409,400,-0.0292,-173.7079,6.8213,0.4212,54.898739,9.795688,108.3,5.845,1.85,335.95,54.899040,9.796123,0.000000,0.000000
1386864909,1,0,545.9,0,0,4,0,409,425,-0.0292,-173.7079,6.8213,0.4212,54.898720,9.795684,108.3,5.845,1.85,335.95,54.899040,9.796123,0.000000,0.000000
1386864909,1,0,545.9,0,0,0,0,409,400,-0.0292,-173.7079,6.8213,0.4212,54.898701,9.795680,108.3,5.845,1.85,335.95,54.899040,9.796123,0.000000,0.000000
1386864910,1,0,545.9,0,0,4,0,409,425,-0.0292,-173.7079,6.8213,0.4212,54.898682,9.795676,108.3,5.845,1.85,335.95,54.899040,9.796123,0.000000,0.000000
1386864910,1,0,545.9,0,0,0,0,409,400,-0.0292,-173.7079,6.8213,0.4212,54.898666,9.795672,108.3,5.845,1.85,335.95,54.899040,9.796123,0.000000,0.000000
1386864910,1,0,545.9,0,0,4,0,409,425,-0.0292,-173.7079,6.8213,0.4212,54.898647,9.795670,108.3,5.845,1.85,335.95,54.899040,9.796123,0.000000,0.000000
1386864910,1,0,545.9,0,0,0,0,409,400,-0.0292,-173.7079,6.8213,0.4212,54.898628,9.795667,108.3,5.845,1.85,335.95,54.899040,9.796123,0.000000,0.000000
1386864911,1,0,545.9,0,0,4,0,409,425,-0.0292,-173.7079,6.8213,0.4212,54.898613,9.795664,108.3,5.845,1.85,335.95,54.899040,9.796123,0.000000,0.000000
1386864911,1,0,545.9,0,0,0,0,409,400,-0.0292,-173.7079,6.8213,0.4212,54.898594,9.795661,108.3,5.845,1.85,335.95,54.899040,9.796123,0.000000,0.000000
1386864911,1,0,545.9,0,0,4,0,409,425,-0.0292,-173.7079,6.8213,0.4212,54.898575,9.795658,108.3,5.845,1.85,335.95,54.899040,9.796123,0.000000,0.000000
1386864911,1,0,545.9,0,0,0,0,409,400,-0.0292,-173.7079,6.8213,0.4212,54.898556,9.795655,108.3,5.845,1.85,335.95,54.899040,9.796123,0.000000,0.000000
1386864912,1,0,545.9,0,0,4,0,409,425,-0.0292,-173.7079,6.8213,0.4212,54.897778,9.793043,108.3,5.845,1.85,335.95,54.899040,9.796123,0.000000,0.000000
1386864912,1,0,545.9,0,0,0,0,409,400,-0.0292,-173.7079,6.8213,0.4212,54.897758,9.793040,108.3,5.845,1.85,335.95,54.899040,9.796123,0.000000,0.000000
1386864912,1,0,545.9,0,0,4,0,409,425,-0.0292,-173.7079,6.8213,0.4212,54.897739,9.793036,108.3,5.845,1.85,335.95,54.899040,9.796123,0.000000,0.000000
1386864912,1,0,545.9,0,0,0,0,409,400,-0.0292,-173.7079,6.8213,0.4212,54.897720,9.793033,108.3,5.845,1.85,335.95,54.899040,9.796123,0.000000,0.000000
1386864913,1,0,545.9,0,0,4,0,409,425,-0.0292,-173.7079,6.8213,0.4212,54.897705,9.793029,108.3,5.845,1.85,335.95,54.899040,9.796123,0.000000,0.000000
1386864913,1,0,545.9,0,0,0,0,409,400,-0.0292,-173.7079,6.8213,0.4212,54.897686,9.793025,108.3,5.845,1.85,335.95,54.899040,9.796123,0.000000,0.000000
1386864913,1,0,545.9,0,0,4,0,409,425,-0.0292,-173.7079,6.8213,0.4212,54.897667,9.793021,108.3,5.845,1.85,335.95,54.899040,9.796123,0.000000,0.000000
1386864914,1,0,545.9,0,0,0,0,409,400,-0.0292,-173.7079,6.8213,0.4212,54.897648,9.793017,108.3,5.845,1.85,335.95,54.899040,9.796123,0.000000,0.000000
1386864914,1,0,545.9,0,0,4,0,409,425,-0.0292,-173.7079,6.8213,0.4212,54.897633,9.793014,108.3,5.845,1.85,335.95,54.899040,9.796123,0.000000,0.000000
1386864914,1,0,545.9,0,0,0,0,409,400,-0.0292,-173.7079,6.8213,0.4212,54.897614,9.793011,108.3,5.845,1.85,335.95,54.899040,9.796123,0.000000,0.000000
1386864914,1,0,545.9,0,0,4,0,409,425,-0.0292,-173.7079,6.8213,0.4212,54.897594,9.793008,108.3,5.845,1.85,335.95,54.899040,9.796123,0.000000,0.000000
1386864915,1,0,545.9,0,0,0,0,409,400,-0.0292,-173.7079,6.8213,0.4212,54.897579,9.793005,108.3,5.845,1.85,335.95,54.899040,9.796123,0.000000,0.000000
1386864915,1,0,545.9,0,0,4,0,409,425,-0.0292,-173.7079,6.8213,0.4212,54.897560,9.793002,108.3,5.845,1.85,335.95,54.899040,9.796123,0.000000,0.000000
1386864915,1,0,545.9,0,0,0,0,409,400,-0.0292,-173.7079,6.8213,0.4212,54.897541,9.792999,108.3,5.845,1.85,335.95,54.899040,9.796123,0.000000,0.000000
1386864915,1,0,545.9,0,0,4,0,409,425,-0.0292,-173.7079,6.8213,0.4212,54.897522,9.792996,108.3,5.845,1.85,335.95,54.899040,9.796123,0.000000,0.000000
1386864916,1,0,545.9,0,0,0,0,409,400,-0.0292,-173.7079,6.8213,0.4212,54.897507,9.792993,108.3,5.845,1.85,335.95,54.899040,9.796123,0.000000,0.000000
1386864916,1,0,545.9,0,0,4,0,409,425,-0.0292,-173.7079,6.8213,0.4212,54.897488,9.792989,108.3,5.845,1.85,335.95,54.899040,9.796123,0.000000,0.000000
1386864916,1,0,545.9,0,0,0,0,409,400,-0.0292,-173.7079,6.8213,0.4212,54.897285,9.790297,108.3,5.845,1.85,335.95,54.899040,9.796123,0.000000,0.000000
1386864916,1,0,545.9,0,0,4,0,409,425,-0.0292,-173.7079,6.8213,0.4212,54.897266,9.790293,108.3,5.845,1.85,335.95,54.899040,9.796123,0.000000,0.000000
1386864917,1,0,545.9,0,0,0,0,409,400,-0.0292,-173.7079,6.8213,0.4212,54.897247,9.790289,108.3,5.845,1.85,335.95,54.899040,9.796123,0.000000,0.000000
1386864917,1,0,545.9,0,0,4,0,409,425,-0.0292,-173.7079,6.8213,0.4212,54.897228,9.790285,108.3,5.845,1.85,335.95,54.899040,9.796123,0.000000,0.000000
1386864917,1,0,545.9,0,0,0,0,409,400,-0.0292,-173.7079,6.8213,0.4212,54.897213,9.790281,108.3,5.845,1.85,335.95,54.899040,9.796123,0.000000,0.000000
1386864917,1,0,545.9,0,0,4,0,409,425,-0.0292,-173.7079,6.8213,0.4212,54.897194,9.790277,108.3,5.845,1.85,335.95,54.899040,9.796123,0.000000,0.000000
1386864918,1,0,545.9,0,0,0,0,409,400,-0.0292,-173.7079,6.8213,0.4212,54.897175,9.790274,108.3,5.845,1.85,335.95,54.899040,9.796123,0.000000,0.000000
1386864918,1,0,545.9,0,0,4,0,409,425,-0.0292,-173.7079,6.8213,0.4212,54.897156,9.790270,108.3,5.845,1.85,335.95,54.899040,9.796123,0.000000,0.000000
1386864918,1,0,545.9,0,0,0,0,409,400,-0.0292,-173.7079,6.8213,0.4212,54.897141,9.790267,108.3,5.845,1.85,335.95,54.899040,9.796123,0.000000,0.000000
1386864918,1,0,545.9,0,0,4,0,409,425,-0.0292,-173.7079,6.8213,0.4212,54.897121,9.790264,108.3,5.845,1.85,335.95,54.899040,9.796123,0.000000,0.000000
1386864919,1,0,545.9,0,0,0,0,409,400,-0.0292,-173.7079,6.8213,0.4212,54.897102,9.790261,108.3,5.845,1.85,335.95,54.899040,9.796123,0.000000,0.000000
1386864919,1,0,545.9,0,0,4,0,409,425,-0.0292,-173.7079,6.8213,0.4212,54.897087,9.790258,108.3,5.845,1.85,335.95,54.899040,9.796123,0.000000,0.000000
1386864919,1,0,545.9,0,0,0,0,409,400,-0.0292,-173.7079,6.8213,0.4212,54.897068,9.790256,108.3,5.845,1.85,335.95,54.899040,9.796123,0.000000,0.000000
1386864919,1,0,545.9,0,0,4,0,409,425,-0.0292,-173.7079,6.8213,0.4212,54.897049,9.790252,108.3,5.845,1.85,335.95,54.899040,9.796123,0.000000,0.000000
1386864920,1,0,545.9,0,0,0,0,409,400,-0.0292,-173.7079,6.8213,0.4212,54.897030,9.790248,108.3,5.845,1.85,335.95,54.899040,9.796123,0.000000,0.000000
1386864920,1,0,545.9,0,0,4,0,409,425,-0.0292,-173.7079,6.8213,0.4212,54.897015,9.790244,108.3,5.845,1.85,335.95,54.899040,9.796123,0.000000,0.000000
1386864920,1,0,545.9,0,0,0,0,409,400,-0.0292,-173.7079,6.8213,0.4212,54.896996,9.790240,108.3,5.845,1.85,335.95,54.899040,9.796123,0.000000,0.000000
1386864920,1,0,545.9,0,0,4,0,409,425,-0.0292,-173.7079,6.8213,0.4212,54.896976,9.790236,108.3,5.845,1.85,335.95,54.899040,9.796123,0.000000,0.000000
1386864921,1,0,545.9,0,0,0,0,409,400,-0.0292,-173.7079,6.8213,0.4212,54.896957,9.790233,108.3,5.845,1.85,335.95,54.899040,9.796123,0.000000,0.000000
1386864921,1,0,545.9,0,0,4,0,409,425,-0.0292,-173.7079,6.8213,0.4212,54.896942,9.790229,108.3,5.845,1.85,335.95,54.899040,9.796123,0.000000,0.000000
1386864921,1,0,545.9,0,0,0,0,409,400,-0.0292,-173.7079,6.8213,0.4212,54.896923,9.790226,108.3,5.845,1.85,335.95,54.899040,9.796123,0.000000,0.000000
1386864921,1,0,545.9,0,0,4,0,409,425,-0.0292,-173.7079,6.8213,0.4212,54.896904,9.790223,108.3,5.845,1.85,335.95,54.899040,9.796123,0.000000,0.000000
1386864922,1,0,545.9,0,0,0,0,409,400,-0.0292,-173.7079,6.8213,0.4212,54.896885,9.790220,108.3,5.845,1.85,335.95,54.899040,9.796123,0.000000,0.000000
1386864922,1,0,545.9,0,0,4,0,409,425,-0.0292,-173.7079,6.8213,0.4212,54.896870,9.790217,108.3,5.845,1.85,335.95,54.899040,9.796123,0.000000,0.000000
1386864922,1,0,545.9,0,0,0,0,409,400,-0.0292,-173.7079,6.8213,0.4212,54.896851,9.790215,108.3,5.845,1.85,335.95,54.899040,9.796123,0.000000,0.000000
1386864922,1,0,545.9,0,0,4,0,409,425,-0.0292,-173.7079,6.8213,0.4212,54.896832,9.790212,108.3,5.845,1.85,335.95,54.899040,9.796123,0.000000,0.000000
1386864923,1,0,545.9,0,0,0,0,409,400,-0.0292,-173.7079,6.8213,0.4212,54.896812,9.790208,108.3,5.845,1.85,335.95,54.899040,9.796123,0.000000,0.000000
1386864923,1,0,545.9,0,0,4,0,409,425,-0.0292,-173.7079,6.8213,0.4212,54.896797,9.790204,108.3,5.845,1.85,335.95,54.899040,9.796123,0.000000,0.000000
1386864923,1,0,545.9,0,0,0,0,409,400,-0.0292,-173.7079,6.8213,0.4212,54.896778,9.790200,108.3,5.845,1.85,335.95,54.899040,9.796123,0.000000,0.000000
1386864923,1,0,545.9,0,0,4,0,409,425,-0.0292,-173.7079,6.8213,0.4212,54.896759,9.790196,108.3,5.845,1.85,335.95,54.899040,9.796123,0.000000,0.000000
1386864924,1,0,545.9,0,0,0,0,409,400,-0.0292,-173.7079,6.8213,0.4212,54.896744,9.790193,108.3,5.845,1.85,335.95,54.899040,9.796123,0.000000,0.000000
1386864924,1,0,545.9,0,0,4,0,409,425,-0.0292,-173.7079,6.8213,0.4212,54.896725,9.790189,108.3,5.845,1.85,335.95,54.899040,9.796123,0.000000,0.000000
1386864924,1,0,545.9,0,0,0,0,409,400,-0.0292,-173.7079,6.8213,0.4212,54.896706,9.790185,108.3,5.845,1.85,335.95,54.899040,9.796123,0.000000,0.000000
1386864924,1,0,545.9,0,0,4,0,409,425,-0.0292,-173.7079,6.8213,0.4212,54.896687,9.790182,108.3,5.845,1.85,335.95,54.899040,9.796123,0.000000,0.000000
1386864925,1,0,545.9,0,0,0,0,409,400,-0.0292,-173.7079,6.8213,0.4212,54.896671,9.790179,108.3,5.845,1.85,335.95,54.899040,9.796123,0.000000,0.000000
1386864925,1,0,545.9,0,0,4,0,409,425,-0.0292,-173.7079,6.8213,0.4212,54.896652,9.790176,108.3,5.845,1.85,335.95,54.899040,9.796123,0.000000,0.000000
1386864925,1,0,545.9,0,0,0,0,409,400,-0.0292,-173.7079,6.8213,0.4212,54.896633,9.790174,108.3,5.845,1.85,335.95,54.899040,9.796123,0.000000,0.000000
1386864925,1,0,545.9,0,0,4,0,409,425,-0.0292,-173.7079,6.8213,0.4212,54.896614,9.790171,108.3,5.845,1.85,335.95,54.899040,9.796123,0.000000,0.000000
1386864926,1,0,545.9,0,0,0,0,409,400,-0.0292,-173.7079,6.8213,0.4212,54.896599,9.790168,108.3,5.845,1.85,335.95,54.899040,9.796123,0.000000,0.000000
1386864926,1,0,545.9,0,0,4,0,409,425,-0.0292,-173.7079,6.8213,0.4212,54.896580,9.790164,108.3,5.845,1.85,335.95,54.899040,9.796123,0.000000,0.000000
1386864926,1,0,545.9,0,0,0,0,409,400,-0.0292,-173.7079,6.8213,0.4212,54.896561,9.790160,108.3,5.845,1.85,335.95,54.899040,9.796123,0.000000,0.000000
1386864926,1,0,545.9,0,0,4,0,409,425,-0.0292,-173.7079,6.8213,0.4212,54.896542,9.790156,108.3,5.845,1.85,335.95,54.899040,9.796123,0.000000,0.000000
1386864927,1,0,545.9,0,0,0,0,409,400,-0.0292,-173.7079,6.8213,0.4212,54.896526,9.790153,108.3,5.845,1.85,335.95,54.899040,9.796123,0.000000,0.000000
1386864927,1,0,545.9,0,0,4,0,409,425,-0.0292,-173.7079,6.8213,0.4212,54.896507,9.790149,108.3,5.845,1.85,335.95,54.899040,9.796123,0.000000,0.000000
1386864927,1,0,545.9,0,0,0,0,409,400,-0.0292,-173.7079,6.8213,0.4212,54.896488,9.790145,108.3,5.845,1.85,335.95,54.899040,9.796123,0.000000,0.000000
1386864927,1,0,545.9,0,0,4,0,409,425,-0.0292,-173.7079,6.8213,0.4212,54.896473,9.790141,108.3,5.845,1.85,335.95,54.899040,9.796123,0.000000,0.000000
1386864928,1,0,545.9,0,0,0,0,409,400,-0.0292,-173.7079,6.8213,0.4212,54.896454,9.790138,108.3,5.845,1.85,335.95,54.899040,9.796123,0.000000,0.000000
1386864928,1,0,545.9,0,0,4,0,409,425,-0.0292,-173.7079,6.8213,0.4212,54.896435,9.790135,108.3,5.845,1.85,335.95,54.899040,9.796123,0.000000,0.000000
1386864928,1,0,545.9,0,0,0,0,409,400,-0.0292,-173.7079,6.8213,0.4212,54.896416,9.790133,108.3,5.845,1.85,335.95,54.899040,9.796123,0.000000,0.000000
1386864928,1,0,545.9,0,0,4,0,409,425,-0.0292,-173.7079,6.8213,0.4212,54.896400,9.790130,108.3,5.845,1.85,335.95,54.899040,9.796123,0.000000,0.000000
1386864929,1,0,545.9,0,0,0,0,409,400,-0.0292,-173.7079,6.8213,0.4212,54.896381,9.790127,108.3,5.845,1.85,335.95,54.899040,9.796123,0.000000,0.000000
1386864929,1,0,545.9,0,0,4,0,409,425,-0.0292,-173.7079,6.8213,0.4212,54.896362,9.790123,108.3,5.845,1.85,335.95,54.899040,9.796123,0.000000,0.000000
1386864929,1,0,545.9,0,0,0,0,409,400,-0.0292,-173.7079,6.8213,0.4212,54.896343,9.790119,108.3,5.845,1.85,335.95,54.899040,9.796123,0.000000,0.000000
1386864929,1,0,545.9,0,0,4,0,409,425,-0.0292,-173.7079,6.8213,0.4212,54.896328,9.790115,108.3,5.845,1.85,335.95,54.899040,9.796123,0.000000,0.000000
1386864930,1,0,545.9,0,0,0,0,409,400,-0.0292,-173.7079,6.8213,0.4212,54.896309,9.790112,108.3,5.845,1.85,335.95,54.899040,9.796123,0.000000,0.000000
1386864930,1,0,545.9,0,0,4,0,409,425,-0.0292,-173.7079,6.8213,0.4212,54.896290,9.790108,108.3,5.845,1.85,335.95,54.899040,9.796123,0.000000,0.000000
1386864930,0,0,545.9,0,0,4,0,409,425,-0.0292,-173.7079,6.8213,0.4212,54.896290,9.790108,108.3,5.845,1.85,335.95,54.899040,9.796123,0.000000,0.000000
1386864930,0,0,545.9,0,0,4,0,409,425,-0.0292,-173.7079,6.8213,0.4212,54.896290,9.790108,108.3,5.845,1.85,335.95,54.899040,9.796123,0.000000,0.000000
1386864931,0,0,545.9,0,0,4,0,409,425,-0.0292,-173.7079,6.8213,0.4212,54.896290,9.790108,108.3,5.845,1.85,335.95,54.899040,9.796123,0.000000,0.000000
1386864931,4,0,545.9,0,0,4,0,409,425,-0.0292,-173.7079,6.8213,0.4212,54.896290,9.790108,108.3,5.845,1.85,335.95,54.899040,9.796123,0.000000,0.000000
1386864931,1,0,425.9,0,35,8,0,409,400,-0.0292,-183.0412,6.8213,0.4212,54.896271,9.790109,108.3,5.845,1.85,335.95,54.896290,9.790108,54.895069,9.793790
1386864931,1,0,335.9,0,-35,4,0,409,425,-0.0292,-173.7079,6.8213,0.4212,54.896255,9.790105,108.3,5.845,1.85,335.95,54.896290,9.790108,54.895069,9.793790
1386864932,1,0,515.9,0,30,8,0,409,400,-0.0292,-181.7079,6.8213,0.4212,54.896236,9.790106,108.3,5.845,1.85,335.95,54.896290,9.790108,54.895069,9.793790
1386864932,1,0,515.9,0,22,12,0,409,425,-0.0292,-187.5746,6.8213,0.4212,54.896217,9.790110,108.3,5.845,1.85,335.95,54.896290,9.790108,54.895069,9.793790
1386864932,1,0,335.9,0,-35,8,0,409,400,-0.0292,-178.2413,6.8213,0.4212,54.896202,9.790109,108.3,5.845,1.85,335.95,54.896290,9.790108,54.895069,9.793790
1386864932,1,0,335.9,0,-35,4,0,409,425,-0.0292,-168.9079,6.8213,0.4212,54.896183,9.790102,108.3,5.845,1.85,335.95,54.896290,9.790108,54.895069,9.793790
1386864933,1,0,515.9,0,35,8,0,409,400,-0.0292,-178.2413,6.8213,0.4212,54.896164,9.790102,108.3,5.845,1.85,335.95,54.896290,9.790108,54.895069,9.793790
1386864933,1,0,515.9,0,26,12,0,409,425,-0.0292,-185.1746,6.8213,0.4212,54.896145,9.790105,108.3,5.845,1.85,335.95,54.896290,9.790108,54.895069,9.793790
1386864933,1,0,515.9,0,19,16,0,409,400,-0.0292,-190.2413,6.8213,0.4212,54.896130,9.790110,108.3,5.845,1.85,335.95,54.896290,9.790108,54.895069,9.793790
1386864933,1,0,335.9,0,-35,12,0,409,425,-0.0292,-180.9079,6.8213,0.4212,54.896111,9.790110,108.3,5.845,1.85,335.95,54.896290,9.790108,54.895069,9.793790
1386864934,1,0,335.9,0,-35,8,0,409,400,-0.0292,-171.5746,6.8213,0.4212,54.896091,9.790105,108.3,5.845,1.85,335.95,54.896290,9.790108,54.895069,9.793790
1386864934,1,0,515.9,0,32,12,0,409,425,-0.0292,-180.1079,6.8213,0.4212,54.896072,9.790105,108.3,5.845,1.85,335.95,54.896290,9.790108,54.895069,9.793790
1386864934,1,0,515.9,0,24,16,0,409,400,-0.0292,-186.5079,6.8213,0.4212,54.896057,9.790108,108.3,5.845,1.85,335.95,54.896290,9.790108,54.895069,9.793790
1386864934,1,0,425.9,0,35,20,0,409,425,-0.0292,-195.8413,6.8213,0.4212,54.896038,9.790116,108.3,5.845,1.85,335.95,54.896290,9.790108,54.895069,9.793790
1386864935,1,0,335.9,0,-35,16,0,0,400,-0.0292,-186.5079,6.8213,0.4212,54.896019,9.790120,108.3,5.845,1.85,335.95,54.896290,9.790108,54.895069,9.793790
1386864935,1,0,335.9,0,-35,12,0,409,425,-0.0292,-177.1746,6.8213,0.4212,54.896000,9.790118,108.3,5.845,1.85,335.95,54.896290,9.790108,54.895069,9.793790
1386864935,1,0,335.9,0,-35,8,0,409,400,-0.0292,-167.8413,6.8213,0.4212,54.895985,9.790112,108.3,5.845,1.85,335.95,54.896290,9.790108,54.895069,9.793790
1386864935,1,0,335.9,0,-35,4,0,409,425,-0.0292,-158.5079,6.8213,0.4212,54.895966,9.790100,108.3,5.845,1.85,335.95,54.896290,9.790108,54.895069,9.793790
1386864936,1,0,515.9,0,35,8,0,578,450,-0.0292,-167.8413,6.8213,0.4212,54.895947,9.790094,108.3,5.845,1.85,335.95,54.896290,9.790108,54.895069,9.793790
1386864936,1,0,515.9,0,35,12,0,409,425,-0.0292,-177.1746,6.8213,0.4212,54.895927,9.790093,108.3,5.845,1.85,335.95,54.896290,9.790108,54.895069,9.793790
1386864936,1,0,515.9,0,27,16,0,409,400,-0.0292,-184.3746,6.8213,0.4212,54.895912,9.790096,108.3,5.845,1.85,335.95,54.896290,9.790108,54.895069,9.793790
1386864936,1,0,515.9,0,20,20,0,409,425,-0.0292,-189.7079,6.8213,0.4212,54.895893,9.790102,108.3,5.845,1.85,335.95,54.896290,9.790108,54.895069,9.793790
1386864937,1,0,515.9,0,14,16,0,409,400,-0.0292,-193.4413,6.8213,0.4212,54.895874,9.790110,108.3,5.845,1.85,335.95,54.896290,9.790108,54.895069,9.793790
1386864937,1,0,335.9,0,-35,12,0,409,425,-0.0292,-184.1079,6.8213,0.4212,54.895859,9.790112,108.3,5.845,1.85,335.95,54.896290,9.790108,54.895069,9.793790
1386864937,1,0,335.9,0,-35,8,0,409,400,-0.0292,-174.7746,6.8213,0.4212,54.895840,9.790109,108.3,5.845,1.85,335.95,54.896290,9.790108,54.895069,9.793790
1386864937,1,0,335.9,0,-35,4,0,409,425,-0.0292,-165.4413,6.8213,0.4212,54.895821,9.790100,108.3,5.845,1.85,335.95,54.896290,9.790108,54.895069,9.793790
1386864938,1,0,515.9,0,35,8,0,409,400,-0.0292,-174.7746,6.8213,0.4212,54.895802,9.790097,108.3,5.845,1.85,335.95,54.896290,9.790108,54.895069,9.793790
1386864938,1,0,515.9,0,29,12,0,409,425,-0.0292,-182.5079,6.8213,0.4212,54.895786,9.790099,108.3,5.845,1.85,335.95,54.896290,9.790108,54.895069,9.793790
1386864938,1,0,515.9,0,22,16,0,409,400,-0.0292,-188.3746,6.8213,0.4212,54.895767,9.790104,108.3,5.845,1.85,335.95,54.896290,9.790108,54.895069,9.793790
1386864938,1,0,515.9,0,16,20,0,409,425,-0.0292,-192.6413,6.8213,0.4212,54.895748,9.790111,108.3,5.845,1.85,335.95,54.896290,9.790108,54.895069,9.793790
1386864939,1,0,335.9,0,-35,16,0,409,400,-0.0292,-183.3080,6.8213,0.4212,54.895729,9.790112,108.3,5.845,1.85,335.95,54.896290,9.790108,54.895069,9.793790
1386864939,1,0,335.9,0,-35,12,0,409,425,-0.0292,-173.9746,6.8213,0.4212,54.895714,9.790109,108.3,5.845,1.85,335.95,54.896290,9.790108,54.895069,9.793790
1386864939,1,0,335.9,0,-35,8,0,409,400,-0.0292,-164.6413,6.8213,0.4212,54.895695,9.790100,108.3,5.845,1.85,335.95,54.896290,9.790108,54.895069,9.793790
1386864939,1,0,515.9,0,35,12,0,409,425,-0.0292,-173.9746,6.8213,0.4212,54.895676,9.790097,108.3,5.845,1.85,335.95,54.896290,9.790108,54.895069,9.793790
1386864940,1,0,515.9,0,30,16,0,409,400,-0.0292,-181.9746,6.8213,0.4212,54.895657,9.790099,108.3,5.845,1.85,335.95,54.896290,9.790108,54.895069,9.793790
1386864940,1,0,515.9,0,22,20,0,409,425,-0.0292,-187.8413,6.8213,0.4212,54.895641,9.790104,108.3,5.845,1.85,335.95,54.896290,9.790108,54.895069,9.793790
1386864940,1,0,515.9,0,16,16,0,409,400,-0.0292,-192.1080,6.8213,0.4212,54.895622,9.790110,108.3,5.845,1.85,335.95,54.896290,9.790108,54.895069,9.793790
1386864940,1,0,335.9,0,-35,12,0,409,425,-0.0292,-182.7746,6.8213,0.4212,54.895603,9.790111,108.3,5.845,1.85,335.95,54.896290,9.790108,54.895069,9.793790
1386864941,1,0,335.9,0,-35,8,0,409,400,-0.0292,-173.4413,6.8213,0.4212,54.895588,9.790107,108.3,5.845,1.85,335.95,54.896290,9.790108,54.895069,9.793790
1386864941,1,0,515.9,0,31,12,0,409,425,-0.0292,-181.7080,6.8213,0.4212,54.895569,9.790108,108.3,5.845,1.85,335.95,54.896290,9.790108,54.895069,9.793790
1386864941,1,0,425.9,0,35,16,0,409,400,-0.0292,-191.0413,6.8213,0.4212,54.895550,9.790113,108.3,5.845,1.85,335.95,54.896290,9.790108,54.895069,9.793790
1386864941,1,0,335.9,0,-35,12,0,409,425,-0.0292,-181.7080,6.8213,0.4212,54.895531,9.790114,108.3,5.845,1.85,335.95,54.896290,9.790108,54.895069,9.793790
1386864942,1,0,335.9,0,-35,8,0,409,400,-0.0292,-172.3746,6.8213,0.4212,54.895515,9.790110,108.3,5.845,1.85,335.95,54.896290,9.790108,54.895069,9.793790
1386864942,1,0,335.9,0,-35,4,0,409,425,-0.0292,-163.0413,6.8213,0.4212,54.895496,9.790100,108.3,5.845,1.85,335.95,54.896290,9.790108,54.895069,9.793790
1386864942,1,0,515.9,0,35,8,0,409,400,-0.0292,-172.3746,6.8213,0.4212,54.895477,9.790096,108.3,5.845,1.85,335.95,54.896290,9.790108,54.895069,9.793790
1386864942,1,0,515.9,0,32,12,0,409,425,-0.0292,-180.9080,6.8213,0.4212,54.895458,9.790097,108.3,5.845,1.85,335.95,54.896290,9.790108,54.895069,9.793790
1386864943,1,0,515.9,0,23,16,0,409,400,-0.0292,-187.0413,6.8213,0.4212,54.895443,9.790101,108.3,5.845,1.85,335.95,54.896290,9.790108,54.895069,9.793790
1386864943,1,0,515.9,0,17,20,0,409,425,-0.0292,-191.5746,6.8213,0.4212,54.895424,9.790108,108.3,5.845,1.85,335.95,54.896290,9.790108,54.895069,9.793790
1386864943,1,0,425.9,0,35,24,0,409,400,-0.0292,-200.9080,6.8213,0.4212,54.895409,9.790118,108.3,5.845,1.85,335.95,54.896290,9.790108,54.895069,9.793790
1386864943,1,0,335.9,0,-35,20,0,0,375,-0.0292,-191.5746,6.8213,0.4212,54.895393,9.790124,108.3,5.845,1.85,335.95,54.896290,9.790108,54.895069,9.793790
1386864944,1,0,335.9,0,-35,16,0,409,400,-0.0292,-182.2413,6.8213,0.4212,54.895374,9.790125,108.3,5.845,1.85,335.95,54.896290,9.790108,54.895069,9.793790
1386864944,1,0,335.9,0,-35,12,0,409,425,-0.0292,-172.9080,6.8213,0.4212,54.895355,9.790121,108.3,5.845,1.85,335.95,54.896290,9.790108,54.895069,9.793790
1386864944,1,0,335.9,0,-35,8,0,409,400,-0.0292,-163.5747,6.8213,0.4212,54.895340,9.790112,108.3,5.845,1.85,335.95,54.896290,9.790108,54.895069,9.793790
1386864944,1,0,335.9,0,-35,4,0,409,425,-0.0292,-154.2413,6.8213,0.4212,54.895321,9.790099,108.3,5.845,1.85,335.95,54.896290,9.790108,54.895069,9.793790
1386864945,1,0,515.9,0,35,8,0,571,450,-0.0292,-163.5747,6.8213,0.4212,54.895302,9.790091,108.3,5.845,1.85,335.95,54.896290,9.790108,54.895069,9.793790
1386864945,1,0,515.9,0,35,12,0,409,425,-0.0292,-172.9080,6.8213,0.4212,54.895283,9.790087,108.3,5.845,1.85,335.95,54.896290,9.790108,54.895069,9.793790
1386864945,1,0,515.9,0,31,16,0,409,400,-0.0292,-181.1747,6.8213,0.4212,54.895264,9.790088,108.3,5.845,1.85,335.95,54.896290,9.790108,54.895069,9.793790
1386864945,1,0,515.9,0,23,20,0,409,425,-0.0292,-187.3080,6.8213,0.4212,54.895248,9.790092,108.3,5.845,1.85,335.95,54.896290,9.790108,54.895069,9.793790
1386864946,1,0,515.9,0,17,16,0,409,400,-0.0292,-191.8413,6.8213,0.4212,54.895229,9.790098,108.3,5.845,1.85,335.95,54.896290,9.790108,54.895069,9.793790
1386864946,1,0,515.9,0,12,12,0,409,425,-0.0292,-195.0413,6.8213,0.4212,54.895210,9.790107,108.3,5.845,1.85,335.95,54.896290,9.790108,54.895069,9.793790
1386864946,1,0,515.9,0,9,8,0,0,400,-0.0292,-197.4413,6.8213,0.4212,54.895195,9.790115,108.3,5.845,1.85,335.95,54.896290,9.790108,54.895069,9.793790
1386864946,1,0,335.9,0,-35,4,0,0,375,-0.0292,-188.1080,6.8213,0.4212,54.895176,9.790119,108.3,5.845,1.85,335.95,54.896290,9.790108,54.895069,9.793790
1386864947,1,0,335.9,0,-35,0,0,0,350,-0.0292,-178.7747,6.8213,0.4212,54.895157,9.790118,108.3,5.845,1.85,335.95,54.896290,9.790108,54.895069,9.793790
1386864947,1,0,335.9,0,-35,-4,0,0,325,-0.0292,-169.4413,6.8213,0.4212,54.895138,9.790112,108.3,5.845,1.85,335.95,54.896290,9.790108,54.895069,9.793790
1386864947,1,0,335.9,0,-35,-8,0,0,300,-0.0292,-160.1080,6.8213,0.4212,54.895123,9.790102,108.3,5.845,1.85,335.95,54.896290,9.790108,54.895069,9.793790
1386864947,1,0,515.9,0,35,-4,0,0,275,-0.0292,-169.4413,6.8213,0.4212,54.895103,9.790097,108.3,5.845,1.85,335.95,54.896290,9.790108,54.895069,9.793790
1386864948,1,0,515.9,0,35,0,0,0,250,-0.0292,-178.7747,6.8213,0.4212,54.895084,9.790097,108.3,5.845,1.85,335.95,54.896290,9.790108,54.895069,9.793790
1386864948,1,0,515.9,0,25,4,0,0,225,-0.0292,-185.4413,6.8213,0.4212,54.895065,9.790101,108.3,5.845,1.85,335.95,54.896290,9.790108,54.895069,9.793790
1386864948,1,0,515.9,0,19,8,0,0,200,-0.0292,-190.5080,6.8213,0.4212,54.895050,9.790107,108.3,5.845,1.85,335.95,54.896290,9.790108,54.895069,9.793790
1386864948,1,0,515.9,0,14,12,0,0,175,-0.0292,-194.2413,6.8213,0.4212,54.895031,9.790114,108.3,5.845,1.85,335.95,54.896290,9.790108,54.895069,9.793790
1386864949,1,0,335.9,0,-35,8,0,0,150,-0.0292,-184.9080,6.8213,0.4212,54.895012,9.790117,108.3,5.845,1.85,335.95,54.896290,9.790108,54.895069,9.793790
1386864949,1,0,335.9,0,-35,4,0,0,125,-0.0292,-175.5747,6.8213,0.4212,54.894993,9.790114,108.3,5.845,1.85,335.95,54.896290,9.790108,54.895069,9.793790
1386864949,1,0,335.9,0,-35,0,0,0,100,-0.0292,-166.2413,6.8213,0.4212,54.894978,9.790107,108.3,5.845,1.85,335.95,54.896290,9.790108,54.895069,9.793790
1386864949,1,0,515.9,0,35,4,0,0,75,-0.0292,-175.5747,6.8213,0.4212,54.894958,9.790104,108.3,5.845,1.85,335.95,54.896290,9.790108,54.895069,9.793790
1386864950,1,0,515.9,0,28,8,0,0,50,-0.0292,-183.0413,6.8213,0.4212,54.894939,9.790105,108.3,5.845,1.85,335.95,54.896290,9.790108,54.895069,9.793790
1386864950,1,0,515.9,0,21,12,0,0,25,-0.0292,-188.6413,6.8213,0.4212,54.894924,9.790109,108.3,5.845,1.85,335.95,54.896290,9.790108,54.895069,9.793790
1386864950,1,0,335.9,0,-35,8,0,0,0,-0.0292,-179.3080,6.8213,0.4212,54.894905,9.790108,108.3,5.845,1.85,335.95,54.896290,9.790108,54.895069,9.793790
1386864950,1,0,425.9,0,35,12,0,0,25,-0.0292,-188.6413,6.8213,0.4212,54.894886,9.790112,108.3,5.845,1.85,335.95,54.896290,9.790108,54.895069,9.793790
1386864951,1,0,335.9,0,-35,8,0,0,0,-0.0292,-179.3080,6.8213,0.4212,54.894867,9.790112,108.3,5.845,1.85,335.95,54.896290,9.790108,54.895069,9.793790
1386864951,1,0,335.9,0,-35,4,0,0,25,-0.0292,-169.9747,6.8213,0.4212,54.894852,9.790106,108.3,5.845,1.85,335.95,54.896290,9.790108,54.895069,9.793790
1386864951,1,0,515.9,0,34,8,0,0,0,-0.0292,-179.0414,6.8213,0.4212,54.894833,9.790105,108.3,5.845,1.85,335.95,54.896290,9.790108,54.895069,9.793790
1386864951,1,0,515.9,0,25,12,0,0,25,-0.0292,-185.7080,6.8213,0.4212,54.894814,9.790108,108.3,5.845,1.85,335.95,54.896290,9.790108,54.895069,9.793790
1386864952,1,0,425.9,0,35,16,0,0,0,-0.0292,-195.0414,6.8213,0.4212,54.894798,9.790115,108.3,5.845,1.85,335.95,54.896290,9.790108,54.895069,9.793790
1386864952,1,0,335.9,0,-35,12,0,0,25,-0.0292,-185.7080,6.8213,0.4212,54.894783,9.790118,108.3,5.845,1.85,335.95,54.896290,9.790108,54.895069,9.793790
1386864952,1,0,335.9,0,-35,8,0,0,0,-0.0292,-176.3747,6.8213,0.4212,54.894764,9.790116,108.3,5.845,1.85,335.95,54.896290,9.790108,54.895069,9.793790
1386864953,1,0,335.9,0,-35,4,0,0,25,-0.0292,-167.0414,6.8213,0.4212,54.894749,9.790109,108.3,5.845,1.85,335.95,54.896290,9.790108,54.895069,9.793790
1386864953,1,0,335.9,0,-35,0,0,0,0,-0.0292,-157.7080,6.8213,0.4212,54.894733,9.790096,108.3,5.845,1.85,335.95,54.896290,9.790108,54.895069,9.793790
1386864953,1,0,515.9,0,35,4,0,0,25,-0.0292,-167.0414,6.8213,0.4212,54.894714,9.790090,108.3,5.845,1.85,335.95,54.896290,9.790108,54.895069,9.793790
1386864953,1,0,515.9,0,35,8,0,0,0,-0.0292,-176.3747,6.8213,0.4212,54.894695,9.790088,108.3,5.845,1.85,335.95,54.896290,9.790108,54.895069,9.793790
1386864954,1,0,515.9,0,28,12,0,0,25,-0.0292,-183.8414,6.8213,0.4212,54.894680,9.790090,108.3,5.845,1.85,335.95,54.896290,9.790108,54.895069,9.793790
1386864954,1,0,515.9,0,20,16,0,0,0,-0.0292,-189.1747,6.8213,0.4212,54.894661,9.790094,108.3,5.845,1.85,335.95,54.896290,9.790108,54.895069,9.793790
1386864954,1,0,515.9,0,15,12,0,0,25,-0.0292,-193.1747,6.8213,0.4212,54.894642,9.790102,108.3,5.845,1.85,335.95,54.896290,9.790108,54.895069,9.793790
1386864954,1,0,515.9,0,11,8,0,0,0,-0.0292,-196.1080,6.8213,0.4212,54.894627,9.790112,108.3,5.845,1.85,335.95,54.896290,9.790108,54.895069,9.793790
1386864955,1,0,335.9,0,-35,4,0,0,25,-0.0292,-186.7747,6.8213,0.4212,54.894608,9.790115,108.3,5.845,1.85,335.95,54.896290,9.790108,54.895069,9.793790
1386864955,1,0,335.9,0,-35,0,0,0,0,-0.0292,-177.4414,6.8213,0.4212,54.894588,9.790113,108.3,5.845,1.85,335.95,54.896290,9.790108,54.895069,9.793790
1386864955,1,0,335.9,0,-35,-4,0,0,25,-0.0292,-168.1080,6.8213,0.4212,54.894569,9.790107,108.3,5.845,1.85,335.95,54.896290,9.790108,54.895069,9.793790
1386864955,1,0,515.9,0,35,0,0,0,0,-0.0292,-177.4414,6.8213,0.4212,54.894550,9.790105,108.3,5.845,1.85,335.95,54.896290,9.790108,54.895069,9.793790
1386864956,1,0,515.9,0,27,4,0,0,25,-0.0292,-184.6414,6.8213,0.4212,54.894535,9.790107,108.3,5.845,1.85,335.95,54.896290,9.790108,54.895069,9.793790
1386864956,1,0,515.9,0,19,8,0,0,0,-0.0292,-189.7080,6.8213,0.4212,54.894516,9.790112,108.3,5.845,1.85,335.95,54.896290,9.790108,54.895069,9.793790
1386864956,1,0,335.9,0,-35,4,0,0,25,-0.0292,-180.3747,6.8213,0.4212,54.894497,9.790112,108.3,5.845,1.85,335.95,54.896290,9.790108,54.895069,9.793790
1386864956,1,0,335.9,0,-35,0,0,0,0,-0.0292,-171.0414,6.8213,0.4212,54.894482,9.790107,108.3,5.845,1.85,335.95,54.896290,9.790108,54.895069,9.793790
1386864957,1,0,515.9,0,33,4,0,0,25,-0.0292,-179.8414,6.8213,0.4212,54.894463,9.790107,108.3,5.845,1.85,335.95,54.896290,9.790108,54.895069,9.793790
1386864957,1,0,515.9,0,24,8,0,0,0,-0.0292,-186.2414,6.8213,0.4212,54.894444,9.790110,108.3,5.845,1.85,335.95,54.896290,9.790108,54.895069,9.793790
1386864957,1,0,335.9,0,-35,4,0,0,25,-0.0292,-176.9080,6.8213,0.4212,54.894424,9.790108,108.3,5.845,1.85,335.95,54.896290,9.790108,54.895069,9.793790
1386864957,1,0,425.9,0,35,8,0,0,0,-0.0292,-186.2414,6.8213,0.4212,54.894409,9.790111,108.3,5.845,1.85,335.95,54.896290,9.790108,54.895069,9.793790
1386864958,1,0,335.9,0,-35,4,0,0,25,-0.0292,-176.9080,6.8213,0.4212,54.894390,9.790109,108.3,5.845,1.85,335.95,54.896290,9.790108,54.895069,9.793790
1386864958,1,0,335.9,0,-35,0,0,0,0,-0.0292,-167.5747,6.8213,0.4212,54.894371,9.790102,108.3,5.845,1.85,335.95,54.896290,9.790108,54.895069,9.793790
1386864958,1,0,515.9,0,35,4,0,0,25,-0.0292,-176.9080,6.8213,0.4212,54.894352,9.790101,108.3,5.845,1.85,335.95,54.896290,9.790108,54.895069,9.793790
1386864958,1,0,515.9,0,27,8,0,0,0,-0.0292,-184.1080,6.8213,0.4212,54.894337,9.790104,108.3,5.845,1.85,335.95,54.896290,9.790108,54.895069,9.793790
1386864959,1,0,515.9,0,20,12,0,0,25,-0.0292,-189.4414,6.8213,0.4212,54.894318,9.790109,108.3,5.845,1.85,335.95,54.896290,9.790108,54.895069,9.793790
1386864959,1,0,335.9,0,-35,8,0,0,0,-0.0292,-180.1080,6.8213,0.4212,54.894299,9.790109,108.3,5.845,1.85,335.95,54.896290,9.790108,54.895069,9.793790
1386864959,1,0,335.9,0,-35,4,0,0,25,-0.0292,-170.7747,6.8213,0.4212,54.894283,9.790103,108.3,5.845,1.85,335.95,54.896290,9.790108,54.895069,9.793790
1386864959,1,0,515.9,0,33,8,0,0,0,-0.0292,-179.5747,6.8213,0.4212,54.894264,9.790102,108.3,5.845,1.85,335.95,54.896290,9.790108,54.895069,9.793790
1386864960,1,0,515.9,0,24,12,0,0,25,-0.0292,-185.9747,6.8213,0.4212,54.894245,9.790106,108.3,5.845,1.85,335.95,54.896290,9.790108,54.895069,9.793790
1386864960,1,0,515.9,0,18,16,0,0,0,-0.0292,-190.7747,6.8213,0.4212,54.894226,9.790112,108.3,5.845,1.85,335.95,54.896290,9.790108,54.895069,9.793790
1386864960,1,0,335.9,0,-35,12,0,0,25,-0.0292,-181.4414,6.8213,0.4212,54.894211,9.790112,108.3,5.845,1.85,335.95,54.896290,9.790108,54.895069,9.793790
1386864960,1,0,335.9,0,-35,8,0,0,0,-0.0292,-172.1080,6.8213,0.4212,54.894192,9.790108,108.3,5.845,1.85,335.95,54.896290,9.790108,54.895069,9.793790
1386864961,1,0,425.9,0,35,12,0,0,25,-0.0292,-181.4414,6.8213,0.4212,54.894173,9.790108,108.3,5.845,1.85,335.95,54.896290,9.790108,54.895069,9.793790
1386864961,1,0,425.9,0,35,16,0,0,0,-0.0292,-190.7747,6.8213,0.4212,54.894154,9.790113,108.3,5.845,1.85,335.95,54.896290,9.790108,54.895069,9.793790
1386864961,1,0,335.9,0,-35,12,0,0,25,-0.0292,-181.4414,6.8213,0.4212,54.894138,9.790114,108.3,5.845,1.85,335.95,54.896290,9.790108,54.895069,9.793790
1386864961,1,0,335.9,0,-35,8,0,0,0,-0.0292,-172.1080,6.8213,0.4212,54.894119,9.790110,108.3,5.845,1.85,335.95,54.896290,9.790108,54.895069,9.793790
1386864962,1,0,335.9,0,-35,4,0,0,25,-0.0292,-162.7747,6.8213,0.4212,54.894100,9.790100,108.3,5.845,1.85,335.95,54.896290,9.790108,54.895069,9.793790
1386864962,1,0,515.9,0,35,8,0,0,0,-0.0292,-172.1080,6.8213,0.4212,54.894081,9.790096,108.3,5.845,1.85,335.95,54.896290,9.790108,54.895069,9.793790
1386864962,1,0,515.9,0,32,12,0,0,25,-0.0292,-180.6414,6.8213,0.4212,54.894066,9.790097,108.3,5.845,1.85,335.95,54.896290,9.790108,54.895069,9.793790
1386864962,1,0,515.9,0,23,16,0,0,0,-0.0292,-186.7747,6.8213,0.4212,54.894047,9.790101,108.3,5.845,1.85,335.95,54.896290,9.790108,54.895069,9.793790
1386864963,1,0,515.9,0,17,20,0,0,25,-0.0292,-191.3081,6.8213,0.4212,54.894028,9.790108,108.3,5.845,1.85,335.95,54.896290,9.790108,54.895069,9.793790
1386864963,1,0,425.9,0,35,24,0,0,0,-0.0292,-200.6414,6.8213,0.4212,54.894012,9.790118,108.3,5.845,1.85,335.95,54.896290,9.790108,54.895069,9.793790
1386864963,1,0,335.9,0,-35,20,0,0,25,-0.0292,-191.3081,6.8213,0.4212,54.893993,9.790124,108.3,5.845,1.85,335.95,54.896290,9.790108,54.895069,9.793790
1386864963,1,0,335.9,0,-35,16,0,0,0,-0.0292,-181.9747,6.8213,0.4212,54.893974,9.790125,108.3,5.845,1.85,335.95,54.896290,9.790108,54.895069,9.793790
1386864964,1,0,335.9,0,-35,12,0,0,25,-0.0292,-172.6414,6.8213,0.4212,54.893955,9.790121,108.3,5.845,1.85,335.95,54.896290,9.790108,54.895069,9.793790
1386864964,1,0,335.9,0,-35,8,0,0,0,-0.0292,-163.3081,6.8213,0.4212,54.893940,9.790112,108.3,5.845,1.85,335.95,54.896290,9.790108,54.895069,9.793790
1386864964,1,0,335.9,0,-35,4,0,0,25,-0.0292,-153.9747,6.8213,0.4212,54.893921,9.790098,108.3,5.845,1.85,335.95,54.896290,9.790108,54.895069,9.793790
1386864964,1,0,515.9,0,35,8,0,0,0,-0.0292,-163.3081,6.8213,0.4212,54.893902,9.790090,108.3,5.845,1.85,335.95,54.896290,9.790108,54.895069,9.793790
1386864965,1,0,515.9,0,35,12,0,0,25,-0.0292,-172.6414,6.8213,0.4212,54.893883,9.790086,108.3,5.845,1.85,335.95,54.896290,9.790108,54.895069,9.793790
1386864965,1,0,515.9,0,31,16,0,0,0,-0.0292,-180.9081,6.8213,0.4212,54.893867,9.790087,108.3,5.845,1.85,335.95,54.896290,9.790108,54.895069,9.793790
1386864965,1,0,515.9,0,23,20,0,0,25,-0.0292,-187.0414,6.8213,0.4212,54.893848,9.790091,108.3,5.845,1.85,335.95,54.896290,9.790108,54.895069,9.793790
1386864965,1,0,515.9,0,17,16,0,0,0,-0.0292,-191.5747,6.8213,0.4212,54.893829,9.790097,108.3,5.845,1.85,335.95,54.896290,9.790108,54.895069,9.793790
1386864966,1,0,515.9,0,12,12,0,0,25,-0.0292,-194.7747,6.8213,0.4212,54.893814,9.790106,108.3,5.845,1.85,335.95,54.896290,9.790108,54.895069,9.793790
1386864966,1,0,515.9,0,9,8,0,0,0,-0.0292,-197.1747,6.8213,0.4212,54.893799,9.790114,108.3,5.845,1.85,335.95,54.896290,9.790108,54.895069,9.793790
1386864966,1,0,335.9,0,-35,4,0,0,25,-0.0292,-187.8414,6.8213,0.4212,54.893780,9.790118,108.3,5.845,1.85,335.95,54.896290,9.790108,54.895069,9.793790
1386864966,1,0,335.9,0,-35,0,0,0,0,-0.0292,-178.5081,6.8213,0.4212,54.893761,9.790117,108.3,5.845,1.85,335.95,54.896290,9.790108,54.895069,9.793790
1386864967,1,0,335.9,0,-35,-4,0,0,25,-0.0292,-169.1747,6.8213,0.4212,54.893745,9.790112,108.3,5.845,1.85,335.95,54.896290,9.790108,54.895069,9.793790
1386864967,1,0,335.9,0,-35,-8,0,0,0,-0.0292,-159.8414,6.8213,0.4212,54.893726,9.790100,108.3,5.845,1.85,335.95,54.896290,9.790108,54.895069,9.793790
1386864967,1,0,515.9,0,35,-4,0,0,25,-0.0292,-169.1747,6.8213,0.4212,54.893707,9.790094,108.3,5.845,1.85,335.95,54.896290,9.790108,54.895069,9.793790
1386864967,1,0,515.9,0,35,0,0,0,0,-0.0292,-178.5081,6.8213,0.4212,54.893688,9.790093,108.3,5.845,1.85,335.95,54.896290,9.790108,54.895069,9.793790
1386864968,1,0,515.9,0,26,4,0,0,25,-0.0292,-185.4414,6.8213,0.4212,54.893673,9.790096,108.3,5.845,1.85,335.95,54.896290,9.790108,54.895069,9.793790
1386864968,1,0,515.9,0,19,8,0,0,0,-0.0292,-190.5081,6.8213,0.4212,54.893654,9.790102,108.3,5.845,1.85,335.95,54.896290,9.790108,54.895069,9.793790
1386864968,0,0,515.9,0,19,8,0,0,0,-0.0292,-190.5081,6.8213,0.4212,54.893654,9.790102,108.3,5.845,1.85,335.95,54.896290,9.790108,54.895069,9.793790
1386864968,0,0,515.9,0,19,8,0,0,0,-0.0292,-190.5081,6.8213,0.4212,54.893654,9.790102,108.3,5.845,1.85,335.95,54.896290,9.790108,54.895069,9.793790
1386864969,0,0,515.9,0,19,8,0,0,0,-0.0292,-190.5081,6.8213,0.4212,54.893654,9.790102,108.3,5.845,1.85,335.95,54.896290,9.790108,54.895069,9.793790
1386864969,0,0,515.9,0,19,8,0,0,0,-0.0292,-190.5081,6.8213,0.4212,54.893654,9.790102,108.3,5.845,1.85,335.95,54.896290,9.790108,54.895069,9.793790
1386864969,0,0,515.9,0,19,8,0,0,0,-0.0292,-190.5081,6.8213,0.4212,54.893654,9.790102,108.3,5.845,1.85,335.95,54.896290,9.790108,54.895069,9.793790
1386864969,0,0,515.9,0,19,8,0,0,0,-0.0292,-190.5081,6.8213,0.4212,54.893654,9.790102,108.3,5.845,1.85,335.95,54.896290,9.790108,54.895069,9.793790
1386864970,0,0,515.9,0,19,8,0,0,0,-0.0292,-190.5081,6.8213,0.4212,54.893654,9.790102,108.3,5.845,1.85,335.95,54.896290,9.790108,54.895069,9.793790
1386864970,0,0,515.9,0,19,8,0,0,0,-0.0292,-190.5081,6.8213,0.4212,54.893654,9.790102,108.3,5.845,1.85,335.95,54.896290,9.790108,54.895069,9.793790
1386864970,0,0,515.9,0,19,8,0,0,0,-0.0292,-190.5081,6.8213,0.4212,54.893654,9.790102,108.3,5.845,1.85,335.95,54.896290,9.790108,54.895069,9.793790
1386864970,0,0,515.9,0,19,8,0,0,0,-0.0292,-190.5081,6.8213,0.4212,54.893654,9.790102,108.3,5.845,1.85,335.95,54.896290,9.790108,54.895069,9.793790
1386864971,0,0,515.9,0,19,8,0,0,0,-0.0292,-190.5081,6.8213,0.4212,54.893654,9.790102,108.3,5.845,1.85,335.95,54.896290,9.790108,54.895069,9.793790
1386864971,0,0,515.9,0,19,8,0,0,0,-0.0292,-190.5081,6.8213,0.4212,54.893654,9.790102,108.3,5.845,1.85,335.95,54.896290,9.790108,54.895069,9.793790
1386864971,0,0,515.9,0,19,8,0,0,0,-0.0292,-190.5081,6.8213,0.4212,54.893654,9.790102,108.3,5.845,1.85,335.95,54.896290,9.790108,54.895069,9.793790
1386864971,0,0,515.9,0,19,8,0,0,0,-0.0292,-190.5081,6.8213,0.4212,54.893654,9.790102,108.3,5.845,1.85,335.95,54.896290,9.790108,54.895069,9.793790
1386864972,0,0,515.9,0,19,8,0,0,0,-0.0292,-190.5081,6.8213,0.4212,54.893654,9.790102,108.3,5.845,1.85,335.95,54.896290,9.790108,54.895069,9.793790
1386864972,0,0,515.9,0,19,8,0,0,0,-0.0292,-190.5081,6.8213,0.4212,54.893654,9.790102,108.3,5.845,1.85,335.95,54.896290,9.790108,54.895069,9.793790
1386864972,0,0,515.9,0,19,8,0,0,0,-0.0292,-190.5081,6.8213,0.4212,54.893654,9.790102,108.3,5.845,1.85,335.95,54.896290,9.790108,54.895069,9.793790
1386864972,0,0,515.9,0,19,8,0,0,0,-0.0292,-190.5081,6.8213,0.4212,54.893654,9.790102,108.3,5.845,1.85,335.95,54.896290,9.790108,54.895069,9.793790
1386864973,0,0,515.9,0,19,8,0,0,0,-0.0292,-190.5081,6.8213,0.4212,54.893654,9.790102,108.3,5.845,1.85,335.95,54.896290,9.790108,54.895069,9.793790
1386864973,0,0,515.9,0,19,8,0,0,0,-0.0292,-190.5081,6.8213,0.4212,54.893654,9.790102,108.3,5.845,1.85,335.95,54.896290,9.790108,54.895069,9.793790
1386864973,0,0,515.9,0,19,8,0,0,0,-0.0292,-190.5081,6.8213,0.4212,54.893654,9.790102,108.3,5.845,1.85,335.95,54.896290,9.790108,54.895069,9.793790
1386864973,0,0,515.9,0,19,8,0,0,0,-0.0292,-190.5081,6.8213,0.4212,54.893654,9.790102,108.3,5.845,1.85,335.95,54.896290,9.790108,54.895069,9.793790
1386864974,0,0,515.9,0,19,8,0,0,0,-0.0292,-190.5081,6.8213,0.4212,54.893654,9.790102,108.3,5.845,1.85,335.95,54.896290,9.790108,54.895069,9.793790
1386864974,0,0,515.9,0,19,8,0,0,0,-0.0292,-190.5081,6.8213,0.4212,54.893654,9.790102,108.3,5.845,1.85,335.95,54.896290,9.790108,54.895069,9.793790
1386864974,0,0,515.9,0,19,8,0,0,0,-0.0292,-190.5081,6.8213,0.4212,54.893654,9.790102,108.3,5.845,1.85,335.95,54.896290,9.790108,54.895069,9.793790
1386864974,0,0,515.9,0,19,8,0,0,0,-0.0292,-190.5081,6.8213,0.4212,54.893654,9.790102,108.3,5.845,1.85,335.95,54.896290,9.790108,54.895069,9.793790
1386864975,0,0,515.9,0,19,8,0,0,0,-0.0292,-190.5081,6.8213,0.4212,54.893654,9.790102,108.3,5.845,1.85,335.95,54.896290,9.790108,54.895069,9.793790
1386864975,0,0,515.9,0,19,8,0,0,0,-0.0292,-190.5081,6.8213,0.4212,54.893654,9.790102,108.3,5.845,1.85,335.95,54.896290,9.790108,54.895069,9.793790
1386864975,0,0,515.9,0,19,8,0,0,0,-0.0292,-190.5081,6.8213,0.4212,54.893654,9.790102,108.3,5.845,1.85,335.95,54.896290,9.790108,54.895069,9.793790
1386864975,0,0,515.9,0,19,8,0,0,0,-0.0292,-190.5081,6.8213,0.4212,54.893654,9.790102,108.3,5.845,1.85,335.95,54.896290,9.790108,54.895069,9.793790
1386864976,0,0,515.9,0,19,8,0,0,0,-0.0292,-190.5081,6.8213,0.4212,54.893654,9.790102,108.3,5.845,1.85,335.95,54.896290,9.790108,54.895069,9.793790
1386864976,0,0,515.9,0,19,8,0,0,0,-0.0292,-190.5081,6.8213,0.4212,54.893654,9.790102,108.3,5.845,1.85,335.95,54.896290,9.790108,54.895069,9.793790
1386864976,0,0,515.9,0,19,8,0,0,0,-0.0292,-190.5081,6.8213,0.4212,54.893654,9.790102,108.3,5.845,1.85,335.95,54.896290,9.790108,54.895069,9.793790
1386864976,0,0,515.9,0,19,8,0,0,0,-0.0292,-190.5081,6.8213,0.4212,54.893654,9.790102,108.3,5.845,1.85,335.95,54.896290,9.790108,54.895069,9.793790
1386864977,0,0,515.9,0,19,8,0,0,0,-0.0292,-190.5081,6.8213,0.4212,54.893654,9.790102,108.3,5.845,1.85,335.95,54.896290,9.790108,54.895069,9.793790
1386864977,0,0,515.9,0,19,8,0,0,0,-0.0292,-190.5081,6.8213,0.4212,54.893654,9.790102,108.3,5.845,1.85,335.95,54.896290,9.790108,54.895069,9.793790
1386864977,0,0,515.9,0,19,8,0,0,0,-0.0292,-190.5081,6.8213,0.4212,54.893654,9.790102,108.3,5.845,1.85,335.95,54.896290,9.790108,54.895069,9.793790
1386864977,0,0,515.9,0,19,8,0,0,0,-0.0292,-190.5081,6.8213,0.4212,54.893654,9.790102,108.3,5.845,1.85,335.95,54.896290,9.790108,54.895069,9.793790
1386864978,0,0,515.9,0,19,8,0,0,0,-0.0292,-190.5081,6.8213,0.4212,54.893654,9.790102,108.3,5.845,1.85,335.95,54.896290,9.790108,54.895069,9.793790
1386864978,0,0,515.9,0,19,8,0,0,0,-0.0292,-190.5081,6.8213,0.4212,54.893654,9.790102,108.3,5.845,1.85,335.95,54.896290,9.790108,54.895069,9.793790
1386864978,0,0,515.9,0,19,8,0,0,0,-0.0292,-190.5081,6.8213,0.4212,54.893654,9.790102,108.3,5.845,1.85,335.95,54.896290,9.790108,54.895069,9.793790
1386864978,0,0,515.9,0,19,8,0,0,0,-0.0292,-190.5081,6.8213,0.4212,54.893654,9.790102,108.3,5.845,1.85,335.95,54.896290,9.790108,54.895069,9.793790
1386864979,0,0,515.9,0,19,8,0,0,0,-0.0292,-190.5081,6.8213,0.4212,54.893654,9.790102,108.3,5.845,1.85,335.95,54.896290,9.790108,54.895069,9.793790
1386864979,0,0,515.9,0,19,8,0,0,0,-0.0292,-190.5081,6.8213,0.4212,54.893654,9.790102,108.3,5.845,1.85,335.95,54.896290,9.790108,54.895069,9.793790
1386864979,0,0,515.9,0,19,8,0,0,0,-0.0292,-190.5081,6.8213,0.4212,54.893654,9.790102,108.3,5.845,1.85,335.95,54.896290,9.790108,54.895069,9.793790
1386864979,0,0,515.9,0,19,8,0,0,0,-0.0292,-190.5081,6.8213,0.4212,54.893654,9.790102,108.3,5.845,1.85,335.95,54.896290,9.790108,54.895069,9.793790
1386864980,0,0,515.9,0,19,8,0,0,0,-0.0292,-190.5081,6.8213,0.4212,54.893654,9.790102,108.3,5.845,1.85,335.95,54.896290,9.790108,54.895069,9.793790
1386864980,0,0,515.9,0,19,8,0,0,0,-0.0292,-190.5081,6.8213,0.4212,54.893654,9.790102,108.3,5.845,1.85,335.95,54.896290,9.790108,54.895069,9.793790
1386864980,0,0,515.9,0,19,8,0,0,0,-0.0292,-190.5081,6.8213,0.4212,54.893654,9.790102,108.3,5.845,1.85,335.95,54.896290,9.790108,54.895069,9.793790
1386864980,0,0,515.9,0,19,8,0,0,0,-0.0292,-190.5081,6.8213,0.4212,54.893654,9.790102,108.3,5.845,1.85,335.95,54.896290,9.790108,54.895069,9.793790
1386864981,0,0,515.9,0,19,8,0,0,0,-0.0292,-190.5081,6.8213,0.4212,54.893654,9.790102,108.3,5.845,1.85,335.95,54.896290,9.790108,54.895069,9.793790
1386864981,0,0,515.9,0,19,8,0,0,0,-0.0292,-190.5081,6.8213,0.4212,54.893654,9.790102,108.3,5.845,1.85,335.95,54.896290,9.790108,54.895069,9.793790
1386864981,0,0,515.9,0,19,8,0,0,0,-0.0292,-190.5081,6.8213,0.4212,54.893654,9.790102,108.3,5.845,1.85,335.95,54.896290,9.790108,54.895069,9.793790
1386864981,0,0,515.9,0,19,8,0,0,0,-0.0292,-190.5081,6.8213,0.4212,54.893654,9.790102,108.3,5.845,1.85,335.95,54.896290,9.790108,54.895069,9.793790
1386864982,0,0,515.9,0,19,8,0,0,0,-0.0292,-190.5081,6.8213,0.4212,54.893654,9.790102,108.3,5.845,1.85,335.95,54.896290,9.790108,54.895069,9.793790
1386864982,0,0,515.9,0,19,8,0,0,0,-0.0292,-190.5081,6.8213,0.4212,54.893654,9.790102,108.3,5.845,1.85,335.95,54.896290,9.790108,54.895069,9.793790
1386864982,0,0,515.9,0,19,8,0,0,0,-0.0292,-190.5081,6.8213,0.4212,54.893654,9.790102,108.3,5.845,1.85,335.95,54.896290,9.790108,54.895069,9.793790
1386864982,0,0,515.9,0,19,8,0,0,0,-0.0292,-190.5081,6.8213,0.4212,54.893654,9.790102,108.3,5.845,1.85,335.95,54.896290,9.790108,54.895069,9.793790
1386864983,0,0,515.9,0,19,8,0,0,0,-0.0292,-190.5081,6.8213,0.4212,54.893654,9.790102,108.3,5.845,1.85,335.95,54.896290,9.790108,54.895069,9.793790
1386864983,0,0,515.9,0,19,8,0,0,0,-0.0292,-190.5081,6.8213,0.4212,54.893654,9.790102,108.3,5.845,1.85,335.95,54.896290,9.790108,54.895069,9.793790
1386864983,0,0,515.9,0,19,8,0,0,0,-0.0292,-190.5081,6.8213,0.4212,54.893654,9.790102,108.3,5.845,1.85,335.95,54.896290,9.790108,54.895069,9.793790
1386864983,0,0,515.9,0,19,8,0,0,0,-0.0292,-190.5081,6.8213,0.4212,54.893654,9.790102,108.3,5.845,1.85,335.95,54.896290,9.790108,54.895069,9.793790
1386864984,0,0,515.9,0,19,8,0,0,0,-0.0292,-190.5081,6.8213,0.4212,54.893654,9.790102,108.3,5.845,1.85,335.95,54.896290,9.790108,54.895069,9.793790
1386864984,0,0,515.9,0,19,8,0,0,0,-0.0292,-190.5081,6.8213,0.4212,54.893654,9.790102,108.3,5.845,1.85,335.95,54.896290,9.790108,54.895069,9.793790
1386864984,0,0,515.9,0,19,8,0,0,0,-0.0292,-190.5081,6.8213,0.4212,54.893654,9.790102,108.3,5.845,1.85,335.95,54.896290,9.790108,54.895069,9.793790
1386864984,0,0,515.9,0,19,8,0,0,0,-0.0292,-190.5081,6.8213,0.4212,54.893654,9.790102,108.3,5.845,1.85,335.95,54.896290,9.790108,54.895069,9.793790
1386864985,0,0,515.9,0,19,8,0,0,0,-0.0292,-190.5081,6.8213,0.4212,54.893654,9.790102,108.3,5.845,1.85,335.95,54.896290,9.790108,54.895069,9.793790
1386864985,0,0,515.9,0,19,8,0,0,0,-0.0292,-190.5081,6.8213,0.4212,54.893654,9.790102,108.3,5.845,1.85,335.95,54.896290,9.790108,54.895069,9.793790
1386864985,0,0,515.9,0,19,8,0,0,0,-0.0292,-190.5081,6.8213,0.4212,54.893654,9.790102,108.3,5.845,1.85,335.95,54.896290,9.790108,54.895069,9.793790
1386864985,0,0,515.9,0,19,8,0,0,0,-0.0292,-190.5081,6.8213,0.4212,54.893654,9.790102,108.3,5.845,1.85,335.95,54.896290,9.790108,54.895069,9.793790
1386864986,0,0,515.9,0,19,8,0,0,0,-0.0292,-190.5081,6.8213,0.4212,54.893654,9.790102,108.3,5.845,1.85,335.95,54.896290,9.790108,54.895069,9.793790
1386864986,0,0,515.9,0,19,8,0,0,0,-0.0292,-190.5081,6.8213,0.4212,54.893654,9.790102,108.3,5.845,1.85,335.95,54.896290,9.790108,54.895069,9.793790
1386864986,0,0,515.9,0,19,8,0,0,0,-0.0292,-190.5081,6.8213,0.4212,54.893654,9.790102,108.3,5.845,1.85,335.95,54.896290,9.790108,54.895069,9.793790
1386864986,0,0,515.9,0,19,8,0,0,0,-0.0292,-190.5081,6.8213,0.4212,54.893654,9.790102,108.3,5.845,1.85,335.95,54.896290,9.790108,54.895069,9.793790
1386864987,0,0,515.9,0,19,8,0,0,0,-0.0292,-190.5081,6.8213,0.4212,54.893654,9.790102,108.3,5.845,1.85,335.95,54.896290,9.790108,54.895069,9.793790
1386864987,0,0,515.9,0,19,8,0,0,0,-0.0292,-190.5081,6.8213,0.4212,54.893654,9.790102,108.3,5.845,1.85,335.95,54.896290,9.790108,54.895069,9.793790
1386864987,0,0,515.9,0,19,8,0,0,0,-0.0292,-190.5081,6.8213,0.4212,54.893654,9.790102,108.3,5.845,1.85,335.95,54.896290,9.790108,54.895069,9.793790
1386864987,0,0,515.9,0,19,8,0,0,0,-0.0292,-190.5081,6.8213,0.4212,54.893654,9.790102,108.3,5.845,1.85,335.95,54.896290,9.790108,54.895069,9.793790
1386864988,0,0,515.9,0,19,8,0,0,0,-0.0292,-190.5081,6.8213,0.4212,54.893654,9.790102,108.3,5.845,1.85,335.95,54.896290,9.790108,54.895069,9.793790
1386864988,0,0,515.9,0,19,8,0,0,0,-0.0292,-190.5081,6.8213,0.4212,54.893654,9.790102,108.3,5.845,1.85,335.95,54.896290,9.790108,54.895069,9.793790
1386864988,0,0,515.9,0,19,8,0,0,0,-0.0292,-190.5081,6.8213,0.4212,54.893654,9.790102,108.3,5.845,1.85,335.95,54.896290,9.790108,54.895069,9.793790
1386864988,0,0,515.9,0,19,8,0,0,0,-0.0292,-190.5081,6.8213,0.4212,54.893654,9.790102,108.3,5.845,1.85,335.95,54.896290,9.790108,54.895069,9.793790
1386864989,0,0,515.9,0,19,8,0,0,0,-0.0292,-190.5081,6.8213,0.4212,54.893654,9.790102,108.3,5.845,1.85,335.95,54.896290,9.790108,54.895069,9.793790
1386864989,0,0,515.9,0,19,8,0,0,0,-0.0292,-190.5081,6.8213,0.4212,54.893654,9.790102,108.3,5.845,1.85,335.95,54.896290,9.790108,54.895069,9.793790
1386864989,0,0,515.9,0,19,8,0,0,0,-0.0292,-190.5081,6.8213,0.4212,54.893654,9.790102,108.3,5.845,1.85,335.95,54.896290,9.790108,54.895069,9.793790
1386864989,0,0,515.9,0,19,8,0,0,0,-0.0292,-190.5081,6.8213,0.4212,54.893654,9.790102,108.3,5.845,1.85,335.95,54.896290,9.790108,54.895069,9.793790
1386864990,0,0,515.9,0,19,8,0,0,0,-0.0292,-190.5081,6.8213,0.4212,54.893654,9.790102,108.3,5.845,1.85,335.95,54.896290,9.790108,54.895069,9.793790
1386864990,0,0,515.9,0,19,8,0,0,0,-0.0292,-190.5081,6.8213,0.4212,54.893654,9.790102,108.3,5.845,1.85,335.95,54.896290,9.790108,54.895069,9.793790
1386864990,0,0,515.9,0,19,8,0,0,0,-0.0292,-190.5081,6.8213,0.4212,54.893654,9.790102,108.3,5.845,1.85,335.95,54.896290,9.790108,54.895069,9.793790
1386864990,0,0,515.9,0,19,8,0,0,0,-0.0292,-190.5081,6.8213,0.4212,54.893654,9.790102,108.3,5.845,1.85,335.95,54.896290,9.790108,54.895069,9.793790
1386864991,0,0,515.9,0,19,8,0,0,0,-0.0292,-190.5081,6.8213,0.4212,54.893654,9.790102,108.3,5.845,1.85,335.95,54.896290,9.790108,54.895069,9.793790
1386864991,0,0,515.9,0,19,8,0,0,0,-0.0292,-190.5081,6.8213,0.4212,54.893654,9.790102,108.3,5.845,1.85,335.95,54.896290,9.790108,54.895069,9.793790
1386864991,0,0,515.9,0,19,8,0,0,0,-0.0292,-190.5081,6.8213,0.4212,54.893654,9.790102,108.3,5.845,1.85,335.95,54.896290,9.790108,54.895069,9.793790
1386864991,0,0,515.9,0,19,8,0,0,0,-0.0292,-190.5081,6.8213,0.4212,54.893654,9.790102,108.3,5.845,1.85,335.95,54.896290,9.790108,54.895069,9.793790
1386864992,0,0,515.9,0,19,8,0,0,0,-0.0292,-190.5081,6.8213,0.4212,54.893654,9.790102,108.3,5.845,1.85,335.95,54.896290,9.790108,54.895069,9.793790
1386864992,0,0,515.9,0,19,8,0,0,0,-0.0292,-190.5081,6.8213,0.4212,54.893654,9.790102,108.3,5.845,1.85,335.95,54.896290,9.790108,54.895069,9.793790
1386864992,0,0,515.9,0,19,8,0,0,0,-0.0292,-190.5081,6.8213,0.4212,54.893654,9.790102,108.3,5.845,1.85,335.95,54.896290,9.790108,54.895069,9.793790
1386864992,0,0,515.9,0,19,8,0,0,0,-0.0292,-190.5081,6.8213,0.4212,54.893654,9.790102,108.3,5.845,1.85,335.95,54.896290,9.790108,54.895069,9.793790
1386864993,0,0,515.9,0,19,8,0,0,0,-0.0292,-190.5081,6.8213,0.4212,54.893654,9.790102,108.3,5.845,1.85,335.95,54.896290,9.790108,54.895069,9.793790
1386864993,0,0,515.9,0,19,8,0,0,0,-0.0292,-190.5081,6.8213,0.4212,54.893654,9.790102,108.3,5.845,1.85,335.95,54.896290,9.790108,54.895069,9.793790
1386864993,0,0,515.9,0,19,8,0,0,0,-0.0292,-190.5081,6.8213,0.4212,54.893654,9.790102,108.3,5.845,1.85,335.95,54.896290,9.790108,54.895069,9.793790
1386864993,0,0,515.9,0,19,8,0,0,0,-0.0292,-190.5081,6.8213,0.4212,54.893654,9.790102,108.3,5.845,1.85,335.95,54.896290,9.790108,54.895069,9.793790
1386864994,0,0,515.9,0,19,8,0,0,0,-0.0292,-190.5081,6.8213,0.4212,54.893654,9.790102,108.3,5.845,1.85,335.95,54.896290,9.790108,54.895069,9.793790
1386864994,0,0,515.9,0,19,8,0,0,0,-0.0292,-190.5081,6.8213,0.4212,54.893654,9.790102,108.3,5.845,1.85,335.95,54.896290,9.790108,54.895069,9.793790
1386864994,0,0,515.9,0,19,8,0,0,0,-0.0292,-190.5081,6.8213,0.4212,54.893654,9.790102,108.3,5.845,1.85,335.95,54.896290,9.790108,54.895069,9.793790
1386864994,0,0,515.9,0,19,8,0,0,0,-0.0292,-190.5081,6.8213,0.4212,54.893654,9.790102,108.3,5.845,1.85,335.95,54.896290,9.790108,54.895069,9.793790
1386864995,0,0,515.9,0,19,8,0,0,0,-0.0292,-190.5081,6.8213,0.4212,54.893654,9.790102,108.3,5.845,1.85,335.95,54.896290,9.790108,54.895069,9.793790
1386864995,0,0,515.9,0,19,8,0,0,0,-0.0292,-190.5081,6.8213,0.4212,54.893654,9.790102,108.3,5.845,1.85,335.95,54.896290,9.790108,54.895069,9.793790
1386864995,0,0,515.9,0,19,8,0,0,0,-0.0292,-190.5081,6.8213,0.4212,54.893654,9.790102,108.3,5.845,1.85,335.95,54.896290,9.790108,54.895069,9.793790
1386864995,0,0,515.9,0,19,8,0,0,0,-0.0292,-190.5081,6.8213,0.4212,54.893654,9.790102,108.3,5.845,1.85,335.95,54.896290,9.790108,54.895069,9.793790
1386864996,0,0,515.9,0,19,8,0,0,0,-0.0292,-190.5081,6.8213,0.4212,54.893654,9.790102,108.3,5.845,1.85,335.95,54.896290,9.790108,54.895069,9.793790
1386864996,0,0,515.9,0,19,8,0,0,0,-0.0292,-190.5081,6.8213,0.4212,54.893654,9.790102,108.3,5.845,1.85,335.95,54.896290,9.790108,54.895069,9.793790
1386864996,0,0,515.9,0,19,8,0,0,0,-0.0292,-190.5081,6.8213,0.4212,54.893654,9.790102,108.3,5.845,1.85,335.95,54.896290,9.790108,54.895069,9.793790
1386864996,0,0,515.9,0,19,8,0,0,0,-0.0292,-190.5081,6.8213,0.4212,54.893654,9.790102,108.3,5.845,1.85,335.95,54.896290,9.790108,54.895069,9.793790
1386864997,0,0,515.9,0,19,8,0,0,0,-0.0292,-190.5081,6.8213,0.4212,54.893654,9.790102,108.3,5.845,1.85,335.95,54.896290,9.790108,54.895069,9.793790
1386864997,0,0,515.9,0,19,8,0,0,0,-0.0292,-190.5081,6.8213,0.4212,54.893654,9.790102,108.3,5.845,1.85,335.95,54.896290,9.790108,54.895069,9.793790
1386864997,0,0,515.9,0,19,8,0,0,0,-0.0292,-190.5081,6.8213,0.4212,54.893654,9.790102,108.3,5.845,1.85,335.95,54.896290,9.790108,54.895069,9.793790
1386864997,0,0,515.9,0,19,8,0,0,0,-0.0292,-190.5081,6.8213,0.4212,54.893654,9.790102,108.3,5.845,1.85,335.95,54.896290,9.790108,54.895069,9.793790
1386864998,0,0,515.9,0,19,8,0,0,0,-0.0292,-190.5081,6.8213,0.4212,54.893654,9.790102,108.3,5.845,1.85,335.95,54.896290,9.790108,54.895069,9.793790
1386864998,0,0,515.9,0,19,8,0,0,0,-0.0292,-190.5081,6.8213,0.4212,54.893654,9.790102,108.3,5.845,1.85,335.95,54.896290,9.790108,54.895069,9.793790
1386864998,0,0,515.9,0,19,8,0,0,0,-0.0292,-190.5081,6.8213,0.4212,54.893654,9.790102,108.3,5.845,1.85,335.95,54.896290,9.790108,54.895069,9.793790
1386864998,0,0,515.9,0,19,8,0,0,0,-0.0292,-190.5081,6.8213,0.4212,54.893654,9.790102,108.3,5.845,1.85,335.95,54.896290,9.790108,54.895069,9.793790
1386864999,0,0,515.9,0,19,8,0,0,0,-0.0292,-190.5081,6.8213,0.4212,54.893654,9.790102,108.3,5.845,1.85,335.95,54.896290,9.790108,54.895069,9.793790
1386864999,0,0,515.9,0,19,8,0,0,0,-0.0292,-190.5081,6.8213,0.4212,54.893654,9.790102,108.3,5.845,1.85,335.95,54.896290,9.790108,54.895069,9.793790
1386864999,0,0,515.9,0,19,8,0,0,0,-0.0292,-190.5081,6.8213,0.4212,54.893654,9.790102,108.3,5.845,1.85,335.95,54.896290,9.790108,54.895069,9.793790
1386864999,0,0,515.9,0,19,8,0,0,0,-0.0292,-190.5081,6.8213,0.4212,54.893654,9.790102,108.3,5.845,1.85,335.95,54.896290,9.790108,54.895069,9.793790
1386865000,0,0,515.9,0,19,8,0,0,0,-0.0292,-190.5081,6.8213,0.4212,54.893654,9.790102,108.3,5.845,1.85,335.95,54.896290,9.790108,54.895069,9.793790
1386865000,0,0,515.9,0,19,8,0,0,0,-0.0292,-190.5081,6.8213,0.4212,54.893654,9.790102,108.3,5.845,1.85,335.95,54.896290,9.790108,54.895069,9.793790
1386865000,0,0,515.9,0,19,8,0,0,0,-0.0292,-190.5081,6.8213,0.4212,54.893654,9.790102,108.3,5.845,1.85,335.95,54.896290,9.790108,54.895069,9.793790
1386865000,0,0,515.9,0,19,8,0,0,0,-0.0292,-190.5081,6.8213,0.4212,54.893654,9.790102,108.3,5.845,1.85,335.95,54.896290,9.790108,54.895069,9.793790
1386865001,0,0,515.9,0,19,8,0,0,0,-0.0292,-190.5081,6.8213,0.4212,54.893654,9.790102,108.3,5.845,1.85,335.95,54.896290,9.790108,54.895069,9.793790
1386865001,0,0,515.9,0,19,8,0,0,0,-0.0292,-190.5081,6.8213,0.4212,54.893654,9.790102,108.3,5.845,1.85,335.95,54.896290,9.790108,54.895069,9.793790
1386865001,0,0,515.9,0,19,8,0,0,0,-0.0292,-190.5081,6.8213,0.4212,54.893654,9.790102,108.3,5.845,1.85,335.95,54.896290,9.790108,54.895069,9.793790
1386865001,0,0,515.9,0,19,8,0,0,0,-0.0292,-190.5081,6.8213,0.4212,54.893654,9.790102,108.3,5.845,1.85,335.95,54.896290,9.790108,54.895069,9.793790
1386865002,0,0,515.9,0,19,8,0,0,0,-0.0292,-190.5081,6.8213,0.4212,54.893654,9.790102,108.3,5.845,1.85,335.95,54.896290,9.790108,54.895069,9.793790
1386865002,0,0,515.9,0,19,8,0,0,0,-0.0292,-190.5081,6.8213,0.4212,54.893654,9.790102,108.3,5.845,1.85,335.95,54.896290,9.790108,54.895069,9.793790
1386865002,0,0,515.9,0,19,8,0,0,0,-0.0292,-190.5081,6.8213,0.4212,54.893654,9.790102,108.3,5.845,1.85,335.95,54.896290,9.790108,54.895069,9.793790
