MCU_timestamp,Navigation_System,Manual_Control,Guidance_Heading,Manual_Ctrl_Rudder,Rudder_Desired_Angle,Rudder_Feedback,Manual_Ctrl_Sail,Sail_Desired_Pos,Sail_Feedback,Rate,Heading,Pitch,Roll,Latitude,Longitude,COG,SOG,Wind_Speed,Wind_Angle,Point_Start_Lat,Point_Start_Lon,Point_End_Lat,Point_End_Lon
1386958697,1,0,150.0,0,10,4,0,713,650,-0.0292,5196.9600,6.8213,0.4212,54.892345,9.803017,108.3,5.845,1.85,0.00,54.892361,9.803005,0.000000,0.000000
1386958698,1,0,150.0,0,7,8,0,713,700,-0.0292,5195.0933,6.8213,0.4212,54.892326,9.803030,108.3,5.845,1.85,0.00,54.892361,9.803005,0.000000,0.000000
1386958698,1,0,150.0,0,5,4,0,713,750,-0.0292,5193.7598,6.8213,0.4212,54.892311,9.803044,108.3,5.845,1.85,0.00,54.892361,9.803005,0.000000,0.000000
1386958698,1,0,150.0,0,4,8,0,713,700,-0.0292,5192.6929,6.8213,0.4212,54.892296,9.803059,108.3,5.845,1.85,0.00,54.892361,9.803005,0.000000,0.000000
1386958698,1,0,150.0,0,3,4,0,0,650,-0.0292,5191.8931,6.8213,0.4212,54.892281,9.803073,108.3,5.845,1.85,0.00,54.892361,9.803005,0.000000,0.000000
1386958699,1,0,150.0,0,2,0,0,0,600,-0.0292,5191.3599,6.8213,0.4212,54.892265,9.803088,108.3,5.845,1.85,0.00,54.892361,9.803005,0.000000,0.000000
1386958699,1,0,150.0,0,1,4,0,0,550,-0.0292,5191.0933,6.8213,0.4212,54.892246,9.803103,108.3,5.845,1.85,0.00,54.892361,9.803005,0.000000,0.000000
1386958699,1,0,150.0,0,1,0,0,0,500,-0.0292,5190.8267,6.8213,0.4212,54.892231,9.803119,108.3,5.845,1.85,0.00,54.892361,9.803005,0.000000,0.000000
1386958699,1,0,150.0,0,1,4,0,0,450,-0.0292,5190.5601,6.8213,0.4212,54.892216,9.803134,108.3,5.845,1.85,0.00,54.892361,9.803005,0.000000,0.000000
1386958700,1,0,150.0,0,1,0,0,0,400,-0.0292,5190.2935,6.8213,0.4212,54.892200,9.803149,108.3,5.845,1.85,0.00,54.892361,9.803005,0.000000,0.000000
1386958700,1,0,150.0,0,0,4,0,0,350,-0.0292,5190.2935,6.8213,0.4212,54.892185,9.803164,108.3,5.845,1.85,0.00,54.892361,9.803005,0.000000,0.000000
1386958700,1,0,150.0,0,0,0,0,0,300,-0.0292,5190.2935,6.8213,0.4212,54.892170,9.803180,108.3,5.845,1.85,0.00,54.892361,9.803005,0.000000,0.000000
1386958700,1,0,150.0,0,0,4,0,0,250,-0.0292,5190.2935,6.8213,0.4212,54.892151,9.803195,108.3,5.845,1.85,0.00,54.892361,9.803005,0.000000,0.000000
1386958701,1,0,150.0,0,0,0,0,0,200,-0.0292,5190.2935,6.8213,0.4212,54.892136,9.803210,108.3,5.845,1.85,0.00,54.892361,9.803005,0.000000,0.000000
1386958701,1,0,150.0,0,0,4,0,0,150,-0.0292,5190.2935,6.8213,0.4212,54.892120,9.803226,108.3,5.845,1.85,0.00,54.892361,9.803005,0.000000,0.000000
1386958701,1,0,150.0,0,0,0,0,0,100,-0.0292,5190.2935,6.8213,0.4212,54.892101,9.803242,108.3,5.845,1.85,0.00,54.892361,9.803005,0.000000,0.000000
1386958701,1,0,150.0,0,0,4,0,0,50,-0.0292,5190.2935,6.8213,0.4212,54.892086,9.803257,108.3,5.845,1.85,0.00,54.892361,9.803005,0.000000,0.000000
1386958702,1,0,150.0,0,0,0,0,0,0,-0.0292,5190.2935,6.8213,0.4212,54.892071,9.803273,108.3,5.845,1.85,0.00,54.892361,9.803005,0.000000,0.000000
1386958702,1,0,150.0,0,0,4,0,0,0,-0.0292,5190.2935,6.8213,0.4212,54.892052,9.803288,108.3,5.845,1.85,0.00,54.892361,9.803005,0.000000,0.000000
1386958702,1,0,210.0,0,-35,0,0,0,0,-0.0292,5199.6270,6.8213,0.4212,54.892033,9.803300,108.3,5.845,1.85,0.00,54.892361,9.803005,0.000000,0.000000
1386958702,1,0,210.0,0,-35,-4,0,0,0,-0.0292,5208.9604,6.8213,0.4212,54.892014,9.803307,108.3,5.845,1.85,0.00,54.892361,9.803005,0.000000,0.000000
1386958703,1,0,210.0,0,-35,-8,0,0,0,-0.0292,5218.2939,6.8213,0.4212,54.891998,9.803307,108.3,5.845,1.85,0.00,54.892361,9.803005,0.000000,0.000000
1386958703,1,0,210.0,0,-32,-12,0,0,0,-0.0292,5226.8271,6.8213,0.4212,54.891979,9.803303,108.3,5.845,1.85,0.00,54.892361,9.803005,0.000000,0.000000
1386958703,1,0,210.0,0,-23,-16,0,0,0,-0.0292,5232.9604,6.8213,0.4212,54.891960,9.803296,108.3,5.845,1.85,0.00,54.892361,9.803005,0.000000,0.000000
1386958703,1,0,210.0,0,-17,-20,0,0,0,-0.0292,5237.4937,6.8213,0.4212,54.891945,9.803287,108.3,5.845,1.85,0.00,54.892361,9.803005,0.000000,0.000000
1386958704,1,0,210.0,0,-13,-16,0,0,0,-0.0292,5240.9604,6.8213,0.4212,54.891930,9.803275,108.3,5.845,1.85,0.00,54.892361,9.803005,0.000000,0.000000
1386958704,1,0,210.0,0,-9,-12,0,0,0,-0.0292,5243.3604,6.8213,0.4212,54.891911,9.803263,108.3,5.845,1.85,0.00,54.892361,9.803005,0.000000,0.000000
1386958704,1,0,210.0,0,-7,-8,0,0,0,-0.0292,5245.2271,6.8213,0.4212,54.891895,9.803249,108.3,5.845,1.85,0.00,54.892361,9.803005,0.000000,0.000000
1386958704,1,0,210.0,0,-5,-4,0,0,0,-0.0292,5246.5605,6.8213,0.4212,54.891880,9.803236,108.3,5.845,1.85,0.00,54.892361,9.803005,0.000000,0.000000
1386958705,1,0,210.0,0,-3,0,0,713,50,-0.0292,5247.3604,6.8213,0.4212,54.891865,9.803222,108.3,5.845,1.85,0.00,54.892361,9.803005,0.000000,0.000000
1386958705,1,0,210.0,0,-3,-4,0,713,100,-0.0292,5248.1602,6.8213,0.4212,54.891850,9.803206,108.3,5.845,1.85,0.00,54.892361,9.803005,0.000000,0.000000
1386958705,1,0,210.0,0,-2,0,0,713,150,-0.0292,5248.6934,6.8213,0.4212,54.891830,9.803191,108.3,5.845,1.85,0.00,54.892361,9.803005,0.000000,0.000000
1386958705,1,0,210.0,0,-1,-4,0,713,200,-0.0292,5248.9600,6.8213,0.4212,54.891815,9.803176,108.3,5.845,1.85,0.00,54.892361,9.803005,0.000000,0.000000
1386958706,1,0,210.0,0,-1,0,0,713,250,-0.0292,5249.2266,6.8213,0.4212,54.891800,9.803162,108.3,5.845,1.85,0.00,54.892361,9.803005,0.000000,0.000000
1386958706,1,0,210.0,0,-1,-4,0,713,300,-0.0292,5249.4932,6.8213,0.4212,54.891781,9.803146,108.3,5.845,1.85,0.00,54.892361,9.803005,0.000000,0.000000
1386958706,1,0,210.0,0,-1,0,0,713,350,-0.0292,5249.7598,6.8213,0.4212,54.891766,9.803131,108.3,5.845,1.85,0.00,54.892361,9.803005,0.000000,0.000000
1386958706,1,0,210.0,0,0,4,0,713,400,-0.0292,5249.7598,6.8213,0.4212,54.891750,9.803116,108.3,5.845,1.85,0.00,54.892361,9.803005,0.000000,0.000000
1386958707,1,0,210.0,0,0,0,0,713,450,-0.0292,5249.7598,6.8213,0.4212,54.891731,9.803101,108.3,5.845,1.85,0.00,54.892361,9.803005,0.000000,0.000000
1386958707,1,0,210.0,0,0,4,0,713,500,-0.0292,5249.7598,6.8213,0.4212,54.891716,9.803084,108.3,5.845,1.85,0.00,54.892361,9.803005,0.000000,0.000000
1386958707,1,0,210.0,0,0,0,0,713,550,-0.0292,5249.7598,6.8213,0.4212,54.891701,9.803069,108.3,5.845,1.85,0.00,54.892361,9.803005,0.000000,0.000000
1386958707,1,0,210.0,0,0,4,0,713,600,-0.0292,5249.7598,6.8213,0.4212,54.891682,9.803054,108.3,5.845,1.85,0.00,54.892361,9.803005,0.000000,0.000000
1386958708,1,0,210.0,0,0,0,0,713,650,-0.0292,5249.7598,6.8213,0.4212,54.891666,9.803038,108.3,5.845,1.85,0.00,54.892361,9.803005,0.000000,0.000000
1386958708,1,0,210.0,0,0,4,0,713,700,-0.0292,5249.7598,6.8213,0.4212,54.891651,9.803022,108.3,5.845,1.85,0.00,54.892361,9.803005,0.000000,0.000000
1386958708,1,0,210.0,0,0,0,0,713,750,-0.0292,5249.7598,6.8213,0.4212,54.891632,9.803007,108.3,5.845,1.85,0.00,54.892361,9.803005,0.000000,0.000000
1386958708,1,0,210.0,0,0,4,0,713,700,-0.0292,5249.7598,6.8213,0.4212,54.891617,9.802991,108.3,5.845,1.85,0.00,54.892361,9.803005,0.000000,0.000000
1386958709,1,0,210.0,0,0,0,0,713,750,-0.0292,5249.7598,6.8213,0.4212,54.891602,9.802976,108.3,5.845,1.85,0.00,54.892361,9.803005,0.000000,0.000000
1386958709,1,0,210.0,0,0,4,0,713,700,-0.0292,5249.7598,6.8213,0.4212,54.891582,9.802960,108.3,5.845,1.85,0.00,54.892361,9.803005,0.000000,0.000000
1386958709,1,0,210.0,0,0,0,0,713,750,-0.0292,5249.7598,6.8213,0.4212,54.891567,9.802945,108.3,5.845,1.85,0.00,54.892361,9.803005,0.000000,0.000000
1386958709,1,0,210.0,0,0,4,0,713,700,-0.0292,5249.7598,6.8213,0.4212,54.891552,9.802930,108.3,5.845,1.85,0.00,54.892361,9.803005,0.000000,0.000000
1386958710,1,0,210.0,0,0,0,0,713,750,-0.0292,5249.7598,6.8213,0.4212,54.891533,9.802914,108.3,5.845,1.85,0.00,54.892361,9.803005,0.000000,0.000000
1386958710,1,0,210.0,0,0,4,0,713,700,-0.0292,5249.7598,6.8213,0.4212,54.891518,9.802898,108.3,5.845,1.85,0.00,54.892361,9.803005,0.000000,0.000000
1386958710,1,0,210.0,0,0,0,0,713,750,-0.0292,5249.7598,6.8213,0.4212,54.891502,9.802883,108.3,5.845,1.85,0.00,54.892361,9.803005,0.000000,0.000000
1386958710,1,0,210.0,0,0,4,0,713,700,-0.0292,5249.7598,6.8213,0.4212,54.891487,9.802867,108.3,5.845,1.85,0.00,54.892361,9.803005,0.000000,0.000000
1386958711,1,0,210.0,0,0,0,0,713,750,-0.0292,5249.7598,6.8213,0.4212,54.891472,9.802852,108.3,5.845,1.85,0.00,54.892361,9.803005,0.000000,0.000000
1386958711,1,0,210.0,0,0,4,0,713,700,-0.0292,5249.7598,6.8213,0.4212,54.891457,9.802836,108.3,5.845,1.85,0.00,54.892361,9.803005,0.000000,0.000000
1386958711,1,0,210.0,0,0,0,0,713,750,-0.0292,5249.7598,6.8213,0.4212,54.891438,9.802820,108.3,5.845,1.85,0.00,54.892361,9.803005,0.000000,0.000000
1386958711,1,0,210.0,0,0,4,0,713,700,-0.0292,5249.7598,6.8213,0.4212,54.891422,9.802805,108.3,5.845,1.85,0.00,54.892361,9.803005,0.000000,0.000000
1386958712,1,0,210.0,0,0,0,0,713,750,-0.0292,5249.7598,6.8213,0.4212,54.891407,9.802790,108.3,5.845,1.85,0.00,54.892361,9.803005,0.000000,0.000000
1386958712,1,0,210.0,0,0,4,0,713,700,-0.0292,5249.7598,6.8213,0.4212,54.891388,9.802774,108.3,5.845,1.85,0.00,54.892361,9.803005,0.000000,0.000000
1386958712,1,0,210.0,0,0,0,0,713,750,-0.0292,5249.7598,6.8213,0.4212,54.891373,9.802759,108.3,5.845,1.85,0.00,54.892361,9.803005,0.000000,0.000000
1386958712,1,0,210.0,0,0,4,0,713,700,-0.0292,5249.7598,6.8213,0.4212,54.891357,9.802744,108.3,5.845,1.85,0.00,54.892361,9.803005,0.000000,0.000000
1386958713,1,0,210.0,0,0,0,0,713,750,-0.0292,5249.7598,6.8213,0.4212,54.891338,9.802729,108.3,5.845,1.85,0.00,54.892361,9.803005,0.000000,0.000000
1386958713,1,0,210.0,0,0,4,0,713,700,-0.0292,5249.7598,6.8213,0.4212,54.891323,9.802713,108.3,5.845,1.85,0.00,54.892361,9.803005,0.000000,0.000000
