MCU_timestamp,Navigation_System,Manual_Control,Guidance_Heading,Manual_Ctrl_Rudder,Rudder_Desired_Angle,Rudder_Feedback,Manual_Ctrl_Sail,Sail_Desired_Pos,Sail_Feedback,Rate,Heading,Pitch,Roll,Latitude,Longitude,COG,SOG,Wind_Speed,Wind_Angle,Point_Start_Lat,Point_Start_Lon,Point_End_Lat,Point_End_Lon
1390201626,0,0,0.0,0,0,4,0,0,0,-0.0292,1355.2927,6.8213,0.4212,54.888084,9.808138,108.3,5.845,1.85,330.00,0.000000,0.000000,0.000000,0.000000
1390201626,0,0,0.0,0,0,4,0,0,0,-0.0292,1355.2927,6.8213,0.4212,54.888084,9.808138,108.3,5.845,1.85,330.00,0.000000,0.000000,0.000000,0.000000
1390201627,0,0,0.0,0,0,4,0,0,0,-0.0292,1355.2927,6.8213,0.4212,54.888084,9.808138,108.3,5.845,1.85,330.00,0.000000,0.000000,0.000000,0.000000
1390201627,0,0,0.0,0,0,4,0,0,0,-0.0292,1355.2927,6.8213,0.4212,54.888084,9.808138,108.3,5.845,1.85,330.00,0.000000,0.000000,0.000000,0.000000
1390201627,0,0,0.0,0,0,4,0,0,0,-0.0292,1355.2927,6.8213,0.4212,54.888084,9.808138,108.3,5.845,1.85,330.00,0.000000,0.000000,0.000000,0.000000
1390201627,0,0,0.0,0,0,4,0,0,0,-0.0292,1355.2927,6.8213,0.4212,54.888084,9.808138,108.3,5.845,1.85,330.00,0.000000,0.000000,0.000000,0.000000
1390201628,0,0,0.0,0,0,4,0,0,0,-0.0292,1355.2927,6.8213,0.4212,54.888084,9.808138,108.3,5.845,1.85,330.00,0.000000,0.000000,0.000000,0.000000
1390201628,0,0,0.0,0,0,4,0,0,0,-0.0292,1355.2927,6.8213,0.4212,54.888084,9.808138,108.3,5.845,1.85,330.00,0.000000,0.000000,0.000000,0.000000
1390201628,0,0,0.0,0,0,4,0,0,0,-0.0292,1355.2927,6.8213,0.4212,54.891819,9.788636,108.3,5.845,1.85,330.00,0.000000,0.000000,0.000000,0.000000
1390201628,0,0,0.0,0,0,4,0,0,0,-0.0292,1355.2927,6.8213,0.4212,54.891819,9.788636,108.3,5.845,1.85,330.00,0.000000,0.000000,0.000000,0.000000
1390201629,0,0,0.0,0,0,4,0,0,0,-0.0292,1355.2927,6.8213,0.4212,54.891819,9.788636,108.3,5.845,1.85,330.00,0.000000,0.000000,0.000000,0.000000
1390201629,0,0,0.0,0,0,4,0,0,0,-0.0292,1355.2927,6.8213,0.4212,54.891819,9.788636,108.3,5.845,1.85,330.00,0.000000,0.000000,0.000000,0.000000
1390201629,0,0,0.0,0,0,4,0,0,0,-0.0292,1355.2927,6.8213,0.4212,54.891819,9.788636,108.3,5.845,1.85,330.00,0.000000,0.000000,0.000000,0.000000
1390201629,0,0,0.0,0,0,4,0,0,0,-0.0292,1355.2927,6.8213,0.4212,54.891819,9.788636,108.3,5.845,1.85,330.00,0.000000,0.000000,0.000000,0.000000
1390201630,0,0,0.0,0,0,4,0,0,0,-0.0292,1355.2927,6.8213,0.4212,54.891819,9.788636,108.3,5.845,1.85,330.00,0.000000,0.000000,0.000000,0.000000
1390201630,0,0,0.0,0,0,4,0,0,0,-0.0292,1355.2927,6.8213,0.4212,54.891819,9.788636,108.3,5.845,1.85,330.00,0.000000,0.000000,0.000000,0.000000
1390201630,0,0,0.0,0,0,4,0,0,0,-0.0292,1355.2927,6.8213,0.4212,54.891819,9.788636,108.3,5.845,1.85,330.00,0.000000,0.000000,0.000000,0.000000
1390201630,0,0,0.0,0,0,4,0,0,0,-0.0292,1355.2927,6.8213,0.4212,54.891819,9.788636,108.3,5.845,1.85,330.00,0.000000,0.000000,0.000000,0.000000
1390201631,0,0,0.0,0,0,4,0,0,0,-0.0292,1355.2927,6.8213,0.4212,54.891819,9.788636,108.3,5.845,1.85,330.00,0.000000,0.000000,0.000000,0.000000
1390201631,0,0,0.0,0,0,4,0,0,0,-0.0292,1355.2927,6.8213,0.4212,54.895203,9.790868,108.3,5.845,1.85,330.00,0.000000,0.000000,0.000000,0.000000
1390201631,0,0,0.0,0,0,4,0,0,0,-0.0292,1355.2927,6.8213,0.4212,54.895203,9.790868,108.3,5.845,1.85,330.00,0.000000,0.000000,0.000000,0.000000
1390201631,0,0,0.0,0,0,4,0,0,0,-0.0292,1355.2927,6.8213,0.4212,54.895203,9.790868,108.3,5.845,1.85,330.00,0.000000,0.000000,0.000000,0.000000
1390201632,0,0,0.0,0,0,4,0,0,0,-0.0292,1355.2927,6.8213,0.4212,54.895203,9.790868,108.3,5.845,1.85,330.00,0.000000,0.000000,0.000000,0.000000
1390201632,0,0,0.0,0,0,4,0,0,0,-0.0292,1355.2927,6.8213,0.4212,54.895203,9.790868,108.3,5.845,1.85,330.00,0.000000,0.000000,0.000000,0.000000
1390201632,0,0,0.0,0,0,4,0,0,0,-0.0292,1355.2927,6.8213,0.4212,54.895203,9.790868,108.3,5.845,1.85,330.00,0.000000,0.000000,0.000000,0.000000
1390201632,0,0,0.0,0,0,4,0,0,0,-0.0292,1355.2927,6.8213,0.4212,54.895203,9.790868,108.3,5.845,1.85,330.00,0.000000,0.000000,0.000000,0.000000
1390201633,0,0,0.0,0,0,4,0,0,0,-0.0292,1355.2927,6.8213,0.4212,54.895203,9.790868,108.3,5.845,1.85,330.00,0.000000,0.000000,0.000000,0.000000
1390201633,0,0,0.0,0,0,4,0,0,0,-0.0292,1355.2927,6.8213,0.4212,54.895203,9.790868,108.3,5.845,1.85,330.00,0.000000,0.000000,0.000000,0.000000
1390201633,0,0,0.0,0,0,4,0,0,0,-0.0292,1355.2927,6.8213,0.4212,54.895203,9.790868,108.3,5.845,1.85,330.00,0.000000,0.000000,0.000000,0.000000
1390201633,0,0,0.0,0,0,4,0,0,0,-0.0292,1355.2927,6.8213,0.4212,54.895203,9.790868,108.3,5.845,1.85,330.00,0.000000,0.000000,0.000000,0.000000
1390201634,0,0,0.0,0,0,4,0,0,0,-0.0292,1355.2927,6.8213,0.4212,54.895203,9.790868,108.3,5.845,1.85,330.00,0.000000,0.000000,0.000000,0.000000
1390201634,0,0,0.0,0,0,4,0,0,0,-0.0292,1355.2927,6.8213,0.4212,54.895203,9.790868,108.3,5.845,1.85,330.00,0.000000,0.000000,0.000000,0.000000
1390201634,0,0,0.0,0,0,4,0,0,0,-0.0292,1355.2927,6.8213,0.4212,54.895203,9.790868,108.3,5.845,1.85,330.00,0.000000,0.000000,0.000000,0.000000
1390201634,0,0,0.0,0,0,4,0,0,0,-0.0292,1355.2927,6.8213,0.4212,54.895203,9.790868,108.3,5.845,1.85,330.00,0.000000,0.000000,0.000000,0.000000
1390201635,0,0,0.0,0,0,4,0,0,0,-0.0292,1355.2927,6.8213,0.4212,54.895203,9.790868,108.3,5.845,1.85,330.00,0.000000,0.000000,0.000000,0.000000
1390201635,0,0,0.0,0,0,4,0,0,0,-0.0292,1355.2927,6.8213,0.4212,54.895203,9.790868,108.3,5.845,1.85,330.00,0.000000,0.000000,0.000000,0.000000
1390201635,0,0,0.0,0,0,4,0,0,0,-0.0292,1355.2927,6.8213,0.4212,54.895203,9.790868,108.3,5.845,1.85,330.00,0.000000,0.000000,0.000000,0.000000
1390201635,0,0,0.0,0,0,4,0,0,0,-0.0292,1355.2927,6.8213,0.4212,54.895203,9.790868,108.3,5.845,1.85,330.00,0.000000,0.000000,0.000000,0.000000
1390201636,0,0,0.0,0,0,4,0,0,0,-0.0292,1355.2927,6.8213,0.4212,54.895203,9.790868,108.3,5.845,1.85,330.00,0.000000,0.000000,0.000000,0.000000
1390201636,0,0,0.0,0,0,4,0,0,0,-0.0292,1355.2927,6.8213,0.4212,54.895203,9.790868,108.3,5.845,1.85,330.00,0.000000,0.000000,0.000000,0.000000
1390201636,0,0,0.0,0,0,4,0,0,0,-0.0292,1355.2927,6.8213,0.4212,54.895203,9.790868,108.3,5.845,1.85,330.00,0.000000,0.000000,0.000000,0.000000
1390201636,0,0,0.0,0,0,4,0,0,0,-0.0292,1355.2927,6.8213,0.4212,54.895203,9.790868,108.3,5.845,1.85,330.00,0.000000,0.000000,0.000000,0.000000
1390201637,0,0,0.0,0,0,4,0,0,0,-0.0292,1355.2927,6.8213,0.4212,54.895203,9.790868,108.3,5.845,1.85,330.00,0.000000,0.000000,0.000000,0.000000
1390201637,0,0,0.0,0,0,4,0,0,0,-0.0292,1355.2927,6.8213,0.4212,54.895203,9.790868,108.3,5.845,1.85,330.00,0.000000,0.000000,0.000000,0.000000
1390201637,0,0,0.0,0,0,4,0,0,0,-0.0292,1355.2927,6.8213,0.4212,54.895203,9.790868,108.3,5.845,1.85,330.00,0.000000,0.000000,0.000000,0.000000
1390201637,0,0,0.0,0,0,4,0,0,0,-0.0292,1355.2927,6.8213,0.4212,54.895203,9.790868,108.3,5.845,1.85,330.00,0.000000,0.000000,0.000000,0.000000
1390201638,0,0,0.0,0,0,4,0,0,0,-0.0292,1355.2927,6.8213,0.4212,54.895203,9.790868,108.3,5.845,1.85,330.00,0.000000,0.000000,0.000000,0.000000
1390201638,0,0,0.0,0,0,4,0,0,0,-0.0292,1355.2927,6.8213,0.4212,54.895203,9.790868,108.3,5.845,1.85,330.00,0.000000,0.000000,0.000000,0.000000
1390201638,0,0,0.0,0,0,4,0,0,0,-0.0292,1355.2927,6.8213,0.4212,54.895203,9.790868,108.3,5.845,1.85,330.00,0.000000,0.000000,0.000000,0.000000
1390201638,0,0,0.0,0,0,4,0,0,0,-0.0292,1355.2927,6.8213,0.4212,54.895203,9.790868,108.3,5.845,1.85,330.00,0.000000,0.000000,0.000000,0.000000
1390201639,0,0,0.0,0,0,4,0,0,0,-0.0292,1355.2927,6.8213,0.4212,54.895203,9.790868,108.3,5.845,1.85,330.00,0.000000,0.000000,0.000000,0.000000
1390201639,0,0,0.0,0,0,4,0,0,0,-0.0292,1355.2927,6.8213,0.4212,54.895203,9.790868,108.3,5.845,1.85,330.00,0.000000,0.000000,0.000000,0.000000
1390201639,0,0,0.0,0,0,4,0,0,0,-0.0292,1355.2927,6.8213,0.4212,54.895203,9.790868,108.3,5.845,1.85,330.00,0.000000,0.000000,0.000000,0.000000
1390201639,0,0,0.0,0,0,4,0,0,0,-0.0292,1355.2927,6.8213,0.4212,54.895203,9.790868,108.3,5.845,1.85,330.00,0.000000,0.000000,0.000000,0.000000
1390201640,0,0,0.0,0,0,4,0,0,0,-0.0292,1355.2927,6.8213,0.4212,54.895203,9.790868,108.3,5.845,1.85,330.00,0.000000,0.000000,0.000000,0.000000
1390201640,0,0,0.0,0,0,4,0,0,0,-0.0292,1355.2927,6.8213,0.4212,54.895203,9.790868,108.3,5.845,1.85,330.00,0.000000,0.000000,0.000000,0.000000
1390201640,0,0,0.0,0,0,4,0,0,0,-0.0292,1355.2927,6.8213,0.4212,54.895203,9.790868,108.3,5.845,1.85,330.00,0.000000,0.000000,0.000000,0.000000
1390201640,0,0,0.0,0,0,4,0,0,0,-0.0292,1355.2927,6.8213,0.4212,54.895203,9.790868,108.3,5.845,1.85,330.00,0.000000,0.000000,0.000000,0.000000
1390201641,0,0,0.0,0,0,4,0,0,0,-0.0292,1355.2927,6.8213,0.4212,54.895203,9.790868,108.3,5.845,1.85,330.00,0.000000,0.000000,0.000000,0.000000
1390201641,0,0,0.0,0,0,4,0,0,0,-0.0292,1355.2927,6.8213,0.4212,54.895203,9.790868,108.3,5.845,1.85,330.00,0.000000,0.000000,0.000000,0.000000
1390201641,0,0,0.0,0,0,4,0,0,0,-0.0292,1355.2927,6.8213,0.4212,54.895203,9.790868,108.3,5.845,1.85,330.00,0.000000,0.000000,0.000000,0.000000
1390201641,0,0,0.0,0,0,4,0,0,0,-0.0292,1355.2927,6.8213,0.4212,54.895203,9.790868,108.3,5.845,1.85,330.00,0.000000,0.000000,0.000000,0.000000
1390201642,0,0,0.0,0,0,4,0,0,0,-0.0292,1355.2927,6.8213,0.4212,54.895203,9.790868,108.3,5.845,1.85,330.00,0.000000,0.000000,0.000000,0.000000
1390201642,0,0,0.0,0,0,4,0,0,0,-0.0292,1355.2927,6.8213,0.4212,54.895203,9.790868,108.3,5.845,1.85,330.00,0.000000,0.000000,0.000000,0.000000
1390201642,0,0,0.0,0,0,4,0,0,0,-0.0292,1355.2927,6.8213,0.4212,54.895203,9.790868,108.3,5.845,1.85,330.00,0.000000,0.000000,0.000000,0.000000
1390201642,0,0,0.0,0,0,4,0,0,0,-0.0292,1355.2927,6.8213,0.4212,54.895203,9.790868,108.3,5.845,1.85,330.00,0.000000,0.000000,0.000000,0.000000
1390201643,0,0,0.0,0,0,4,0,0,0,-0.0292,1355.2927,6.8213,0.4212,54.895203,9.790868,108.3,5.845,1.85,330.00,0.000000,0.000000,0.000000,0.000000
1390201643,0,0,0.0,0,0,4,0,0,0,-0.0292,1355.2927,6.8213,0.4212,54.895203,9.790868,108.3,5.845,1.85,330.00,0.000000,0.000000,0.000000,0.000000
1390201643,0,0,0.0,0,0,4,0,0,0,-0.0292,1355.2927,6.8213,0.4212,54.895203,9.790868,108.3,5.845,1.85,330.00,0.000000,0.000000,0.000000,0.000000
1390201643,0,0,0.0,0,0,4,0,0,0,-0.0292,1355.2927,6.8213,0.4212,54.895203,9.790868,108.3,5.845,1.85,330.00,0.000000,0.000000,0.000000,0.000000
1390201644,0,0,0.0,0,0,4,0,0,0,-0.0292,1355.2927,6.8213,0.4212,54.895203,9.790868,108.3,5.845,1.85,330.00,0.000000,0.000000,0.000000,0.000000
1390201644,0,0,0.0,0,0,4,0,0,0,-0.0292,1355.2927,6.8213,0.4212,54.895203,9.790868,108.3,5.845,1.85,330.00,0.000000,0.000000,0.000000,0.000000
1390201644,0,0,0.0,0,0,4,0,0,0,-0.0292,1355.2927,6.8213,0.4212,54.895203,9.790868,108.3,5.845,1.85,330.00,0.000000,0.000000,0.000000,0.000000
1390201644,0,0,0.0,0,0,4,0,0,0,-0.0292,1355.2927,6.8213,0.4212,54.895203,9.790868,108.3,5.845,1.85,330.00,0.000000,0.000000,0.000000,0.000000
1390201645,0,0,0.0,0,0,4,0,0,0,-0.0292,1355.2927,6.8213,0.4212,54.895203,9.790868,108.3,5.845,1.85,330.00,0.000000,0.000000,0.000000,0.000000
1390201645,0,0,0.0,0,0,4,0,0,0,-0.0292,1355.2927,6.8213,0.4212,54.895203,9.790868,108.3,5.845,1.85,330.00,0.000000,0.000000,0.000000,0.000000
1390201645,0,0,0.0,0,0,4,0,0,0,-0.0292,1355.2927,6.8213,0.4212,54.895203,9.790868,108.3,5.845,1.85,330.00,0.000000,0.000000,0.000000,0.000000
1390201645,0,0,0.0,0,0,4,0,0,0,-0.0292,1355.2927,6.8213,0.4212,54.895203,9.790868,108.3,5.845,1.85,330.00,0.000000,0.000000,0.000000,0.000000
1390201646,0,0,0.0,0,0,4,0,0,0,-0.0292,1355.2927,6.8213,0.4212,54.895203,9.790868,108.3,5.845,1.85,330.00,0.000000,0.000000,0.000000,0.000000
1390201646,0,0,0.0,0,0,4,0,0,0,-0.0292,1355.2927,6.8213,0.4212,54.895203,9.790868,108.3,5.845,1.85,330.00,0.000000,0.000000,0.000000,0.000000
1390201646,0,0,0.0,0,0,4,0,0,0,-0.0292,1355.2927,6.8213,0.4212,54.895203,9.790868,108.3,5.845,1.85,70.00,0.000000,0.000000,0.000000,0.000000
1390201646,0,0,0.0,0,0,4,0,0,0,-0.0292,1355.2927,6.8213,0.4212,54.895203,9.790868,108.3,5.845,1.85,70.00,0.000000,0.000000,0.000000,0.000000
1390201647,0,0,0.0,0,0,4,0,0,0,-0.0292,1355.2927,6.8213,0.4212,54.895203,9.790868,108.3,5.845,1.85,70.00,0.000000,0.000000,0.000000,0.000000
1390201647,0,0,0.0,0,0,4,0,0,0,-0.0292,1355.2927,6.8213,0.4212,54.895203,9.790868,108.3,5.845,1.85,70.00,0.000000,0.000000,0.000000,0.000000
1390201647,0,0,0.0,0,0,4,0,0,0,-0.0292,1355.2927,6.8213,0.4212,54.895203,9.790868,108.3,5.845,1.85,70.00,0.000000,0.000000,0.000000,0.000000
1390201647,0,0,0.0,0,0,4,0,0,0,-0.0292,1355.2927,6.8213,0.4212,54.895203,9.790868,108.3,5.845,1.85,70.00,0.000000,0.000000,0.000000,0.000000
1390201648,0,0,0.0,0,0,4,0,0,0,-0.0292,1355.2927,6.8213,0.4212,54.895203,9.790868,108.3,5.845,1.85,70.00,0.000000,0.000000,0.000000,0.000000
1390201648,0,0,0.0,0,0,4,0,0,0,-0.0292,1355.2927,6.8213,0.4212,54.895203,9.790868,108.3,5.845,1.85,70.00,0.000000,0.000000,0.000000,0.000000
1390201648,0,0,0.0,0,0,4,0,0,0,-0.0292,1355.2927,6.8213,0.4212,54.895203,9.790868,108.3,5.845,1.85,70.00,0.000000,0.000000,0.000000,0.000000
1390201648,0,0,0.0,0,0,4,0,0,0,-0.0292,1355.2927,6.8213,0.4212,54.895203,9.790868,108.3,5.845,1.85,70.00,0.000000,0.000000,0.000000,0.000000
1390201649,0,0,0.0,0,0,4,0,0,0,-0.0292,1355.2927,6.8213,0.4212,54.895203,9.790868,108.3,5.845,1.85,70.00,0.000000,0.000000,0.000000,0.000000
1390201649,0,0,0.0,0,0,4,0,0,0,-0.0292,1355.2927,6.8213,0.4212,54.895203,9.790868,108.3,5.845,1.85,70.00,0.000000,0.000000,0.000000,0.000000
1390201649,0,0,0.0,0,0,4,0,0,0,-0.0292,1355.2927,6.8213,0.4212,54.895203,9.790868,108.3,5.845,1.85,70.00,0.000000,0.000000,0.000000,0.000000
1390201649,0,0,0.0,0,0,4,0,0,0,-0.0292,1355.2927,6.8213,0.4212,54.895203,9.790868,108.3,5.845,1.85,70.00,0.000000,0.000000,0.000000,0.000000
1390201650,0,0,0.0,0,0,4,0,0,0,-0.0292,1355.2927,6.8213,0.4212,54.895203,9.790868,108.3,5.845,1.85,70.00,0.000000,0.000000,0.000000,0.000000
1390201650,0,0,0.0,0,0,4,0,0,0,-0.0292,1355.2927,6.8213,0.4212,54.895203,9.790868,108.3,5.845,1.85,70.00,0.000000,0.000000,0.000000,0.000000
1390201650,0,0,0.0,0,0,4,0,0,0,-0.0292,1355.2927,6.8213,0.4212,54.895203,9.790868,108.3,5.845,1.85,70.00,0.000000,0.000000,0.000000,0.000000
1390201650,0,0,0.0,0,0,4,0,0,0,-0.0292,1355.2927,6.8213,0.4212,54.895203,9.790868,108.3,5.845,1.85,70.00,0.000000,0.000000,0.000000,0.000000
1390201651,0,0,0.0,0,0,4,0,0,0,-0.0292,1355.2927,6.8213,0.4212,54.895203,9.790868,108.3,5.845,1.85,70.00,0.000000,0.000000,0.000000,0.000000
1390201651,0,0,0.0,0,0,4,0,0,0,-0.0292,1355.2927,6.8213,0.4212,54.895203,9.790868,108.3,5.845,1.85,70.00,0.000000,0.000000,0.000000,0.000000
1390201651,0,0,0.0,0,0,4,0,0,0,-0.0292,1355.2927,6.8213,0.4212,54.895203,9.790868,108.3,5.845,1.85,70.00,0.000000,0.000000,0.000000,0.000000
1390201651,4,0,0.0,0,0,4,0,0,0,-0.0292,1355.2927,6.8213,0.4212,54.895203,9.790868,108.3,5.845,1.85,70.00,0.000000,0.000000,0.000000,0.000000
1390201652,1,0,125.0,0,35,8,0,713,12,-0.0292,1343.6261,6.8213,0.4212,54.895199,9.790837,108.3,5.845,1.85,70.00,54.895203,9.790868,54.895069,9.793790
1390201652,1,0,125.0,0,35,12,0,713,24,-0.0292,1331.9595,6.8213,0.4212,54.895191,9.790808,108.3,5.845,1.85,70.00,54.895203,9.790868,54.895069,9.793790
1390201652,1,0,125.0,0,35,16,0,0,12,-0.0292,1320.2928,6.8213,0.4212,54.895184,9.790781,108.3,5.845,1.85,70.00,54.895203,9.790868,54.895069,9.793790
1390201652,1,0,125.0,0,35,20,0,0,0,-0.0292,1308.6262,6.8213,0.4212,54.895172,9.790758,108.3,5.845,1.85,70.00,54.895203,9.790868,54.895069,9.793790
1390201653,1,0,125.0,0,35,24,0,713,12,-0.0292,1296.9596,6.8213,0.4212,54.895157,9.790739,108.3,5.845,1.85,70.00,54.895203,9.790868,54.895069,9.793790
1390201653,1,0,125.0,0,35,28,0,713,24,-0.0292,1285.2930,6.8213,0.4212,54.895142,9.790726,108.3,5.845,1.85,70.00,54.895203,9.790868,54.895069,9.793790
1390201653,1,0,125.0,0,35,32,0,713,36,-0.0292,1273.6263,6.8213,0.4212,54.895126,9.790718,108.3,5.845,1.85,70.00,54.895203,9.790868,54.895069,9.793790
1390201653,1,0,125.0,0,35,36,0,870,48,-0.0292,1261.9597,6.8213,0.4212,54.895107,9.790717,108.3,5.845,1.85,70.00,54.895203,9.790868,54.895069,9.793790
1390201654,1,0,125.0,0,35,32,0,743,60,-0.0292,1250.2931,6.8213,0.4212,54.895088,9.790722,108.3,5.845,1.85,70.00,54.895203,9.790868,54.895069,9.793790
1390201654,1,0,125.0,0,35,36,0,563,72,-0.0292,1238.6265,6.8213,0.4212,54.895073,9.790733,108.3,5.845,1.85,70.00,54.895203,9.790868,54.895069,9.793790
1390201654,0,0,125.0,0,35,36,0,563,72,-0.0292,1238.6265,6.8213,0.4212,54.895073,9.790733,108.3,5.845,1.85,70.00,54.895203,9.790868,54.895069,9.793790
1390201654,0,0,125.0,0,35,36,0,563,72,-0.0292,1238.6265,6.8213,0.4212,54.895073,9.790733,108.3,5.845,1.85,70.00,54.895203,9.790868,54.895069,9.793790
1390201655,4,0,125.0,0,35,36,0,563,72,-0.0292,1238.6265,6.8213,0.4212,54.895073,9.790733,108.3,5.845,1.85,70.00,54.895203,9.790868,54.895069,9.793790
1390201655,1,0,125.0,0,34,32,0,377,84,-0.0292,1227.2931,6.8213,0.4212,54.895058,9.790751,108.3,5.845,1.85,70.00,54.895073,9.790733,54.895069,9.793790
1390201655,1,0,125.0,0,22,28,0,202,96,-0.0292,1219.9597,6.8213,0.4212,54.895042,9.790771,108.3,5.845,1.85,70.00,54.895073,9.790733,54.895069,9.793790
1390201655,1,0,125.0,0,15,24,0,103,108,-0.0292,1214.9597,6.8213,0.4212,54.895031,9.790792,108.3,5.845,1.85,70.00,54.895073,9.790733,54.895069,9.793790
1390201656,1,0,125.0,0,10,20,0,49,96,-0.0292,1211.6263,6.8213,0.4212,54.895020,9.790815,108.3,5.845,1.85,70.00,54.895073,9.790733,54.895069,9.793790
1390201656,1,0,125.0,0,7,16,0,23,84,-0.0292,1209.2930,6.8213,0.4212,54.895012,9.790839,108.3,5.845,1.85,70.00,54.895073,9.790733,54.895069,9.793790
1390201656,1,0,125.0,0,4,12,0,10,72,-0.0292,1207.9596,6.8213,0.4212,54.895000,9.790863,108.3,5.845,1.85,70.00,54.895073,9.790733,54.895069,9.793790
1390201656,1,0,125.0,0,3,8,0,5,60,-0.0292,1206.9596,6.8213,0.4212,54.894989,9.790888,108.3,5.845,1.85,70.00,54.895073,9.790733,54.895069,9.793790
1390201657,1,0,125.0,0,2,4,0,2,48,-0.0292,1206.2930,6.8213,0.4212,54.894978,9.790913,108.3,5.845,1.85,70.00,54.895073,9.790733,54.895069,9.793790
1390201657,1,0,125.0,0,1,0,0,1,36,-0.0292,1205.9596,6.8213,0.4212,54.894966,9.790938,108.3,5.845,1.85,70.00,54.895073,9.790733,54.895069,9.793790
1390201657,1,0,125.0,0,1,4,0,0,24,-0.0292,1205.6262,6.8213,0.4212,54.894958,9.790964,108.3,5.845,1.85,70.00,54.895073,9.790733,54.895069,9.793790
1390201657,1,0,125.0,0,1,0,0,0,12,-0.0292,1205.2928,6.8213,0.4212,54.894947,9.790989,108.3,5.845,1.85,70.00,54.895073,9.790733,54.895069,9.793790
1390201658,1,0,125.0,0,0,4,0,0,0,-0.0292,1205.2928,6.8213,0.4212,54.894936,9.791015,108.3,5.845,1.85,70.00,54.895073,9.790733,54.895069,9.793790
1390201658,1,0,125.0,0,0,0,0,0,0,-0.0292,1205.2928,6.8213,0.4212,54.894924,9.791039,108.3,5.845,1.85,70.00,54.895073,9.790733,54.895069,9.793790
1390201658,1,0,125.0,0,0,4,0,0,0,-0.0292,1205.2928,6.8213,0.4212,54.894913,9.791065,108.3,5.845,1.85,70.00,54.895073,9.790733,54.895069,9.793790
1390201658,1,0,125.0,0,0,0,0,0,0,-0.0292,1205.2928,6.8213,0.4212,54.894901,9.791091,108.3,5.845,1.85,70.00,54.895073,9.790733,54.895069,9.793790
1390201659,1,0,125.0,0,0,4,0,0,0,-0.0292,1205.2928,6.8213,0.4212,54.894890,9.791116,108.3,5.845,1.85,70.00,54.895073,9.790733,54.895069,9.793790
1390201659,1,0,125.0,0,0,0,0,0,0,-0.0292,1205.2928,6.8213,0.4212,54.894882,9.791142,108.3,5.845,1.85,70.00,54.895073,9.790733,54.895069,9.793790
1390201659,1,0,125.0,0,0,4,0,0,0,-0.0292,1205.2928,6.8213,0.4212,54.894871,9.791166,108.3,5.845,1.85,70.00,54.895073,9.790733,54.895069,9.793790
1390201659,1,0,125.0,0,0,0,0,0,0,-0.0292,1205.2928,6.8213,0.4212,54.894863,9.791192,108.3,5.845,1.85,70.00,54.895073,9.790733,54.895069,9.793790
1390201660,1,0,125.0,0,0,4,0,0,0,-0.0292,1205.2928,6.8213,0.4212,54.894852,9.791218,108.3,5.845,1.85,70.00,54.895073,9.790733,54.895069,9.793790
1390201660,1,0,125.0,0,0,0,0,0,0,-0.0292,1205.2928,6.8213,0.4212,54.894840,9.791243,108.3,5.845,1.85,70.00,54.895073,9.790733,54.895069,9.793790
1390201660,1,0,125.0,0,0,4,0,0,0,-0.0292,1205.2928,6.8213,0.4212,54.894833,9.791268,108.3,5.845,1.85,70.00,54.895073,9.790733,54.895069,9.793790
1390201660,1,0,125.0,0,0,0,0,0,0,-0.0292,1205.2928,6.8213,0.4212,54.894821,9.791293,108.3,5.845,1.85,70.00,54.895073,9.790733,54.895069,9.793790
1390201661,1,0,125.0,0,0,4,0,0,0,-0.0292,1205.2928,6.8213,0.4212,54.894814,9.791319,108.3,5.845,1.85,70.00,54.895073,9.790733,54.895069,9.793790
1390201661,1,0,125.0,0,0,0,0,0,0,-0.0292,1205.2928,6.8213,0.4212,54.894802,9.791345,108.3,5.845,1.85,70.00,54.895073,9.790733,54.895069,9.793790
1390201661,1,0,125.0,0,0,4,0,0,0,-0.0292,1205.2928,6.8213,0.4212,54.894791,9.791370,108.3,5.845,1.85,70.00,54.895073,9.790733,54.895069,9.793790
1390201661,1,0,125.0,0,0,0,0,0,0,-0.0292,1205.2928,6.8213,0.4212,54.894779,9.791396,108.3,5.845,1.85,70.00,54.895073,9.790733,54.895069,9.793790
1390201662,1,0,125.0,0,0,4,0,0,0,-0.0292,1205.2928,6.8213,0.4212,54.894768,9.791421,108.3,5.845,1.85,70.00,54.895073,9.790733,54.895069,9.793790
1390201662,1,0,125.0,0,0,0,0,0,0,-0.0292,1205.2928,6.8213,0.4212,54.894760,9.791447,108.3,5.845,1.85,70.00,54.895073,9.790733,54.895069,9.793790
1390201662,1,0,125.0,0,0,4,0,0,0,-0.0292,1205.2928,6.8213,0.4212,54.894749,9.791472,108.3,5.845,1.85,70.00,54.895073,9.790733,54.895069,9.793790
1390201662,1,0,125.0,0,0,0,0,0,0,-0.0292,1205.2928,6.8213,0.4212,54.894741,9.791498,108.3,5.845,1.85,70.00,54.895073,9.790733,54.895069,9.793790
1390201663,1,0,125.0,0,0,4,0,0,0,-0.0292,1205.2928,6.8213,0.4212,54.894730,9.791524,108.3,5.845,1.85,70.00,54.895073,9.790733,54.895069,9.793790
1390201663,1,0,125.0,0,0,0,0,0,0,-0.0292,1205.2928,6.8213,0.4212,54.894718,9.791549,108.3,5.845,1.85,70.00,54.895073,9.790733,54.895069,9.793790
1390201663,1,0,125.0,0,0,4,0,0,0,-0.0292,1205.2928,6.8213,0.4212,54.894711,9.791574,108.3,5.845,1.85,70.00,54.895073,9.790733,54.895069,9.793790
1390201663,1,0,125.0,0,0,0,0,0,0,-0.0292,1205.2928,6.8213,0.4212,54.894699,9.791600,108.3,5.845,1.85,70.00,54.895073,9.790733,54.895069,9.793790
1390201664,1,0,125.0,0,0,4,0,0,0,-0.0292,1205.2928,6.8213,0.4212,54.894691,9.791626,108.3,5.845,1.85,70.00,54.895073,9.790733,54.895069,9.793790
1390201664,1,0,125.0,0,0,0,0,0,0,-0.0292,1205.2928,6.8213,0.4212,54.894680,9.791652,108.3,5.845,1.85,70.00,54.895073,9.790733,54.895069,9.793790
1390201664,1,0,125.0,0,0,4,0,0,0,-0.0292,1205.2928,6.8213,0.4212,54.894669,9.791677,108.3,5.845,1.85,70.00,54.895073,9.790733,54.895069,9.793790
1390201664,1,0,125.0,0,0,0,0,0,0,-0.0292,1205.2928,6.8213,0.4212,54.894661,9.791702,108.3,5.845,1.85,70.00,54.895073,9.790733,54.895069,9.793790
1390201665,1,0,125.0,0,0,4,0,0,0,-0.0292,1205.2928,6.8213,0.4212,54.894650,9.791728,108.3,5.845,1.85,70.00,54.895073,9.790733,54.895069,9.793790
1390201665,1,0,125.0,0,0,0,0,0,0,-0.0292,1205.2928,6.8213,0.4212,54.894642,9.791754,108.3,5.845,1.85,70.00,54.895073,9.790733,54.895069,9.793790
1390201665,1,0,125.0,0,0,4,0,0,0,-0.0292,1205.2928,6.8213,0.4212,54.894630,9.791780,108.3,5.845,1.85,70.00,54.895073,9.790733,54.895069,9.793790
1390201665,1,0,125.0,0,0,0,0,0,0,-0.0292,1205.2928,6.8213,0.4212,54.894619,9.791804,108.3,5.845,1.85,70.00,54.895073,9.790733,54.895069,9.793790
1390201666,1,0,15.0,0,35,4,0,0,0,-0.0292,1193.6262,6.8213,0.4212,54.894611,9.791833,108.3,5.845,1.85,70.00,54.895073,9.790733,54.895069,9.793790
1390201666,1,0,15.0,0,35,8,0,0,0,-0.0292,1181.9596,6.8213,0.4212,54.894608,9.791863,108.3,5.845,1.85,70.00,54.895073,9.790733,54.895069,9.793790
1390201666,1,0,15.0,0,35,12,0,0,0,-0.0292,1170.2930,6.8213,0.4212,54.894608,9.791894,108.3,5.845,1.85,70.00,54.895073,9.790733,54.895069,9.793790
1390201666,1,0,15.0,0,35,16,0,0,0,-0.0292,1158.6263,6.8213,0.4212,54.894611,9.791924,108.3,5.845,1.85,70.00,54.895073,9.790733,54.895069,9.793790
1390201667,1,0,15.0,0,35,20,0,0,0,-0.0292,1146.9597,6.8213,0.4212,54.894619,9.791953,108.3,5.845,1.85,70.00,54.895073,9.790733,54.895069,9.793790
1390201667,1,0,15.0,0,35,24,0,0,0,-0.0292,1135.2931,6.8213,0.4212,54.894630,9.791979,108.3,5.845,1.85,70.00,54.895073,9.790733,54.895069,9.793790
1390201667,1,0,15.0,0,35,28,0,0,0,-0.0292,1123.6265,6.8213,0.4212,54.894642,9.792001,108.3,5.845,1.85,70.00,54.895073,9.790733,54.895069,9.793790
1390201667,1,0,15.0,0,29,32,0,0,0,-0.0292,1113.9598,6.8213,0.4212,54.894657,9.792018,108.3,5.845,1.85,70.00,54.895073,9.790733,54.895069,9.793790
1390201668,1,0,15.0,0,19,28,0,0,0,-0.0292,1107.6265,6.8213,0.4212,54.894672,9.792032,108.3,5.845,1.85,70.00,54.895073,9.790733,54.895069,9.793790
1390201668,1,0,15.0,0,13,24,0,0,0,-0.0292,1103.2931,6.8213,0.4212,54.894691,9.792044,108.3,5.845,1.85,70.00,54.895073,9.790733,54.895069,9.793790
1390201668,1,0,15.0,0,8,20,0,0,0,-0.0292,1100.6265,6.8213,0.4212,54.894711,9.792054,108.3,5.845,1.85,70.00,54.895073,9.790733,54.895069,9.793790
1390201668,1,0,15.0,0,6,16,0,0,0,-0.0292,1098.6265,6.8213,0.4212,54.894726,9.792064,108.3,5.845,1.85,70.00,54.895073,9.790733,54.895069,9.793790
1390201669,1,0,15.0,0,4,12,0,0,0,-0.0292,1097.2931,6.8213,0.4212,54.894741,9.792073,108.3,5.845,1.85,70.00,54.895073,9.790733,54.895069,9.793790
1390201669,1,0,15.0,0,2,8,0,0,0,-0.0292,1096.6265,6.8213,0.4212,54.894760,9.792083,108.3,5.845,1.85,70.00,54.895073,9.790733,54.895069,9.793790
1390201669,1,0,15.0,0,2,4,0,0,0,-0.0292,1095.9598,6.8213,0.4212,54.894775,9.792091,108.3,5.845,1.85,70.00,54.895073,9.790733,54.895069,9.793790
1390201669,1,0,15.0,0,1,0,0,0,0,-0.0292,1095.6265,6.8213,0.4212,54.894791,9.792100,108.3,5.845,1.85,70.00,54.895073,9.790733,54.895069,9.793790
1390201670,1,0,15.0,0,1,4,0,0,0,-0.0292,1095.2931,6.8213,0.4212,54.894810,9.792109,108.3,5.845,1.85,70.00,54.895073,9.790733,54.895069,9.793790
1390201670,1,0,15.0,0,0,0,0,0,0,-0.0292,1095.2931,6.8213,0.4212,54.894829,9.792117,108.3,5.845,1.85,70.00,54.895073,9.790733,54.895069,9.793790
1390201670,1,0,15.0,0,0,4,0,0,0,-0.0292,1095.2931,6.8213,0.4212,54.894844,9.792125,108.3,5.845,1.85,70.00,54.895073,9.790733,54.895069,9.793790
1390201670,1,0,15.0,0,0,0,0,0,0,-0.0292,1095.2931,6.8213,0.4212,54.894863,9.792132,108.3,5.845,1.85,70.00,54.895073,9.790733,54.895069,9.793790
1390201671,1,0,15.0,0,0,4,0,0,0,-0.0292,1095.2931,6.8213,0.4212,54.894882,9.792140,108.3,5.845,1.85,70.00,54.895073,9.790733,54.895069,9.793790
1390201671,1,0,15.0,0,0,0,0,0,0,-0.0292,1095.2931,6.8213,0.4212,54.894897,9.792149,108.3,5.845,1.85,70.00,54.895073,9.790733,54.895069,9.793790
1390201671,1,0,15.0,0,0,4,0,0,0,-0.0292,1095.2931,6.8213,0.4212,54.894913,9.792157,108.3,5.845,1.85,70.00,54.895073,9.790733,54.895069,9.793790
1390201672,1,0,15.0,0,0,0,0,0,0,-0.0292,1095.2931,6.8213,0.4212,54.894932,9.792166,108.3,5.845,1.85,70.00,54.895073,9.790733,54.895069,9.793790
1390201672,1,0,15.0,0,0,4,0,0,0,-0.0292,1095.2931,6.8213,0.4212,54.894947,9.792173,108.3,5.845,1.85,70.00,54.895073,9.790733,54.895069,9.793790
1390201672,1,0,15.0,0,0,0,0,0,0,-0.0292,1095.2931,6.8213,0.4212,54.894962,9.792181,108.3,5.845,1.85,70.00,54.895073,9.790733,54.895069,9.793790
1390201672,1,0,15.0,0,0,4,0,0,0,-0.0292,1095.2931,6.8213,0.4212,54.894981,9.792190,108.3,5.845,1.85,70.00,54.895073,9.790733,54.895069,9.793790
1390201673,1,0,15.0,0,0,0,0,0,0,-0.0292,1095.2931,6.8213,0.4212,54.894997,9.792198,108.3,5.845,1.85,70.00,54.895073,9.790733,54.895069,9.793790
1390201673,1,0,15.0,0,0,4,0,0,0,-0.0292,1095.2931,6.8213,0.4212,54.895012,9.792207,108.3,5.845,1.85,70.00,54.895073,9.790733,54.895069,9.793790
1390201673,1,0,15.0,0,0,0,0,0,0,-0.0292,1095.2931,6.8213,0.4212,54.895031,9.792214,108.3,5.845,1.85,70.00,54.895073,9.790733,54.895069,9.793790
1390201673,1,0,15.0,0,0,4,0,0,0,-0.0292,1095.2931,6.8213,0.4212,54.895050,9.792222,108.3,5.845,1.85,70.00,54.895073,9.790733,54.895069,9.793790
1390201674,1,0,15.0,0,0,0,0,0,0,-0.0292,1095.2931,6.8213,0.4212,54.895065,9.792231,108.3,5.845,1.85,70.00,54.895073,9.790733,54.895069,9.793790
1390201674,1,0,15.0,0,0,4,0,0,0,-0.0292,1095.2931,6.8213,0.4212,54.895084,9.792239,108.3,5.845,1.85,70.00,54.895073,9.790733,54.895069,9.793790
1390201674,1,0,15.0,0,0,0,0,0,0,-0.0292,1095.2931,6.8213,0.4212,54.895103,9.792248,108.3,5.845,1.85,70.00,54.895073,9.790733,54.895069,9.793790
1390201674,1,0,15.0,0,0,4,0,0,0,-0.0292,1095.2931,6.8213,0.4212,54.895119,9.792255,108.3,5.845,1.85,70.00,54.895073,9.790733,54.895069,9.793790
1390201675,1,0,15.0,0,0,0,0,0,0,-0.0292,1095.2931,6.8213,0.4212,54.895134,9.792263,108.3,5.845,1.85,70.00,54.895073,9.790733,54.895069,9.793790
1390201675,1,0,15.0,0,0,4,0,0,0,-0.0292,1095.2931,6.8213,0.4212,54.895153,9.792272,108.3,5.845,1.85,70.00,54.895073,9.790733,54.895069,9.793790
1390201675,1,0,15.0,0,0,0,0,0,0,-0.0292,1095.2931,6.8213,0.4212,54.895168,9.792280,108.3,5.845,1.85,70.00,54.895073,9.790733,54.895069,9.793790
1390201675,1,0,15.0,0,0,4,0,0,0,-0.0292,1095.2931,6.8213,0.4212,54.895184,9.792289,108.3,5.845,1.85,70.00,54.895073,9.790733,54.895069,9.793790
1390201676,1,0,15.0,0,0,0,0,0,0,-0.0292,1095.2931,6.8213,0.4212,54.895203,9.792296,108.3,5.845,1.85,70.00,54.895073,9.790733,54.895069,9.793790
1390201676,1,0,15.0,0,0,4,0,0,0,-0.0292,1095.2931,6.8213,0.4212,54.895218,9.792304,108.3,5.845,1.85,70.00,54.895073,9.790733,54.895069,9.793790
1390201676,1,0,15.0,0,0,0,0,0,0,-0.0292,1095.2931,6.8213,0.4212,54.895233,9.792312,108.3,5.845,1.85,70.00,54.895073,9.790733,54.895069,9.793790
1390201676,1,0,15.0,0,0,4,0,0,0,-0.0292,1095.2931,6.8213,0.4212,54.895252,9.792320,108.3,5.845,1.85,70.00,54.895073,9.790733,54.895069,9.793790
1390201677,1,0,15.0,0,0,0,0,0,0,-0.0292,1095.2931,6.8213,0.4212,54.895271,9.792329,108.3,5.845,1.85,70.00,54.895073,9.790733,54.895069,9.793790
1390201677,1,0,15.0,0,0,4,0,0,0,-0.0292,1095.2931,6.8213,0.4212,54.895287,9.792337,108.3,5.845,1.85,70.00,54.895073,9.790733,54.895069,9.793790
1390201677,1,0,15.0,0,0,0,0,0,0,-0.0292,1095.2931,6.8213,0.4212,54.895306,9.792345,108.3,5.845,1.85,70.00,54.895073,9.790733,54.895069,9.793790
1390201677,1,0,15.0,0,0,4,0,0,0,-0.0292,1095.2931,6.8213,0.4212,54.895325,9.792353,108.3,5.845,1.85,70.00,54.895073,9.790733,54.895069,9.793790
1390201678,1,0,15.0,0,0,0,0,0,0,-0.0292,1095.2931,6.8213,0.4212,54.895340,9.792361,108.3,5.845,1.85,70.00,54.895073,9.790733,54.895069,9.793790
1390201678,1,0,15.0,0,0,4,0,0,0,-0.0292,1095.2931,6.8213,0.4212,54.895355,9.792370,108.3,5.845,1.85,70.00,54.895073,9.790733,54.895069,9.793790
1390201678,1,0,15.0,0,0,0,0,0,0,-0.0292,1095.2931,6.8213,0.4212,54.895374,9.792378,108.3,5.845,1.85,70.00,54.895073,9.790733,54.895069,9.793790
1390201678,1,0,15.0,0,0,4,0,0,0,-0.0292,1095.2931,6.8213,0.4212,54.895390,9.792386,108.3,5.845,1.85,70.00,54.895073,9.790733,54.895069,9.793790
1390201679,1,0,15.0,0,0,0,0,0,0,-0.0292,1095.2931,6.8213,0.4212,54.895405,9.792394,108.3,5.845,1.85,70.00,54.895073,9.790733,54.895069,9.793790
1390201679,1,0,15.0,0,0,4,0,0,0,-0.0292,1095.2931,6.8213,0.4212,54.895424,9.792402,108.3,5.845,1.85,70.00,54.895073,9.790733,54.895069,9.793790
1390201679,1,0,15.0,0,0,0,0,0,0,-0.0292,1095.2931,6.8213,0.4212,54.895439,9.792411,108.3,5.845,1.85,70.00,54.895073,9.790733,54.895069,9.793790
1390201679,1,0,15.0,0,0,4,0,0,0,-0.0292,1095.2931,6.8213,0.4212,54.895454,9.792419,108.3,5.845,1.85,70.00,54.895073,9.790733,54.895069,9.793790
1390201680,1,0,15.0,0,0,0,0,0,0,-0.0292,1095.2931,6.8213,0.4212,54.895473,9.792427,108.3,5.845,1.85,70.00,54.895073,9.790733,54.895069,9.793790
1390201680,1,0,15.0,0,0,4,0,0,0,-0.0292,1095.2931,6.8213,0.4212,54.895493,9.792435,108.3,5.845,1.85,70.00,54.895073,9.790733,54.895069,9.793790
1390201680,1,0,15.0,0,0,0,0,0,0,-0.0292,1095.2931,6.8213,0.4212,54.895508,9.792443,108.3,5.845,1.85,70.00,54.895073,9.790733,54.895069,9.793790
1390201680,1,0,15.0,0,0,4,0,0,0,-0.0292,1095.2931,6.8213,0.4212,54.895527,9.792452,108.3,5.845,1.85,70.00,54.895073,9.790733,54.895069,9.793790
1390201681,1,0,125.0,0,-35,0,0,0,0,-0.0292,1106.9597,6.8213,0.4212,54.895542,9.792466,108.3,5.845,1.85,70.00,54.895073,9.790733,54.895069,9.793790
1390201681,1,0,125.0,0,-35,-4,0,0,0,-0.0292,1118.6263,6.8213,0.4212,54.895554,9.792485,108.3,5.845,1.85,70.00,54.895073,9.790733,54.895069,9.793790
1390201681,1,0,125.0,0,-35,-8,0,0,0,-0.0292,1130.2930,6.8213,0.4212,54.895565,9.792509,108.3,5.845,1.85,70.00,54.895073,9.790733,54.895069,9.793790
1390201681,1,0,125.0,0,-35,-12,0,0,0,-0.0292,1141.9596,6.8213,0.4212,54.895573,9.792537,108.3,5.845,1.85,70.00,54.895073,9.790733,54.895069,9.793790
1390201682,1,0,125.0,0,-35,-16,0,0,0,-0.0292,1153.6262,6.8213,0.4212,54.895576,9.792567,108.3,5.845,1.85,70.00,54.895073,9.790733,54.895069,9.793790
1390201682,1,0,125.0,0,-35,-20,0,0,0,-0.0292,1165.2928,6.8213,0.4212,54.895580,9.792599,108.3,5.845,1.85,70.00,54.895073,9.790733,54.895069,9.793790
1390201682,1,0,125.0,0,-35,-24,0,0,0,-0.0292,1176.9595,6.8213,0.4212,54.895580,9.792629,108.3,5.845,1.85,70.00,54.895073,9.790733,54.895069,9.793790
1390201682,1,0,125.0,0,-28,-28,0,0,0,-0.0292,1186.2928,6.8213,0.4212,54.895576,9.792660,108.3,5.845,1.85,70.00,54.895073,9.790733,54.895069,9.793790
1390201683,1,0,125.0,0,-19,-24,0,0,0,-0.0292,1192.6262,6.8213,0.4212,54.895569,9.792688,108.3,5.845,1.85,70.00,54.895073,9.790733,54.895069,9.793790
1390201683,1,0,125.0,0,-12,-20,0,0,0,-0.0292,1196.6262,6.8213,0.4212,54.895561,9.792716,108.3,5.845,1.85,70.00,54.895073,9.790733,54.895069,9.793790
1390201683,1,0,125.0,0,-8,-16,0,0,0,-0.0292,1199.2928,6.8213,0.4212,54.895550,9.792744,108.3,5.845,1.85,70.00,54.895073,9.790733,54.895069,9.793790
1390201683,1,0,125.0,0,-6,-12,0,0,0,-0.0292,1201.2928,6.8213,0.4212,54.895542,9.792770,108.3,5.845,1.85,70.00,54.895073,9.790733,54.895069,9.793790
1390201684,1,0,125.0,0,-4,-8,0,0,0,-0.0292,1202.6262,6.8213,0.4212,54.895531,9.792796,108.3,5.845,1.85,70.00,54.895073,9.790733,54.895069,9.793790
1390201684,1,0,125.0,0,-2,-4,0,0,0,-0.0292,1203.2928,6.8213,0.4212,54.895523,9.792823,108.3,5.845,1.85,70.00,54.895073,9.790733,54.895069,9.793790
1390201684,1,0,125.0,0,-2,0,0,0,0,-0.0292,1203.9595,6.8213,0.4212,54.895512,9.792849,108.3,5.845,1.85,70.00,54.895073,9.790733,54.895069,9.793790
1390201684,1,0,125.0,0,-1,-4,0,0,0,-0.0292,1204.2928,6.8213,0.4212,54.895500,9.792874,108.3,5.845,1.85,70.00,54.895073,9.790733,54.895069,9.793790
1390201685,1,0,125.0,0,-1,0,0,0,0,-0.0292,1204.6262,6.8213,0.4212,54.895489,9.792900,108.3,5.845,1.85,70.00,54.895073,9.790733,54.895069,9.793790
1390201685,1,0,125.0,0,0,4,0,0,0,-0.0292,1204.6262,6.8213,0.4212,54.895477,9.792926,108.3,5.845,1.85,70.00,54.895073,9.790733,54.895069,9.793790
1390201685,1,0,125.0,0,0,0,0,0,0,-0.0292,1204.6262,6.8213,0.4212,54.895466,9.792952,108.3,5.845,1.85,70.00,54.895073,9.790733,54.895069,9.793790
1390201685,1,0,125.0,0,0,4,0,0,0,-0.0292,1204.6262,6.8213,0.4212,54.895454,9.792977,108.3,5.845,1.85,70.00,54.895073,9.790733,54.895069,9.793790
1390201686,1,0,125.0,0,0,0,0,0,0,-0.0292,1204.6262,6.8213,0.4212,54.895447,9.793002,108.3,5.845,1.85,70.00,54.895073,9.790733,54.895069,9.793790
1390201686,1,0,125.0,0,0,4,0,0,0,-0.0292,1204.6262,6.8213,0.4212,54.895435,9.793028,108.3,5.845,1.85,70.00,54.895073,9.790733,54.895069,9.793790
1390201686,1,0,125.0,0,0,0,0,0,0,-0.0292,1204.6262,6.8213,0.4212,54.895428,9.793054,108.3,5.845,1.85,70.00,54.895073,9.790733,54.895069,9.793790
1390201686,1,0,125.0,0,0,4,0,0,0,-0.0292,1204.6262,6.8213,0.4212,54.895416,9.793079,108.3,5.845,1.85,70.00,54.895073,9.790733,54.895069,9.793790
1390201687,1,0,125.0,0,0,0,0,0,0,-0.0292,1204.6262,6.8213,0.4212,54.895405,9.793105,108.3,5.845,1.85,70.00,54.895073,9.790733,54.895069,9.793790
1390201687,1,0,125.0,0,0,4,0,0,0,-0.0292,1204.6262,6.8213,0.4212,54.895393,9.793130,108.3,5.845,1.85,70.00,54.895073,9.790733,54.895069,9.793790
1390201687,1,0,125.0,0,0,0,0,0,0,-0.0292,1204.6262,6.8213,0.4212,54.895382,9.793156,108.3,5.845,1.85,70.00,54.895073,9.790733,54.895069,9.793790
1390201687,1,0,125.0,0,0,4,0,0,0,-0.0292,1204.6262,6.8213,0.4212,54.895374,9.793181,108.3,5.845,1.85,70.00,54.895073,9.790733,54.895069,9.793790
1390201688,1,0,125.0,0,0,0,0,0,0,-0.0292,1204.6262,6.8213,0.4212,54.895363,9.793207,108.3,5.845,1.85,70.00,54.895073,9.790733,54.895069,9.793790
1390201688,1,0,125.0,0,0,4,0,0,0,-0.0292,1204.6262,6.8213,0.4212,54.895355,9.793233,108.3,5.845,1.85,70.00,54.895073,9.790733,54.895069,9.793790
1390201688,1,0,125.0,0,0,0,0,0,0,-0.0292,1204.6262,6.8213,0.4212,54.895344,9.793258,108.3,5.845,1.85,70.00,54.895073,9.790733,54.895069,9.793790
1390201688,1,0,125.0,0,0,4,0,0,0,-0.0292,1204.6262,6.8213,0.4212,54.895332,9.793283,108.3,5.845,1.85,70.00,54.895073,9.790733,54.895069,9.793790
1390201689,1,0,125.0,0,0,0,0,0,0,-0.0292,1204.6262,6.8213,0.4212,54.895325,9.793309,108.3,5.845,1.85,70.00,54.895073,9.790733,54.895069,9.793790
1390201689,1,0,125.0,0,0,4,0,0,0,-0.0292,1204.6262,6.8213,0.4212,54.895313,9.793335,108.3,5.845,1.85,70.00,54.895073,9.790733,54.895069,9.793790
1390201689,1,0,125.0,0,0,0,0,0,0,-0.0292,1204.6262,6.8213,0.4212,54.895306,9.793361,108.3,5.845,1.85,70.00,54.895073,9.790733,54.895069,9.793790
1390201689,1,0,125.0,0,0,4,0,0,0,-0.0292,1204.6262,6.8213,0.4212,54.895294,9.793386,108.3,5.845,1.85,70.00,54.895073,9.790733,54.895069,9.793790
1390201690,1,0,125.0,0,0,0,0,0,0,-0.0292,1204.6262,6.8213,0.4212,54.895283,9.793411,108.3,5.845,1.85,70.00,54.895073,9.790733,54.895069,9.793790
1390201690,1,0,125.0,0,0,4,0,0,0,-0.0292,1204.6262,6.8213,0.4212,54.895275,9.793437,108.3,5.845,1.85,70.00,54.895073,9.790733,54.895069,9.793790
1390201690,1,0,125.0,0,0,0,0,0,0,-0.0292,1204.6262,6.8213,0.4212,54.895264,9.793463,108.3,5.845,1.85,70.00,54.895073,9.790733,54.895069,9.793790
1390201690,1,0,125.0,0,0,4,0,0,0,-0.0292,1204.6262,6.8213,0.4212,54.895256,9.793489,108.3,5.845,1.85,70.00,54.895073,9.790733,54.895069,9.793790
1390201691,1,0,125.0,0,0,0,0,0,0,-0.0292,1204.6262,6.8213,0.4212,54.895245,9.793514,108.3,5.845,1.85,70.00,54.895073,9.790733,54.895069,9.793790
1390201691,1,0,125.0,0,0,4,0,0,0,-0.0292,1204.6262,6.8213,0.4212,54.895233,9.793540,108.3,5.845,1.85,70.00,54.895073,9.790733,54.895069,9.793790
1390201691,1,0,125.0,0,0,0,0,0,0,-0.0292,1204.6262,6.8213,0.4212,54.895226,9.793566,108.3,5.845,1.85,70.00,54.895073,9.790733,54.895069,9.793790
1390201691,1,0,125.0,0,0,4,0,0,0,-0.0292,1204.6262,6.8213,0.4212,54.895214,9.793591,108.3,5.845,1.85,70.00,54.895073,9.790733,54.895069,9.793790
1390201692,1,0,125.0,0,0,0,0,0,0,-0.0292,1204.6262,6.8213,0.4212,54.895206,9.793617,108.3,5.845,1.85,70.00,54.895073,9.790733,54.895069,9.793790
1390201692,1,0,125.0,0,0,4,0,0,0,-0.0292,1204.6262,6.8213,0.4212,54.895195,9.793642,108.3,5.845,1.85,70.00,54.895073,9.790733,54.895069,9.793790
1390201692,1,0,145.8,0,-21,0,0,0,0,-0.0292,1211.6262,6.8213,0.4212,54.895180,9.793666,108.3,5.845,1.85,70.00,54.895073,9.790733,54.895069,9.793790
1390201692,1,0,147.0,0,-15,-4,0,23,12,-0.0292,1216.6262,6.8213,0.4212,54.895168,9.793687,108.3,5.845,1.85,70.00,54.895073,9.790733,54.895069,9.793790
1390201693,1,0,149.0,0,-12,-8,0,66,24,-0.0292,1220.6262,6.8213,0.4212,54.895153,9.793707,108.3,5.845,1.85,70.00,54.895073,9.790733,54.895069,9.793790
1390201693,1,0,150.2,0,-10,-12,0,111,36,-0.0292,1223.9596,6.8213,0.4212,54.895138,9.793725,108.3,5.845,1.85,70.00,54.895073,9.790733,54.895069,9.793790
1390201693,1,0,151.3,0,-7,-8,0,155,48,-0.0292,1226.2930,6.8213,0.4212,54.895123,9.793742,108.3,5.845,1.85,70.00,54.895073,9.790733,54.895069,9.793790
1390201693,1,0,152.7,0,-6,-4,0,188,60,-0.0292,1228.2930,6.8213,0.4212,54.895107,9.793759,108.3,5.845,1.85,70.00,54.895073,9.790733,54.895069,9.793790
1390201694,1,0,155.2,0,-7,-8,0,217,72,-0.0292,1230.6263,6.8213,0.4212,54.895092,9.793775,108.3,5.845,1.85,70.00,54.895069,9.793790,54.895348,9.797490
1390201694,1,0,125.0,0,26,-4,0,252,84,-0.0292,1221.9597,6.8213,0.4212,54.895081,9.793794,108.3,5.845,1.85,70.00,54.895069,9.793790,54.895348,9.797490
1390201694,1,0,125.0,0,17,0,0,128,96,-0.0292,1216.2931,6.8213,0.4212,54.895069,9.793815,108.3,5.845,1.85,70.00,54.895069,9.793790,54.895348,9.797490
1390201694,1,0,125.0,0,11,4,0,62,84,-0.0292,1212.6265,6.8213,0.4212,54.895054,9.793838,108.3,5.845,1.85,70.00,54.895069,9.793790,54.895348,9.797490
1390201695,1,0,125.0,0,8,8,0,30,72,-0.0292,1209.9598,6.8213,0.4212,54.895042,9.793861,108.3,5.845,1.85,70.00,54.895069,9.793790,54.895348,9.797490
1390201695,1,0,125.0,0,5,4,0,13,60,-0.0292,1208.2932,6.8213,0.4212,54.895035,9.793886,108.3,5.845,1.85,70.00,54.895069,9.793790,54.895348,9.797490
1390201695,1,0,125.0,0,3,0,0,6,48,-0.0292,1207.2932,6.8213,0.4212,54.895023,9.793911,108.3,5.845,1.85,70.00,54.895069,9.793790,54.895348,9.797490
1390201695,1,0,125.0,0,2,4,0,3,36,-0.0292,1206.6266,6.8213,0.4212,54.895012,9.793937,108.3,5.845,1.85,70.00,54.895069,9.793790,54.895348,9.797490
1390201696,1,0,125.0,0,2,0,0,1,24,-0.0292,1205.9600,6.8213,0.4212,54.895000,9.793962,108.3,5.845,1.85,70.00,54.895069,9.793790,54.895348,9.797490
1390201696,1,0,125.0,0,1,4,0,0,12,-0.0292,1205.6266,6.8213,0.4212,54.894989,9.793986,108.3,5.845,1.85,70.00,54.895069,9.793790,54.895348,9.797490
1390201696,1,0,125.0,0,1,0,0,0,0,-0.0292,1205.2932,6.8213,0.4212,54.894981,9.794012,108.3,5.845,1.85,70.00,54.895069,9.793790,54.895348,9.797490
1390201696,1,0,125.0,0,0,4,0,0,0,-0.0292,1205.2932,6.8213,0.4212,54.894970,9.794037,108.3,5.845,1.85,70.00,54.895069,9.793790,54.895348,9.797490
1390201697,1,0,125.0,0,0,0,0,0,0,-0.0292,1205.2932,6.8213,0.4212,54.894962,9.794063,108.3,5.845,1.85,70.00,54.895069,9.793790,54.895348,9.797490
1390201697,1,0,125.0,0,0,4,0,0,0,-0.0292,1205.2932,6.8213,0.4212,54.894951,9.794088,108.3,5.845,1.85,70.00,54.895069,9.793790,54.895348,9.797490
1390201697,1,0,125.0,0,0,0,0,0,0,-0.0292,1205.2932,6.8213,0.4212,54.894939,9.794114,108.3,5.845,1.85,70.00,54.895069,9.793790,54.895348,9.797490
1390201697,1,0,125.0,0,0,4,0,0,0,-0.0292,1205.2932,6.8213,0.4212,54.894932,9.794140,108.3,5.845,1.85,70.00,54.895069,9.793790,54.895348,9.797490
1390201698,1,0,125.0,0,0,0,0,0,0,-0.0292,1205.2932,6.8213,0.4212,54.894920,9.794165,108.3,5.845,1.85,70.00,54.895069,9.793790,54.895348,9.797490
1390201698,1,0,125.0,0,0,4,0,0,0,-0.0292,1205.2932,6.8213,0.4212,54.894913,9.794190,108.3,5.845,1.85,70.00,54.895069,9.793790,54.895348,9.797490
1390201698,1,0,125.0,0,0,0,0,0,0,-0.0292,1205.2932,6.8213,0.4212,54.894901,9.794216,108.3,5.845,1.85,70.00,54.895069,9.793790,54.895348,9.797490
1390201698,1,0,125.0,0,0,4,0,0,0,-0.0292,1205.2932,6.8213,0.4212,54.894890,9.794242,108.3,5.845,1.85,70.00,54.895069,9.793790,54.895348,9.797490
1390201699,1,0,125.0,0,0,0,0,0,0,-0.0292,1205.2932,6.8213,0.4212,54.894882,9.794268,108.3,5.845,1.85,70.00,54.895069,9.793790,54.895348,9.797490
1390201699,1,0,125.0,0,0,4,0,0,0,-0.0292,1205.2932,6.8213,0.4212,54.894871,9.794292,108.3,5.845,1.85,70.00,54.895069,9.793790,54.895348,9.797490
1390201699,1,0,125.0,0,0,0,0,0,0,-0.0292,1205.2932,6.8213,0.4212,54.894863,9.794318,108.3,5.845,1.85,70.00,54.895069,9.793790,54.895348,9.797490
1390201699,1,0,125.0,0,0,4,0,0,0,-0.0292,1205.2932,6.8213,0.4212,54.894852,9.794344,108.3,5.845,1.85,70.00,54.895069,9.793790,54.895348,9.797490
1390201700,1,0,125.0,0,0,0,0,0,0,-0.0292,1205.2932,6.8213,0.4212,54.894840,9.794370,108.3,5.845,1.85,70.00,54.895069,9.793790,54.895348,9.797490
1390201700,1,0,125.0,0,0,4,0,0,0,-0.0292,1205.2932,6.8213,0.4212,54.894833,9.794395,108.3,5.845,1.85,70.00,54.895069,9.793790,54.895348,9.797490
1390201700,1,0,125.0,0,0,0,0,0,0,-0.0292,1205.2932,6.8213,0.4212,54.894821,9.794420,108.3,5.845,1.85,70.00,54.895069,9.793790,54.895348,9.797490
1390201701,1,0,125.0,0,0,4,0,0,0,-0.0292,1205.2932,6.8213,0.4212,54.894814,9.794446,108.3,5.845,1.85,70.00,54.895069,9.793790,54.895348,9.797490
1390201701,1,0,125.0,0,0,0,0,0,0,-0.0292,1205.2932,6.8213,0.4212,54.894802,9.794472,108.3,5.845,1.85,70.00,54.895069,9.793790,54.895348,9.797490
1390201701,1,0,125.0,0,0,4,0,0,0,-0.0292,1205.2932,6.8213,0.4212,54.894791,9.794497,108.3,5.845,1.85,70.00,54.895069,9.793790,54.895348,9.797490
1390201701,1,0,125.0,0,0,0,0,0,0,-0.0292,1205.2932,6.8213,0.4212,54.894779,9.794523,108.3,5.845,1.85,70.00,54.895069,9.793790,54.895348,9.797490
1390201702,1,0,125.0,0,0,4,0,0,0,-0.0292,1205.2932,6.8213,0.4212,54.894768,9.794548,108.3,5.845,1.85,70.00,54.895069,9.793790,54.895348,9.797490
1390201702,1,0,125.0,0,0,0,0,0,0,-0.0292,1205.2932,6.8213,0.4212,54.894760,9.794574,108.3,5.845,1.85,70.00,54.895069,9.793790,54.895348,9.797490
1390201702,1,0,125.0,0,0,4,0,0,0,-0.0292,1205.2932,6.8213,0.4212,54.894749,9.794600,108.3,5.845,1.85,70.00,54.895069,9.793790,54.895348,9.797490
1390201702,1,0,125.0,0,0,0,0,0,0,-0.0292,1205.2932,6.8213,0.4212,54.894741,9.794625,108.3,5.845,1.85,70.00,54.895069,9.793790,54.895348,9.797490
1390201703,1,0,125.0,0,0,4,0,0,0,-0.0292,1205.2932,6.8213,0.4212,54.894730,9.794651,108.3,5.845,1.85,70.00,54.895069,9.793790,54.895348,9.797490
1390201703,1,0,125.0,0,0,0,0,0,0,-0.0292,1205.2932,6.8213,0.4212,54.894718,9.794676,108.3,5.845,1.85,70.00,54.895069,9.793790,54.895348,9.797490
1390201703,1,0,125.0,0,0,4,0,0,0,-0.0292,1205.2932,6.8213,0.4212,54.894711,9.794702,108.3,5.845,1.85,70.00,54.895069,9.793790,54.895348,9.797490
1390201703,1,0,125.0,0,0,0,0,0,0,-0.0292,1205.2932,6.8213,0.4212,54.894699,9.794727,108.3,5.845,1.85,70.00,54.895069,9.793790,54.895348,9.797490
1390201704,1,0,125.0,0,0,4,0,0,0,-0.0292,1205.2932,6.8213,0.4212,54.894691,9.794753,108.3,5.845,1.85,70.00,54.895069,9.793790,54.895348,9.797490
1390201704,1,0,125.0,0,0,0,0,0,0,-0.0292,1205.2932,6.8213,0.4212,54.894680,9.794779,108.3,5.845,1.85,70.00,54.895069,9.793790,54.895348,9.797490
1390201704,1,0,15.0,0,35,4,0,0,0,-0.0292,1193.6266,6.8213,0.4212,54.894672,9.794807,108.3,5.845,1.85,70.00,54.895069,9.793790,54.895348,9.797490
1390201704,1,0,15.0,0,35,8,0,0,0,-0.0292,1181.9600,6.8213,0.4212,54.894669,9.794838,108.3,5.845,1.85,70.00,54.895069,9.793790,54.895348,9.797490
1390201705,1,0,15.0,0,35,12,0,0,0,-0.0292,1170.2933,6.8213,0.4212,54.894669,9.794869,108.3,5.845,1.85,70.00,54.895069,9.793790,54.895348,9.797490
1390201705,1,0,15.0,0,35,16,0,0,0,-0.0292,1158.6267,6.8213,0.4212,54.894672,9.794900,108.3,5.845,1.85,70.00,54.895069,9.793790,54.895348,9.797490
1390201705,1,0,15.0,0,35,20,0,0,0,-0.0292,1146.9601,6.8213,0.4212,54.894680,9.794930,108.3,5.845,1.85,70.00,54.895069,9.793790,54.895348,9.797490
1390201705,1,0,15.0,0,35,24,0,0,0,-0.0292,1135.2935,6.8213,0.4212,54.894688,9.794955,108.3,5.845,1.85,70.00,54.895069,9.793790,54.895348,9.797490
1390201706,1,0,15.0,0,35,28,0,0,0,-0.0292,1123.6268,6.8213,0.4212,54.894699,9.794976,108.3,5.845,1.85,70.00,54.895069,9.793790,54.895348,9.797490
1390201706,1,0,15.0,0,29,32,0,0,0,-0.0292,1113.9602,6.8213,0.4212,54.894714,9.794993,108.3,5.845,1.85,70.00,54.895069,9.793790,54.895348,9.797490
1390201706,1,0,15.0,0,19,28,0,0,0,-0.0292,1107.6268,6.8213,0.4212,54.894730,9.795008,108.3,5.845,1.85,70.00,54.895069,9.793790,54.895348,9.797490
1390201706,1,0,15.0,0,13,24,0,0,0,-0.0292,1103.2935,6.8213,0.4212,54.894745,9.795020,108.3,5.845,1.85,70.00,54.895069,9.793790,54.895348,9.797490
1390201707,1,0,15.0,0,8,20,0,0,0,-0.0292,1100.6268,6.8213,0.4212,54.894764,9.795032,108.3,5.845,1.85,70.00,54.895069,9.793790,54.895348,9.797490
1390201707,1,0,15.0,0,6,16,0,0,0,-0.0292,1098.6268,6.8213,0.4212,54.894783,9.795042,108.3,5.845,1.85,70.00,54.895069,9.793790,54.895348,9.797490
1390201707,1,0,15.0,0,4,12,0,0,0,-0.0292,1097.2935,6.8213,0.4212,54.894798,9.795051,108.3,5.845,1.85,70.00,54.895069,9.793790,54.895348,9.797490
1390201707,1,0,15.0,0,2,8,0,0,0,-0.0292,1096.6268,6.8213,0.4212,54.894817,9.795059,108.3,5.845,1.85,70.00,54.895069,9.793790,54.895348,9.797490
1390201708,1,0,15.0,0,2,4,0,0,0,-0.0292,1095.9602,6.8213,0.4212,54.894836,9.795068,108.3,5.845,1.85,70.00,54.895069,9.793790,54.895348,9.797490
1390201708,1,0,15.0,0,1,0,0,0,0,-0.0292,1095.6268,6.8213,0.4212,54.894855,9.795076,108.3,5.845,1.85,70.00,54.895069,9.793790,54.895348,9.797490
1390201708,1,0,15.0,0,1,4,0,0,0,-0.0292,1095.2935,6.8213,0.4212,54.894871,9.795084,108.3,5.845,1.85,70.00,54.895069,9.793790,54.895348,9.797490
1390201708,1,0,15.0,0,0,0,0,0,0,-0.0292,1095.2935,6.8213,0.4212,54.894890,9.795092,108.3,5.845,1.85,70.00,54.895069,9.793790,54.895348,9.797490
1390201709,1,0,15.0,0,0,4,0,0,0,-0.0292,1095.2935,6.8213,0.4212,54.894909,9.795100,108.3,5.845,1.85,70.00,54.895069,9.793790,54.895348,9.797490
1390201709,1,0,15.0,0,0,0,0,0,0,-0.0292,1095.2935,6.8213,0.4212,54.894928,9.795109,108.3,5.845,1.85,70.00,54.895069,9.793790,54.895348,9.797490
1390201709,1,0,15.0,0,0,4,0,0,0,-0.0292,1095.2935,6.8213,0.4212,54.894943,9.795117,108.3,5.845,1.85,70.00,54.895069,9.793790,54.895348,9.797490
1390201709,1,0,15.0,0,0,0,0,0,0,-0.0292,1095.2935,6.8213,0.4212,54.894962,9.795126,108.3,5.845,1.85,70.00,54.895069,9.793790,54.895348,9.797490
1390201710,1,0,15.0,0,0,4,0,0,0,-0.0292,1095.2935,6.8213,0.4212,54.894981,9.795134,108.3,5.845,1.85,70.00,54.895069,9.793790,54.895348,9.797490
1390201710,1,0,15.0,0,0,0,0,0,0,-0.0292,1095.2935,6.8213,0.4212,54.894997,9.795142,108.3,5.845,1.85,70.00,54.895069,9.793790,54.895348,9.797490
1390201710,1,0,15.0,0,0,4,0,0,0,-0.0292,1095.2935,6.8213,0.4212,54.895012,9.795151,108.3,5.845,1.85,70.00,54.895069,9.793790,54.895348,9.797490
1390201710,1,0,15.0,0,0,0,0,0,0,-0.0292,1095.2935,6.8213,0.4212,54.895031,9.795159,108.3,5.845,1.85,70.00,54.895069,9.793790,54.895348,9.797490
1390201711,1,0,15.0,0,0,4,0,0,0,-0.0292,1095.2935,6.8213,0.4212,54.895050,9.795168,108.3,5.845,1.85,70.00,54.895069,9.793790,54.895348,9.797490
1390201711,1,0,15.0,0,0,0,0,0,0,-0.0292,1095.2935,6.8213,0.4212,54.895065,9.795176,108.3,5.845,1.85,70.00,54.895069,9.793790,54.895348,9.797490
1390201711,1,0,15.0,0,0,4,0,0,0,-0.0292,1095.2935,6.8213,0.4212,54.895084,9.795183,108.3,5.845,1.85,70.00,54.895069,9.793790,54.895348,9.797490
1390201711,1,0,15.0,0,0,0,0,0,0,-0.0292,1095.2935,6.8213,0.4212,54.895103,9.795192,108.3,5.845,1.85,70.00,54.895069,9.793790,54.895348,9.797490
1390201712,1,0,15.0,0,0,4,0,0,0,-0.0292,1095.2935,6.8213,0.4212,54.895119,9.795200,108.3,5.845,1.85,70.00,54.895069,9.793790,54.895348,9.797490
1390201712,1,0,15.0,0,0,0,0,0,0,-0.0292,1095.2935,6.8213,0.4212,54.895134,9.795209,108.3,5.845,1.85,70.00,54.895069,9.793790,54.895348,9.797490
1390201712,1,0,15.0,0,0,4,0,0,0,-0.0292,1095.2935,6.8213,0.4212,54.895153,9.795217,108.3,5.845,1.85,70.00,54.895069,9.793790,54.895348,9.797490
1390201712,1,0,15.0,0,0,0,0,0,0,-0.0292,1095.2935,6.8213,0.4212,54.895168,9.795224,108.3,5.845,1.85,70.00,54.895069,9.793790,54.895348,9.797490
1390201713,1,0,15.0,0,0,4,0,0,0,-0.0292,1095.2935,6.8213,0.4212,54.895184,9.795233,108.3,5.845,1.85,70.00,54.895069,9.793790,54.895348,9.797490
1390201713,1,0,15.0,0,0,0,0,0,0,-0.0292,1095.2935,6.8213,0.4212,54.895203,9.795241,108.3,5.845,1.85,70.00,54.895069,9.793790,54.895348,9.797490
1390201713,1,0,15.0,0,0,4,0,0,0,-0.0292,1095.2935,6.8213,0.4212,54.895218,9.795250,108.3,5.845,1.85,70.00,54.895069,9.793790,54.895348,9.797490
1390201713,1,0,15.0,0,0,0,0,0,0,-0.0292,1095.2935,6.8213,0.4212,54.895233,9.795258,108.3,5.845,1.85,70.00,54.895069,9.793790,54.895348,9.797490
1390201714,1,0,15.0,0,0,4,0,0,0,-0.0292,1095.2935,6.8213,0.4212,54.895252,9.795265,108.3,5.845,1.85,70.00,54.895069,9.793790,54.895348,9.797490
1390201714,1,0,15.0,0,0,0,0,0,0,-0.0292,1095.2935,6.8213,0.4212,54.895271,9.795274,108.3,5.845,1.85,70.00,54.895069,9.793790,54.895348,9.797490
1390201714,1,0,15.0,0,0,4,0,0,0,-0.0292,1095.2935,6.8213,0.4212,54.895287,9.795282,108.3,5.845,1.85,70.00,54.895069,9.793790,54.895348,9.797490
1390201714,1,0,15.0,0,0,0,0,0,0,-0.0292,1095.2935,6.8213,0.4212,54.895306,9.795291,108.3,5.845,1.85,70.00,54.895069,9.793790,54.895348,9.797490
1390201715,1,0,15.0,0,0,4,0,0,0,-0.0292,1095.2935,6.8213,0.4212,54.895325,9.795299,108.3,5.845,1.85,70.00,54.895069,9.793790,54.895348,9.797490
1390201715,1,0,15.0,0,0,0,0,0,0,-0.0292,1095.2935,6.8213,0.4212,54.895340,9.795306,108.3,5.845,1.85,70.00,54.895069,9.793790,54.895348,9.797490
1390201715,1,0,15.0,0,0,4,0,0,0,-0.0292,1095.2935,6.8213,0.4212,54.895355,9.795315,108.3,5.845,1.85,70.00,54.895069,9.793790,54.895348,9.797490
1390201715,1,0,15.0,0,0,0,0,0,0,-0.0292,1095.2935,6.8213,0.4212,54.895374,9.795323,108.3,5.845,1.85,70.00,54.895069,9.793790,54.895348,9.797490
1390201716,1,0,15.0,0,0,4,0,0,0,-0.0292,1095.2935,6.8213,0.4212,54.895390,9.795332,108.3,5.845,1.85,70.00,54.895069,9.793790,54.895348,9.797490
1390201716,1,0,15.0,0,0,0,0,0,0,-0.0292,1095.2935,6.8213,0.4212,54.895405,9.795340,108.3,5.845,1.85,70.00,54.895069,9.793790,54.895348,9.797490
1390201716,1,0,15.0,0,0,4,0,0,0,-0.0292,1095.2935,6.8213,0.4212,54.895424,9.795347,108.3,5.845,1.85,70.00,54.895069,9.793790,54.895348,9.797490
1390201716,1,0,15.0,0,0,0,0,0,0,-0.0292,1095.2935,6.8213,0.4212,54.895439,9.795355,108.3,5.845,1.85,70.00,54.895069,9.793790,54.895348,9.797490
1390201717,1,0,15.0,0,0,4,0,0,0,-0.0292,1095.2935,6.8213,0.4212,54.895454,9.795363,108.3,5.845,1.85,70.00,54.895069,9.793790,54.895348,9.797490
1390201717,1,0,15.0,0,0,0,0,0,0,-0.0292,1095.2935,6.8213,0.4212,54.895473,9.795372,108.3,5.845,1.85,70.00,54.895069,9.793790,54.895348,9.797490
1390201717,1,0,15.0,0,0,4,0,0,0,-0.0292,1095.2935,6.8213,0.4212,54.895493,9.795381,108.3,5.845,1.85,70.00,54.895069,9.793790,54.895348,9.797490
1390201717,1,0,15.0,0,0,0,0,0,0,-0.0292,1095.2935,6.8213,0.4212,54.895508,9.795388,108.3,5.845,1.85,70.00,54.895069,9.793790,54.895348,9.797490
1390201718,1,0,15.0,0,0,4,0,0,0,-0.0292,1095.2935,6.8213,0.4212,54.895527,9.795396,108.3,5.845,1.85,70.00,54.895069,9.793790,54.895348,9.797490
1390201718,1,0,15.0,0,0,0,0,0,0,-0.0292,1095.2935,6.8213,0.4212,54.895546,9.795404,108.3,5.845,1.85,70.00,54.895069,9.793790,54.895348,9.797490
1390201718,1,0,15.0,0,0,4,0,0,0,-0.0292,1095.2935,6.8213,0.4212,54.895561,9.795413,108.3,5.845,1.85,70.00,54.895069,9.793790,54.895348,9.797490
1390201718,1,0,15.0,0,0,0,0,0,0,-0.0292,1095.2935,6.8213,0.4212,54.895576,9.795422,108.3,5.845,1.85,70.00,54.895069,9.793790,54.895348,9.797490
1390201719,1,0,15.0,0,0,4,0,0,0,-0.0292,1095.2935,6.8213,0.4212,54.895596,9.795429,108.3,5.845,1.85,70.00,54.895069,9.793790,54.895348,9.797490
1390201719,1,0,15.0,0,0,0,0,0,0,-0.0292,1095.2935,6.8213,0.4212,54.895611,9.795437,108.3,5.845,1.85,70.00,54.895069,9.793790,54.895348,9.797490
1390201719,1,0,15.0,0,0,4,0,0,0,-0.0292,1095.2935,6.8213,0.4212,54.895626,9.795445,108.3,5.845,1.85,70.00,54.895069,9.793790,54.895348,9.797490
1390201719,1,0,15.0,0,0,0,0,0,0,-0.0292,1095.2935,6.8213,0.4212,54.895645,9.795454,108.3,5.845,1.85,70.00,54.895069,9.793790,54.895348,9.797490
1390201720,0,0,15.0,0,0,0,0,0,0,-0.0292,1095.2935,6.8213,0.4212,54.895645,9.795454,108.3,5.845,1.85,70.00,54.895069,9.793790,54.895348,9.797490
1390201720,0,0,15.0,0,0,0,0,0,0,-0.0292,1095.2935,6.8213,0.4212,54.895645,9.795454,108.3,5.845,1.85,70.00,54.895069,9.793790,54.895348,9.797490
1390201720,0,0,15.0,0,0,0,0,0,0,-0.0292,1095.2935,6.8213,0.4212,54.895645,9.795454,108.3,5.845,1.85,70.00,54.895069,9.793790,54.895348,9.797490
1390201720,0,0,15.0,0,0,0,0,0,0,-0.0292,1095.2935,6.8213,0.4212,54.895645,9.795454,108.3,5.845,1.85,70.00,54.895069,9.793790,54.895348,9.797490
1390201721,0,0,15.0,0,0,0,0,0,0,-0.0292,1095.2935,6.8213,0.4212,54.895645,9.795454,108.3,5.845,1.85,70.00,54.895069,9.793790,54.895348,9.797490
1390201721,0,0,15.0,0,0,0,0,0,0,-0.0292,1095.2935,6.8213,0.4212,54.895645,9.795454,108.3,5.845,1.85,70.00,54.895069,9.793790,54.895348,9.797490
1390201721,0,0,15.0,0,0,0,0,0,0,-0.0292,1095.2935,6.8213,0.4212,54.895645,9.795454,108.3,5.845,1.85,70.00,54.895069,9.793790,54.895348,9.797490
1390201721,0,0,15.0,0,0,0,0,0,0,-0.0292,1095.2935,6.8213,0.4212,54.895645,9.795454,108.3,5.845,1.85,70.00,54.895069,9.793790,54.895348,9.797490
1390201722,0,0,15.0,0,0,0,0,0,0,-0.0292,1095.2935,6.8213,0.4212,54.895645,9.795454,108.3,5.845,1.85,70.00,54.895069,9.793790,54.895348,9.797490
1390201722,0,0,15.0,0,0,0,0,0,0,-0.0292,1095.2935,6.8213,0.4212,54.895645,9.795454,108.3,5.845,1.85,70.00,54.895069,9.793790,54.895348,9.797490
1390201722,0,0,15.0,0,0,0,0,0,0,-0.0292,1095.2935,6.8213,0.4212,54.895645,9.795454,108.3,5.845,1.85,70.00,54.895069,9.793790,54.895348,9.797490
1390201722,0,0,15.0,0,0,0,0,0,0,-0.0292,1095.2935,6.8213,0.4212,54.895645,9.795454,108.3,5.845,1.85,70.00,54.895069,9.793790,54.895348,9.797490
1390201723,0,0,15.0,0,0,0,0,0,0,-0.0292,1095.2935,6.8213,0.4212,54.895645,9.795454,108.3,5.845,1.85,70.00,54.895069,9.793790,54.895348,9.797490
1390201723,0,0,15.0,0,0,0,0,0,0,-0.0292,1095.2935,6.8213,0.4212,54.895645,9.795454,108.3,5.845,1.85,70.00,54.895069,9.793790,54.895348,9.797490
1390201723,0,0,15.0,0,0,0,0,0,0,-0.0292,1095.2935,6.8213,0.4212,54.895645,9.795454,108.3,5.845,1.85,70.00,54.895069,9.793790,54.895348,9.797490
1390201723,0,0,15.0,0,0,0,0,0,0,-0.0292,1095.2935,6.8213,0.4212,54.895645,9.795454,108.3,5.845,1.85,70.00,54.895069,9.793790,54.895348,9.797490
1390201724,0,0,15.0,0,0,0,0,0,0,-0.0292,1095.2935,6.8213,0.4212,54.895645,9.795454,108.3,5.845,1.85,70.00,54.895069,9.793790,54.895348,9.797490
1390201724,0,0,15.0,0,0,0,0,0,0,-0.0292,1095.2935,6.8213,0.4212,54.895645,9.795454,108.3,5.845,1.85,70.00,54.895069,9.793790,54.895348,9.797490
1390201724,0,0,15.0,0,0,0,0,0,0,-0.0292,1095.2935,6.8213,0.4212,54.895645,9.795454,108.3,5.845,1.85,70.00,54.895069,9.793790,54.895348,9.797490
1390201724,0,0,15.0,0,0,0,0,0,0,-0.0292,1095.2935,6.8213,0.4212,54.895645,9.795454,108.3,5.845,1.85,70.00,54.895069,9.793790,54.895348,9.797490
1390201725,0,0,15.0,0,0,0,0,0,0,-0.0292,1095.2935,6.8213,0.4212,54.895645,9.795454,108.3,5.845,1.85,70.00,54.895069,9.793790,54.895348,9.797490
1390201725,0,0,15.0,0,0,0,0,0,0,-0.0292,1095.2935,6.8213,0.4212,54.895645,9.795454,108.3,5.845,1.85,70.00,54.895069,9.793790,54.895348,9.797490
1390201725,0,0,15.0,0,0,0,0,0,0,-0.0292,1095.2935,6.8213,0.4212,54.895645,9.795454,108.3,5.845,1.85,70.00,54.895069,9.793790,54.895348,9.797490
1390201725,0,0,15.0,0,0,0,0,0,0,-0.0292,1095.2935,6.8213,0.4212,54.895645,9.795454,108.3,5.845,1.85,70.00,54.895069,9.793790,54.895348,9.797490
1390201726,0,0,15.0,0,0,0,0,0,0,-0.0292,1095.2935,6.8213,0.4212,54.895645,9.795454,108.3,5.845,1.85,70.00,54.895069,9.793790,54.895348,9.797490
1390201726,0,0,15.0,0,0,0,0,0,0,-0.0292,1095.2935,6.8213,0.4212,54.895645,9.795454,108.3,5.845,1.85,70.00,54.895069,9.793790,54.895348,9.797490
1390201726,0,0,15.0,0,0,0,0,0,0,-0.0292,1095.2935,6.8213,0.4212,54.895645,9.795454,108.3,5.845,1.85,70.00,54.895069,9.793790,54.895348,9.797490
1390201726,0,0,15.0,0,0,0,0,0,0,-0.0292,1095.2935,6.8213,0.4212,54.895645,9.795454,108.3,5.845,1.85,70.00,54.895069,9.793790,54.895348,9.797490
1390201727,0,0,15.0,0,0,0,0,0,0,-0.0292,1095.2935,6.8213,0.4212,54.895645,9.795454,108.3,5.845,1.85,70.00,54.895069,9.793790,54.895348,9.797490
1390201727,0,0,15.0,0,0,0,0,0,0,-0.0292,1095.2935,6.8213,0.4212,54.895645,9.795454,108.3,5.845,1.85,70.00,54.895069,9.793790,54.895348,9.797490
1390201727,0,0,15.0,0,0,0,0,0,0,-0.0292,1095.2935,6.8213,0.4212,54.895645,9.795454,108.3,5.845,1.85,70.00,54.895069,9.793790,54.895348,9.797490
1390201727,0,0,15.0,0,0,0,0,0,0,-0.0292,1095.2935,6.8213,0.4212,54.895645,9.795454,108.3,5.845,1.85,70.00,54.895069,9.793790,54.895348,9.797490
1390201728,0,0,15.0,0,0,0,0,0,0,-0.0292,1095.2935,6.8213,0.4212,54.895645,9.795454,108.3,5.845,1.85,70.00,54.895069,9.793790,54.895348,9.797490
1390201728,0,0,15.0,0,0,0,0,0,0,-0.0292,1095.2935,6.8213,0.4212,54.895645,9.795454,108.3,5.845,1.85,70.00,54.895069,9.793790,54.895348,9.797490
1390201728,0,0,15.0,0,0,0,0,0,0,-0.0292,1095.2935,6.8213,0.4212,54.895645,9.795454,108.3,5.845,1.85,70.00,54.895069,9.793790,54.895348,9.797490
1390201728,0,0,15.0,0,0,0,0,0,0,-0.0292,1095.2935,6.8213,0.4212,54.895645,9.795454,108.3,5.845,1.85,70.00,54.895069,9.793790,54.895348,9.797490
1390201729,0,0,15.0,0,0,0,0,0,0,-0.0292,1095.2935,6.8213,0.4212,54.895645,9.795454,108.3,5.845,1.85,70.00,54.895069,9.793790,54.895348,9.797490
1390201729,0,0,15.0,0,0,0,0,0,0,-0.0292,1095.2935,6.8213,0.4212,54.895645,9.795454,108.3,5.845,1.85,70.00,54.895069,9.793790,54.895348,9.797490
1390201729,0,0,15.0,0,0,0,0,0,0,-0.0292,1095.2935,6.8213,0.4212,54.895645,9.795454,108.3,5.845,1.85,70.00,54.895069,9.793790,54.895348,9.797490
1390201729,0,0,15.0,0,0,0,0,0,0,-0.0292,1095.2935,6.8213,0.4212,54.895645,9.795454,108.3,5.845,1.85,70.00,54.895069,9.793790,54.895348,9.797490
1390201730,0,0,15.0,0,0,0,0,0,0,-0.0292,1095.2935,6.8213,0.4212,54.895645,9.795454,108.3,5.845,1.85,70.00,54.895069,9.793790,54.895348,9.797490
