MCU_timestamp,Navigation_System,Manual_Control,Guidance_Heading,Manual_Ctrl_Rudder,Rudder_Desired_Angle,Rudder_Feedback,Manual_Ctrl_Sail,Sail_Desired_Pos,Sail_Feedback,Rate,Heading,Pitch,Roll,Latitude,Longitude,COG,SOG,Wind_Speed,Wind_Angle,Point_Start_Lat,Point_Start_Lon,Point_End_Lat,Point_End_Lon
1389977447,0,0,0.0,0,0,4,0,0,0,-0.0292,189.6255,6.8213,0.4212,54.889088,9.783819,108.3,5.845,1.85,335.95,0.000000,0.000000,0.000000,0.000000
1389977448,0,0,0.0,0,0,4,0,0,0,-0.0292,189.6255,6.8213,0.4212,54.889088,9.783819,108.3,5.845,1.85,335.95,0.000000,0.000000,0.000000,0.000000
1389977448,0,0,0.0,0,0,4,0,0,0,-0.0292,189.6255,6.8213,0.4212,54.889088,9.783819,108.3,5.845,1.85,335.95,0.000000,0.000000,0.000000,0.000000
1389977448,0,0,0.0,0,0,4,0,0,0,-0.0292,189.6255,6.8213,0.4212,54.889088,9.783819,108.3,5.845,1.85,335.95,0.000000,0.000000,0.000000,0.000000
1389977448,0,0,0.0,0,0,4,0,0,0,-0.0292,189.6255,6.8213,0.4212,54.889088,9.783819,108.3,5.845,1.85,335.95,0.000000,0.000000,0.000000,0.000000
1389977449,0,0,0.0,0,0,4,0,0,0,-0.0292,189.6255,6.8213,0.4212,54.889088,9.783819,108.3,5.845,1.85,335.95,0.000000,0.000000,0.000000,0.000000
1389977449,0,0,0.0,0,0,4,0,0,0,-0.0292,189.6255,6.8213,0.4212,54.889088,9.783819,108.3,5.845,1.85,335.95,0.000000,0.000000,0.000000,0.000000
1389977449,0,0,0.0,0,0,4,0,0,0,-0.0292,189.6255,6.8213,0.4212,54.889088,9.783819,108.3,5.845,1.85,335.95,0.000000,0.000000,0.000000,0.000000
1389977449,4,0,0.0,0,0,4,0,0,0,-0.0292,189.6255,6.8213,0.4212,54.889088,9.783819,108.3,5.845,1.85,335.95,0.000000,0.000000,0.000000,0.000000
1389977450,1,0,0.0,0,-35,0,0,713,750,-0.0292,201.2922,6.8213,0.4212,54.889072,9.783808,108.3,5.845,1.85,335.95,54.895069,9.793790,54.895348,9.797490
1389977450,1,0,0.0,0,31,4,0,870,800,-0.0292,190.9589,6.8213,0.4212,54.889053,9.783801,108.3,5.845,1.85,335.95,54.895348,9.797490,54.894039,9.801540
1389977450,1,0,0.0,0,21,8,0,713,750,-0.0292,183.9589,6.8213,0.4212,54.889034,9.783798,108.3,5.845,1.85,335.95,54.894039,9.801540,54.893795,9.802299
1389977450,1,0,0.0,0,14,12,0,713,700,-0.0292,179.2922,6.8213,0.4212,54.889015,9.783799,108.3,5.845,1.85,335.95,54.893795,9.802299,54.893364,9.803688
1389977451,1,0,0.0,0,9,8,0,713,750,-0.0292,176.2922,6.8213,0.4212,54.889000,9.783802,108.3,5.845,1.85,335.95,54.893364,9.803688,54.892704,9.801139
1389977451,1,0,0.0,0,6,4,0,713,700,-0.0292,174.2922,6.8213,0.4212,54.888981,9.783805,108.3,5.845,1.85,335.95,54.892704,9.801139,54.891663,9.800174
1389977451,1,0,0.0,0,4,8,0,713,750,-0.0292,172.9589,6.8213,0.4212,54.888962,9.783809,108.3,5.845,1.85,335.95,54.891663,9.800174,54.892929,9.805077
1389977451,1,0,0.0,0,3,4,0,713,700,-0.0292,171.9589,6.8213,0.4212,54.888947,9.783813,108.3,5.845,1.85,335.95,54.892929,9.805077,54.892498,9.806466
1389977452,1,0,0.0,0,2,0,0,713,750,-0.0292,171.2922,6.8213,0.4212,54.888927,9.783817,108.3,5.845,1.85,335.95,54.892498,9.806466,54.891232,9.801563
1389977452,1,0,0.0,0,1,4,0,713,700,-0.0292,170.9589,6.8213,0.4212,54.888908,9.783822,108.3,5.845,1.85,335.95,54.891232,9.801563,54.890800,9.802953
1389977452,1,0,0.0,0,1,0,0,713,750,-0.0292,170.6255,6.8213,0.4212,54.888889,9.783827,108.3,5.845,1.85,335.95,54.890800,9.802953,54.891651,9.806246
1389977452,1,0,0.0,0,1,4,0,713,700,-0.0292,170.2922,6.8213,0.4212,54.888874,9.783833,108.3,5.845,1.85,335.95,54.891651,9.806246,54.890560,9.805087
1389977453,1,0,0.0,0,0,0,0,713,750,-0.0292,170.2922,6.8213,0.4212,54.888855,9.783838,108.3,5.845,1.85,335.95,54.890560,9.805087,54.890366,9.804342
1389977453,1,0,0.0,0,0,4,0,713,700,-0.0292,170.2922,6.8213,0.4212,54.888836,9.783844,108.3,5.845,1.85,335.95,54.890366,9.804342,54.890846,9.801930
1389977453,1,0,0.0,0,0,0,0,713,750,-0.0292,170.2922,6.8213,0.4212,54.888817,9.783849,108.3,5.845,1.85,335.95,54.890846,9.801930,54.889477,9.798280
1389977453,1,0,0.0,0,0,4,0,713,700,-0.0292,170.2922,6.8213,0.4212,54.888802,9.783854,108.3,5.845,1.85,335.95,54.889477,9.798280,54.891819,9.794550
1389977454,1,0,0.0,0,0,0,0,713,750,-0.0292,170.2922,6.8213,0.4212,54.888783,9.783858,108.3,5.845,1.85,335.95,54.891819,9.794550,54.895348,9.797490
1389977454,1,0,0.0,0,0,4,0,713,700,-0.0292,170.2922,6.8213,0.4212,54.888763,9.783863,108.3,5.845,1.85,335.95,54.895348,9.797490,54.895069,9.793790
1389977454,1,0,0.0,0,0,0,0,713,750,-0.0292,170.2922,6.8213,0.4212,54.888744,9.783868,108.3,5.845,1.85,335.95,54.895348,9.797490,54.895069,9.793790
1389977454,3,0,0.0,0,0,4,0,713,700,-0.0292,170.2922,6.8213,0.4212,54.888729,9.783874,108.3,5.845,1.85,335.95,54.895348,9.797490,54.888744,9.783868
1389977455,3,0,0.0,0,0,0,0,713,750,-0.0292,170.2922,6.8213,0.4212,54.888710,9.783879,108.3,5.845,1.85,335.95,54.895348,9.797490,54.888744,9.783868
1389977455,3,0,0.0,0,0,4,0,713,700,-0.0292,170.2922,6.8213,0.4212,54.888691,9.783885,108.3,5.845,1.85,335.95,54.895348,9.797490,54.888744,9.783868
1389977455,3,0,0.0,0,0,0,0,713,750,-0.0292,170.2922,6.8213,0.4212,54.888676,9.783891,108.3,5.845,1.85,335.95,54.895348,9.797490,54.888744,9.783868
1389977455,3,0,0.0,0,0,4,0,713,700,-0.0292,170.2922,6.8213,0.4212,54.888657,9.783895,108.3,5.845,1.85,335.95,54.895348,9.797490,54.888744,9.783868
1389977456,3,0,0.0,0,0,0,0,713,750,-0.0292,170.2922,6.8213,0.4212,54.888638,9.783900,108.3,5.845,1.85,335.95,54.895348,9.797490,54.888744,9.783868
1389977456,3,0,0.0,0,0,4,0,713,700,-0.0292,170.2922,6.8213,0.4212,54.888618,9.783905,108.3,5.845,1.85,335.95,54.895348,9.797490,54.888744,9.783868
1389977456,3,0,0.0,0,0,0,0,713,750,-0.0292,170.2922,6.8213,0.4212,54.888603,9.783910,108.3,5.845,1.85,335.95,54.895348,9.797490,54.888744,9.783868
1389977456,3,0,0.0,0,0,4,0,713,700,-0.0292,170.2922,6.8213,0.4212,54.888584,9.783916,108.3,5.845,1.85,335.95,54.895348,9.797490,54.888744,9.783868
1389977457,3,0,0.0,0,0,0,0,713,750,-0.0292,170.2922,6.8213,0.4212,54.888565,9.783921,108.3,5.845,1.85,335.95,54.895348,9.797490,54.888744,9.783868
1389977457,3,0,0.0,0,0,4,0,713,700,-0.0292,170.2922,6.8213,0.4212,54.888546,9.783927,108.3,5.845,1.85,335.95,54.895348,9.797490,54.888744,9.783868
1389977457,3,0,0.0,0,0,0,0,713,750,-0.0292,170.2922,6.8213,0.4212,54.888531,9.783933,108.3,5.845,1.85,335.95,54.895348,9.797490,54.888744,9.783868
1389977457,3,0,0.0,0,0,4,0,713,700,-0.0292,170.2922,6.8213,0.4212,54.888512,9.783937,108.3,5.845,1.85,335.95,54.895348,9.797490,54.888744,9.783868
1389977458,3,0,0.0,0,0,0,0,713,750,-0.0292,170.2922,6.8213,0.4212,54.888493,9.783942,108.3,5.845,1.85,335.95,54.895348,9.797490,54.888744,9.783868
1389977458,3,0,0.0,0,0,4,0,713,700,-0.0292,170.2922,6.8213,0.4212,54.888474,9.783947,108.3,5.845,1.85,335.95,54.895348,9.797490,54.888744,9.783868
1389977458,3,0,0.0,0,0,0,0,713,750,-0.0292,170.2922,6.8213,0.4212,54.888458,9.783952,108.3,5.845,1.85,335.95,54.895348,9.797490,54.888744,9.783868
1389977458,3,0,0.0,0,0,4,0,713,700,-0.0292,170.2922,6.8213,0.4212,54.888439,9.783957,108.3,5.845,1.85,335.95,54.895348,9.797490,54.888744,9.783868
1389977459,3,0,0.0,0,0,0,0,713,750,-0.0292,170.2922,6.8213,0.4212,54.888420,9.783963,108.3,5.845,1.85,335.95,54.895348,9.797490,54.888744,9.783868
1389977459,3,0,0.0,0,0,4,0,713,700,-0.0292,170.2922,6.8213,0.4212,54.888405,9.783969,108.3,5.845,1.85,335.95,54.895348,9.797490,54.888744,9.783868
1389977459,3,0,0.0,0,0,0,0,713,750,-0.0292,170.2922,6.8213,0.4212,54.888386,9.783975,108.3,5.845,1.85,335.95,54.895348,9.797490,54.888744,9.783868
1389977459,3,0,0.0,0,0,4,0,713,700,-0.0292,170.2922,6.8213,0.4212,54.888367,9.783979,108.3,5.845,1.85,335.95,54.895348,9.797490,54.888744,9.783868
1389977460,3,0,0.0,0,0,0,0,713,750,-0.0292,170.2922,6.8213,0.4212,54.888348,9.783984,108.3,5.845,1.85,335.95,54.895348,9.797490,54.888744,9.783868
1389977460,3,0,0.0,0,-20,-4,0,713,700,-0.0292,176.9589,6.8213,0.4212,54.888332,9.783986,108.3,5.845,1.85,335.95,54.895348,9.797490,54.888744,9.783868
1389977460,3,0,0.0,0,-13,-8,0,713,750,-0.0292,181.2922,6.8213,0.4212,54.888313,9.783985,108.3,5.845,1.85,335.95,54.895348,9.797490,54.888744,9.783868
1389977460,3,0,0.0,0,-9,-12,0,713,700,-0.0292,184.2922,6.8213,0.4212,54.888294,9.783982,108.3,5.845,1.85,335.95,54.895348,9.797490,54.888744,9.783868
1389977461,3,0,0.0,0,-6,-8,0,713,750,-0.0292,186.2922,6.8213,0.4212,54.888275,9.783978,108.3,5.845,1.85,335.95,54.895348,9.797490,54.888744,9.783868
1389977461,3,0,0.0,0,-4,-4,0,713,700,-0.0292,187.6255,6.8213,0.4212,54.888260,9.783974,108.3,5.845,1.85,335.95,54.895348,9.797490,54.888744,9.783868
1389977461,3,0,0.0,0,-2,0,0,713,750,-0.0292,188.2922,6.8213,0.4212,54.888241,9.783969,108.3,5.845,1.85,335.95,54.895348,9.797490,54.888744,9.783868
1389977461,3,0,0.0,0,-2,-4,0,713,700,-0.0292,188.9589,6.8213,0.4212,54.888222,9.783964,108.3,5.845,1.85,335.95,54.895348,9.797490,54.888744,9.783868
1389977462,3,0,0.0,0,-1,0,0,713,750,-0.0292,189.2922,6.8213,0.4212,54.888203,9.783959,108.3,5.845,1.85,335.95,54.895348,9.797490,54.888744,9.783868
1389977462,3,0,0.0,0,-1,-4,0,713,700,-0.0292,189.6255,6.8213,0.4212,54.888187,9.783955,108.3,5.845,1.85,335.95,54.895348,9.797490,54.888744,9.783868
1389977462,3,0,0.0,0,0,0,0,713,750,-0.0292,189.6255,6.8213,0.4212,54.888168,9.783950,108.3,5.845,1.85,335.95,54.895348,9.797490,54.888744,9.783868
1389977463,3,0,0.0,0,0,4,0,713,700,-0.0292,189.6255,6.8213,0.4212,54.888149,9.783945,108.3,5.845,1.85,335.95,54.895348,9.797490,54.888744,9.783868
1389977463,3,0,0.0,0,0,0,0,713,750,-0.0292,189.6255,6.8213,0.4212,54.888134,9.783939,108.3,5.845,1.85,335.95,54.895348,9.797490,54.888744,9.783868
1389977463,3,0,0.0,0,0,4,0,713,700,-0.0292,189.6255,6.8213,0.4212,54.888115,9.783934,108.3,5.845,1.85,335.95,54.895348,9.797490,54.888744,9.783868
1389977463,3,0,0.0,0,0,0,0,713,750,-0.0292,189.6255,6.8213,0.4212,54.888096,9.783928,108.3,5.845,1.85,335.95,54.895348,9.797490,54.888744,9.783868
1389977464,3,0,0.0,0,0,4,0,713,700,-0.0292,189.6255,6.8213,0.4212,54.888077,9.783923,108.3,5.845,1.85,335.95,54.895348,9.797490,54.888744,9.783868
1389977464,3,0,0.0,0,0,0,0,713,750,-0.0292,189.6255,6.8213,0.4212,54.888062,9.783918,108.3,5.845,1.85,335.95,54.895348,9.797490,54.888744,9.783868
1389977464,3,0,0.0,0,0,4,0,713,700,-0.0292,189.6255,6.8213,0.4212,54.888042,9.783914,108.3,5.845,1.85,335.95,54.895348,9.797490,54.888744,9.783868
1389977464,3,0,0.0,0,0,0,0,713,750,-0.0292,189.6255,6.8213,0.4212,54.888023,9.783909,108.3,5.845,1.85,335.95,54.895348,9.797490,54.888744,9.783868
1389977465,3,0,0.0,0,0,4,0,713,700,-0.0292,189.6255,6.8213,0.4212,54.888004,9.783904,108.3,5.845,1.85,335.95,54.895348,9.797490,54.888744,9.783868
1389977465,3,0,0.0,0,0,0,0,713,750,-0.0292,189.6255,6.8213,0.4212,54.887989,9.783898,108.3,5.845,1.85,335.95,54.895348,9.797490,54.888744,9.783868
1389977465,3,0,0.0,0,0,4,0,713,700,-0.0292,189.6255,6.8213,0.4212,54.887970,9.783893,108.3,5.845,1.85,335.95,54.895348,9.797490,54.888744,9.783868
1389977465,3,0,0.0,0,0,0,0,713,750,-0.0292,189.6255,6.8213,0.4212,54.887951,9.783887,108.3,5.845,1.85,335.95,54.895348,9.797490,54.888744,9.783868
1389977466,3,0,0.0,0,0,4,0,713,700,-0.0292,189.6255,6.8213,0.4212,54.887932,9.783881,108.3,5.845,1.85,335.95,54.895348,9.797490,54.888744,9.783868
1389977466,3,0,0.0,0,0,0,0,713,750,-0.0292,189.6255,6.8213,0.4212,54.887917,9.783876,108.3,5.845,1.85,335.95,54.895348,9.797490,54.888744,9.783868
1389977466,3,0,0.0,0,0,4,0,713,700,-0.0292,189.6255,6.8213,0.4212,54.887897,9.783872,108.3,5.845,1.85,335.95,54.895348,9.797490,54.888744,9.783868
1389977466,3,0,0.0,0,0,0,0,713,750,-0.0292,189.6255,6.8213,0.4212,54.887878,9.783867,108.3,5.845,1.85,335.95,54.895348,9.797490,54.888744,9.783868
1389977467,3,0,0.0,0,0,4,0,713,700,-0.0292,189.6255,6.8213,0.4212,54.887859,9.783862,108.3,5.845,1.85,335.95,54.895348,9.797490,54.888744,9.783868
1389977467,3,0,0.0,0,0,0,0,713,750,-0.0292,189.6255,6.8213,0.4212,54.887844,9.783856,108.3,5.845,1.85,335.95,54.895348,9.797490,54.888744,9.783868
1389977467,3,0,0.0,0,0,4,0,713,700,-0.0292,189.6255,6.8213,0.4212,54.887825,9.783851,108.3,5.845,1.85,335.95,54.895348,9.797490,54.888744,9.783868
1389977467,3,0,0.0,0,0,0,0,713,750,-0.0292,189.6255,6.8213,0.4212,54.887806,9.783845,108.3,5.845,1.85,335.95,54.895348,9.797490,54.888744,9.783868
1389977468,3,0,0.0,0,0,4,0,713,700,-0.0292,189.6255,6.8213,0.4212,54.887791,9.783839,108.3,5.845,1.85,335.95,54.895348,9.797490,54.888744,9.783868
1389977468,3,0,0.0,0,0,0,0,713,750,-0.0292,189.6255,6.8213,0.4212,54.887772,9.783834,108.3,5.845,1.85,335.95,54.895348,9.797490,54.888744,9.783868
1389977468,3,0,0.0,0,0,4,0,713,700,-0.0292,189.6255,6.8213,0.4212,54.887753,9.783830,108.3,5.845,1.85,335.95,54.895348,9.797490,54.888744,9.783868
1389977468,3,0,0.0,0,0,0,0,713,750,-0.0292,189.6255,6.8213,0.4212,54.887733,9.783825,108.3,5.845,1.85,335.95,54.895348,9.797490,54.888744,9.783868
1389977469,3,0,0.0,0,0,4,0,713,700,-0.0292,189.6255,6.8213,0.4212,54.887718,9.783820,108.3,5.845,1.85,335.95,54.895348,9.797490,54.888744,9.783868
1389977469,3,0,0.0,0,0,0,0,713,750,-0.0292,189.6255,6.8213,0.4212,54.887699,9.783814,108.3,5.845,1.85,335.95,54.895348,9.797490,54.888744,9.783868
1389977469,3,0,0.0,0,0,4,0,713,700,-0.0292,189.6255,6.8213,0.4212,54.887680,9.783809,108.3,5.845,1.85,335.95,54.895348,9.797490,54.888744,9.783868
1389977469,3,0,0.0,0,0,0,0,713,750,-0.0292,189.6255,6.8213,0.4212,54.887661,9.783803,108.3,5.845,1.85,335.95,54.895348,9.797490,54.888744,9.783868
1389977470,3,0,0.0,0,0,4,0,713,700,-0.0292,189.6255,6.8213,0.4212,54.887646,9.783797,108.3,5.845,1.85,335.95,54.895348,9.797490,54.888744,9.783868
1389977470,3,0,0.0,0,0,0,0,713,750,-0.0292,189.6255,6.8213,0.4212,54.887627,9.783792,108.3,5.845,1.85,335.95,54.895348,9.797490,54.888744,9.783868
1389977470,3,0,0.0,0,0,4,0,713,700,-0.0292,189.6255,6.8213,0.4212,54.887608,9.783788,108.3,5.845,1.85,335.95,54.895348,9.797490,54.888744,9.783868
1389977470,3,0,0.0,0,0,0,0,713,750,-0.0292,189.6255,6.8213,0.4212,54.887589,9.783783,108.3,5.845,1.85,335.95,54.895348,9.797490,54.888744,9.783868
1389977471,3,0,0.0,0,0,4,0,713,700,-0.0292,189.6255,6.8213,0.4212,54.887573,9.783778,108.3,5.845,1.85,335.95,54.895348,9.797490,54.888744,9.783868
1389977471,3,0,0.0,0,0,0,0,713,750,-0.0292,189.6255,6.8213,0.4212,54.887554,9.783773,108.3,5.845,1.85,335.95,54.895348,9.797490,54.888744,9.783868
1389977471,3,0,0.0,0,0,4,0,713,700,-0.0292,189.6255,6.8213,0.4212,54.887535,9.783768,108.3,5.845,1.85,335.95,54.895348,9.797490,54.888744,9.783868
1389977471,3,0,0.0,0,0,0,0,713,750,-0.0292,189.6255,6.8213,0.4212,54.887520,9.783762,108.3,5.845,1.85,335.95,54.895348,9.797490,54.888744,9.783868
1389977472,3,0,0.0,0,0,4,0,713,700,-0.0292,189.6255,6.8213,0.4212,54.887501,9.783756,108.3,5.845,1.85,335.95,54.895348,9.797490,54.888744,9.783868
1389977472,3,0,0.0,0,0,0,0,713,750,-0.0292,189.6255,6.8213,0.4212,54.887482,9.783751,108.3,5.845,1.85,335.95,54.895348,9.797490,54.888744,9.783868
1389977472,3,0,0.0,0,0,4,0,713,700,-0.0292,189.6255,6.8213,0.4212,54.887463,9.783747,108.3,5.845,1.85,335.95,54.895348,9.797490,54.888744,9.783868
1389977472,3,0,0.0,0,0,0,0,713,750,-0.0292,189.6255,6.8213,0.4212,54.887447,9.783742,108.3,5.845,1.85,335.95,54.895348,9.797490,54.888744,9.783868
1389977473,3,0,0.0,0,0,4,0,713,700,-0.0292,189.6255,6.8213,0.4212,54.887428,9.783737,108.3,5.845,1.85,335.95,54.895348,9.797490,54.888744,9.783868
1389977473,3,0,0.0,0,0,0,0,713,750,-0.0292,189.6255,6.8213,0.4212,54.887409,9.783732,108.3,5.845,1.85,335.95,54.895348,9.797490,54.888744,9.783868
1389977473,3,0,0.0,0,0,4,0,713,700,-0.0292,189.6255,6.8213,0.4212,54.887390,9.783727,108.3,5.845,1.85,335.95,54.895348,9.797490,54.888744,9.783868
1389977473,3,0,0.0,0,0,0,0,713,750,-0.0292,189.6255,6.8213,0.4212,54.887375,9.783721,108.3,5.845,1.85,335.95,54.895348,9.797490,54.888744,9.783868
1389977474,3,0,0.0,0,0,4,0,713,700,-0.0292,189.6255,6.8213,0.4212,54.887356,9.783715,108.3,5.845,1.85,335.95,54.895348,9.797490,54.888744,9.783868
1389977474,3,0,0.0,0,0,0,0,713,750,-0.0292,189.6255,6.8213,0.4212,54.887337,9.783710,108.3,5.845,1.85,335.95,54.895348,9.797490,54.888744,9.783868
1389977474,3,0,0.0,0,0,4,0,713,700,-0.0292,189.6255,6.8213,0.4212,54.887318,9.783705,108.3,5.845,1.85,335.95,54.895348,9.797490,54.888744,9.783868
1389977474,3,0,0.0,0,0,0,0,713,750,-0.0292,189.6255,6.8213,0.4212,54.887302,9.783700,108.3,5.845,1.85,335.95,54.895348,9.797490,54.888744,9.783868
1389977475,3,0,0.0,0,0,4,0,713,700,-0.0292,189.6255,6.8213,0.4212,54.887283,9.783695,108.3,5.845,1.85,335.95,54.895348,9.797490,54.888744,9.783868
1389977475,3,0,0.0,0,0,0,0,713,750,-0.0292,189.6255,6.8213,0.4212,54.887264,9.783690,108.3,5.845,1.85,335.95,54.895348,9.797490,54.888744,9.783868
1389977475,3,0,0.0,0,0,4,0,713,700,-0.0292,189.6255,6.8213,0.4212,54.887249,9.783685,108.3,5.845,1.85,335.95,54.895348,9.797490,54.888744,9.783868
1389977475,3,0,0.0,0,0,0,0,713,750,-0.0292,189.6255,6.8213,0.4212,54.887230,9.783679,108.3,5.845,1.85,335.95,54.895348,9.797490,54.888744,9.783868
1389977476,3,0,0.0,0,0,4,0,713,700,-0.0292,189.6255,6.8213,0.4212,54.887211,9.783673,108.3,5.845,1.85,335.95,54.895348,9.797490,54.888744,9.783868
1389977476,3,0,0.0,0,0,0,0,713,750,-0.0292,189.6255,6.8213,0.4212,54.887192,9.783668,108.3,5.845,1.85,335.95,54.895348,9.797490,54.888744,9.783868
1389977476,3,0,0.0,0,0,4,0,713,700,-0.0292,189.6255,6.8213,0.4212,54.887177,9.783663,108.3,5.845,1.85,335.95,54.895348,9.797490,54.888744,9.783868
1389977476,3,0,0.0,0,0,0,0,713,750,-0.0292,189.6255,6.8213,0.4212,54.887157,9.783658,108.3,5.845,1.85,335.95,54.895348,9.797490,54.888744,9.783868
1389977477,3,0,0.0,0,0,4,0,713,700,-0.0292,189.6255,6.8213,0.4212,54.887138,9.783653,108.3,5.845,1.85,335.95,54.895348,9.797490,54.888744,9.783868
1389977477,3,0,0.0,0,0,0,0,713,750,-0.0292,189.6255,6.8213,0.4212,54.887119,9.783648,108.3,5.845,1.85,335.95,54.895348,9.797490,54.888744,9.783868
1389977477,3,0,0.0,0,0,4,0,713,700,-0.0292,189.6255,6.8213,0.4212,54.887104,9.783643,108.3,5.845,1.85,335.95,54.895348,9.797490,54.888744,9.783868
1389977477,3,0,0.0,0,0,0,0,713,750,-0.0292,189.6255,6.8213,0.4212,54.887085,9.783637,108.3,5.845,1.85,335.95,54.895348,9.797490,54.888744,9.783868
1389977478,3,0,0.0,0,0,4,0,713,700,-0.0292,189.6255,6.8213,0.4212,54.887066,9.783631,108.3,5.845,1.85,335.95,54.895348,9.797490,54.888744,9.783868
1389977478,3,0,0.0,0,0,0,0,713,750,-0.0292,189.6255,6.8213,0.4212,54.887047,9.783626,108.3,5.845,1.85,335.95,54.895348,9.797490,54.888744,9.783868
1389977478,3,0,0.0,0,0,4,0,713,700,-0.0292,189.6255,6.8213,0.4212,54.887032,9.783621,108.3,5.845,1.85,335.95,54.895348,9.797490,54.888744,9.783868
1389977478,3,0,0.0,0,0,0,0,713,750,-0.0292,189.6255,6.8213,0.4212,54.887012,9.783616,108.3,5.845,1.85,335.95,54.895348,9.797490,54.888744,9.783868
1389977479,3,0,0.0,0,0,4,0,713,700,-0.0292,189.6255,6.8213,0.4212,54.886993,9.783611,108.3,5.845,1.85,335.95,54.895348,9.797490,54.888744,9.783868
1389977479,3,0,0.0,0,0,0,0,713,750,-0.0292,189.6255,6.8213,0.4212,54.886978,9.783607,108.3,5.845,1.85,335.95,54.895348,9.797490,54.888744,9.783868
1389977479,3,0,0.0,0,0,4,0,713,700,-0.0292,189.6255,6.8213,0.4212,54.886959,9.783602,108.3,5.845,1.85,335.95,54.895348,9.797490,54.888744,9.783868
1389977479,3,0,0.0,0,0,0,0,713,750,-0.0292,189.6255,6.8213,0.4212,54.886940,9.783596,108.3,5.845,1.85,335.95,54.895348,9.797490,54.888744,9.783868
1389977480,3,0,0.0,0,0,4,0,713,700,-0.0292,189.6255,6.8213,0.4212,54.886921,9.783590,108.3,5.845,1.85,335.95,54.895348,9.797490,54.888744,9.783868
1389977480,3,0,0.0,0,0,0,0,713,750,-0.0292,189.6255,6.8213,0.4212,54.886906,9.783585,108.3,5.845,1.85,335.95,54.895348,9.797490,54.888744,9.783868
1389977480,3,0,0.0,0,0,4,0,713,700,-0.0292,189.6255,6.8213,0.4212,54.886887,9.783580,108.3,5.845,1.85,335.95,54.895348,9.797490,54.888744,9.783868
1389977480,3,0,0.0,0,0,0,0,713,750,-0.0292,189.6255,6.8213,0.4212,54.886868,9.783575,108.3,5.845,1.85,335.95,54.895348,9.797490,54.888744,9.783868
1389977481,3,0,0.0,0,0,4,0,713,700,-0.0292,189.6255,6.8213,0.4212,54.886848,9.783570,108.3,5.845,1.85,335.95,54.895348,9.797490,54.888744,9.783868
1389977481,3,0,0.0,0,0,0,0,713,750,-0.0292,189.6255,6.8213,0.4212,54.886833,9.783566,108.3,5.845,1.85,335.95,54.895348,9.797490,54.888744,9.783868
1389977481,3,0,0.0,0,0,4,0,713,700,-0.0292,189.6255,6.8213,0.4212,54.886814,9.783561,108.3,5.845,1.85,335.95,54.895348,9.797490,54.888744,9.783868
1389977481,3,0,0.0,0,0,0,0,713,750,-0.0292,189.6255,6.8213,0.4212,54.886795,9.783555,108.3,5.845,1.85,335.95,54.895348,9.797490,54.888744,9.783868
1389977482,3,0,0.0,0,0,4,0,713,700,-0.0292,189.6255,6.8213,0.4212,54.886776,9.783549,108.3,5.845,1.85,335.95,54.895348,9.797490,54.888744,9.783868
1389977482,3,0,0.0,0,0,0,0,713,750,-0.0292,189.6255,6.8213,0.4212,54.886761,9.783544,108.3,5.845,1.85,335.95,54.895348,9.797490,54.888744,9.783868
1389977482,3,0,0.0,0,0,4,0,713,700,-0.0292,189.6255,6.8213,0.4212,54.886742,9.783538,108.3,5.845,1.85,335.95,54.895348,9.797490,54.888744,9.783868
1389977482,3,0,0.0,0,0,0,0,713,750,-0.0292,189.6255,6.8213,0.4212,54.886723,9.783533,108.3,5.845,1.85,335.95,54.895348,9.797490,54.888744,9.783868
1389977483,3,0,0.0,0,0,4,0,713,700,-0.0292,189.6255,6.8213,0.4212,54.886703,9.783528,108.3,5.845,1.85,335.95,54.895348,9.797490,54.888744,9.783868
1389977483,3,0,0.0,0,0,0,0,713,750,-0.0292,189.6255,6.8213,0.4212,54.886688,9.783524,108.3,5.845,1.85,335.95,54.895348,9.797490,54.888744,9.783868
1389977483,3,0,0.0,0,0,4,0,713,700,-0.0292,189.6255,6.8213,0.4212,54.886669,9.783519,108.3,5.845,1.85,335.95,54.895348,9.797490,54.888744,9.783868
1389977483,3,0,0.0,0,0,0,0,713,750,-0.0292,189.6255,6.8213,0.4212,54.886650,9.783513,108.3,5.845,1.85,335.95,54.895348,9.797490,54.888744,9.783868
1389977484,3,0,0.0,0,0,4,0,713,700,-0.0292,189.6255,6.8213,0.4212,54.886635,9.783507,108.3,5.845,1.85,335.95,54.895348,9.797490,54.888744,9.783868
1389977484,3,0,0.0,0,0,0,0,713,750,-0.0292,189.6255,6.8213,0.4212,54.886616,9.783502,108.3,5.845,1.85,335.95,54.895348,9.797490,54.888744,9.783868
1389977484,3,0,0.0,0,0,4,0,713,700,-0.0292,189.6255,6.8213,0.4212,54.886597,9.783496,108.3,5.845,1.85,335.95,54.895348,9.797490,54.888744,9.783868
1389977484,3,0,0.0,0,0,0,0,713,750,-0.0292,189.6255,6.8213,0.4212,54.886578,9.783491,108.3,5.845,1.85,335.95,54.895348,9.797490,54.888744,9.783868
1389977485,3,0,0.0,0,0,4,0,713,700,-0.0292,189.6255,6.8213,0.4212,54.886562,9.783486,108.3,5.845,1.85,335.95,54.895348,9.797490,54.888744,9.783868
1389977485,3,0,0.0,0,0,0,0,713,750,-0.0292,189.6255,6.8213,0.4212,54.886543,9.783482,108.3,5.845,1.85,335.95,54.895348,9.797490,54.888744,9.783868
1389977485,3,0,0.0,0,0,4,0,713,700,-0.0292,189.6255,6.8213,0.4212,54.886524,9.783477,108.3,5.845,1.85,335.95,54.895348,9.797490,54.888744,9.783868
1389977485,3,0,0.0,0,0,0,0,713,750,-0.0292,189.6255,6.8213,0.4212,54.886505,9.783471,108.3,5.845,1.85,335.95,54.895348,9.797490,54.888744,9.783868
1389977486,3,0,0.0,0,0,4,0,713,700,-0.0292,189.6255,6.8213,0.4212,54.886490,9.783465,108.3,5.845,1.85,335.95,54.895348,9.797490,54.888744,9.783868
1389977486,3,0,0.0,0,0,0,0,713,750,-0.0292,189.6255,6.8213,0.4212,54.886471,9.783460,108.3,5.845,1.85,335.95,54.895348,9.797490,54.888744,9.783868
1389977486,3,0,0.0,0,0,4,0,713,700,-0.0292,189.6255,6.8213,0.4212,54.886452,9.783454,108.3,5.845,1.85,335.95,54.895348,9.797490,54.888744,9.783868
1389977486,3,0,0.0,0,0,0,0,713,750,-0.0292,189.6255,6.8213,0.4212,54.886433,9.783449,108.3,5.845,1.85,335.95,54.895348,9.797490,54.888744,9.783868
1389977487,3,0,0.0,0,0,4,0,713,700,-0.0292,189.6255,6.8213,0.4212,54.886417,9.783444,108.3,5.845,1.85,335.95,54.895348,9.797490,54.888744,9.783868
1389977487,3,0,0.0,0,0,0,0,713,750,-0.0292,189.6255,6.8213,0.4212,54.886398,9.783440,108.3,5.845,1.85,335.95,54.895348,9.797490,54.888744,9.783868
1389977487,3,0,0.0,0,0,4,0,713,700,-0.0292,189.6255,6.8213,0.4212,54.886379,9.783435,108.3,5.845,1.85,335.95,54.895348,9.797490,54.888744,9.783868
1389977487,3,0,0.0,0,0,0,0,713,750,-0.0292,189.6255,6.8213,0.4212,54.886364,9.783429,108.3,5.845,1.85,335.95,54.895348,9.797490,54.888744,9.783868
1389977488,3,0,0.0,0,0,4,0,713,700,-0.0292,189.6255,6.8213,0.4212,54.886345,9.783423,108.3,5.845,1.85,335.95,54.895348,9.797490,54.888744,9.783868
1389977488,3,0,0.0,0,0,0,0,713,750,-0.0292,189.6255,6.8213,0.4212,54.886326,9.783418,108.3,5.845,1.85,335.95,54.895348,9.797490,54.888744,9.783868
1389977488,3,0,0.0,0,0,4,0,713,700,-0.0292,189.6255,6.8213,0.4212,54.886307,9.783412,108.3,5.845,1.85,335.95,54.895348,9.797490,54.888744,9.783868
1389977488,3,0,0.0,0,0,0,0,713,750,-0.0292,189.6255,6.8213,0.4212,54.886292,9.783407,108.3,5.845,1.85,335.95,54.895348,9.797490,54.888744,9.783868
1389977489,3,0,0.0,0,0,4,0,713,700,-0.0292,189.6255,6.8213,0.4212,54.886272,9.783402,108.3,5.845,1.85,335.95,54.895348,9.797490,54.888744,9.783868
1389977489,3,0,0.0,0,0,0,0,713,750,-0.0292,189.6255,6.8213,0.4212,54.886253,9.783398,108.3,5.845,1.85,335.95,54.895348,9.797490,54.888744,9.783868
1389977489,3,0,0.0,0,0,4,0,713,700,-0.0292,189.6255,6.8213,0.4212,54.886234,9.783393,108.3,5.845,1.85,335.95,54.895348,9.797490,54.888744,9.783868
1389977489,3,0,0.0,0,0,0,0,713,750,-0.0292,189.6255,6.8213,0.4212,54.886219,9.783388,108.3,5.845,1.85,335.95,54.895348,9.797490,54.888744,9.783868
1389977490,3,0,0.0,0,0,4,0,713,700,-0.0292,189.6255,6.8213,0.4212,54.886200,9.783382,108.3,5.845,1.85,335.95,54.895348,9.797490,54.888744,9.783868
1389977490,3,0,0.0,0,0,0,0,713,750,-0.0292,189.6255,6.8213,0.4212,54.886181,9.783377,108.3,5.845,1.85,335.95,54.895348,9.797490,54.888744,9.783868
1389977490,3,0,0.0,0,0,4,0,713,700,-0.0292,189.6255,6.8213,0.4212,54.886162,9.783371,108.3,5.845,1.85,335.95,54.895348,9.797490,54.888744,9.783868
1389977490,3,0,0.0,0,0,0,0,713,750,-0.0292,189.6255,6.8213,0.4212,54.886147,9.783366,108.3,5.845,1.85,335.95,54.895348,9.797490,54.888744,9.783868
1389977491,3,0,0.0,0,0,4,0,713,700,-0.0292,189.6255,6.8213,0.4212,54.886127,9.783361,108.3,5.845,1.85,335.95,54.895348,9.797490,54.888744,9.783868
1389977491,3,0,0.0,0,0,0,0,713,750,-0.0292,189.6255,6.8213,0.4212,54.886108,9.783357,108.3,5.845,1.85,335.95,54.895348,9.797490,54.888744,9.783868
1389977491,3,0,0.0,0,0,4,0,713,700,-0.0292,189.6255,6.8213,0.4212,54.886093,9.783352,108.3,5.845,1.85,335.95,54.895348,9.797490,54.888744,9.783868
1389977491,3,0,0.0,0,0,0,0,713,750,-0.0292,189.6255,6.8213,0.4212,54.886074,9.783347,108.3,5.845,1.85,335.95,54.895348,9.797490,54.888744,9.783868
1389977492,3,0,0.0,0,0,4,0,713,700,-0.0292,189.6255,6.8213,0.4212,54.886055,9.783341,108.3,5.845,1.85,335.95,54.895348,9.797490,54.888744,9.783868
1389977492,3,0,0.0,0,0,0,0,713,750,-0.0292,189.6255,6.8213,0.4212,54.886036,9.783336,108.3,5.845,1.85,335.95,54.895348,9.797490,54.888744,9.783868
1389977492,3,0,0.0,0,0,4,0,713,700,-0.0292,189.6255,6.8213,0.4212,54.886021,9.783330,108.3,5.845,1.85,335.95,54.895348,9.797490,54.888744,9.783868
1389977492,3,0,0.0,0,0,0,0,713,750,-0.0292,189.6255,6.8213,0.4212,54.886002,9.783324,108.3,5.845,1.85,335.95,54.895348,9.797490,54.888744,9.783868
1389977493,3,0,0.0,0,0,4,0,713,700,-0.0292,189.6255,6.8213,0.4212,54.885983,9.783319,108.3,5.845,1.85,335.95,54.895348,9.797490,54.888744,9.783868
1389977493,0,0,0.0,0,0,4,0,713,700,-0.0292,189.6255,6.8213,0.4212,54.885983,9.783319,108.3,5.845,1.85,335.95,54.895348,9.797490,54.888744,9.783868
1389977493,0,0,0.0,0,0,4,0,713,700,-0.0292,189.6255,6.8213,0.4212,54.885983,9.783319,108.3,5.845,1.85,335.95,54.895348,9.797490,54.888744,9.783868
1389977493,0,0,0.0,0,0,4,0,713,700,-0.0292,189.6255,6.8213,0.4212,54.885983,9.783319,108.3,5.845,1.85,335.95,54.895348,9.797490,54.888744,9.783868
1389977494,0,0,0.0,0,0,4,0,713,700,-0.0292,189.6255,6.8213,0.4212,54.885983,9.783319,108.3,5.845,1.85,335.95,54.895348,9.797490,54.888744,9.783868
1389977494,0,0,0.0,0,0,4,0,713,700,-0.0292,189.6255,6.8213,0.4212,54.885983,9.783319,108.3,5.845,1.85,335.95,54.895348,9.797490,54.888744,9.783868
1389977494,0,0,0.0,0,0,4,0,713,700,-0.0292,189.6255,6.8213,0.4212,54.885983,9.783319,108.3,5.845,1.85,335.95,54.895348,9.797490,54.888744,9.783868
1389977494,0,0,0.0,0,0,4,0,713,700,-0.0292,189.6255,6.8213,0.4212,54.885983,9.783319,108.3,5.845,1.85,335.95,54.895348,9.797490,54.888744,9.783868
1389977495,0,0,0.0,0,0,4,0,713,700,-0.0292,189.6255,6.8213,0.4212,54.885983,9.783319,108.3,5.845,1.85,335.95,54.895348,9.797490,54.888744,9.783868
1389977495,0,0,0.0,0,0,4,0,713,700,-0.0292,189.6255,6.8213,0.4212,54.885983,9.783319,108.3,5.845,1.85,335.95,54.895348,9.797490,54.888744,9.783868
1389977495,0,0,0.0,0,0,4,0,713,700,-0.0292,189.6255,6.8213,0.4212,54.885983,9.783319,108.3,5.845,1.85,335.95,54.895348,9.797490,54.888744,9.783868
1389977495,0,0,0.0,0,0,4,0,713,700,-0.0292,189.6255,6.8213,0.4212,54.885983,9.783319,108.3,5.845,1.85,335.95,54.895348,9.797490,54.888744,9.783868
1389977496,0,0,0.0,0,0,4,0,713,700,-0.0292,189.6255,6.8213,0.4212,54.885983,9.783319,108.3,5.845,1.85,335.95,54.895348,9.797490,54.888744,9.783868
1389977496,0,0,0.0,0,0,4,0,713,700,-0.0292,189.6255,6.8213,0.4212,54.885983,9.783319,108.3,5.845,1.85,335.95,54.895348,9.797490,54.888744,9.783868
1389977496,0,0,0.0,0,0,4,0,713,700,-0.0292,189.6255,6.8213,0.4212,54.885983,9.783319,108.3,5.845,1.85,335.95,54.895348,9.797490,54.888744,9.783868
1389977497,0,0,0.0,0,0,4,0,713,700,-0.0292,189.6255,6.8213,0.4212,54.885983,9.783319,108.3,5.845,1.85,335.95,54.895348,9.797490,54.888744,9.783868
1389977497,0,0,0.0,0,0,4,0,713,700,-0.0292,189.6255,6.8213,0.4212,54.885983,9.783319,108.3,5.845,1.85,335.95,54.895348,9.797490,54.888744,9.783868
1389977497,0,0,0.0,0,0,4,0,713,700,-0.0292,189.6255,6.8213,0.4212,54.885983,9.783319,108.3,5.845,1.85,335.95,54.895348,9.797490,54.888744,9.783868
1389977497,0,0,0.0,0,0,4,0,713,700,-0.0292,189.6255,6.8213,0.4212,54.885983,9.783319,108.3,5.845,1.85,335.95,54.895348,9.797490,54.888744,9.783868
1389977498,0,0,0.0,0,0,4,0,713,700,-0.0292,189.6255,6.8213,0.4212,54.885983,9.783319,108.3,5.845,1.85,335.95,54.895348,9.797490,54.888744,9.783868
1389977498,0,0,0.0,0,0,4,0,713,700,-0.0292,189.6255,6.8213,0.4212,54.885983,9.783319,108.3,5.845,1.85,335.95,54.895348,9.797490,54.888744,9.783868
1389977498,0,0,0.0,0,0,4,0,713,700,-0.0292,189.6255,6.8213,0.4212,54.885983,9.783319,108.3,5.845,1.85,335.95,54.895348,9.797490,54.888744,9.783868
1389977498,0,0,0.0,0,0,4,0,713,700,-0.0292,189.6255,6.8213,0.4212,54.885983,9.783319,108.3,5.845,1.85,335.95,54.895348,9.797490,54.888744,9.783868
1389977499,0,0,0.0,0,0,4,0,713,700,-0.0292,189.6255,6.8213,0.4212,54.885983,9.783319,108.3,5.845,1.85,335.95,54.895348,9.797490,54.888744,9.783868
1389977499,0,0,0.0,0,0,4,0,713,700,-0.0292,189.6255,6.8213,0.4212,54.885983,9.783319,108.3,5.845,1.85,335.95,54.895348,9.797490,54.888744,9.783868
1389977499,0,0,0.0,0,0,4,0,713,700,-0.0292,189.6255,6.8213,0.4212,54.885983,9.783319,108.3,5.845,1.85,335.95,54.895348,9.797490,54.888744,9.783868
1389977499,0,0,0.0,0,0,4,0,713,700,-0.0292,189.6255,6.8213,0.4212,54.885983,9.783319,108.3,5.845,1.85,335.95,54.895348,9.797490,54.888744,9.783868
1389977500,0,0,0.0,0,0,4,0,713,700,-0.0292,189.6255,6.8213,0.4212,54.885983,9.783319,108.3,5.845,1.85,335.95,54.895348,9.797490,54.888744,9.783868
1389977500,0,0,0.0,0,0,4,0,713,700,-0.0292,189.6255,6.8213,0.4212,54.885983,9.783319,108.3,5.845,1.85,335.95,54.895348,9.797490,54.888744,9.783868
1389977500,0,0,0.0,0,0,4,0,713,700,-0.0292,189.6255,6.8213,0.4212,54.885983,9.783319,108.3,5.845,1.85,335.95,54.895348,9.797490,54.888744,9.783868
1389977500,0,0,0.0,0,0,4,0,713,700,-0.0292,189.6255,6.8213,0.4212,54.885983,9.783319,108.3,5.845,1.85,335.95,54.895348,9.797490,54.888744,9.783868
1389977501,0,0,0.0,0,0,4,0,713,700,-0.0292,189.6255,6.8213,0.4212,54.885983,9.783319,108.3,5.845,1.85,335.95,54.895348,9.797490,54.888744,9.783868
1389977501,0,0,0.0,0,0,4,0,713,700,-0.0292,189.6255,6.8213,0.4212,54.885983,9.783319,108.3,5.845,1.85,335.95,54.895348,9.797490,54.888744,9.783868
1389977501,0,0,0.0,0,0,4,0,713,700,-0.0292,189.6255,6.8213,0.4212,54.885983,9.783319,108.3,5.845,1.85,335.95,54.895348,9.797490,54.888744,9.783868
1389977501,0,0,0.0,0,0,4,0,713,700,-0.0292,189.6255,6.8213,0.4212,54.885983,9.783319,108.3,5.845,1.85,335.95,54.895348,9.797490,54.888744,9.783868
1389977502,0,0,0.0,0,0,4,0,713,700,-0.0292,189.6255,6.8213,0.4212,54.885983,9.783319,108.3,5.845,1.85,335.95,54.895348,9.797490,54.888744,9.783868
1389977502,0,0,0.0,0,0,4,0,713,700,-0.0292,189.6255,6.8213,0.4212,54.885983,9.783319,108.3,5.845,1.85,335.95,54.895348,9.797490,54.888744,9.783868
1389977502,0,0,0.0,0,0,4,0,713,700,-0.0292,189.6255,6.8213,0.4212,54.885983,9.783319,108.3,5.845,1.85,335.95,54.895348,9.797490,54.888744,9.783868
1389977502,0,0,0.0,0,0,4,0,713,700,-0.0292,189.6255,6.8213,0.4212,54.885983,9.783319,108.3,5.845,1.85,335.95,54.895348,9.797490,54.888744,9.783868
1389977503,0,0,0.0,0,0,4,0,713,700,-0.0292,189.6255,6.8213,0.4212,54.885983,9.783319,108.3,5.845,1.85,335.95,54.895348,9.797490,54.888744,9.783868
1389977503,0,0,0.0,0,0,4,0,713,700,-0.0292,189.6255,6.8213,0.4212,54.885983,9.783319,108.3,5.845,1.85,335.95,54.895348,9.797490,54.888744,9.783868
1389977503,0,0,0.0,0,0,4,0,713,700,-0.0292,189.6255,6.8213,0.4212,54.885983,9.783319,108.3,5.845,1.85,335.95,54.895348,9.797490,54.888744,9.783868
1389977503,0,0,0.0,0,0,4,0,713,700,-0.0292,189.6255,6.8213,0.4212,54.885983,9.783319,108.3,5.845,1.85,335.95,54.895348,9.797490,54.888744,9.783868
1389977504,0,0,0.0,0,0,4,0,713,700,-0.0292,189.6255,6.8213,0.4212,54.885983,9.783319,108.3,5.845,1.85,335.95,54.895348,9.797490,54.888744,9.783868
1389977504,0,0,0.0,0,0,4,0,713,700,-0.0292,189.6255,6.8213,0.4212,54.885983,9.783319,108.3,5.845,1.85,335.95,54.895348,9.797490,54.888744,9.783868
1389977504,0,0,0.0,0,0,4,0,713,700,-0.0292,189.6255,6.8213,0.4212,54.885983,9.783319,108.3,5.845,1.85,335.95,54.895348,9.797490,54.888744,9.783868
1389977504,0,0,0.0,0,0,4,0,713,700,-0.0292,189.6255,6.8213,0.4212,54.885983,9.783319,108.3,5.845,1.85,335.95,54.895348,9.797490,54.888744,9.783868
1389977505,0,0,0.0,0,0,4,0,713,700,-0.0292,189.6255,6.8213,0.4212,54.885983,9.783319,108.3,5.845,1.85,335.95,54.895348,9.797490,54.888744,9.783868
1389977505,0,0,0.0,0,0,4,0,713,700,-0.0292,189.6255,6.8213,0.4212,54.885983,9.783319,108.3,5.845,1.85,335.95,54.895348,9.797490,54.888744,9.783868
1389977505,0,0,0.0,0,0,4,0,713,700,-0.0292,189.6255,6.8213,0.4212,54.885983,9.783319,108.3,5.845,1.85,335.95,54.895348,9.797490,54.888744,9.783868
1389977505,0,0,0.0,0,0,4,0,713,700,-0.0292,189.6255,6.8213,0.4212,54.885983,9.783319,108.3,5.845,1.85,335.95,54.895348,9.797490,54.888744,9.783868
1389977506,0,0,0.0,0,0,4,0,713,700,-0.0292,189.6255,6.8213,0.4212,54.885983,9.783319,108.3,5.845,1.85,335.95,54.895348,9.797490,54.888744,9.783868
1389977506,0,0,0.0,0,0,4,0,713,700,-0.0292,189.6255,6.8213,0.4212,54.885983,9.783319,108.3,5.845,1.85,335.95,54.895348,9.797490,54.888744,9.783868
1389977506,0,0,0.0,0,0,4,0,713,700,-0.0292,189.6255,6.8213,0.4212,54.885983,9.783319,108.3,5.845,1.85,335.95,54.895348,9.797490,54.888744,9.783868
1389977506,0,0,0.0,0,0,4,0,713,700,-0.0292,189.6255,6.8213,0.4212,54.885983,9.783319,108.3,5.845,1.85,335.95,54.895348,9.797490,54.888744,9.783868
1389977507,0,0,0.0,0,0,4,0,713,700,-0.0292,189.6255,6.8213,0.4212,54.885983,9.783319,108.3,5.845,1.85,335.95,54.895348,9.797490,54.888744,9.783868
1389977507,0,0,0.0,0,0,4,0,713,700,-0.0292,189.6255,6.8213,0.4212,54.885983,9.783319,108.3,5.845,1.85,335.95,54.895348,9.797490,54.888744,9.783868
1389977507,0,0,0.0,0,0,4,0,713,700,-0.0292,189.6255,6.8213,0.4212,54.885983,9.783319,108.3,5.845,1.85,335.95,54.895348,9.797490,54.888744,9.783868
1389977507,0,0,0.0,0,0,4,0,713,700,-0.0292,189.6255,6.8213,0.4212,54.885983,9.783319,108.3,5.845,1.85,335.95,54.895348,9.797490,54.888744,9.783868
1389977508,0,0,0.0,0,0,4,0,713,700,-0.0292,189.6255,6.8213,0.4212,54.885983,9.783319,108.3,5.845,1.85,335.95,54.895348,9.797490,54.888744,9.783868
1389977508,0,0,0.0,0,0,4,0,713,700,-0.0292,189.6255,6.8213,0.4212,54.885983,9.783319,108.3,5.845,1.85,335.95,54.895348,9.797490,54.888744,9.783868
1389977508,0,0,0.0,0,0,4,0,713,700,-0.0292,189.6255,6.8213,0.4212,54.885983,9.783319,108.3,5.845,1.85,335.95,54.895348,9.797490,54.888744,9.783868
1389977508,0,0,0.0,0,0,4,0,713,700,-0.0292,189.6255,6.8213,0.4212,54.885983,9.783319,108.3,5.845,1.85,335.95,54.895348,9.797490,54.888744,9.783868
1389977509,0,0,0.0,0,0,4,0,713,700,-0.0292,189.6255,6.8213,0.4212,54.885983,9.783319,108.3,5.845,1.85,335.95,54.895348,9.797490,54.888744,9.783868
1389977509,0,0,0.0,0,0,4,0,713,700,-0.0292,189.6255,6.8213,0.4212,54.885983,9.783319,108.3,5.845,1.85,335.95,54.895348,9.797490,54.888744,9.783868
1389977509,0,0,0.0,0,0,4,0,713,700,-0.0292,189.6255,6.8213,0.4212,54.885983,9.783319,108.3,5.845,1.85,335.95,54.895348,9.797490,54.888744,9.783868
1389977509,0,0,0.0,0,0,4,0,713,700,-0.0292,189.6255,6.8213,0.4212,54.885983,9.783319,108.3,5.845,1.85,335.95,54.895348,9.797490,54.888744,9.783868
1389977510,0,0,0.0,0,0,4,0,713,700,-0.0292,189.6255,6.8213,0.4212,54.885983,9.783319,108.3,5.845,1.85,335.95,54.895348,9.797490,54.888744,9.783868
1389977510,0,0,0.0,0,0,4,0,713,700,-0.0292,189.6255,6.8213,0.4212,54.885983,9.783319,108.3,5.845,1.85,335.95,54.895348,9.797490,54.888744,9.783868
1389977510,0,0,0.0,0,0,4,0,713,700,-0.0292,189.6255,6.8213,0.4212,54.885983,9.783319,108.3,5.845,1.85,335.95,54.895348,9.797490,54.888744,9.783868
1389977510,0,0,0.0,0,0,4,0,713,700,-0.0292,189.6255,6.8213,0.4212,54.885983,9.783319,108.3,5.845,1.85,335.95,54.895348,9.797490,54.888744,9.783868
1389977511,0,0,0.0,0,0,4,0,713,700,-0.0292,189.6255,6.8213,0.4212,54.885983,9.783319,108.3,5.845,1.85,335.95,54.895348,9.797490,54.888744,9.783868
1389977511,0,0,0.0,0,0,4,0,713,700,-0.0292,189.6255,6.8213,0.4212,54.885983,9.783319,108.3,5.845,1.85,335.95,54.895348,9.797490,54.888744,9.783868
1389977511,0,0,0.0,0,0,4,0,713,700,-0.0292,189.6255,6.8213,0.4212,54.885983,9.783319,108.3,5.845,1.85,335.95,54.895348,9.797490,54.888744,9.783868
1389977511,0,0,0.0,0,0,4,0,713,700,-0.0292,189.6255,6.8213,0.4212,54.885983,9.783319,108.3,5.845,1.85,335.95,54.895348,9.797490,54.888744,9.783868
1389977512,0,0,0.0,0,0,4,0,713,700,-0.0292,189.6255,6.8213,0.4212,54.885983,9.783319,108.3,5.845,1.85,335.95,54.895348,9.797490,54.888744,9.783868
1389977512,0,0,0.0,0,0,4,0,713,700,-0.0292,189.6255,6.8213,0.4212,54.885983,9.783319,108.3,5.845,1.85,335.95,54.895348,9.797490,54.888744,9.783868
1389977512,0,0,0.0,0,0,4,0,713,700,-0.0292,189.6255,6.8213,0.4212,54.885983,9.783319,108.3,5.845,1.85,335.95,54.895348,9.797490,54.888744,9.783868
1389977512,0,0,0.0,0,0,4,0,713,700,-0.0292,189.6255,6.8213,0.4212,54.885983,9.783319,108.3,5.845,1.85,335.95,54.895348,9.797490,54.888744,9.783868
1389977513,0,0,0.0,0,0,4,0,713,700,-0.0292,189.6255,6.8213,0.4212,54.885983,9.783319,108.3,5.845,1.85,335.95,54.895348,9.797490,54.888744,9.783868
1389977513,0,0,0.0,0,0,4,0,713,700,-0.0292,189.6255,6.8213,0.4212,54.885983,9.783319,108.3,5.845,1.85,335.95,54.895348,9.797490,54.888744,9.783868
1389977513,0,0,0.0,0,0,4,0,713,700,-0.0292,189.6255,6.8213,0.4212,54.885983,9.783319,108.3,5.845,1.85,335.95,54.895348,9.797490,54.888744,9.783868
1389977513,0,0,0.0,0,0,4,0,713,700,-0.0292,189.6255,6.8213,0.4212,54.885983,9.783319,108.3,5.845,1.85,335.95,54.895348,9.797490,54.888744,9.783868
1389977514,0,0,0.0,0,0,4,0,713,700,-0.0292,189.6255,6.8213,0.4212,54.885983,9.783319,108.3,5.845,1.85,335.95,54.895348,9.797490,54.888744,9.783868
1389977514,0,0,0.0,0,0,4,0,713,700,-0.0292,189.6255,6.8213,0.4212,54.885983,9.783319,108.3,5.845,1.85,335.95,54.895348,9.797490,54.888744,9.783868
1389977514,0,0,0.0,0,0,4,0,713,700,-0.0292,189.6255,6.8213,0.4212,54.885983,9.783319,108.3,5.845,1.85,335.95,54.895348,9.797490,54.888744,9.783868
1389977514,0,0,0.0,0,0,4,0,713,700,-0.0292,189.6255,6.8213,0.4212,54.885983,9.783319,108.3,5.845,1.85,335.95,54.895348,9.797490,54.888744,9.783868
1389977515,0,0,0.0,0,0,4,0,713,700,-0.0292,189.6255,6.8213,0.4212,54.885983,9.783319,108.3,5.845,1.85,335.95,54.895348,9.797490,54.888744,9.783868
1389977515,0,0,0.0,0,0,4,0,713,700,-0.0292,189.6255,6.8213,0.4212,54.885983,9.783319,108.3,5.845,1.85,335.95,54.895348,9.797490,54.888744,9.783868
1389977515,0,0,0.0,0,0,4,0,713,700,-0.0292,189.6255,6.8213,0.4212,54.885983,9.783319,108.3,5.845,1.85,335.95,54.895348,9.797490,54.888744,9.783868
1389977515,0,0,0.0,0,0,4,0,713,700,-0.0292,189.6255,6.8213,0.4212,54.885983,9.783319,108.3,5.845,1.85,335.95,54.895348,9.797490,54.888744,9.783868
1389977516,0,0,0.0,0,0,4,0,713,700,-0.0292,189.6255,6.8213,0.4212,54.885983,9.783319,108.3,5.845,1.85,335.95,54.895348,9.797490,54.888744,9.783868
1389977516,0,0,0.0,0,0,4,0,713,700,-0.0292,189.6255,6.8213,0.4212,54.885983,9.783319,108.3,5.845,1.85,335.95,54.895348,9.797490,54.888744,9.783868
1389977516,0,0,0.0,0,0,4,0,713,700,-0.0292,189.6255,6.8213,0.4212,54.885983,9.783319,108.3,5.845,1.85,335.95,54.895348,9.797490,54.888744,9.783868
1389977516,0,0,0.0,0,0,4,0,713,700,-0.0292,189.6255,6.8213,0.4212,54.885983,9.783319,108.3,5.845,1.85,335.95,54.895348,9.797490,54.888744,9.783868
1389977517,0,0,0.0,0,0,4,0,713,700,-0.0292,189.6255,6.8213,0.4212,54.885983,9.783319,108.3,5.845,1.85,335.95,54.895348,9.797490,54.888744,9.783868
1389977517,0,0,0.0,0,0,4,0,713,700,-0.0292,189.6255,6.8213,0.4212,54.885983,9.783319,108.3,5.845,1.85,335.95,54.895348,9.797490,54.888744,9.783868
1389977517,0,0,0.0,0,0,4,0,713,700,-0.0292,189.6255,6.8213,0.4212,54.885983,9.783319,108.3,5.845,1.85,335.95,54.895348,9.797490,54.888744,9.783868
1389977517,0,0,0.0,0,0,4,0,713,700,-0.0292,189.6255,6.8213,0.4212,54.885983,9.783319,108.3,5.845,1.85,335.95,54.895348,9.797490,54.888744,9.783868
1389977518,0,0,0.0,0,0,4,0,713,700,-0.0292,189.6255,6.8213,0.4212,54.885983,9.783319,108.3,5.845,1.85,335.95,54.895348,9.797490,54.888744,9.783868
1389977518,0,0,0.0,0,0,4,0,713,700,-0.0292,189.6255,6.8213,0.4212,54.885983,9.783319,108.3,5.845,1.85,335.95,54.895348,9.797490,54.888744,9.783868
1389977518,0,0,0.0,0,0,4,0,713,700,-0.0292,189.6255,6.8213,0.4212,54.885983,9.783319,108.3,5.845,1.85,335.95,54.895348,9.797490,54.888744,9.783868
1389977518,0,0,0.0,0,0,4,0,713,700,-0.0292,189.6255,6.8213,0.4212,54.885983,9.783319,108.3,5.845,1.85,335.95,54.895348,9.797490,54.888744,9.783868
1389977519,0,0,0.0,0,0,4,0,713,700,-0.0292,189.6255,6.8213,0.4212,54.885983,9.783319,108.3,5.845,1.85,335.95,54.895348,9.797490,54.888744,9.783868
1389977519,0,0,0.0,0,0,4,0,713,700,-0.0292,189.6255,6.8213,0.4212,54.885983,9.783319,108.3,5.845,1.85,335.95,54.895348,9.797490,54.888744,9.783868
1389977519,0,0,0.0,0,0,4,0,713,700,-0.0292,189.6255,6.8213,0.4212,54.885983,9.783319,108.3,5.845,1.85,335.95,54.895348,9.797490,54.888744,9.783868
1389977519,0,0,0.0,0,0,4,0,713,700,-0.0292,189.6255,6.8213,0.4212,54.885983,9.783319,108.3,5.845,1.85,335.95,54.895348,9.797490,54.888744,9.783868
1389977520,0,0,0.0,0,0,4,0,713,700,-0.0292,189.6255,6.8213,0.4212,54.885983,9.783319,108.3,5.845,1.85,335.95,54.895348,9.797490,54.888744,9.783868
1389977520,0,0,0.0,0,0,4,0,713,700,-0.0292,189.6255,6.8213,0.4212,54.885983,9.783319,108.3,5.845,1.85,335.95,54.895348,9.797490,54.888744,9.783868
1389977520,0,0,0.0,0,0,4,0,713,700,-0.0292,189.6255,6.8213,0.4212,54.885983,9.783319,108.3,5.845,1.85,335.95,54.895348,9.797490,54.888744,9.783868
1389977520,0,0,0.0,0,0,4,0,713,700,-0.0292,189.6255,6.8213,0.4212,54.885983,9.783319,108.3,5.845,1.85,335.95,54.895348,9.797490,54.888744,9.783868
1389977521,0,0,0.0,0,0,4,0,713,700,-0.0292,189.6255,6.8213,0.4212,54.885983,9.783319,108.3,5.845,1.85,335.95,54.895348,9.797490,54.888744,9.783868
1389977521,0,0,0.0,0,0,4,0,713,700,-0.0292,189.6255,6.8213,0.4212,54.885983,9.783319,108.3,5.845,1.85,335.95,54.895348,9.797490,54.888744,9.783868
1389977521,0,0,0.0,0,0,4,0,713,700,-0.0292,189.6255,6.8213,0.4212,54.885983,9.783319,108.3,5.845,1.85,335.95,54.895348,9.797490,54.888744,9.783868
1389977521,0,0,0.0,0,0,4,0,713,700,-0.0292,189.6255,6.8213,0.4212,54.885983,9.783319,108.3,5.845,1.85,335.95,54.895348,9.797490,54.888744,9.783868
1389977522,0,0,0.0,0,0,4,0,713,700,-0.0292,189.6255,6.8213,0.4212,54.885983,9.783319,108.3,5.845,1.85,335.95,54.895348,9.797490,54.888744,9.783868
1389977522,0,0,0.0,0,0,4,0,713,700,-0.0292,189.6255,6.8213,0.4212,54.885983,9.783319,108.3,5.845,1.85,335.95,54.895348,9.797490,54.888744,9.783868
1389977522,0,0,0.0,0,0,4,0,713,700,-0.0292,189.6255,6.8213,0.4212,54.885983,9.783319,108.3,5.845,1.85,335.95,54.895348,9.797490,54.888744,9.783868
1389977522,0,0,0.0,0,0,4,0,713,700,-0.0292,189.6255,6.8213,0.4212,54.885983,9.783319,108.3,5.845,1.85,335.95,54.895348,9.797490,54.888744,9.783868
1389977523,0,0,0.0,0,0,4,0,713,700,-0.0292,189.6255,6.8213,0.4212,54.885983,9.783319,108.3,5.845,1.85,335.95,54.895348,9.797490,54.888744,9.783868
1389977523,0,0,0.0,0,0,4,0,713,700,-0.0292,189.6255,6.8213,0.4212,54.885983,9.783319,108.3,5.845,1.85,335.95,54.895348,9.797490,54.888744,9.783868
1389977523,0,0,0.0,0,0,4,0,713,700,-0.0292,189.6255,6.8213,0.4212,54.885983,9.783319,108.3,5.845,1.85,335.95,54.895348,9.797490,54.888744,9.783868
1389977523,0,0,0.0,0,0,4,0,713,700,-0.0292,189.6255,6.8213,0.4212,54.885983,9.783319,108.3,5.845,1.85,335.95,54.895348,9.797490,54.888744,9.783868
1389977524,0,0,0.0,0,0,4,0,713,700,-0.0292,189.6255,6.8213,0.4212,54.885983,9.783319,108.3,5.845,1.85,335.95,54.895348,9.797490,54.888744,9.783868
1389977524,0,0,0.0,0,0,4,0,713,700,-0.0292,189.6255,6.8213,0.4212,54.885983,9.783319,108.3,5.845,1.85,335.95,54.895348,9.797490,54.888744,9.783868
1389977524,0,0,0.0,0,0,4,0,713,700,-0.0292,189.6255,6.8213,0.4212,54.885983,9.783319,108.3,5.845,1.85,335.95,54.895348,9.797490,54.888744,9.783868
1389977524,0,0,0.0,0,0,4,0,713,700,-0.0292,189.6255,6.8213,0.4212,54.885983,9.783319,108.3,5.845,1.85,335.95,54.895348,9.797490,54.888744,9.783868
1389977525,0,0,0.0,0,0,4,0,713,700,-0.0292,189.6255,6.8213,0.4212,54.885983,9.783319,108.3,5.845,1.85,335.95,54.895348,9.797490,54.888744,9.783868
1389977525,0,0,0.0,0,0,4,0,713,700,-0.0292,189.6255,6.8213,0.4212,54.885983,9.783319,108.3,5.845,1.85,335.95,54.895348,9.797490,54.888744,9.783868
1389977525,0,0,0.0,0,0,4,0,713,700,-0.0292,189.6255,6.8213,0.4212,54.885983,9.783319,108.3,5.845,1.85,335.95,54.895348,9.797490,54.888744,9.783868
1389977525,0,0,0.0,0,0,4,0,713,700,-0.0292,189.6255,6.8213,0.4212,54.885983,9.783319,108.3,5.845,1.85,335.95,54.895348,9.797490,54.888744,9.783868
1389977526,0,0,0.0,0,0,4,0,713,700,-0.0292,189.6255,6.8213,0.4212,54.885983,9.783319,108.3,5.845,1.85,335.95,54.895348,9.797490,54.888744,9.783868
1389977526,0,0,0.0,0,0,4,0,713,700,-0.0292,189.6255,6.8213,0.4212,54.885983,9.783319,108.3,5.845,1.85,335.95,54.895348,9.797490,54.888744,9.783868
1389977526,0,0,0.0,0,0,4,0,713,700,-0.0292,189.6255,6.8213,0.4212,54.885983,9.783319,108.3,5.845,1.85,335.95,54.895348,9.797490,54.888744,9.783868
1389977526,0,0,0.0,0,0,4,0,713,700,-0.0292,189.6255,6.8213,0.4212,54.885983,9.783319,108.3,5.845,1.85,335.95,54.895348,9.797490,54.888744,9.783868
1389977527,0,0,0.0,0,0,4,0,713,700,-0.0292,189.6255,6.8213,0.4212,54.885983,9.783319,108.3,5.845,1.85,335.95,54.895348,9.797490,54.888744,9.783868
1389977527,0,0,0.0,0,0,4,0,713,700,-0.0292,189.6255,6.8213,0.4212,54.885983,9.783319,108.3,5.845,1.85,335.95,54.895348,9.797490,54.888744,9.783868
1389977527,0,0,0.0,0,0,4,0,713,700,-0.0292,189.6255,6.8213,0.4212,54.885983,9.783319,108.3,5.845,1.85,335.95,54.895348,9.797490,54.888744,9.783868
1389977527,0,0,0.0,0,0,4,0,713,700,-0.0292,189.6255,6.8213,0.4212,54.885983,9.783319,108.3,5.845,1.85,335.95,54.895348,9.797490,54.888744,9.783868
1389977528,0,0,0.0,0,0,4,0,713,700,-0.0292,189.6255,6.8213,0.4212,54.885983,9.783319,108.3,5.845,1.85,335.95,54.895348,9.797490,54.888744,9.783868
1389977528,0,0,0.0,0,0,4,0,713,700,-0.0292,189.6255,6.8213,0.4212,54.885983,9.783319,108.3,5.845,1.85,335.95,54.895348,9.797490,54.888744,9.783868
1389977528,0,0,0.0,0,0,4,0,713,700,-0.0292,189.6255,6.8213,0.4212,54.885983,9.783319,108.3,5.845,1.85,335.95,54.895348,9.797490,54.888744,9.783868
1389977528,0,0,0.0,0,0,4,0,713,700,-0.0292,189.6255,6.8213,0.4212,54.885983,9.783319,108.3,5.845,1.85,335.95,54.895348,9.797490,54.888744,9.783868
1389977529,0,0,0.0,0,0,4,0,713,700,-0.0292,189.6255,6.8213,0.4212,54.885983,9.783319,108.3,5.845,1.85,335.95,54.895348,9.797490,54.888744,9.783868
1389977529,0,0,0.0,0,0,4,0,713,700,-0.0292,189.6255,6.8213,0.4212,54.885983,9.783319,108.3,5.845,1.85,335.95,54.895348,9.797490,54.888744,9.783868
1389977529,0,0,0.0,0,0,4,0,713,700,-0.0292,189.6255,6.8213,0.4212,54.885983,9.783319,108.3,5.845,1.85,335.95,54.895348,9.797490,54.888744,9.783868
1389977529,0,0,0.0,0,0,4,0,713,700,-0.0292,189.6255,6.8213,0.4212,54.885983,9.783319,108.3,5.845,1.85,335.95,54.895348,9.797490,54.888744,9.783868
1389977530,0,0,0.0,0,0,4,0,713,700,-0.0292,189.6255,6.8213,0.4212,54.885983,9.783319,108.3,5.845,1.85,335.95,54.895348,9.797490,54.888744,9.783868
1389977530,0,0,0.0,0,0,4,0,713,700,-0.0292,189.6255,6.8213,0.4212,54.885983,9.783319,108.3,5.845,1.85,335.95,54.895348,9.797490,54.888744,9.783868
1389977530,0,0,0.0,0,0,4,0,713,700,-0.0292,189.6255,6.8213,0.4212,54.885983,9.783319,108.3,5.845,1.85,335.95,54.895348,9.797490,54.888744,9.783868
1389977530,0,0,0.0,0,0,4,0,713,700,-0.0292,189.6255,6.8213,0.4212,54.885983,9.783319,108.3,5.845,1.85,335.95,54.895348,9.797490,54.888744,9.783868
1389977531,0,0,0.0,0,0,4,0,713,700,-0.0292,189.6255,6.8213,0.4212,54.885983,9.783319,108.3,5.845,1.85,335.95,54.895348,9.797490,54.888744,9.783868
1389977531,0,0,0.0,0,0,4,0,713,700,-0.0292,189.6255,6.8213,0.4212,54.885983,9.783319,108.3,5.845,1.85,335.95,54.895348,9.797490,54.888744,9.783868
1389977531,0,0,0.0,0,0,4,0,713,700,-0.0292,189.6255,6.8213,0.4212,54.885983,9.783319,108.3,5.845,1.85,335.95,54.895348,9.797490,54.888744,9.783868
1389977531,0,0,0.0,0,0,4,0,713,700,-0.0292,189.6255,6.8213,0.4212,54.885983,9.783319,108.3,5.845,1.85,335.95,54.895348,9.797490,54.888744,9.783868
1389977532,0,0,0.0,0,0,4,0,713,700,-0.0292,189.6255,6.8213,0.4212,54.885983,9.783319,108.3,5.845,1.85,335.95,54.895348,9.797490,54.888744,9.783868
1389977532,0,0,0.0,0,0,4,0,713,700,-0.0292,189.6255,6.8213,0.4212,54.885983,9.783319,108.3,5.845,1.85,335.95,54.895348,9.797490,54.888744,9.783868
1389977532,0,0,0.0,0,0,4,0,713,700,-0.0292,189.6255,6.8213,0.4212,54.885983,9.783319,108.3,5.845,1.85,335.95,54.895348,9.797490,54.888744,9.783868
1389977532,0,0,0.0,0,0,4,0,713,700,-0.0292,189.6255,6.8213,0.4212,54.885983,9.783319,108.3,5.845,1.85,335.95,54.895348,9.797490,54.888744,9.783868
1389977533,0,0,0.0,0,0,4,0,713,700,-0.0292,189.6255,6.8213,0.4212,54.885983,9.783319,108.3,5.845,1.85,335.95,54.895348,9.797490,54.888744,9.783868
1389977533,0,0,0.0,0,0,4,0,713,700,-0.0292,189.6255,6.8213,0.4212,54.885983,9.783319,108.3,5.845,1.85,335.95,54.895348,9.797490,54.888744,9.783868
1389977533,0,0,0.0,0,0,4,0,713,700,-0.0292,189.6255,6.8213,0.4212,54.885983,9.783319,108.3,5.845,1.85,335.95,54.895348,9.797490,54.888744,9.783868
1389977533,0,0,0.0,0,0,4,0,713,700,-0.0292,189.6255,6.8213,0.4212,54.885983,9.783319,108.3,5.845,1.85,335.95,54.895348,9.797490,54.888744,9.783868
1389977534,0,0,0.0,0,0,4,0,713,700,-0.0292,189.6255,6.8213,0.4212,54.885983,9.783319,108.3,5.845,1.85,335.95,54.895348,9.797490,54.888744,9.783868
1389977534,0,0,0.0,0,0,4,0,713,700,-0.0292,189.6255,6.8213,0.4212,54.885983,9.783319,108.3,5.845,1.85,335.95,54.895348,9.797490,54.888744,9.783868
1389977534,0,0,0.0,0,0,4,0,713,700,-0.0292,189.6255,6.8213,0.4212,54.885983,9.783319,108.3,5.845,1.85,335.95,54.895348,9.797490,54.888744,9.783868
1389977534,0,0,0.0,0,0,4,0,713,700,-0.0292,189.6255,6.8213,0.4212,54.885983,9.783319,108.3,5.845,1.85,335.95,54.895348,9.797490,54.888744,9.783868
1389977535,0,0,0.0,0,0,4,0,713,700,-0.0292,189.6255,6.8213,0.4212,54.885983,9.783319,108.3,5.845,1.85,335.95,54.895348,9.797490,54.888744,9.783868
1389977535,0,0,0.0,0,0,4,0,713,700,-0.0292,189.6255,6.8213,0.4212,54.885983,9.783319,108.3,5.845,1.85,335.95,54.895348,9.797490,54.888744,9.783868
1389977535,0,0,0.0,0,0,4,0,713,700,-0.0292,189.6255,6.8213,0.4212,54.885983,9.783319,108.3,5.845,1.85,335.95,54.895348,9.797490,54.888744,9.783868
1389977535,0,0,0.0,0,0,4,0,713,700,-0.0292,189.6255,6.8213,0.4212,54.885983,9.783319,108.3,5.845,1.85,335.95,54.895348,9.797490,54.888744,9.783868
1389977536,0,0,0.0,0,0,4,0,713,700,-0.0292,189.6255,6.8213,0.4212,54.885983,9.783319,108.3,5.845,1.85,335.95,54.895348,9.797490,54.888744,9.783868
1389977536,0,0,0.0,0,0,4,0,713,700,-0.0292,189.6255,6.8213,0.4212,54.885983,9.783319,108.3,5.845,1.85,335.95,54.895348,9.797490,54.888744,9.783868
1389977536,0,0,0.0,0,0,4,0,713,700,-0.0292,189.6255,6.8213,0.4212,54.885983,9.783319,108.3,5.845,1.85,335.95,54.895348,9.797490,54.888744,9.783868
1389977536,0,0,0.0,0,0,4,0,713,700,-0.0292,189.6255,6.8213,0.4212,54.885983,9.783319,108.3,5.845,1.85,335.95,54.895348,9.797490,54.888744,9.783868
1389977537,0,0,0.0,0,0,4,0,713,700,-0.0292,189.6255,6.8213,0.4212,54.885983,9.783319,108.3,5.845,1.85,335.95,54.895348,9.797490,54.888744,9.783868
1389977537,0,0,0.0,0,0,4,0,713,700,-0.0292,189.6255,6.8213,0.4212,54.885983,9.783319,108.3,5.845,1.85,335.95,54.895348,9.797490,54.888744,9.783868
1389977537,0,0,0.0,0,0,4,0,713,700,-0.0292,189.6255,6.8213,0.4212,54.885983,9.783319,108.3,5.845,1.85,335.95,54.895348,9.797490,54.888744,9.783868
1389977537,0,0,0.0,0,0,4,0,713,700,-0.0292,189.6255,6.8213,0.4212,54.885983,9.783319,108.3,5.845,1.85,335.95,54.895348,9.797490,54.888744,9.783868
1389977538,0,0,0.0,0,0,4,0,713,700,-0.0292,189.6255,6.8213,0.4212,54.885983,9.783319,108.3,5.845,1.85,335.95,54.895348,9.797490,54.888744,9.783868
1389977538,0,0,0.0,0,0,4,0,713,700,-0.0292,189.6255,6.8213,0.4212,54.885983,9.783319,108.3,5.845,1.85,335.95,54.895348,9.797490,54.888744,9.783868
1389977538,0,0,0.0,0,0,4,0,713,700,-0.0292,189.6255,6.8213,0.4212,54.885983,9.783319,108.3,5.845,1.85,335.95,54.895348,9.797490,54.888744,9.783868
1389977538,0,0,0.0,0,0,4,0,713,700,-0.0292,189.6255,6.8213,0.4212,54.885983,9.783319,108.3,5.845,1.85,335.95,54.895348,9.797490,54.888744,9.783868
1389977539,0,0,0.0,0,0,4,0,713,700,-0.0292,189.6255,6.8213,0.4212,54.885983,9.783319,108.3,5.845,1.85,335.95,54.895348,9.797490,54.888744,9.783868
1389977539,0,0,0.0,0,0,4,0,713,700,-0.0292,189.6255,6.8213,0.4212,54.885983,9.783319,108.3,5.845,1.85,335.95,54.895348,9.797490,54.888744,9.783868
1389977539,0,0,0.0,0,0,4,0,713,700,-0.0292,189.6255,6.8213,0.4212,54.885983,9.783319,108.3,5.845,1.85,335.95,54.895348,9.797490,54.888744,9.783868
1389977539,0,0,0.0,0,0,4,0,713,700,-0.0292,189.6255,6.8213,0.4212,54.885983,9.783319,108.3,5.845,1.85,335.95,54.895348,9.797490,54.888744,9.783868
1389977540,0,0,0.0,0,0,4,0,713,700,-0.0292,189.6255,6.8213,0.4212,54.885983,9.783319,108.3,5.845,1.85,335.95,54.895348,9.797490,54.888744,9.783868
1389977540,0,0,0.0,0,0,4,0,713,700,-0.0292,189.6255,6.8213,0.4212,54.885983,9.783319,108.3,5.845,1.85,335.95,54.895348,9.797490,54.888744,9.783868
1389977540,0,0,0.0,0,0,4,0,713,700,-0.0292,189.6255,6.8213,0.4212,54.885983,9.783319,108.3,5.845,1.85,335.95,54.895348,9.797490,54.888744,9.783868
1389977540,0,0,0.0,0,0,4,0,713,700,-0.0292,189.6255,6.8213,0.4212,54.885983,9.783319,108.3,5.845,1.85,335.95,54.895348,9.797490,54.888744,9.783868
1389977541,0,0,0.0,0,0,4,0,713,700,-0.0292,189.6255,6.8213,0.4212,54.885983,9.783319,108.3,5.845,1.85,335.95,54.895348,9.797490,54.888744,9.783868
1389977541,0,0,0.0,0,0,4,0,713,700,-0.0292,189.6255,6.8213,0.4212,54.885983,9.783319,108.3,5.845,1.85,335.95,54.895348,9.797490,54.888744,9.783868
1389977541,0,0,0.0,0,0,4,0,713,700,-0.0292,189.6255,6.8213,0.4212,54.885983,9.783319,108.3,5.845,1.85,335.95,54.895348,9.797490,54.888744,9.783868
1389977541,0,0,0.0,0,0,4,0,713,700,-0.0292,189.6255,6.8213,0.4212,54.885983,9.783319,108.3,5.845,1.85,335.95,54.895348,9.797490,54.888744,9.783868
1389977542,0,0,0.0,0,0,4,0,713,700,-0.0292,189.6255,6.8213,0.4212,54.885983,9.783319,108.3,5.845,1.85,335.95,54.895348,9.797490,54.888744,9.783868
1389977542,0,0,0.0,0,0,4,0,713,700,-0.0292,189.6255,6.8213,0.4212,54.885983,9.783319,108.3,5.845,1.85,335.95,54.895348,9.797490,54.888744,9.783868
1389977542,0,0,0.0,0,0,4,0,713,700,-0.0292,189.6255,6.8213,0.4212,54.885983,9.783319,108.3,5.845,1.85,335.95,54.895348,9.797490,54.888744,9.783868
1389977542,0,0,0.0,0,0,4,0,713,700,-0.0292,189.6255,6.8213,0.4212,54.885983,9.783319,108.3,5.845,1.85,335.95,54.895348,9.797490,54.888744,9.783868
1389977543,0,0,0.0,0,0,4,0,713,700,-0.0292,189.6255,6.8213,0.4212,54.885983,9.783319,108.3,5.845,1.85,335.95,54.895348,9.797490,54.888744,9.783868
1389977543,0,0,0.0,0,0,4,0,713,700,-0.0292,189.6255,6.8213,0.4212,54.885983,9.783319,108.3,5.845,1.85,335.95,54.895348,9.797490,54.888744,9.783868
1389977543,0,0,0.0,0,0,4,0,713,700,-0.0292,189.6255,6.8213,0.4212,54.885983,9.783319,108.3,5.845,1.85,335.95,54.895348,9.797490,54.888744,9.783868
1389977543,0,0,0.0,0,0,4,0,713,700,-0.0292,189.6255,6.8213,0.4212,54.885983,9.783319,108.3,5.845,1.85,335.95,54.895348,9.797490,54.888744,9.783868
1389977544,0,0,0.0,0,0,4,0,713,700,-0.0292,189.6255,6.8213,0.4212,54.885983,9.783319,108.3,5.845,1.85,335.95,54.895348,9.797490,54.888744,9.783868
1389977544,0,0,0.0,0,0,4,0,713,700,-0.0292,189.6255,6.8213,0.4212,54.885983,9.783319,108.3,5.845,1.85,335.95,54.895348,9.797490,54.888744,9.783868
1389977544,0,0,0.0,0,0,4,0,713,700,-0.0292,189.6255,6.8213,0.4212,54.885983,9.783319,108.3,5.845,1.85,335.95,54.895348,9.797490,54.888744,9.783868
1389977544,0,0,0.0,0,0,4,0,713,700,-0.0292,189.6255,6.8213,0.4212,54.885983,9.783319,108.3,5.845,1.85,335.95,54.895348,9.797490,54.888744,9.783868
1389977545,0,0,0.0,0,0,4,0,713,700,-0.0292,189.6255,6.8213,0.4212,54.885983,9.783319,108.3,5.845,1.85,335.95,54.895348,9.797490,54.888744,9.783868
1389977545,0,0,0.0,0,0,4,0,713,700,-0.0292,189.6255,6.8213,0.4212,54.885983,9.783319,108.3,5.845,1.85,335.95,54.895348,9.797490,54.888744,9.783868
1389977545,0,0,0.0,0,0,4,0,713,700,-0.0292,189.6255,6.8213,0.4212,54.885983,9.783319,108.3,5.845,1.85,335.95,54.895348,9.797490,54.888744,9.783868
1389977545,0,0,0.0,0,0,4,0,713,700,-0.0292,189.6255,6.8213,0.4212,54.885983,9.783319,108.3,5.845,1.85,335.95,54.895348,9.797490,54.888744,9.783868
1389977546,0,0,0.0,0,0,4,0,713,700,-0.0292,189.6255,6.8213,0.4212,54.885983,9.783319,108.3,5.845,1.85,335.95,54.895348,9.797490,54.888744,9.783868
1389977546,0,0,0.0,0,0,4,0,713,700,-0.0292,189.6255,6.8213,0.4212,54.885983,9.783319,108.3,5.845,1.85,335.95,54.895348,9.797490,54.888744,9.783868
1389977546,0,0,0.0,0,0,4,0,713,700,-0.0292,189.6255,6.8213,0.4212,54.885983,9.783319,108.3,5.845,1.85,335.95,54.895348,9.797490,54.888744,9.783868
1389977546,0,0,0.0,0,0,4,0,713,700,-0.0292,189.6255,6.8213,0.4212,54.885983,9.783319,108.3,5.845,1.85,335.95,54.895348,9.797490,54.888744,9.783868
1389977547,0,0,0.0,0,0,4,0,713,700,-0.0292,189.6255,6.8213,0.4212,54.885983,9.783319,108.3,5.845,1.85,335.95,54.895348,9.797490,54.888744,9.783868
1389977547,0,0,0.0,0,0,4,0,713,700,-0.0292,189.6255,6.8213,0.4212,54.885983,9.783319,108.3,5.845,1.85,335.95,54.895348,9.797490,54.888744,9.783868
1389977547,0,0,0.0,0,0,4,0,713,700,-0.0292,189.6255,6.8213,0.4212,54.885983,9.783319,108.3,5.845,1.85,335.95,54.895348,9.797490,54.888744,9.783868
1389977547,0,0,0.0,0,0,4,0,713,700,-0.0292,189.6255,6.8213,0.4212,54.885983,9.783319,108.3,5.845,1.85,335.95,54.895348,9.797490,54.888744,9.783868
1389977548,0,0,0.0,0,0,4,0,713,700,-0.0292,189.6255,6.8213,0.4212,54.885983,9.783319,108.3,5.845,1.85,335.95,54.895348,9.797490,54.888744,9.783868
1389977548,0,0,0.0,0,0,4,0,713,700,-0.0292,189.6255,6.8213,0.4212,54.885983,9.783319,108.3,5.845,1.85,335.95,54.895348,9.797490,54.888744,9.783868
1389977548,0,0,0.0,0,0,4,0,713,700,-0.0292,189.6255,6.8213,0.4212,54.885983,9.783319,108.3,5.845,1.85,335.95,54.895348,9.797490,54.888744,9.783868
1389977548,0,0,0.0,0,0,4,0,713,700,-0.0292,189.6255,6.8213,0.4212,54.885983,9.783319,108.3,5.845,1.85,335.95,54.895348,9.797490,54.888744,9.783868
1389977549,0,0,0.0,0,0,4,0,713,700,-0.0292,189.6255,6.8213,0.4212,54.885983,9.783319,108.3,5.845,1.85,335.95,54.895348,9.797490,54.888744,9.783868
1389977549,0,0,0.0,0,0,4,0,713,700,-0.0292,189.6255,6.8213,0.4212,54.885983,9.783319,108.3,5.845,1.85,335.95,54.895348,9.797490,54.888744,9.783868
1389977549,0,0,0.0,0,0,4,0,713,700,-0.0292,189.6255,6.8213,0.4212,54.885983,9.783319,108.3,5.845,1.85,335.95,54.895348,9.797490,54.888744,9.783868
