MCU_timestamp,Navigation_System,Manual_Control,Guidance_Heading,Manual_Ctrl_Rudder,Rudder_Desired_Angle,Rudder_Feedback,Manual_Ctrl_Sail,Sail_Desired_Pos,Sail_Feedback,Rate,Heading,Pitch,Roll,Latitude,Longitude,COG,SOG,Wind_Speed,Wind_Angle,Point_Start_Lat,Point_Start_Lon,Point_End_Lat,Point_End_Lon
1386921132,0,0,0.0,0,0,0,0,0,0,-0.0292,-1048.6406,6.8213,0.4212,54.894669,9.794527,108.3,5.845,1.85,335.95,0.000000,0.000000,0.000000,0.000000
1386921132,0,0,0.0,0,0,0,0,0,0,-0.0292,-1048.6406,6.8213,0.4212,54.894669,9.794527,108.3,5.845,1.85,335.95,0.000000,0.000000,0.000000,0.000000
1386921133,0,0,0.0,0,0,0,0,0,0,-0.0292,-1048.6406,6.8213,0.4212,54.894669,9.794527,108.3,5.845,1.85,335.95,0.000000,0.000000,0.000000,0.000000
1386921133,0,0,0.0,0,0,0,0,0,0,-0.0292,-1048.6406,6.8213,0.4212,54.894669,9.794527,108.3,5.845,1.85,335.95,0.000000,0.000000,0.000000,0.000000
1386921133,0,0,0.0,0,0,0,0,0,0,-0.0292,-1048.6406,6.8213,0.4212,54.894669,9.794527,108.3,5.845,1.85,335.95,0.000000,0.000000,0.000000,0.000000
1386921133,0,0,0.0,0,0,0,0,0,0,-0.0292,-1048.6406,6.8213,0.4212,54.894669,9.794527,108.3,5.845,1.85,335.95,0.000000,0.000000,0.000000,0.000000
1386921134,0,0,0.0,0,0,0,0,0,0,-0.0292,-1048.6406,6.8213,0.4212,54.894669,9.794527,108.3,5.845,1.85,335.95,0.000000,0.000000,0.000000,0.000000
1386921134,0,0,0.0,0,0,0,0,0,0,-0.0292,-1048.6406,6.8213,0.4212,54.894669,9.794527,108.3,5.845,1.85,335.95,0.000000,0.000000,0.000000,0.000000
1386921134,0,0,0.0,0,0,0,0,0,0,-0.0292,-1048.6406,6.8213,0.4212,54.894669,9.794527,108.3,5.845,1.85,335.95,0.000000,0.000000,0.000000,0.000000
1386921134,0,0,0.0,0,0,0,0,0,0,-0.0292,-1048.6406,6.8213,0.4212,54.894669,9.794527,108.3,5.845,1.85,335.95,0.000000,0.000000,0.000000,0.000000
1386921135,0,0,0.0,0,0,0,0,0,0,-0.0292,-1048.6406,6.8213,0.4212,54.894669,9.794527,108.3,5.845,1.85,335.95,0.000000,0.000000,0.000000,0.000000
1386921135,0,0,0.0,0,0,0,0,0,0,-0.0292,-1048.6406,6.8213,0.4212,54.894669,9.794527,108.3,5.845,1.85,335.95,0.000000,0.000000,0.000000,0.000000
1386921135,0,0,0.0,0,0,0,0,0,0,-0.0292,-1048.6406,6.8213,0.4212,54.894669,9.794527,108.3,5.845,1.85,335.95,0.000000,0.000000,0.000000,0.000000
1386921135,0,0,0.0,0,0,0,0,0,0,-0.0292,-1048.6406,6.8213,0.4212,54.894669,9.794527,108.3,5.845,1.85,335.95,0.000000,0.000000,0.000000,0.000000
1386921136,0,0,0.0,0,0,0,0,0,0,-0.0292,-1048.6406,6.8213,0.4212,54.894669,9.794527,108.3,5.845,1.85,335.95,0.000000,0.000000,0.000000,0.000000
1386921136,0,0,0.0,0,0,0,0,0,0,-0.0292,-1048.6406,6.8213,0.4212,54.894669,9.794527,108.3,5.845,1.85,335.95,0.000000,0.000000,0.000000,0.000000
1386921136,0,0,0.0,0,0,0,0,0,0,-0.0292,-1048.6406,6.8213,0.4212,54.894669,9.794527,108.3,5.845,1.85,335.95,0.000000,0.000000,0.000000,0.000000
1386921136,0,0,0.0,0,0,0,0,0,0,-0.0292,-1048.6406,6.8213,0.4212,54.894669,9.794527,108.3,5.845,1.85,335.95,0.000000,0.000000,0.000000,0.000000
1386921137,0,0,0.0,0,0,0,0,0,0,-0.0292,-1048.6406,6.8213,0.4212,54.894669,9.794527,108.3,5.845,1.85,335.95,0.000000,0.000000,0.000000,0.000000
1386921137,0,0,0.0,0,0,0,0,0,0,-0.0292,-1048.6406,6.8213,0.4212,54.894669,9.794527,108.3,5.845,1.85,335.95,0.000000,0.000000,0.000000,0.000000
1386921137,0,0,0.0,0,0,0,0,0,0,-0.0292,-1048.6406,6.8213,0.4212,54.894669,9.794527,108.3,5.845,1.85,335.95,0.000000,0.000000,0.000000,0.000000
1386921137,0,0,0.0,0,0,0,0,0,0,-0.0292,-1048.6406,6.8213,0.4212,54.894669,9.794527,108.3,5.845,1.85,335.95,0.000000,0.000000,0.000000,0.000000
1386921138,0,0,0.0,0,0,0,0,0,0,-0.0292,-1048.6406,6.8213,0.4212,54.894669,9.794527,108.3,5.845,1.85,335.95,0.000000,0.000000,0.000000,0.000000
1386921138,0,0,0.0,0,0,0,0,0,0,-0.0292,-1048.6406,6.8213,0.4212,54.894669,9.794527,108.3,5.845,1.85,335.95,0.000000,0.000000,0.000000,0.000000
1386921138,0,0,0.0,0,0,0,0,0,0,-0.0292,-1048.6406,6.8213,0.4212,54.894669,9.794527,108.3,5.845,1.85,335.95,0.000000,0.000000,0.000000,0.000000
1386921138,0,0,0.0,0,0,0,0,0,0,-0.0292,-1048.6406,6.8213,0.4212,54.894669,9.794527,108.3,5.845,1.85,335.95,0.000000,0.000000,0.000000,0.000000
1386921139,0,0,0.0,0,0,0,0,0,0,-0.0292,-1048.6406,6.8213,0.4212,54.894669,9.794527,108.3,5.845,1.85,335.95,0.000000,0.000000,0.000000,0.000000
1386921139,0,0,0.0,0,0,0,0,0,0,-0.0292,-1048.6406,6.8213,0.4212,54.894669,9.794527,108.3,5.845,1.85,335.95,0.000000,0.000000,0.000000,0.000000
1386921139,0,0,0.0,0,0,0,0,0,0,-0.0292,-1048.6406,6.8213,0.4212,54.894669,9.794527,108.3,5.845,1.85,335.95,0.000000,0.000000,0.000000,0.000000
1386921139,0,0,0.0,0,0,0,0,0,0,-0.0292,-1048.6406,6.8213,0.4212,54.894669,9.794527,108.3,5.845,1.85,335.95,0.000000,0.000000,0.000000,0.000000
1386921140,0,0,0.0,0,0,0,0,0,0,-0.0292,-1048.6406,6.8213,0.4212,54.894669,9.794527,108.3,5.845,1.85,335.95,0.000000,0.000000,0.000000,0.000000
1386921140,0,0,0.0,0,0,0,0,0,0,-0.0292,-1048.6406,6.8213,0.4212,54.894669,9.794527,108.3,5.845,1.85,335.95,0.000000,0.000000,0.000000,0.000000
1386921140,0,0,0.0,0,0,0,0,0,0,-0.0292,-1048.6406,6.8213,0.4212,54.894669,9.794527,108.3,5.845,1.85,335.95,0.000000,0.000000,0.000000,0.000000
1386921140,0,0,0.0,0,0,0,0,0,0,-0.0292,-1048.6406,6.8213,0.4212,54.894669,9.794527,108.3,5.845,1.85,335.95,0.000000,0.000000,0.000000,0.000000
1386921141,0,0,0.0,0,0,0,0,0,0,-0.0292,-1048.6406,6.8213,0.4212,54.894669,9.794527,108.3,5.845,1.85,335.95,0.000000,0.000000,0.000000,0.000000
1386921141,0,0,0.0,0,0,0,0,0,0,-0.0292,-1048.6406,6.8213,0.4212,54.894669,9.794527,108.3,5.845,1.85,335.95,0.000000,0.000000,0.000000,0.000000
1386921141,0,0,0.0,0,0,0,0,0,0,-0.0292,-1048.6406,6.8213,0.4212,54.894669,9.794527,108.3,5.845,1.85,335.95,0.000000,0.000000,0.000000,0.000000
1386921141,0,0,0.0,0,0,0,0,0,0,-0.0292,-1048.6406,6.8213,0.4212,54.894669,9.794527,108.3,5.845,1.85,335.95,0.000000,0.000000,0.000000,0.000000
1386921142,0,0,0.0,0,0,0,0,0,0,-0.0292,-1048.6406,6.8213,0.4212,54.894669,9.794527,108.3,5.845,1.85,335.95,0.000000,0.000000,0.000000,0.000000
1386921142,0,0,0.0,0,0,0,0,0,0,-0.0292,-1048.6406,6.8213,0.4212,54.894669,9.794527,108.3,5.845,1.85,335.95,0.000000,0.000000,0.000000,0.000000
1386921142,0,0,0.0,0,0,0,0,0,0,-0.0292,-1048.6406,6.8213,0.4212,54.894669,9.794527,108.3,5.845,1.85,335.95,0.000000,0.000000,0.000000,0.000000
1386921142,0,0,0.0,0,0,0,0,0,0,-0.0292,-1048.6406,6.8213,0.4212,54.894669,9.794527,108.3,5.845,1.85,335.95,0.000000,0.000000,0.000000,0.000000
1386921143,0,0,0.0,0,0,0,0,0,0,-0.0292,-1048.6406,6.8213,0.4212,54.894669,9.794527,108.3,5.845,1.85,335.95,0.000000,0.000000,0.000000,0.000000
1386921143,0,0,0.0,0,0,0,0,0,0,-0.0292,-1048.6406,6.8213,0.4212,54.894669,9.794527,108.3,5.845,1.85,335.95,0.000000,0.000000,0.000000,0.000000
1386921143,0,0,0.0,0,0,0,0,0,0,-0.0292,-1048.6406,6.8213,0.4212,54.896564,9.792895,108.3,5.845,1.85,335.95,0.000000,0.000000,0.000000,0.000000
1386921143,0,0,0.0,0,0,0,0,0,0,-0.0292,-1048.6406,6.8213,0.4212,54.896564,9.792895,108.3,5.845,1.85,335.95,0.000000,0.000000,0.000000,0.000000
1386921144,0,0,0.0,0,0,0,0,0,0,-0.0292,-1048.6406,6.8213,0.4212,54.896564,9.792895,108.3,5.845,1.85,335.95,0.000000,0.000000,0.000000,0.000000
1386921144,0,0,0.0,0,0,0,0,0,0,-0.0292,-1048.6406,6.8213,0.4212,54.896564,9.792895,108.3,5.845,1.85,335.95,0.000000,0.000000,0.000000,0.000000
1386921144,0,0,0.0,0,0,0,0,0,0,-0.0292,-1048.6406,6.8213,0.4212,54.896564,9.792895,108.3,5.845,1.85,335.95,0.000000,0.000000,0.000000,0.000000
1386921144,0,0,0.0,0,0,0,0,0,0,-0.0292,-1048.6406,6.8213,0.4212,54.896564,9.792895,108.3,5.845,1.85,335.95,0.000000,0.000000,0.000000,0.000000
1386921145,0,0,0.0,0,0,0,0,0,0,-0.0292,-1048.6406,6.8213,0.4212,54.896564,9.792895,108.3,5.845,1.85,335.95,0.000000,0.000000,0.000000,0.000000
1386921145,0,0,0.0,0,0,0,0,0,0,-0.0292,-1048.6406,6.8213,0.4212,54.896564,9.792895,108.3,5.845,1.85,335.95,0.000000,0.000000,0.000000,0.000000
1386921145,0,0,0.0,0,0,0,0,0,0,-0.0292,-1048.6406,6.8213,0.4212,54.896564,9.792895,108.3,5.845,1.85,335.95,0.000000,0.000000,0.000000,0.000000
1386921145,4,0,0.0,0,0,0,0,0,0,-0.0292,-1048.6406,6.8213,0.4212,54.896564,9.792895,108.3,5.845,1.85,335.95,0.000000,0.000000,0.000000,0.000000
1386921146,1,0,485.9,0,-35,-4,0,0,0,-0.0292,-1039.3073,6.8213,0.4212,54.896580,9.792915,108.3,5.845,1.85,335.95,54.896564,9.792895,54.895069,9.793790
1386921146,1,0,485.9,0,-35,-8,0,47,50,-0.0292,-1029.9739,6.8213,0.4212,54.896591,9.792939,108.3,5.845,1.85,335.95,54.896564,9.792895,54.895069,9.793790
1386921146,1,0,485.9,0,-35,-12,0,156,100,-0.0292,-1020.6406,6.8213,0.4212,54.896603,9.792966,108.3,5.845,1.85,335.95,54.896564,9.792895,54.895069,9.793790
1386921146,1,0,485.9,0,-35,-16,0,295,150,-0.0292,-1011.3073,6.8213,0.4212,54.896610,9.792995,108.3,5.845,1.85,335.95,54.896564,9.792895,54.895069,9.793790
1386921147,1,0,485.9,0,-35,-20,0,442,200,-0.0292,-1001.9739,6.8213,0.4212,54.896614,9.793026,108.3,5.845,1.85,335.95,54.896564,9.792895,54.895069,9.793790
1386921147,1,0,485.9,0,-35,-24,0,591,250,-0.0292,-992.6406,6.8213,0.4212,54.896618,9.793056,108.3,5.845,1.85,335.95,54.896564,9.792895,54.895069,9.793790
1386921147,1,0,485.9,0,-35,-28,0,734,300,-0.0292,-983.3073,6.8213,0.4212,54.896618,9.793088,108.3,5.845,1.85,335.95,54.896564,9.792895,54.895069,9.793790
1386921147,1,0,485.9,0,-29,-32,0,869,350,-0.0292,-975.5740,6.8213,0.4212,54.896614,9.793118,108.3,5.845,1.85,335.95,54.896564,9.792895,54.895069,9.793790
1386921148,1,0,485.9,0,-22,-28,0,870,400,-0.0292,-969.7073,6.8213,0.4212,54.896610,9.793148,108.3,5.845,1.85,335.95,54.896564,9.792895,54.895069,9.793790
1386921148,1,0,485.9,0,-16,-24,0,870,450,-0.0292,-965.4407,6.8213,0.4212,54.896603,9.793176,108.3,5.845,1.85,335.95,54.896564,9.792895,54.895069,9.793790
1386921148,1,0,485.9,0,-11,-20,0,713,500,-0.0292,-962.5073,6.8213,0.4212,54.896595,9.793203,108.3,5.845,1.85,335.95,54.896564,9.792895,54.895069,9.793790
1386921148,1,0,485.9,0,-8,-16,0,713,550,-0.0292,-960.3740,6.8213,0.4212,54.896584,9.793230,108.3,5.845,1.85,335.95,54.896564,9.792895,54.895069,9.793790
1386921149,1,0,485.9,0,-6,-12,0,713,600,-0.0292,-958.7740,6.8213,0.4212,54.896576,9.793257,108.3,5.845,1.85,335.95,54.896564,9.792895,54.895069,9.793790
1386921149,1,0,485.9,0,-5,-8,0,713,650,-0.0292,-957.4407,6.8213,0.4212,54.896564,9.793283,108.3,5.845,1.85,335.95,54.896564,9.792895,54.895069,9.793790
1386921149,1,0,485.9,0,-3,-4,0,0,600,-0.0292,-956.6407,6.8213,0.4212,54.896557,9.793309,108.3,5.845,1.85,335.95,54.896564,9.792895,54.895069,9.793790
1386921149,1,0,485.9,0,-3,0,0,0,550,-0.0292,-955.8407,6.8213,0.4212,54.896545,9.793335,108.3,5.845,1.85,335.95,54.896564,9.792895,54.895069,9.793790
1386921150,1,0,485.9,0,-2,-4,0,0,500,-0.0292,-955.3074,6.8213,0.4212,54.896534,9.793361,108.3,5.845,1.85,335.95,54.896564,9.792895,54.895069,9.793790
1386921150,1,0,485.9,0,-1,0,0,0,450,-0.0292,-955.0407,6.8213,0.4212,54.896523,9.793386,108.3,5.845,1.85,335.95,54.896564,9.792895,54.895069,9.793790
1386921150,1,0,485.9,0,-1,-4,0,0,400,-0.0292,-954.7740,6.8213,0.4212,54.896511,9.793411,108.3,5.845,1.85,335.95,54.896564,9.792895,54.895069,9.793790
1386921150,1,0,485.9,0,-1,0,0,0,350,-0.0292,-954.5074,6.8213,0.4212,54.896500,9.793436,108.3,5.845,1.85,335.95,54.896564,9.792895,54.895069,9.793790
1386921151,1,0,485.9,0,0,4,0,0,300,-0.0292,-954.5074,6.8213,0.4212,54.896488,9.793462,108.3,5.845,1.85,335.95,54.896564,9.792895,54.895069,9.793790
1386921151,1,0,485.9,0,0,0,0,0,250,-0.0292,-954.5074,6.8213,0.4212,54.896477,9.793488,108.3,5.845,1.85,335.95,54.896564,9.792895,54.895069,9.793790
1386921151,1,0,485.9,0,0,4,0,0,200,-0.0292,-954.5074,6.8213,0.4212,54.896465,9.793513,108.3,5.845,1.85,335.95,54.896564,9.792895,54.895069,9.793790
1386921152,1,0,485.9,0,0,0,0,0,150,-0.0292,-954.5074,6.8213,0.4212,54.896458,9.793539,108.3,5.845,1.85,335.95,54.896564,9.792895,54.895069,9.793790
1386921152,1,0,485.9,0,0,4,0,0,100,-0.0292,-954.5074,6.8213,0.4212,54.896446,9.793564,108.3,5.845,1.85,335.95,54.896564,9.792895,54.895069,9.793790
1386921152,1,0,485.9,0,0,0,0,0,50,-0.0292,-954.5074,6.8213,0.4212,54.896435,9.793590,108.3,5.845,1.85,335.95,54.896564,9.792895,54.895069,9.793790
1386921152,1,0,485.9,0,0,4,0,0,0,-0.0292,-954.5074,6.8213,0.4212,54.896423,9.793615,108.3,5.845,1.85,335.95,54.896564,9.792895,54.895069,9.793790
1386921153,1,0,485.9,0,0,0,0,0,50,-0.0292,-954.5074,6.8213,0.4212,54.896412,9.793641,108.3,5.845,1.85,335.95,54.896564,9.792895,54.895069,9.793790
1386921153,1,0,545.9,0,-35,-4,0,0,0,-0.0292,-945.1741,6.8213,0.4212,54.896400,9.793663,108.3,5.845,1.85,335.95,54.896564,9.792895,54.895069,9.793790
1386921153,1,0,545.9,0,-35,-8,0,0,50,-0.0292,-935.8408,6.8213,0.4212,54.896385,9.793681,108.3,5.845,1.85,335.95,54.896564,9.792895,54.895069,9.793790
1386921153,1,0,545.9,0,-35,-12,0,0,0,-0.0292,-926.5074,6.8213,0.4212,54.896370,9.793695,108.3,5.845,1.85,335.95,54.896564,9.792895,54.895069,9.793790
1386921154,1,0,545.9,0,-32,-16,0,0,50,-0.0292,-917.9741,6.8213,0.4212,54.896355,9.793705,108.3,5.845,1.85,335.95,54.896564,9.792895,54.895069,9.793790
1386921154,1,0,545.9,0,-24,-20,0,0,0,-0.0292,-911.5741,6.8213,0.4212,54.896336,9.793711,108.3,5.845,1.85,335.95,54.896564,9.792895,54.895069,9.793790
1386921154,1,0,545.9,0,-18,-16,0,0,50,-0.0292,-906.7741,6.8213,0.4212,54.896317,9.793715,108.3,5.845,1.85,335.95,54.896564,9.792895,54.895069,9.793790
1386921154,1,0,545.9,0,-13,-12,0,0,0,-0.0292,-903.3074,6.8213,0.4212,54.896301,9.793716,108.3,5.845,1.85,335.95,54.896564,9.792895,54.895069,9.793790
1386921155,1,0,545.9,0,-9,-8,0,0,50,-0.0292,-900.9074,6.8213,0.4212,54.896282,9.793716,108.3,5.845,1.85,335.95,54.896564,9.792895,54.895069,9.793790
1386921155,1,0,545.9,0,-7,-4,0,0,0,-0.0292,-899.0408,6.8213,0.4212,54.896263,9.793715,108.3,5.845,1.85,335.95,54.896564,9.792895,54.895069,9.793790
1386921155,1,0,545.9,0,-5,-8,0,0,50,-0.0292,-897.7075,6.8213,0.4212,54.896244,9.793714,108.3,5.845,1.85,335.95,54.896564,9.792895,54.895069,9.793790
1386921155,1,0,545.9,0,-4,-4,0,713,100,-0.0292,-896.6408,6.8213,0.4212,54.896229,9.793712,108.3,5.845,1.85,335.95,54.896564,9.792895,54.895069,9.793790
1386921156,1,0,545.9,0,-3,0,0,713,150,-0.0292,-895.8408,6.8213,0.4212,54.896210,9.793709,108.3,5.845,1.85,335.95,54.896564,9.792895,54.895069,9.793790
1386921156,1,0,545.9,0,-2,-4,0,713,200,-0.0292,-895.3075,6.8213,0.4212,54.896191,9.793706,108.3,5.845,1.85,335.95,54.896564,9.792895,54.895069,9.793790
1386921156,1,0,545.9,0,-1,0,0,713,250,-0.0292,-895.0408,6.8213,0.4212,54.896172,9.793703,108.3,5.845,1.85,335.95,54.896564,9.792895,54.895069,9.793790
1386921156,1,0,545.9,0,-1,-4,0,713,300,-0.0292,-894.7742,6.8213,0.4212,54.896156,9.793700,108.3,5.845,1.85,335.95,54.896564,9.792895,54.895069,9.793790
1386921157,1,0,545.9,0,-1,0,0,713,350,-0.0292,-894.5075,6.8213,0.4212,54.896137,9.793697,108.3,5.845,1.85,335.95,54.896564,9.792895,54.895069,9.793790
1386921157,1,0,545.9,0,0,4,0,713,400,-0.0292,-894.5075,6.8213,0.4212,54.896118,9.793694,108.3,5.845,1.85,335.95,54.896564,9.792895,54.895069,9.793790
1386921157,1,0,545.9,0,0,0,0,713,450,-0.0292,-894.5075,6.8213,0.4212,54.896099,9.793692,108.3,5.845,1.85,335.95,54.896564,9.792895,54.895069,9.793790
1386921157,1,0,545.9,0,0,4,0,713,500,-0.0292,-894.5075,6.8213,0.4212,54.896084,9.793689,108.3,5.845,1.85,335.95,54.896564,9.792895,54.895069,9.793790
1386921158,1,0,545.9,0,0,0,0,713,550,-0.0292,-894.5075,6.8213,0.4212,54.896065,9.793686,108.3,5.845,1.85,335.95,54.896564,9.792895,54.895069,9.793790
1386921158,1,0,545.9,0,0,4,0,713,600,-0.0292,-894.5075,6.8213,0.4212,54.896046,9.793683,108.3,5.845,1.85,335.95,54.896564,9.792895,54.895069,9.793790
1386921158,1,0,545.9,0,0,0,0,713,650,-0.0292,-894.5075,6.8213,0.4212,54.896030,9.793680,108.3,5.845,1.85,335.95,54.896564,9.792895,54.895069,9.793790
1386921158,1,0,545.9,0,0,4,0,713,700,-0.0292,-894.5075,6.8213,0.4212,54.896011,9.793677,108.3,5.845,1.85,335.95,54.896564,9.792895,54.895069,9.793790
1386921159,1,0,545.9,0,0,0,0,713,750,-0.0292,-894.5075,6.8213,0.4212,54.895992,9.793674,108.3,5.845,1.85,335.95,54.896564,9.792895,54.895069,9.793790
1386921159,1,0,545.9,0,0,4,0,713,700,-0.0292,-894.5075,6.8213,0.4212,54.895973,9.793672,108.3,5.845,1.85,335.95,54.896564,9.792895,54.895069,9.793790
1386921159,1,0,545.9,0,0,0,0,713,750,-0.0292,-894.5075,6.8213,0.4212,54.895958,9.793669,108.3,5.845,1.85,335.95,54.896564,9.792895,54.895069,9.793790
1386921159,1,0,545.9,0,0,4,0,713,700,-0.0292,-894.5075,6.8213,0.4212,54.895939,9.793666,108.3,5.845,1.85,335.95,54.896564,9.792895,54.895069,9.793790
1386921160,1,0,545.9,0,0,0,0,713,750,-0.0292,-894.5075,6.8213,0.4212,54.895920,9.793662,108.3,5.845,1.85,335.95,54.896564,9.792895,54.895069,9.793790
1386921160,1,0,545.9,0,0,4,0,713,700,-0.0292,-894.5075,6.8213,0.4212,54.895901,9.793658,108.3,5.845,1.85,335.95,54.896564,9.792895,54.895069,9.793790
1386921160,1,0,545.9,0,0,0,0,713,750,-0.0292,-894.5075,6.8213,0.4212,54.895885,9.793655,108.3,5.845,1.85,335.95,54.896564,9.792895,54.895069,9.793790
1386921160,1,0,545.9,0,0,4,0,713,700,-0.0292,-894.5075,6.8213,0.4212,54.895866,9.793653,108.3,5.845,1.85,335.95,54.896564,9.792895,54.895069,9.793790
1386921161,1,0,545.9,0,0,0,0,713,750,-0.0292,-894.5075,6.8213,0.4212,54.895847,9.793650,108.3,5.845,1.85,335.95,54.896564,9.792895,54.895069,9.793790
1386921161,1,0,545.9,0,0,4,0,713,700,-0.0292,-894.5075,6.8213,0.4212,54.895828,9.793647,108.3,5.845,1.85,335.95,54.896564,9.792895,54.895069,9.793790
1386921161,1,0,545.9,0,0,0,0,713,750,-0.0292,-894.5075,6.8213,0.4212,54.895813,9.793644,108.3,5.845,1.85,335.95,54.896564,9.792895,54.895069,9.793790
1386921161,1,0,545.9,0,0,4,0,713,700,-0.0292,-894.5075,6.8213,0.4212,54.895794,9.793641,108.3,5.845,1.85,335.95,54.896564,9.792895,54.895069,9.793790
1386921162,1,0,545.9,0,0,0,0,713,750,-0.0292,-894.5075,6.8213,0.4212,54.895775,9.793638,108.3,5.845,1.85,335.95,54.896564,9.792895,54.895069,9.793790
1386921162,1,0,545.9,0,0,4,0,713,700,-0.0292,-894.5075,6.8213,0.4212,54.895760,9.793635,108.3,5.845,1.85,335.95,54.896564,9.792895,54.895069,9.793790
1386921162,1,0,545.9,0,0,0,0,713,750,-0.0292,-894.5075,6.8213,0.4212,54.895741,9.793633,108.3,5.845,1.85,335.95,54.896564,9.792895,54.895069,9.793790
1386921162,1,0,545.9,0,0,4,0,713,700,-0.0292,-894.5075,6.8213,0.4212,54.895721,9.793630,108.3,5.845,1.85,335.95,54.896564,9.792895,54.895069,9.793790
1386921163,1,0,545.9,0,0,0,0,713,750,-0.0292,-894.5075,6.8213,0.4212,54.895702,9.793627,108.3,5.845,1.85,335.95,54.896564,9.792895,54.895069,9.793790
1386921163,1,0,545.9,0,0,4,0,713,700,-0.0292,-894.5075,6.8213,0.4212,54.895687,9.793624,108.3,5.845,1.85,335.95,54.896564,9.792895,54.895069,9.793790
1386921163,1,0,545.9,0,0,0,0,713,750,-0.0292,-894.5075,6.8213,0.4212,54.895668,9.793621,108.3,5.845,1.85,335.95,54.896564,9.792895,54.895069,9.793790
1386921163,1,0,545.9,0,0,4,0,713,700,-0.0292,-894.5075,6.8213,0.4212,54.895649,9.793617,108.3,5.845,1.85,335.95,54.896564,9.792895,54.895069,9.793790
1386921164,1,0,545.9,0,0,0,0,713,750,-0.0292,-894.5075,6.8213,0.4212,54.895630,9.793613,108.3,5.845,1.85,335.95,54.896564,9.792895,54.895069,9.793790
1386921164,1,0,545.9,0,0,4,0,713,700,-0.0292,-894.5075,6.8213,0.4212,54.895615,9.793611,108.3,5.845,1.85,335.95,54.896564,9.792895,54.895069,9.793790
1386921164,1,0,545.9,0,0,0,0,713,750,-0.0292,-894.5075,6.8213,0.4212,54.895596,9.793608,108.3,5.845,1.85,335.95,54.896564,9.792895,54.895069,9.793790
1386921164,1,0,545.9,0,0,4,0,713,700,-0.0292,-894.5075,6.8213,0.4212,54.895576,9.793605,108.3,5.845,1.85,335.95,54.896564,9.792895,54.895069,9.793790
1386921165,1,0,545.9,0,0,0,0,713,750,-0.0292,-894.5075,6.8213,0.4212,54.895557,9.793602,108.3,5.845,1.85,335.95,54.896564,9.792895,54.895069,9.793790
1386921165,1,0,545.9,0,0,4,0,713,700,-0.0292,-894.5075,6.8213,0.4212,54.895542,9.793599,108.3,5.845,1.85,335.95,54.896564,9.792895,54.895069,9.793790
1386921165,1,0,545.9,0,0,0,0,713,750,-0.0292,-894.5075,6.8213,0.4212,54.895523,9.793596,108.3,5.845,1.85,335.95,54.896564,9.792895,54.895069,9.793790
1386921165,1,0,545.9,0,0,4,0,713,700,-0.0292,-894.5075,6.8213,0.4212,54.895504,9.793593,108.3,5.845,1.85,335.95,54.896564,9.792895,54.895069,9.793790
1386921166,1,0,545.9,0,0,0,0,713,750,-0.0292,-894.5075,6.8213,0.4212,54.895489,9.793591,108.3,5.845,1.85,335.95,54.896564,9.792895,54.895069,9.793790
1386921166,1,0,545.9,0,0,4,0,713,700,-0.0292,-894.5075,6.8213,0.4212,54.895470,9.793588,108.3,5.845,1.85,335.95,54.896564,9.792895,54.895069,9.793790
1386921166,1,0,545.9,0,0,0,0,713,750,-0.0292,-894.5075,6.8213,0.4212,54.895451,9.793585,108.3,5.845,1.85,335.95,54.896564,9.792895,54.895069,9.793790
1386921166,1,0,545.9,0,0,4,0,713,700,-0.0292,-894.5075,6.8213,0.4212,54.895432,9.793582,108.3,5.845,1.85,335.95,54.896564,9.792895,54.895069,9.793790
1386921167,1,0,545.9,0,0,0,0,713,750,-0.0292,-894.5075,6.8213,0.4212,54.895416,9.793579,108.3,5.845,1.85,335.95,54.896564,9.792895,54.895069,9.793790
1386921167,1,0,545.9,0,0,4,0,713,700,-0.0292,-894.5075,6.8213,0.4212,54.895397,9.793575,108.3,5.845,1.85,335.95,54.896564,9.792895,54.895069,9.793790
1386921167,0,0,545.9,0,0,4,0,713,700,-0.0292,-894.5075,6.8213,0.4212,54.895397,9.793575,108.3,5.845,1.85,335.95,54.896564,9.792895,54.895069,9.793790
1386921167,0,0,545.9,0,0,4,0,713,700,-0.0292,-894.5075,6.8213,0.4212,54.895397,9.793575,108.3,5.845,1.85,335.95,54.896564,9.792895,54.895069,9.793790
1386921168,0,0,545.9,0,0,4,0,713,700,-0.0292,-894.5075,6.8213,0.4212,54.895397,9.793575,108.3,5.845,1.85,335.95,54.896564,9.792895,54.895069,9.793790
1386921168,0,0,545.9,0,0,4,0,713,700,-0.0292,-894.5075,6.8213,0.4212,54.895397,9.793575,108.3,5.845,1.85,335.95,54.896564,9.792895,54.895069,9.793790
1386921168,0,0,545.9,0,0,4,0,713,700,-0.0292,-894.5075,6.8213,0.4212,54.895397,9.793575,108.3,5.845,1.85,335.95,54.896564,9.792895,54.895069,9.793790
1386921168,0,0,545.9,0,0,4,0,713,700,-0.0292,-894.5075,6.8213,0.4212,54.895397,9.793575,108.3,5.845,1.85,335.95,54.896564,9.792895,54.895069,9.793790
1386921169,0,0,545.9,0,0,4,0,713,700,-0.0292,-894.5075,6.8213,0.4212,54.895397,9.793575,108.3,5.845,1.85,335.95,54.896564,9.792895,54.895069,9.793790
1386921169,0,0,545.9,0,0,4,0,713,700,-0.0292,-894.5075,6.8213,0.4212,54.895397,9.793575,108.3,5.845,1.85,335.95,54.896564,9.792895,54.895069,9.793790
1386921169,0,0,545.9,0,0,4,0,713,700,-0.0292,-894.5075,6.8213,0.4212,54.896595,9.792992,108.3,5.845,1.85,335.95,54.896564,9.792895,54.895069,9.793790
1386921169,0,0,545.9,0,0,4,0,713,700,-0.0292,-894.5075,6.8213,0.4212,54.896595,9.792992,108.3,5.845,1.85,335.95,54.896564,9.792895,54.895069,9.793790
1386921170,0,0,545.9,0,0,4,0,713,700,-0.0292,-894.5075,6.8213,0.4212,54.896595,9.792992,108.3,5.845,1.85,335.95,54.896564,9.792895,54.895069,9.793790
1386921170,0,0,545.9,0,0,4,0,713,700,-0.0292,-894.5075,6.8213,0.4212,54.896595,9.792992,108.3,5.845,1.85,335.95,54.896564,9.792895,54.895069,9.793790
1386921170,0,0,545.9,0,0,4,0,713,700,-0.0292,-894.5075,6.8213,0.4212,54.896595,9.792992,108.3,5.845,1.85,335.95,54.896564,9.792895,54.895069,9.793790
1386921170,0,0,545.9,0,0,4,0,713,700,-0.0292,-894.5075,6.8213,0.4212,54.896595,9.792992,108.3,5.845,1.85,335.95,54.896564,9.792895,54.895069,9.793790
1386921171,0,0,545.9,0,0,4,0,713,700,-0.0292,-894.5075,6.8213,0.4212,54.896595,9.792992,108.3,5.845,1.85,335.95,54.896564,9.792895,54.895069,9.793790
1386921171,0,0,545.9,0,0,4,0,713,700,-0.0292,-894.5075,6.8213,0.4212,54.896595,9.792992,108.3,5.845,1.85,335.95,54.896564,9.792895,54.895069,9.793790
1386921171,0,0,545.9,0,0,4,0,713,700,-0.0292,-894.5075,6.8213,0.4212,54.896595,9.792992,108.3,5.845,1.85,335.95,54.896564,9.792895,54.895069,9.793790
1386921171,0,0,545.9,0,0,4,0,713,700,-0.0292,-894.5075,6.8213,0.4212,54.896595,9.792992,108.3,5.845,1.85,335.95,54.896564,9.792895,54.895069,9.793790
1386921172,0,0,545.9,0,0,4,0,713,700,-0.0292,-894.5075,6.8213,0.4212,54.896595,9.792992,108.3,5.845,1.85,335.95,54.896564,9.792895,54.895069,9.793790
1386921172,0,0,545.9,0,0,4,0,713,700,-0.0292,-894.5075,6.8213,0.4212,54.896595,9.792992,108.3,5.845,1.85,335.95,54.896564,9.792895,54.895069,9.793790
