MCU_timestamp,Navigation_System,Manual_Control,Guidance_Heading,Manual_Ctrl_Rudder,Rudder_Desired_Angle,Rudder_Feedback,Manual_Ctrl_Sail,Sail_Desired_Pos,Sail_Feedback,Rate,Heading,Pitch,Roll,Latitude,Longitude,COG,SOG,Wind_Speed,Wind_Angle,Point_Start_Lat,Point_Start_Lon,Point_End_Lat,Point_End_Lon
1390095542,0,0,0.0,0,0,0,0,0,0,-0.0292,0.2922,6.8213,0.4212,54.899853,9.782585,108.3,5.845,1.85,335.95,0.000000,0.000000,0.000000,0.000000
1390095542,0,0,0.0,0,0,0,0,0,0,-0.0292,0.2922,6.8213,0.4212,54.899853,9.782585,108.3,5.845,1.85,335.95,0.000000,0.000000,0.000000,0.000000
1390095542,0,0,0.0,0,0,0,0,0,0,-0.0292,0.2922,6.8213,0.4212,54.899853,9.782585,108.3,5.845,1.85,335.95,0.000000,0.000000,0.000000,0.000000
1390095542,0,0,0.0,0,0,0,0,0,0,-0.0292,0.2922,6.8213,0.4212,54.899853,9.782585,108.3,5.845,1.85,335.95,0.000000,0.000000,0.000000,0.000000
1390095543,0,0,0.0,0,0,0,0,0,0,-0.0292,0.2922,6.8213,0.4212,54.899853,9.782585,108.3,5.845,1.85,335.95,0.000000,0.000000,0.000000,0.000000
1390095543,0,0,0.0,0,0,0,0,0,0,-0.0292,0.2922,6.8213,0.4212,54.899853,9.782585,108.3,5.845,1.85,335.95,0.000000,0.000000,0.000000,0.000000
1390095543,0,0,0.0,0,0,0,0,0,0,-0.0292,0.2922,6.8213,0.4212,54.899853,9.782585,108.3,5.845,1.85,335.95,0.000000,0.000000,0.000000,0.000000
1390095543,0,0,0.0,0,0,0,0,0,0,-0.0292,0.2922,6.8213,0.4212,54.899853,9.782585,108.3,5.845,1.85,335.95,0.000000,0.000000,0.000000,0.000000
1390095544,0,0,0.0,0,0,0,0,0,0,-0.0292,0.2922,6.8213,0.4212,54.899853,9.782585,108.3,5.845,1.85,335.95,0.000000,0.000000,0.000000,0.000000
1390095544,0,0,0.0,0,0,0,0,0,0,-0.0292,0.2922,6.8213,0.4212,54.899853,9.782585,108.3,5.845,1.85,335.95,0.000000,0.000000,0.000000,0.000000
1390095544,0,0,0.0,0,0,0,0,0,0,-0.0292,0.2922,6.8213,0.4212,54.899853,9.782585,108.3,5.845,1.85,335.95,0.000000,0.000000,0.000000,0.000000
1390095544,0,0,0.0,0,0,0,0,0,0,-0.0292,0.2922,6.8213,0.4212,54.899853,9.782585,108.3,5.845,1.85,335.95,0.000000,0.000000,0.000000,0.000000
1390095545,0,0,0.0,0,0,0,0,0,0,-0.0292,0.2922,6.8213,0.4212,54.899853,9.782585,108.3,5.845,1.85,335.95,0.000000,0.000000,0.000000,0.000000
1390095545,0,0,0.0,0,0,0,0,0,0,-0.0292,0.2922,6.8213,0.4212,54.899853,9.782585,108.3,5.845,1.85,335.95,0.000000,0.000000,0.000000,0.000000
1390095545,0,0,0.0,0,0,0,0,0,0,-0.0292,0.2922,6.8213,0.4212,54.899853,9.782585,108.3,5.845,1.85,335.95,0.000000,0.000000,0.000000,0.000000
1390095545,0,0,0.0,0,0,0,0,0,0,-0.0292,0.2922,6.8213,0.4212,54.899853,9.782585,108.3,5.845,1.85,335.95,0.000000,0.000000,0.000000,0.000000
1390095546,0,0,0.0,0,0,0,0,0,0,-0.0292,0.2922,6.8213,0.4212,54.899853,9.782585,108.3,5.845,1.85,335.95,0.000000,0.000000,0.000000,0.000000
1390095546,0,0,0.0,0,0,0,0,0,0,-0.0292,0.2922,6.8213,0.4212,54.899853,9.782585,108.3,5.845,1.85,335.95,0.000000,0.000000,0.000000,0.000000
1390095546,0,0,0.0,0,0,0,0,0,0,-0.0292,0.2922,6.8213,0.4212,54.899853,9.782585,108.3,5.845,1.85,335.95,0.000000,0.000000,0.000000,0.000000
1390095546,0,0,0.0,0,0,0,0,0,0,-0.0292,0.2922,6.8213,0.4212,54.899853,9.782585,108.3,5.845,1.85,335.95,0.000000,0.000000,0.000000,0.000000
1390095547,0,0,0.0,0,0,0,0,0,0,-0.0292,0.2922,6.8213,0.4212,54.899853,9.782585,108.3,5.845,1.85,335.95,0.000000,0.000000,0.000000,0.000000
1390095547,0,0,0.0,0,0,0,0,0,0,-0.0292,0.2922,6.8213,0.4212,54.899853,9.782585,108.3,5.845,1.85,335.95,0.000000,0.000000,0.000000,0.000000
1390095547,4,0,0.0,0,0,0,0,0,0,-0.0292,0.2922,6.8213,0.4212,54.899853,9.782585,108.3,5.845,1.85,335.95,0.000000,0.000000,0.000000,0.000000
1390095547,1,0,0.0,0,0,4,0,0,-50,-0.0292,0.2922,6.8213,0.4212,54.899872,9.782585,108.3,5.845,1.85,335.95,54.895069,9.793790,54.895348,9.797490
1390095548,1,0,0.0,0,0,0,0,0,200,-0.0292,0.2922,6.8213,0.4212,54.899860,9.782585,108.3,5.845,1.85,335.95,54.895348,9.797490,54.894039,9.801540
1390095548,1,0,0.0,0,0,4,0,0,-50,-0.0292,0.2922,6.8213,0.4212,54.899879,9.782585,108.3,5.845,1.85,335.95,54.894039,9.801540,54.893795,9.802299
1390095548,1,0,0.0,0,0,0,0,0,200,-0.0292,0.2922,6.8213,0.4212,54.899868,9.782585,108.3,5.845,1.85,335.95,54.893795,9.802299,54.893364,9.803688
1390095548,1,0,0.0,0,0,4,0,0,-50,-0.0292,0.2922,6.8213,0.4212,54.899883,9.782585,108.3,5.845,1.85,335.95,54.893364,9.803688,54.892704,9.801139
1390095549,1,0,0.0,0,0,0,0,0,200,-0.0292,0.2922,6.8213,0.4212,54.899872,9.782585,108.3,5.845,1.85,335.95,54.892704,9.801139,54.891663,9.800174
1390095549,1,0,0.0,0,0,4,0,0,-50,-0.0292,0.2922,6.8213,0.4212,54.899887,9.782585,108.3,5.845,1.85,335.95,54.891663,9.800174,54.892929,9.805077
1390095549,1,0,0.0,0,0,0,0,0,200,-0.0292,0.2922,6.8213,0.4212,54.899879,9.782585,108.3,5.845,1.85,335.95,54.892929,9.805077,54.892498,9.806466
1390095549,1,0,0.0,0,0,4,0,0,-50,-0.0292,0.2922,6.8213,0.4212,54.899899,9.782585,108.3,5.845,1.85,335.95,54.892498,9.806466,54.891232,9.801563
1390095550,1,0,0.0,0,0,0,0,0,200,-0.0292,0.2922,6.8213,0.4212,54.899887,9.782585,108.3,5.845,1.85,335.95,54.891232,9.801563,54.890800,9.802953
1390095550,1,0,0.0,0,0,4,0,0,-50,-0.0292,0.2922,6.8213,0.4212,54.899906,9.782585,108.3,5.845,1.85,335.95,54.890800,9.802953,54.891651,9.806246
1390095550,1,0,0.0,0,0,0,0,0,200,-0.0292,0.2922,6.8213,0.4212,54.899895,9.782585,108.3,5.845,1.85,335.95,54.891651,9.806246,54.890560,9.805087
1390095550,1,0,0.0,0,0,4,0,0,-50,-0.0292,0.2922,6.8213,0.4212,54.899910,9.782585,108.3,5.845,1.85,335.95,54.890560,9.805087,54.890366,9.804342
1390095551,1,0,0.0,0,0,0,0,0,200,-0.0292,0.2922,6.8213,0.4212,54.899899,9.782585,108.3,5.845,1.85,335.95,54.890366,9.804342,54.890846,9.801930
1390095551,1,0,0.0,0,0,4,0,0,-50,-0.0292,0.2922,6.8213,0.4212,54.899918,9.782585,108.3,5.845,1.85,335.95,54.890846,9.801930,54.889477,9.798280
1390095551,1,0,0.0,0,0,0,0,0,200,-0.0292,0.2922,6.8213,0.4212,54.899906,9.782585,108.3,5.845,1.85,335.95,54.889477,9.798280,54.891819,9.794550
1390095551,1,0,0.0,0,0,4,0,0,-50,-0.0292,0.2922,6.8213,0.4212,54.899925,9.782585,108.3,5.845,1.85,335.95,54.891819,9.794550,54.895348,9.797490
1390095552,1,0,0.0,0,0,0,0,0,200,-0.0292,0.2922,6.8213,0.4212,54.899914,9.782585,108.3,5.845,1.85,335.95,54.895348,9.797490,54.895069,9.793790
1390095552,1,0,0.0,0,0,4,0,0,-50,-0.0292,0.2922,6.8213,0.4212,54.899933,9.782585,108.3,5.845,1.85,335.95,54.895348,9.797490,54.895069,9.793790
1390095552,3,0,0.0,0,0,0,0,10,200,-0.0292,0.2922,6.8213,0.4212,54.899921,9.782585,108.3,5.845,1.85,335.95,54.895348,9.797490,54.899933,9.782585
1390095552,3,0,0.0,0,0,4,0,10,-50,-0.0292,0.2922,6.8213,0.4212,54.899937,9.782585,108.3,5.845,1.85,335.95,54.895348,9.797490,54.899933,9.782585
1390095553,3,0,0.0,0,0,0,0,10,200,-0.0292,0.2922,6.8213,0.4212,54.899929,9.782585,108.3,5.845,1.85,335.95,54.895348,9.797490,54.899933,9.782585
1390095553,3,0,0.0,0,0,4,0,10,-50,-0.0292,0.2922,6.8213,0.4212,54.899948,9.782585,108.3,5.845,1.85,335.95,54.895348,9.797490,54.899933,9.782585
1390095553,3,0,0.0,0,0,0,0,10,200,-0.0292,0.2922,6.8213,0.4212,54.899937,9.782585,108.3,5.845,1.85,335.95,54.895348,9.797490,54.899933,9.782585
1390095553,3,0,0.0,0,0,4,0,10,-50,-0.0292,0.2922,6.8213,0.4212,54.899956,9.782585,108.3,5.845,1.85,335.95,54.895348,9.797490,54.899933,9.782585
1390095554,3,0,0.0,0,0,0,0,10,200,-0.0292,0.2922,6.8213,0.4212,54.899944,9.782585,108.3,5.845,1.85,335.95,54.895348,9.797490,54.899933,9.782585
1390095554,3,0,0.0,0,0,4,0,10,-50,-0.0292,0.2922,6.8213,0.4212,54.899960,9.782585,108.3,5.845,1.85,335.95,54.895348,9.797490,54.899933,9.782585
1390095554,3,0,0.0,0,0,0,0,10,200,-0.0292,0.2922,6.8213,0.4212,54.899948,9.782585,108.3,5.845,1.85,335.95,54.895348,9.797490,54.899933,9.782585
1390095554,3,0,0.0,0,0,4,0,10,-50,-0.0292,0.2922,6.8213,0.4212,54.899967,9.782585,108.3,5.845,1.85,335.95,54.895348,9.797490,54.899933,9.782585
1390095555,3,0,0.0,0,0,0,0,10,200,-0.0292,0.2922,6.8213,0.4212,54.899956,9.782585,108.3,5.845,1.85,335.95,54.895348,9.797490,54.899933,9.782585
1390095555,3,0,0.0,0,0,4,0,10,-50,-0.0292,0.2922,6.8213,0.4212,54.899975,9.782585,108.3,5.845,1.85,335.95,54.895348,9.797490,54.899933,9.782585
1390095555,3,0,0.0,0,0,0,0,10,200,-0.0292,0.2922,6.8213,0.4212,54.899963,9.782585,108.3,5.845,1.85,335.95,54.895348,9.797490,54.899933,9.782585
1390095555,3,0,0.0,0,0,4,0,10,-50,-0.0292,0.2922,6.8213,0.4212,54.899979,9.782585,108.3,5.845,1.85,335.95,54.895348,9.797490,54.899933,9.782585
1390095556,3,0,0.0,0,0,0,0,10,200,-0.0292,0.2922,6.8213,0.4212,54.899967,9.782585,108.3,5.845,1.85,335.95,54.895348,9.797490,54.899933,9.782585
1390095556,3,0,0.0,0,0,4,0,10,-50,-0.0292,0.2922,6.8213,0.4212,54.899982,9.782585,108.3,5.845,1.85,335.95,54.895348,9.797490,54.899933,9.782585
1390095556,3,0,0.0,0,0,0,0,10,200,-0.0292,0.2922,6.8213,0.4212,54.899971,9.782585,108.3,5.845,1.85,335.95,54.895348,9.797490,54.899933,9.782585
1390095556,3,0,0.0,0,0,4,0,10,-50,-0.0292,0.2922,6.8213,0.4212,54.899986,9.782585,108.3,5.845,1.85,335.95,54.895348,9.797490,54.899933,9.782585
1390095557,3,0,0.0,0,0,0,0,10,200,-0.0292,0.2922,6.8213,0.4212,54.899979,9.782585,108.3,5.845,1.85,335.95,54.895348,9.797490,54.899933,9.782585
1390095557,3,0,0.0,0,0,4,0,10,-50,-0.0292,0.2922,6.8213,0.4212,54.899998,9.782585,108.3,5.845,1.85,335.95,54.895348,9.797490,54.899933,9.782585
1390095557,3,0,0.0,0,0,0,0,20,200,-0.0292,0.2922,6.8213,0.4212,54.899986,9.782585,108.3,5.845,1.85,335.95,54.895348,9.797490,54.899933,9.782585
1390095557,3,0,0.0,0,0,4,0,20,-50,-0.0292,0.2922,6.8213,0.4212,54.900005,9.782585,108.3,5.845,1.85,335.95,54.895348,9.797490,54.899933,9.782585
1390095558,3,0,0.0,0,0,0,0,20,200,-0.0292,0.2922,6.8213,0.4212,54.899994,9.782585,108.3,5.845,1.85,335.95,54.895348,9.797490,54.899933,9.782585
1390095558,3,0,0.0,0,0,4,0,20,-50,-0.0292,0.2922,6.8213,0.4212,54.900009,9.782585,108.3,5.845,1.85,335.95,54.895348,9.797490,54.899933,9.782585
1390095558,3,0,0.0,0,0,0,0,20,200,-0.0292,0.2922,6.8213,0.4212,54.899998,9.782585,108.3,5.845,1.85,335.95,54.895348,9.797490,54.899933,9.782585
1390095558,3,0,0.0,0,0,4,0,20,-50,-0.0292,0.2922,6.8213,0.4212,54.900017,9.782585,108.3,5.845,1.85,335.95,54.895348,9.797490,54.899933,9.782585
1390095559,3,0,0.0,0,0,0,0,20,200,-0.0292,0.2922,6.8213,0.4212,54.900005,9.782585,108.3,5.845,1.85,335.95,54.895348,9.797490,54.899933,9.782585
1390095559,3,0,0.0,0,0,4,0,20,-50,-0.0292,0.2922,6.8213,0.4212,54.900024,9.782585,108.3,5.845,1.85,335.95,54.895348,9.797490,54.899933,9.782585
1390095559,3,0,0.0,0,0,0,0,20,200,-0.0292,0.2922,6.8213,0.4212,54.900013,9.782585,108.3,5.845,1.85,335.95,54.895348,9.797490,54.899933,9.782585
1390095559,3,0,0.0,0,0,4,0,20,-50,-0.0292,0.2922,6.8213,0.4212,54.900028,9.782585,108.3,5.845,1.85,335.95,54.895348,9.797490,54.899933,9.782585
1390095560,3,0,0.0,0,0,0,0,20,200,-0.0292,0.2922,6.8213,0.4212,54.900017,9.782585,108.3,5.845,1.85,335.95,54.895348,9.797490,54.899933,9.782585
1390095560,3,0,0.0,0,0,4,0,20,-50,-0.0292,0.2922,6.8213,0.4212,54.900032,9.782585,108.3,5.845,1.85,335.95,54.895348,9.797490,54.899933,9.782585
1390095560,3,0,0.0,0,0,0,0,20,200,-0.0292,0.2922,6.8213,0.4212,54.900021,9.782585,108.3,5.845,1.85,335.95,54.895348,9.797490,54.899933,9.782585
1390095560,3,0,0.0,0,0,4,0,20,-50,-0.0292,0.2922,6.8213,0.4212,54.900036,9.782585,108.3,5.845,1.85,335.95,54.895348,9.797490,54.899933,9.782585
1390095561,3,0,0.0,0,0,0,0,20,200,-0.0292,0.2922,6.8213,0.4212,54.900028,9.782585,108.3,5.845,1.85,335.95,54.895348,9.797490,54.899933,9.782585
1390095561,3,0,0.0,0,0,4,0,20,-50,-0.0292,0.2922,6.8213,0.4212,54.900047,9.782585,108.3,5.845,1.85,335.95,54.895348,9.797490,54.899933,9.782585
1390095561,3,0,0.0,0,0,0,0,20,200,-0.0292,0.2922,6.8213,0.4212,54.900036,9.782585,108.3,5.845,1.85,335.95,54.895348,9.797490,54.899933,9.782585
1390095561,3,0,0.0,0,0,4,0,20,-50,-0.0292,0.2922,6.8213,0.4212,54.900055,9.782585,108.3,5.845,1.85,335.95,54.895348,9.797490,54.899933,9.782585
1390095562,3,0,0.0,0,0,0,0,20,200,-0.0292,0.2922,6.8213,0.4212,54.900043,9.782585,108.3,5.845,1.85,335.95,54.895348,9.797490,54.899933,9.782585
1390095562,3,0,0.0,0,0,4,0,20,-50,-0.0292,0.2922,6.8213,0.4212,54.900059,9.782585,108.3,5.845,1.85,335.95,54.895348,9.797490,54.899933,9.782585
1390095562,3,0,0.0,0,0,0,0,30,200,-0.0292,0.2922,6.8213,0.4212,54.900047,9.782585,108.3,5.845,1.85,335.95,54.895348,9.797490,54.899933,9.782585
1390095563,3,0,0.0,0,0,4,0,30,-50,-0.0292,0.2922,6.8213,0.4212,54.900066,9.782585,108.3,5.845,1.85,335.95,54.895348,9.797490,54.899933,9.782585
1390095563,3,0,0.0,0,0,0,0,30,200,-0.0292,0.2922,6.8213,0.4212,54.900055,9.782585,108.3,5.845,1.85,335.95,54.895348,9.797490,54.899933,9.782585
1390095563,3,0,0.0,0,0,4,0,30,-50,-0.0292,0.2922,6.8213,0.4212,54.900074,9.782585,108.3,5.845,1.85,335.95,54.895348,9.797490,54.899933,9.782585
1390095563,3,0,0.0,0,0,0,0,30,200,-0.0292,0.2922,6.8213,0.4212,54.900063,9.782585,108.3,5.845,1.85,335.95,54.895348,9.797490,54.899933,9.782585
1390095564,3,0,0.0,0,0,4,0,30,-50,-0.0292,0.2922,6.8213,0.4212,54.900078,9.782585,108.3,5.845,1.85,335.95,54.895348,9.797490,54.899933,9.782585
1390095564,3,0,0.0,0,0,0,0,30,200,-0.0292,0.2922,6.8213,0.4212,54.900066,9.782585,108.3,5.845,1.85,335.95,54.895348,9.797490,54.899933,9.782585
1390095564,3,0,0.0,0,0,4,0,30,-50,-0.0292,0.2922,6.8213,0.4212,54.900082,9.782585,108.3,5.845,1.85,335.95,54.895348,9.797490,54.899933,9.782585
1390095564,3,0,0.0,0,0,0,0,30,200,-0.0292,0.2922,6.8213,0.4212,54.900070,9.782585,108.3,5.845,1.85,335.95,54.895348,9.797490,54.899933,9.782585
1390095565,3,0,0.0,0,0,4,0,30,-50,-0.0292,0.2922,6.8213,0.4212,54.900089,9.782585,108.3,5.845,1.85,335.95,54.895348,9.797490,54.899933,9.782585
1390095565,3,0,0.0,0,0,0,0,30,200,-0.0292,0.2922,6.8213,0.4212,54.900078,9.782585,108.3,5.845,1.85,335.95,54.895348,9.797490,54.899933,9.782585
1390095565,3,0,0.0,0,0,4,0,30,-50,-0.0292,0.2922,6.8213,0.4212,54.900097,9.782585,108.3,5.845,1.85,335.95,54.895348,9.797490,54.899933,9.782585
1390095565,3,0,0.0,0,0,0,0,30,200,-0.0292,0.2922,6.8213,0.4212,54.900085,9.782585,108.3,5.845,1.85,335.95,54.895348,9.797490,54.899933,9.782585
1390095566,3,0,0.0,0,0,4,0,30,-50,-0.0292,0.2922,6.8213,0.4212,54.900105,9.782585,108.3,5.845,1.85,335.95,54.895348,9.797490,54.899933,9.782585
1390095566,3,0,0.0,0,0,0,0,30,200,-0.0292,0.2922,6.8213,0.4212,54.900093,9.782585,108.3,5.845,1.85,335.95,54.895348,9.797490,54.899933,9.782585
1390095566,3,0,0.0,0,0,4,0,30,-50,-0.0292,0.2922,6.8213,0.4212,54.900108,9.782585,108.3,5.845,1.85,335.95,54.895348,9.797490,54.899933,9.782585
1390095566,3,0,0.0,0,0,0,0,30,200,-0.0292,0.2922,6.8213,0.4212,54.900101,9.782585,108.3,5.845,1.85,335.95,54.895348,9.797490,54.899933,9.782585
1390095567,3,0,0.0,0,0,4,0,30,-50,-0.0292,0.2922,6.8213,0.4212,54.900120,9.782585,108.3,5.845,1.85,335.95,54.895348,9.797490,54.899933,9.782585
1390095567,3,0,0.0,0,0,0,0,30,200,-0.0292,0.2922,6.8213,0.4212,54.900108,9.782585,108.3,5.845,1.85,335.95,54.895348,9.797490,54.899933,9.782585
1390095567,3,0,0.0,0,0,4,0,30,-50,-0.0292,0.2922,6.8213,0.4212,54.900127,9.782585,108.3,5.845,1.85,335.95,54.895348,9.797490,54.899933,9.782585
1390095567,3,0,0.0,0,0,0,0,40,200,-0.0292,0.2922,6.8213,0.4212,54.900116,9.782585,108.3,5.845,1.85,335.95,54.895348,9.797490,54.899933,9.782585
1390095568,3,0,0.0,0,0,4,0,40,-50,-0.0292,0.2922,6.8213,0.4212,54.900131,9.782585,108.3,5.845,1.85,335.95,54.895348,9.797490,54.899933,9.782585
1390095568,3,0,0.0,0,0,0,0,40,200,-0.0292,0.2922,6.8213,0.4212,54.900120,9.782585,108.3,5.845,1.85,335.95,54.895348,9.797490,54.899933,9.782585
1390095568,3,0,0.0,0,0,4,0,40,-50,-0.0292,0.2922,6.8213,0.4212,54.900139,9.782585,108.3,5.845,1.85,335.95,54.895348,9.797490,54.899933,9.782585
1390095568,3,0,0.0,0,0,0,0,40,200,-0.0292,0.2922,6.8213,0.4212,54.900127,9.782585,108.3,5.845,1.85,335.95,54.895348,9.797490,54.899933,9.782585
1390095569,3,0,0.0,0,0,4,0,40,-50,-0.0292,0.2922,6.8213,0.4212,54.900146,9.782585,108.3,5.845,1.85,335.95,54.895348,9.797490,54.899933,9.782585
1390095569,3,0,0.0,0,0,0,0,40,200,-0.0292,0.2922,6.8213,0.4212,54.900135,9.782585,108.3,5.845,1.85,335.95,54.895348,9.797490,54.899933,9.782585
1390095569,3,0,0.0,0,0,4,0,40,-50,-0.0292,0.2922,6.8213,0.4212,54.900154,9.782585,108.3,5.845,1.85,335.95,54.895348,9.797490,54.899933,9.782585
1390095569,3,0,0.0,0,0,0,0,40,200,-0.0292,0.2922,6.8213,0.4212,54.900143,9.782585,108.3,5.845,1.85,335.95,54.895348,9.797490,54.899933,9.782585
1390095570,3,0,0.0,0,0,4,0,40,-50,-0.0292,0.2922,6.8213,0.4212,54.900158,9.782585,108.3,5.845,1.85,335.95,54.895348,9.797490,54.899933,9.782585
1390095570,3,0,0.0,0,0,0,0,40,200,-0.0292,0.2922,6.8213,0.4212,54.900150,9.782585,108.3,5.845,1.85,335.95,54.895348,9.797490,54.899933,9.782585
1390095570,3,0,0.0,0,0,4,0,40,-50,-0.0292,0.2922,6.8213,0.4212,54.900169,9.782585,108.3,5.845,1.85,335.95,54.895348,9.797490,54.899933,9.782585
1390095570,3,0,0.0,0,0,0,0,40,200,-0.0292,0.2922,6.8213,0.4212,54.900158,9.782585,108.3,5.845,1.85,335.95,54.895348,9.797490,54.899933,9.782585
1390095571,3,0,0.0,0,0,4,0,40,-50,-0.0292,0.2922,6.8213,0.4212,54.900177,9.782585,108.3,5.845,1.85,335.95,54.895348,9.797490,54.899933,9.782585
1390095571,3,0,0.0,0,0,0,0,40,200,-0.0292,0.2922,6.8213,0.4212,54.900166,9.782585,108.3,5.845,1.85,335.95,54.895348,9.797490,54.899933,9.782585
1390095571,3,0,0.0,0,0,4,0,40,-50,-0.0292,0.2922,6.8213,0.4212,54.900181,9.782585,108.3,5.845,1.85,335.95,54.895348,9.797490,54.899933,9.782585
1390095571,3,0,0.0,0,0,0,0,40,200,-0.0292,0.2922,6.8213,0.4212,54.900169,9.782585,108.3,5.845,1.85,335.95,54.895348,9.797490,54.899933,9.782585
1390095572,3,0,0.0,0,0,4,0,40,-50,-0.0292,0.2922,6.8213,0.4212,54.900188,9.782585,108.3,5.845,1.85,335.95,54.895348,9.797490,54.899933,9.782585
1390095572,3,0,0.0,0,0,0,0,40,200,-0.0292,0.2922,6.8213,0.4212,54.900177,9.782585,108.3,5.845,1.85,335.95,54.895348,9.797490,54.899933,9.782585
1390095572,3,0,0.0,0,0,4,0,40,-50,-0.0292,0.2922,6.8213,0.4212,54.900196,9.782585,108.3,5.845,1.85,335.95,54.895348,9.797490,54.899933,9.782585
1390095572,3,0,0.0,0,0,0,0,50,200,-0.0292,0.2922,6.8213,0.4212,54.900185,9.782585,108.3,5.845,1.85,335.95,54.895348,9.797490,54.899933,9.782585
1390095573,3,0,0.0,0,0,4,0,50,-50,-0.0292,0.2922,6.8213,0.4212,54.900200,9.782585,108.3,5.845,1.85,335.95,54.895348,9.797490,54.899933,9.782585
1390095573,3,0,0.0,0,0,0,0,50,200,-0.0292,0.2922,6.8213,0.4212,54.900188,9.782585,108.3,5.845,1.85,335.95,54.895348,9.797490,54.899933,9.782585
1390095573,3,0,0.0,0,0,4,0,50,-50,-0.0292,0.2922,6.8213,0.4212,54.900204,9.782585,108.3,5.845,1.85,335.95,54.895348,9.797490,54.899933,9.782585
1390095573,3,0,0.0,0,0,0,0,50,200,-0.0292,0.2922,6.8213,0.4212,54.900192,9.782585,108.3,5.845,1.85,335.95,54.895348,9.797490,54.899933,9.782585
1390095574,3,0,0.0,0,0,4,0,50,-50,-0.0292,0.2922,6.8213,0.4212,54.900208,9.782585,108.3,5.845,1.85,335.95,54.895348,9.797490,54.899933,9.782585
1390095574,3,0,0.0,0,0,0,0,50,200,-0.0292,0.2922,6.8213,0.4212,54.900200,9.782585,108.3,5.845,1.85,335.95,54.895348,9.797490,54.899933,9.782585
1390095574,3,0,0.0,0,0,4,0,50,-50,-0.0292,0.2922,6.8213,0.4212,54.900219,9.782585,108.3,5.845,1.85,335.95,54.895348,9.797490,54.899933,9.782585
1390095574,3,0,0.0,0,0,0,0,50,200,-0.0292,0.2922,6.8213,0.4212,54.900208,9.782585,108.3,5.845,1.85,335.95,54.895348,9.797490,54.899933,9.782585
1390095575,3,0,0.0,0,0,4,0,50,-50,-0.0292,0.2922,6.8213,0.4212,54.900227,9.782585,108.3,5.845,1.85,335.95,54.895348,9.797490,54.899933,9.782585
1390095575,3,0,0.0,0,0,0,0,50,200,-0.0292,0.2922,6.8213,0.4212,54.900215,9.782585,108.3,5.845,1.85,335.95,54.895348,9.797490,54.899933,9.782585
1390095575,3,0,0.0,0,0,4,0,50,-50,-0.0292,0.2922,6.8213,0.4212,54.900230,9.782585,108.3,5.845,1.85,335.95,54.895348,9.797490,54.899933,9.782585
1390095575,3,0,0.0,0,0,0,0,50,200,-0.0292,0.2922,6.8213,0.4212,54.900219,9.782585,108.3,5.845,1.85,335.95,54.895348,9.797490,54.899933,9.782585
1390095576,3,0,0.0,0,0,4,0,50,-50,-0.0292,0.2922,6.8213,0.4212,54.900238,9.782585,108.3,5.845,1.85,335.95,54.895348,9.797490,54.899933,9.782585
1390095576,3,0,0.0,0,0,0,0,50,200,-0.0292,0.2922,6.8213,0.4212,54.900227,9.782585,108.3,5.845,1.85,335.95,54.895348,9.797490,54.899933,9.782585
1390095576,3,0,0.0,0,0,4,0,50,-50,-0.0292,0.2922,6.8213,0.4212,54.900246,9.782585,108.3,5.845,1.85,335.95,54.895348,9.797490,54.899933,9.782585
1390095576,3,0,0.0,0,0,0,0,50,200,-0.0292,0.2922,6.8213,0.4212,54.900234,9.782585,108.3,5.845,1.85,335.95,54.895348,9.797490,54.899933,9.782585
1390095577,3,0,0.0,0,0,4,0,50,-50,-0.0292,0.2922,6.8213,0.4212,54.900249,9.782585,108.3,5.845,1.85,335.95,54.895348,9.797490,54.899933,9.782585
1390095577,3,0,0.0,0,0,0,0,50,200,-0.0292,0.2922,6.8213,0.4212,54.900238,9.782585,108.3,5.845,1.85,335.95,54.895348,9.797490,54.899933,9.782585
1390095577,3,0,0.0,0,0,4,0,50,-50,-0.0292,0.2922,6.8213,0.4212,54.900253,9.782585,108.3,5.845,1.85,335.95,54.895348,9.797490,54.899933,9.782585
1390095577,3,0,0.0,0,0,0,0,60,200,-0.0292,0.2922,6.8213,0.4212,54.900242,9.782585,108.3,5.845,1.85,335.95,54.895348,9.797490,54.899933,9.782585
1390095578,3,0,0.0,0,0,4,0,60,-50,-0.0292,0.2922,6.8213,0.4212,54.900257,9.782585,108.3,5.845,1.85,335.95,54.895348,9.797490,54.899933,9.782585
1390095578,3,0,0.0,0,0,0,0,60,200,-0.0292,0.2922,6.8213,0.4212,54.900249,9.782585,108.3,5.845,1.85,335.95,54.895348,9.797490,54.899933,9.782585
1390095578,3,0,0.0,0,0,4,0,60,-50,-0.0292,0.2922,6.8213,0.4212,54.900269,9.782585,108.3,5.845,1.85,335.95,54.895348,9.797490,54.899933,9.782585
1390095578,3,0,0.0,0,0,0,0,60,200,-0.0292,0.2922,6.8213,0.4212,54.900257,9.782585,108.3,5.845,1.85,335.95,54.895348,9.797490,54.899933,9.782585
1390095579,3,0,0.0,0,0,4,0,60,-50,-0.0292,0.2922,6.8213,0.4212,54.900276,9.782585,108.3,5.845,1.85,335.95,54.895348,9.797490,54.899933,9.782585
1390095579,3,0,0.0,0,0,0,0,60,200,-0.0292,0.2922,6.8213,0.4212,54.900265,9.782585,108.3,5.845,1.85,335.95,54.895348,9.797490,54.899933,9.782585
1390095579,3,0,0.0,0,0,4,0,60,-50,-0.0292,0.2922,6.8213,0.4212,54.900280,9.782585,108.3,5.845,1.85,335.95,54.895348,9.797490,54.899933,9.782585
1390095579,3,0,0.0,0,0,0,0,60,200,-0.0292,0.2922,6.8213,0.4212,54.900269,9.782585,108.3,5.845,1.85,335.95,54.895348,9.797490,54.899933,9.782585
1390095580,3,0,0.0,0,0,4,0,60,-50,-0.0292,0.2922,6.8213,0.4212,54.900288,9.782585,108.3,5.845,1.85,335.95,54.895348,9.797490,54.899933,9.782585
1390095580,3,0,0.0,0,0,0,0,60,200,-0.0292,0.2922,6.8213,0.4212,54.900276,9.782585,108.3,5.845,1.85,335.95,54.895348,9.797490,54.899933,9.782585
1390095580,3,0,0.0,0,0,4,0,60,-50,-0.0292,0.2922,6.8213,0.4212,54.900295,9.782585,108.3,5.845,1.85,335.95,54.895348,9.797490,54.899933,9.782585
1390095580,3,0,0.0,0,0,0,0,60,200,-0.0292,0.2922,6.8213,0.4212,54.900284,9.782585,108.3,5.845,1.85,335.95,54.895348,9.797490,54.899933,9.782585
1390095581,3,0,0.0,0,0,4,0,60,-50,-0.0292,0.2922,6.8213,0.4212,54.900299,9.782585,108.3,5.845,1.85,335.95,54.895348,9.797490,54.899933,9.782585
1390095581,3,0,0.0,0,0,0,0,60,200,-0.0292,0.2922,6.8213,0.4212,54.900288,9.782585,108.3,5.845,1.85,335.95,54.895348,9.797490,54.899933,9.782585
1390095581,3,0,0.0,0,0,4,0,60,-50,-0.0292,0.2922,6.8213,0.4212,54.900303,9.782585,108.3,5.845,1.85,335.95,54.895348,9.797490,54.899933,9.782585
1390095581,3,0,0.0,0,0,0,0,60,200,-0.0292,0.2922,6.8213,0.4212,54.900291,9.782585,108.3,5.845,1.85,335.95,54.895348,9.797490,54.899933,9.782585
1390095582,3,0,0.0,0,0,4,0,60,-50,-0.0292,0.2922,6.8213,0.4212,54.900311,9.782585,108.3,5.845,1.85,335.95,54.895348,9.797490,54.899933,9.782585
1390095582,3,0,0.0,0,0,0,0,60,200,-0.0292,0.2922,6.8213,0.4212,54.900299,9.782585,108.3,5.845,1.85,335.95,54.895348,9.797490,54.899933,9.782585
1390095582,3,0,0.0,0,0,4,0,60,-50,-0.0292,0.2922,6.8213,0.4212,54.900318,9.782585,108.3,5.845,1.85,335.95,54.895348,9.797490,54.899933,9.782585
1390095582,3,0,0.0,0,0,0,0,70,200,-0.0292,0.2922,6.8213,0.4212,54.900307,9.782585,108.3,5.845,1.85,335.95,54.895348,9.797490,54.899933,9.782585
1390095583,3,0,0.0,0,0,4,0,70,-50,-0.0292,0.2922,6.8213,0.4212,54.900326,9.782585,108.3,5.845,1.85,335.95,54.895348,9.797490,54.899933,9.782585
1390095583,3,0,0.0,0,0,0,0,70,200,-0.0292,0.2922,6.8213,0.4212,54.900314,9.782585,108.3,5.845,1.85,335.95,54.895348,9.797490,54.899933,9.782585
1390095583,3,0,0.0,0,0,4,0,70,-50,-0.0292,0.2922,6.8213,0.4212,54.900330,9.782585,108.3,5.845,1.85,335.95,54.895348,9.797490,54.899933,9.782585
1390095583,3,0,0.0,0,0,0,0,70,200,-0.0292,0.2922,6.8213,0.4212,54.900322,9.782585,108.3,5.845,1.85,335.95,54.895348,9.797490,54.899933,9.782585
1390095584,3,0,0.0,0,0,4,0,70,-50,-0.0292,0.2922,6.8213,0.4212,54.900341,9.782585,108.3,5.845,1.85,335.95,54.895348,9.797490,54.899933,9.782585
1390095584,3,0,0.0,0,0,0,0,70,200,-0.0292,0.2922,6.8213,0.4212,54.900330,9.782585,108.3,5.845,1.85,335.95,54.895348,9.797490,54.899933,9.782585
1390095584,3,0,0.0,0,0,4,0,70,-50,-0.0292,0.2922,6.8213,0.4212,54.900349,9.782585,108.3,5.845,1.85,335.95,54.895348,9.797490,54.899933,9.782585
1390095584,3,0,0.0,0,0,0,0,70,200,-0.0292,0.2922,6.8213,0.4212,54.900337,9.782585,108.3,5.845,1.85,335.95,54.895348,9.797490,54.899933,9.782585
1390095585,3,0,0.0,0,0,4,0,70,-50,-0.0292,0.2922,6.8213,0.4212,54.900352,9.782585,108.3,5.845,1.85,335.95,54.895348,9.797490,54.899933,9.782585
1390095585,3,0,0.0,0,0,0,0,70,200,-0.0292,0.2922,6.8213,0.4212,54.900341,9.782585,108.3,5.845,1.85,335.95,54.895348,9.797490,54.899933,9.782585
1390095585,3,0,0.0,0,0,4,0,70,-50,-0.0292,0.2922,6.8213,0.4212,54.900360,9.782585,108.3,5.845,1.85,335.95,54.895348,9.797490,54.899933,9.782585
1390095585,3,0,0.0,0,0,0,0,70,200,-0.0292,0.2922,6.8213,0.4212,54.900349,9.782585,108.3,5.845,1.85,335.95,54.895348,9.797490,54.899933,9.782585
1390095586,3,0,0.0,0,0,4,0,70,-50,-0.0292,0.2922,6.8213,0.4212,54.900368,9.782585,108.3,5.845,1.85,335.95,54.895348,9.797490,54.899933,9.782585
1390095586,3,0,0.0,0,0,0,0,70,200,-0.0292,0.2922,6.8213,0.4212,54.900356,9.782585,108.3,5.845,1.85,335.95,54.895348,9.797490,54.899933,9.782585
1390095586,3,0,0.0,0,0,4,0,70,-50,-0.0292,0.2922,6.8213,0.4212,54.900375,9.782585,108.3,5.845,1.85,335.95,54.895348,9.797490,54.899933,9.782585
1390095586,3,0,0.0,0,0,0,0,70,200,-0.0292,0.2922,6.8213,0.4212,54.900364,9.782585,108.3,5.845,1.85,335.95,54.895348,9.797490,54.899933,9.782585
1390095587,3,0,0.0,0,0,4,0,70,-50,-0.0292,0.2922,6.8213,0.4212,54.900379,9.782585,108.3,5.845,1.85,335.95,54.895348,9.797490,54.899933,9.782585
1390095587,3,0,0.0,0,0,0,0,70,200,-0.0292,0.2922,6.8213,0.4212,54.900372,9.782585,108.3,5.845,1.85,335.95,54.895348,9.797490,54.899933,9.782585
1390095587,3,0,0.0,0,0,4,0,70,-50,-0.0292,0.2922,6.8213,0.4212,54.900391,9.782585,108.3,5.845,1.85,335.95,54.895348,9.797490,54.899933,9.782585
1390095587,3,0,0.0,0,0,0,0,80,200,-0.0292,0.2922,6.8213,0.4212,54.900379,9.782585,108.3,5.845,1.85,335.95,54.895348,9.797490,54.899933,9.782585
1390095588,3,0,0.0,0,0,4,0,80,-50,-0.0292,0.2922,6.8213,0.4212,54.900398,9.782585,108.3,5.845,1.85,335.95,54.895348,9.797490,54.899933,9.782585
1390095588,3,0,0.0,0,0,0,0,80,200,-0.0292,0.2922,6.8213,0.4212,54.900387,9.782585,108.3,5.845,1.85,335.95,54.895348,9.797490,54.899933,9.782585
1390095588,3,0,0.0,0,0,4,0,80,-50,-0.0292,0.2922,6.8213,0.4212,54.900402,9.782585,108.3,5.845,1.85,335.95,54.895348,9.797490,54.899933,9.782585
1390095588,3,0,0.0,0,0,0,0,80,200,-0.0292,0.2922,6.8213,0.4212,54.900391,9.782585,108.3,5.845,1.85,335.95,54.895348,9.797490,54.899933,9.782585
1390095589,3,0,0.0,0,0,4,0,80,-50,-0.0292,0.2922,6.8213,0.4212,54.900410,9.782585,108.3,5.845,1.85,335.95,54.895348,9.797490,54.899933,9.782585
1390095589,3,0,0.0,0,0,0,0,80,200,-0.0292,0.2922,6.8213,0.4212,54.900398,9.782585,108.3,5.845,1.85,335.95,54.895348,9.797490,54.899933,9.782585
1390095589,3,0,0.0,0,0,4,0,80,-50,-0.0292,0.2922,6.8213,0.4212,54.900417,9.782585,108.3,5.845,1.85,335.95,54.895348,9.797490,54.899933,9.782585
1390095589,3,0,0.0,0,0,0,0,80,200,-0.0292,0.2922,6.8213,0.4212,54.900406,9.782585,108.3,5.845,1.85,335.95,54.895348,9.797490,54.899933,9.782585
1390095590,3,0,0.0,0,0,4,0,80,-50,-0.0292,0.2922,6.8213,0.4212,54.900421,9.782585,108.3,5.845,1.85,335.95,54.895348,9.797490,54.899933,9.782585
1390095590,3,0,0.0,0,0,0,0,80,200,-0.0292,0.2922,6.8213,0.4212,54.900410,9.782585,108.3,5.845,1.85,335.95,54.895348,9.797490,54.899933,9.782585
1390095590,3,0,0.0,0,0,4,0,80,-50,-0.0292,0.2922,6.8213,0.4212,54.900425,9.782585,108.3,5.845,1.85,335.95,54.895348,9.797490,54.899933,9.782585
1390095590,3,0,0.0,0,0,0,0,80,200,-0.0292,0.2922,6.8213,0.4212,54.900414,9.782585,108.3,5.845,1.85,335.95,54.895348,9.797490,54.899933,9.782585
1390095591,3,0,0.0,0,0,4,0,80,-50,-0.0292,0.2922,6.8213,0.4212,54.900429,9.782585,108.3,5.845,1.85,335.95,54.895348,9.797490,54.899933,9.782585
1390095591,3,0,0.0,0,0,0,0,80,200,-0.0292,0.2922,6.8213,0.4212,54.900421,9.782585,108.3,5.845,1.85,335.95,54.895348,9.797490,54.899933,9.782585
1390095591,3,0,0.0,0,0,4,0,80,-50,-0.0292,0.2922,6.8213,0.4212,54.900440,9.782585,108.3,5.845,1.85,335.95,54.895348,9.797490,54.899933,9.782585
1390095591,3,0,0.0,0,0,0,0,80,200,-0.0292,0.2922,6.8213,0.4212,54.900429,9.782585,108.3,5.845,1.85,335.95,54.895348,9.797490,54.899933,9.782585
1390095592,3,0,0.0,0,0,4,0,80,-50,-0.0292,0.2922,6.8213,0.4212,54.900448,9.782585,108.3,5.845,1.85,335.95,54.895348,9.797490,54.899933,9.782585
1390095592,3,0,0.0,0,0,0,0,80,200,-0.0292,0.2922,6.8213,0.4212,54.900436,9.782585,108.3,5.845,1.85,335.95,54.895348,9.797490,54.899933,9.782585
1390095592,3,0,0.0,0,0,4,0,80,-50,-0.0292,0.2922,6.8213,0.4212,54.900452,9.782585,108.3,5.845,1.85,335.95,54.895348,9.797490,54.899933,9.782585
1390095593,3,0,0.0,0,0,0,0,90,200,-0.0292,0.2922,6.8213,0.4212,54.900440,9.782585,108.3,5.845,1.85,335.95,54.895348,9.797490,54.899933,9.782585
1390095593,3,0,0.0,0,0,4,0,90,-50,-0.0292,0.2922,6.8213,0.4212,54.900459,9.782585,108.3,5.845,1.85,335.95,54.895348,9.797490,54.899933,9.782585
1390095593,3,0,0.0,0,0,0,0,90,200,-0.0292,0.2922,6.8213,0.4212,54.900448,9.782585,108.3,5.845,1.85,335.95,54.895348,9.797490,54.899933,9.782585
1390095593,3,0,0.0,0,0,4,0,90,-50,-0.0292,0.2922,6.8213,0.4212,54.900467,9.782585,108.3,5.845,1.85,335.95,54.895348,9.797490,54.899933,9.782585
1390095594,3,0,0.0,0,0,0,0,90,200,-0.0292,0.2922,6.8213,0.4212,54.900455,9.782585,108.3,5.845,1.85,335.95,54.895348,9.797490,54.899933,9.782585
1390095594,3,0,0.0,0,0,4,0,90,-50,-0.0292,0.2922,6.8213,0.4212,54.900471,9.782585,108.3,5.845,1.85,335.95,54.895348,9.797490,54.899933,9.782585
1390095594,3,0,0.0,0,0,0,0,90,200,-0.0292,0.2922,6.8213,0.4212,54.900459,9.782585,108.3,5.845,1.85,335.95,54.895348,9.797490,54.899933,9.782585
1390095594,3,0,0.0,0,0,4,0,90,-50,-0.0292,0.2922,6.8213,0.4212,54.900475,9.782585,108.3,5.845,1.85,335.95,54.895348,9.797490,54.899933,9.782585
1390095595,3,0,0.0,0,0,0,0,90,200,-0.0292,0.2922,6.8213,0.4212,54.900463,9.782585,108.3,5.845,1.85,335.95,54.895348,9.797490,54.899933,9.782585
1390095595,3,0,0.0,0,0,4,0,90,-50,-0.0292,0.2922,6.8213,0.4212,54.900478,9.782585,108.3,5.845,1.85,335.95,54.895348,9.797490,54.899933,9.782585
1390095595,3,0,0.0,0,0,0,0,90,200,-0.0292,0.2922,6.8213,0.4212,54.900471,9.782585,108.3,5.845,1.85,335.95,54.895348,9.797490,54.899933,9.782585
1390095595,3,0,0.0,0,0,4,0,90,-50,-0.0292,0.2922,6.8213,0.4212,54.900490,9.782585,108.3,5.845,1.85,335.95,54.895348,9.797490,54.899933,9.782585
1390095596,3,0,0.0,0,0,0,0,90,200,-0.0292,0.2922,6.8213,0.4212,54.900478,9.782585,108.3,5.845,1.85,335.95,54.895348,9.797490,54.899933,9.782585
1390095596,3,0,0.0,0,0,4,0,90,-50,-0.0292,0.2922,6.8213,0.4212,54.900497,9.782585,108.3,5.845,1.85,335.95,54.895348,9.797490,54.899933,9.782585
1390095596,3,0,0.0,0,0,0,0,90,200,-0.0292,0.2922,6.8213,0.4212,54.900486,9.782585,108.3,5.845,1.85,335.95,54.895348,9.797490,54.899933,9.782585
1390095596,3,0,0.0,0,0,4,0,90,-50,-0.0292,0.2922,6.8213,0.4212,54.900501,9.782585,108.3,5.845,1.85,335.95,54.895348,9.797490,54.899933,9.782585
1390095597,3,0,0.0,0,0,0,0,90,200,-0.0292,0.2922,6.8213,0.4212,54.900490,9.782585,108.3,5.845,1.85,335.95,54.895348,9.797490,54.899933,9.782585
1390095597,3,0,0.0,0,0,4,0,90,-50,-0.0292,0.2922,6.8213,0.4212,54.900509,9.782585,108.3,5.845,1.85,335.95,54.895348,9.797490,54.899933,9.782585
1390095597,3,0,0.0,0,0,0,0,90,200,-0.0292,0.2922,6.8213,0.4212,54.900497,9.782585,108.3,5.845,1.85,335.95,54.895348,9.797490,54.899933,9.782585
1390095597,3,0,0.0,0,0,4,0,90,-50,-0.0292,0.2922,6.8213,0.4212,54.900517,9.782585,108.3,5.845,1.85,335.95,54.895348,9.797490,54.899933,9.782585
1390095598,3,0,0.0,0,0,0,0,100,200,-0.0292,0.2922,6.8213,0.4212,54.900505,9.782585,108.3,5.845,1.85,335.95,54.895348,9.797490,54.899933,9.782585
1390095598,3,0,0.0,0,0,4,0,100,-50,-0.0292,0.2922,6.8213,0.4212,54.900520,9.782585,108.3,5.845,1.85,335.95,54.895348,9.797490,54.899933,9.782585
1390095598,3,0,0.0,0,0,0,0,100,200,-0.0292,0.2922,6.8213,0.4212,54.900509,9.782585,108.3,5.845,1.85,335.95,54.895348,9.797490,54.899933,9.782585
1390095598,3,0,0.0,0,0,4,0,100,-50,-0.0292,0.2922,6.8213,0.4212,54.900524,9.782585,108.3,5.845,1.85,335.95,54.895348,9.797490,54.899933,9.782585
1390095599,3,0,0.0,0,0,0,0,100,200,-0.0292,0.2922,6.8213,0.4212,54.900513,9.782585,108.3,5.845,1.85,335.95,54.895348,9.797490,54.899933,9.782585
1390095599,3,0,0.0,0,0,4,0,100,-50,-0.0292,0.2922,6.8213,0.4212,54.900532,9.782585,108.3,5.845,1.85,335.95,54.895348,9.797490,54.899933,9.782585
1390095599,3,0,0.0,0,0,0,0,100,200,-0.0292,0.2922,6.8213,0.4212,54.900520,9.782585,108.3,5.845,1.85,335.95,54.895348,9.797490,54.899933,9.782585
1390095599,3,0,0.0,0,0,4,0,100,-50,-0.0292,0.2922,6.8213,0.4212,54.900539,9.782585,108.3,5.845,1.85,335.95,54.895348,9.797490,54.899933,9.782585
1390095600,3,0,0.0,0,0,0,0,100,200,-0.0292,0.2922,6.8213,0.4212,54.900528,9.782585,108.3,5.845,1.85,335.95,54.895348,9.797490,54.899933,9.782585
1390095600,3,0,0.0,0,0,4,0,100,-50,-0.0292,0.2922,6.8213,0.4212,54.900547,9.782585,108.3,5.845,1.85,335.95,54.895348,9.797490,54.899933,9.782585
1390095600,3,0,0.0,0,0,0,0,100,200,-0.0292,0.2922,6.8213,0.4212,54.900536,9.782585,108.3,5.845,1.85,335.95,54.895348,9.797490,54.899933,9.782585
1390095600,3,0,0.0,0,0,4,0,100,-50,-0.0292,0.2922,6.8213,0.4212,54.900551,9.782585,108.3,5.845,1.85,335.95,54.895348,9.797490,54.899933,9.782585
1390095601,3,0,0.0,0,0,0,0,100,200,-0.0292,0.2922,6.8213,0.4212,54.900539,9.782585,108.3,5.845,1.85,335.95,54.895348,9.797490,54.899933,9.782585
1390095601,3,0,0.0,0,0,4,0,100,-50,-0.0292,0.2922,6.8213,0.4212,54.900558,9.782585,108.3,5.845,1.85,335.95,54.895348,9.797490,54.899933,9.782585
1390095601,3,0,0.0,0,0,0,0,100,200,-0.0292,0.2922,6.8213,0.4212,54.900547,9.782585,108.3,5.845,1.85,335.95,54.895348,9.797490,54.899933,9.782585
1390095601,3,0,0.0,0,0,4,0,100,-50,-0.0292,0.2922,6.8213,0.4212,54.900566,9.782585,108.3,5.845,1.85,335.95,54.895348,9.797490,54.899933,9.782585
1390095602,3,0,0.0,0,0,0,0,100,200,-0.0292,0.2922,6.8213,0.4212,54.900555,9.782585,108.3,5.845,1.85,335.95,54.895348,9.797490,54.899933,9.782585
1390095602,3,0,0.0,0,0,4,0,100,-50,-0.0292,0.2922,6.8213,0.4212,54.900570,9.782585,108.3,5.845,1.85,335.95,54.895348,9.797490,54.899933,9.782585
1390095602,3,0,0.0,0,0,0,0,100,200,-0.0292,0.2922,6.8213,0.4212,54.900558,9.782585,108.3,5.845,1.85,335.95,54.895348,9.797490,54.899933,9.782585
1390095602,3,0,0.0,0,0,4,0,100,-50,-0.0292,0.2922,6.8213,0.4212,54.900574,9.782585,108.3,5.845,1.85,335.95,54.895348,9.797490,54.899933,9.782585
1390095603,3,0,0.0,0,0,0,0,110,200,-0.0292,0.2922,6.8213,0.4212,54.900562,9.782585,108.3,5.845,1.85,335.95,54.895348,9.797490,54.899933,9.782585
1390095603,3,0,0.0,0,0,4,0,110,-50,-0.0292,0.2922,6.8213,0.4212,54.900581,9.782585,108.3,5.845,1.85,335.95,54.895348,9.797490,54.899933,9.782585
1390095603,3,0,0.0,0,0,0,0,110,200,-0.0292,0.2922,6.8213,0.4212,54.900570,9.782585,108.3,5.845,1.85,335.95,54.895348,9.797490,54.899933,9.782585
1390095603,3,0,0.0,0,0,4,0,110,-50,-0.0292,0.2922,6.8213,0.4212,54.900589,9.782585,108.3,5.845,1.85,335.95,54.895348,9.797490,54.899933,9.782585
1390095604,3,0,0.0,0,0,0,0,110,200,-0.0292,0.2922,6.8213,0.4212,54.900578,9.782585,108.3,5.845,1.85,335.95,54.895348,9.797490,54.899933,9.782585
1390095604,3,0,0.0,0,0,4,0,110,-50,-0.0292,0.2922,6.8213,0.4212,54.900597,9.782585,108.3,5.845,1.85,335.95,54.895348,9.797490,54.899933,9.782585
1390095604,3,0,0.0,0,0,0,0,110,200,-0.0292,0.2922,6.8213,0.4212,54.900585,9.782585,108.3,5.845,1.85,335.95,54.895348,9.797490,54.899933,9.782585
1390095604,3,0,0.0,0,0,4,0,110,-50,-0.0292,0.2922,6.8213,0.4212,54.900600,9.782585,108.3,5.845,1.85,335.95,54.895348,9.797490,54.899933,9.782585
1390095605,3,0,0.0,0,0,0,0,110,200,-0.0292,0.2922,6.8213,0.4212,54.900593,9.782585,108.3,5.845,1.85,335.95,54.895348,9.797490,54.899933,9.782585
1390095605,3,0,0.0,0,0,4,0,110,-50,-0.0292,0.2922,6.8213,0.4212,54.900612,9.782585,108.3,5.845,1.85,335.95,54.895348,9.797490,54.899933,9.782585
1390095605,3,0,0.0,0,0,0,0,110,200,-0.0292,0.2922,6.8213,0.4212,54.900600,9.782585,108.3,5.845,1.85,335.95,54.895348,9.797490,54.899933,9.782585
1390095605,3,0,0.0,0,0,4,0,110,-50,-0.0292,0.2922,6.8213,0.4212,54.900620,9.782585,108.3,5.845,1.85,335.95,54.895348,9.797490,54.899933,9.782585
1390095606,3,0,0.0,0,0,0,0,110,200,-0.0292,0.2922,6.8213,0.4212,54.900608,9.782585,108.3,5.845,1.85,335.95,54.895348,9.797490,54.899933,9.782585
1390095606,3,0,0.0,0,0,4,0,110,-50,-0.0292,0.2922,6.8213,0.4212,54.900623,9.782585,108.3,5.845,1.85,335.95,54.895348,9.797490,54.899933,9.782585
1390095606,3,0,0.0,0,0,0,0,110,200,-0.0292,0.2922,6.8213,0.4212,54.900612,9.782585,108.3,5.845,1.85,335.95,54.895348,9.797490,54.899933,9.782585
1390095606,3,0,0.0,0,0,4,0,110,-50,-0.0292,0.2922,6.8213,0.4212,54.900631,9.782585,108.3,5.845,1.85,335.95,54.895348,9.797490,54.899933,9.782585
1390095607,3,0,0.0,0,0,0,0,110,200,-0.0292,0.2922,6.8213,0.4212,54.900620,9.782585,108.3,5.845,1.85,335.95,54.895348,9.797490,54.899933,9.782585
1390095607,3,0,0.0,0,0,4,0,110,-50,-0.0292,0.2922,6.8213,0.4212,54.900639,9.782585,108.3,5.845,1.85,335.95,54.895348,9.797490,54.899933,9.782585
1390095607,3,0,0.0,0,0,0,0,110,200,-0.0292,0.2922,6.8213,0.4212,54.900627,9.782585,108.3,5.845,1.85,335.95,54.895348,9.797490,54.899933,9.782585
1390095607,3,0,0.0,0,0,4,0,110,-50,-0.0292,0.2922,6.8213,0.4212,54.900646,9.782585,108.3,5.845,1.85,335.95,54.895348,9.797490,54.899933,9.782585
1390095608,3,0,0.0,0,0,0,0,120,200,-0.0292,0.2922,6.8213,0.4212,54.900635,9.782585,108.3,5.845,1.85,335.95,54.895348,9.797490,54.899933,9.782585
1390095608,3,0,0.0,0,0,4,0,120,-50,-0.0292,0.2922,6.8213,0.4212,54.900650,9.782585,108.3,5.845,1.85,335.95,54.895348,9.797490,54.899933,9.782585
1390095608,3,0,0.0,0,0,0,0,120,200,-0.0292,0.2922,6.8213,0.4212,54.900642,9.782585,108.3,5.845,1.85,335.95,54.895348,9.797490,54.899933,9.782585
1390095608,3,0,0.0,0,0,4,0,120,-50,-0.0292,0.2922,6.8213,0.4212,54.900661,9.782585,108.3,5.845,1.85,335.95,54.895348,9.797490,54.899933,9.782585
1390095609,3,0,0.0,0,0,0,0,120,200,-0.0292,0.2922,6.8213,0.4212,54.900650,9.782585,108.3,5.845,1.85,335.95,54.895348,9.797490,54.899933,9.782585
1390095609,3,0,0.0,0,0,4,0,120,-50,-0.0292,0.2922,6.8213,0.4212,54.900669,9.782585,108.3,5.845,1.85,335.95,54.895348,9.797490,54.899933,9.782585
1390095609,3,0,0.0,0,0,0,0,120,200,-0.0292,0.2922,6.8213,0.4212,54.900658,9.782585,108.3,5.845,1.85,335.95,54.895348,9.797490,54.899933,9.782585
1390095609,3,0,0.0,0,0,4,0,120,-50,-0.0292,0.2922,6.8213,0.4212,54.900673,9.782585,108.3,5.845,1.85,335.95,54.895348,9.797490,54.899933,9.782585
1390095610,3,0,0.0,0,0,0,0,120,200,-0.0292,0.2922,6.8213,0.4212,54.900661,9.782585,108.3,5.845,1.85,335.95,54.895348,9.797490,54.899933,9.782585
1390095610,3,0,0.0,0,0,4,0,120,-50,-0.0292,0.2922,6.8213,0.4212,54.900681,9.782585,108.3,5.845,1.85,335.95,54.895348,9.797490,54.899933,9.782585
1390095610,3,0,0.0,0,0,0,0,120,200,-0.0292,0.2922,6.8213,0.4212,54.900669,9.782585,108.3,5.845,1.85,335.95,54.895348,9.797490,54.899933,9.782585
1390095610,3,0,0.0,0,0,4,0,120,-50,-0.0292,0.2922,6.8213,0.4212,54.900688,9.782585,108.3,5.845,1.85,335.95,54.895348,9.797490,54.899933,9.782585
1390095611,3,0,0.0,0,0,0,0,120,200,-0.0292,0.2922,6.8213,0.4212,54.900677,9.782585,108.3,5.845,1.85,335.95,54.895348,9.797490,54.899933,9.782585
1390095611,3,0,0.0,0,0,4,0,120,-50,-0.0292,0.2922,6.8213,0.4212,54.900692,9.782585,108.3,5.845,1.85,335.95,54.895348,9.797490,54.899933,9.782585
1390095611,3,0,0.0,0,0,0,0,120,200,-0.0292,0.2922,6.8213,0.4212,54.900681,9.782585,108.3,5.845,1.85,335.95,54.895348,9.797490,54.899933,9.782585
1390095611,3,0,0.0,0,0,4,0,120,-50,-0.0292,0.2922,6.8213,0.4212,54.900696,9.782585,108.3,5.845,1.85,335.95,54.895348,9.797490,54.899933,9.782585
1390095612,3,0,0.0,0,0,0,0,120,200,-0.0292,0.2922,6.8213,0.4212,54.900684,9.782585,108.3,5.845,1.85,335.95,54.895348,9.797490,54.899933,9.782585
1390095612,3,0,0.0,0,0,4,0,120,-50,-0.0292,0.2922,6.8213,0.4212,54.900700,9.782585,108.3,5.845,1.85,335.95,54.895348,9.797490,54.899933,9.782585
1390095612,3,0,0.0,0,0,0,0,120,200,-0.0292,0.2922,6.8213,0.4212,54.900692,9.782585,108.3,5.845,1.85,335.95,54.895348,9.797490,54.899933,9.782585
1390095612,3,0,0.0,0,0,4,0,120,-50,-0.0292,0.2922,6.8213,0.4212,54.900711,9.782585,108.3,5.845,1.85,335.95,54.895348,9.797490,54.899933,9.782585
1390095613,3,0,0.0,0,0,0,0,130,200,-0.0292,0.2922,6.8213,0.4212,54.900700,9.782585,108.3,5.845,1.85,335.95,54.895348,9.797490,54.899933,9.782585
1390095613,3,0,0.0,0,0,4,0,130,-50,-0.0292,0.2922,6.8213,0.4212,54.900719,9.782585,108.3,5.845,1.85,335.95,54.895348,9.797490,54.899933,9.782585
1390095613,3,0,0.0,0,0,0,0,130,200,-0.0292,0.2922,6.8213,0.4212,54.900707,9.782585,108.3,5.845,1.85,335.95,54.895348,9.797490,54.899933,9.782585
1390095613,3,0,0.0,0,0,4,0,130,-50,-0.0292,0.2922,6.8213,0.4212,54.900723,9.782585,108.3,5.845,1.85,335.95,54.895348,9.797490,54.899933,9.782585
1390095614,3,0,0.0,0,0,0,0,130,200,-0.0292,0.2922,6.8213,0.4212,54.900711,9.782585,108.3,5.845,1.85,335.95,54.895348,9.797490,54.899933,9.782585
1390095614,3,0,0.0,0,0,4,0,130,-50,-0.0292,0.2922,6.8213,0.4212,54.900730,9.782585,108.3,5.845,1.85,335.95,54.895348,9.797490,54.899933,9.782585
1390095614,3,0,0.0,0,0,0,0,130,200,-0.0292,0.2922,6.8213,0.4212,54.900719,9.782585,108.3,5.845,1.85,335.95,54.895348,9.797490,54.899933,9.782585
1390095614,3,0,0.0,0,0,4,0,130,-50,-0.0292,0.2922,6.8213,0.4212,54.900738,9.782585,108.3,5.845,1.85,335.95,54.895348,9.797490,54.899933,9.782585
1390095615,3,0,0.0,0,0,0,0,130,200,-0.0292,0.2922,6.8213,0.4212,54.900726,9.782585,108.3,5.845,1.85,335.95,54.895348,9.797490,54.899933,9.782585
1390095615,3,0,0.0,0,0,4,0,130,-50,-0.0292,0.2922,6.8213,0.4212,54.900742,9.782585,108.3,5.845,1.85,335.95,54.895348,9.797490,54.899933,9.782585
1390095615,3,0,0.0,0,0,0,0,130,200,-0.0292,0.2922,6.8213,0.4212,54.900730,9.782585,108.3,5.845,1.85,335.95,54.895348,9.797490,54.899933,9.782585
1390095615,3,0,0.0,0,0,4,0,130,-50,-0.0292,0.2922,6.8213,0.4212,54.900745,9.782585,108.3,5.845,1.85,335.95,54.895348,9.797490,54.899933,9.782585
1390095616,3,0,0.0,0,0,0,0,130,200,-0.0292,0.2922,6.8213,0.4212,54.900734,9.782585,108.3,5.845,1.85,335.95,54.895348,9.797490,54.899933,9.782585
1390095616,3,0,0.0,0,0,4,0,130,-50,-0.0292,0.2922,6.8213,0.4212,54.900753,9.782585,108.3,5.845,1.85,335.95,54.895348,9.797490,54.899933,9.782585
1390095616,3,0,0.0,0,0,0,0,130,200,-0.0292,0.2922,6.8213,0.4212,54.900742,9.782585,108.3,5.845,1.85,335.95,54.895348,9.797490,54.899933,9.782585
1390095616,3,0,0.0,0,0,4,0,130,-50,-0.0292,0.2922,6.8213,0.4212,54.900761,9.782585,108.3,5.845,1.85,335.95,54.895348,9.797490,54.899933,9.782585
1390095617,3,0,0.0,0,0,0,0,130,200,-0.0292,0.2922,6.8213,0.4212,54.900749,9.782585,108.3,5.845,1.85,335.95,54.895348,9.797490,54.899933,9.782585
1390095617,3,0,0.0,0,0,4,0,130,-50,-0.0292,0.2922,6.8213,0.4212,54.900768,9.782585,108.3,5.845,1.85,335.95,54.895348,9.797490,54.899933,9.782585
1390095617,3,0,0.0,0,0,0,0,130,200,-0.0292,0.2922,6.8213,0.4212,54.900757,9.782585,108.3,5.845,1.85,335.95,54.895348,9.797490,54.899933,9.782585
1390095617,3,0,0.0,0,0,4,0,130,-50,-0.0292,0.2922,6.8213,0.4212,54.900772,9.782585,108.3,5.845,1.85,335.95,54.895348,9.797490,54.899933,9.782585
1390095618,3,0,0.0,0,0,0,0,140,200,-0.0292,0.2922,6.8213,0.4212,54.900761,9.782585,108.3,5.845,1.85,335.95,54.895348,9.797490,54.899933,9.782585
1390095618,3,0,0.0,0,0,4,0,140,-50,-0.0292,0.2922,6.8213,0.4212,54.900780,9.782585,108.3,5.845,1.85,335.95,54.895348,9.797490,54.899933,9.782585
1390095618,3,0,0.0,0,0,0,0,140,200,-0.0292,0.2922,6.8213,0.4212,54.900768,9.782585,108.3,5.845,1.85,335.95,54.895348,9.797490,54.899933,9.782585
1390095618,3,0,0.0,0,0,4,0,140,-50,-0.0292,0.2922,6.8213,0.4212,54.900787,9.782585,108.3,5.845,1.85,335.95,54.895348,9.797490,54.899933,9.782585
1390095619,3,0,0.0,0,0,0,0,140,200,-0.0292,0.2922,6.8213,0.4212,54.900776,9.782585,108.3,5.845,1.85,335.95,54.895348,9.797490,54.899933,9.782585
1390095619,3,0,0.0,0,0,4,0,140,-50,-0.0292,0.2922,6.8213,0.4212,54.900791,9.782585,108.3,5.845,1.85,335.95,54.895348,9.797490,54.899933,9.782585
1390095619,3,0,0.0,0,0,0,0,140,200,-0.0292,0.2922,6.8213,0.4212,54.900780,9.782585,108.3,5.845,1.85,335.95,54.895348,9.797490,54.899933,9.782585
1390095619,3,0,0.0,0,0,4,0,140,-50,-0.0292,0.2922,6.8213,0.4212,54.900795,9.782585,108.3,5.845,1.85,335.95,54.895348,9.797490,54.899933,9.782585
1390095620,3,0,0.0,0,0,0,0,140,200,-0.0292,0.2922,6.8213,0.4212,54.900784,9.782585,108.3,5.845,1.85,335.95,54.895348,9.797490,54.899933,9.782585
1390095620,3,0,0.0,0,0,4,0,140,-50,-0.0292,0.2922,6.8213,0.4212,54.900803,9.782585,108.3,5.845,1.85,335.95,54.895348,9.797490,54.899933,9.782585
1390095620,3,0,0.0,0,0,0,0,140,200,-0.0292,0.2922,6.8213,0.4212,54.900791,9.782585,108.3,5.845,1.85,335.95,54.895348,9.797490,54.899933,9.782585
1390095620,3,0,0.0,0,0,4,0,140,-50,-0.0292,0.2922,6.8213,0.4212,54.900810,9.782585,108.3,5.845,1.85,335.95,54.895348,9.797490,54.899933,9.782585
1390095621,3,0,0.0,0,0,0,0,140,200,-0.0292,0.2922,6.8213,0.4212,54.900799,9.782585,108.3,5.845,1.85,335.95,54.895348,9.797490,54.899933,9.782585
1390095621,3,0,0.0,0,0,4,0,140,-50,-0.0292,0.2922,6.8213,0.4212,54.900818,9.782585,108.3,5.845,1.85,335.95,54.895348,9.797490,54.899933,9.782585
1390095621,3,0,0.0,0,0,0,0,140,200,-0.0292,0.2922,6.8213,0.4212,54.900806,9.782585,108.3,5.845,1.85,335.95,54.895348,9.797490,54.899933,9.782585
1390095621,3,0,0.0,0,0,4,0,140,-50,-0.0292,0.2922,6.8213,0.4212,54.900822,9.782585,108.3,5.845,1.85,335.95,54.895348,9.797490,54.899933,9.782585
1390095622,3,0,0.0,0,0,0,0,140,200,-0.0292,0.2922,6.8213,0.4212,54.900814,9.782585,108.3,5.845,1.85,335.95,54.895348,9.797490,54.899933,9.782585
1390095622,3,0,0.0,0,0,4,0,140,-50,-0.0292,0.2922,6.8213,0.4212,54.900833,9.782585,108.3,5.845,1.85,335.95,54.895348,9.797490,54.899933,9.782585
1390095622,3,0,0.0,0,0,0,0,140,200,-0.0292,0.2922,6.8213,0.4212,54.900822,9.782585,108.3,5.845,1.85,335.95,54.895348,9.797490,54.899933,9.782585
1390095622,3,0,0.0,0,0,4,0,140,-50,-0.0292,0.2922,6.8213,0.4212,54.900841,9.782585,108.3,5.845,1.85,335.95,54.895348,9.797490,54.899933,9.782585
1390095623,3,0,0.0,0,0,0,0,150,200,-0.0292,0.2922,6.8213,0.4212,54.900829,9.782585,108.3,5.845,1.85,335.95,54.895348,9.797490,54.899933,9.782585
1390095623,3,0,0.0,0,0,4,0,150,-50,-0.0292,0.2922,6.8213,0.4212,54.900845,9.782585,108.3,5.845,1.85,335.95,54.895348,9.797490,54.899933,9.782585
1390095623,3,0,0.0,0,0,0,0,150,200,-0.0292,0.2922,6.8213,0.4212,54.900833,9.782585,108.3,5.845,1.85,335.95,54.895348,9.797490,54.899933,9.782585
1390095623,3,0,0.0,0,0,4,0,150,-50,-0.0292,0.2922,6.8213,0.4212,54.900852,9.782585,108.3,5.845,1.85,335.95,54.895348,9.797490,54.899933,9.782585
1390095624,3,0,0.0,0,0,0,0,150,200,-0.0292,0.2922,6.8213,0.4212,54.900841,9.782585,108.3,5.845,1.85,335.95,54.895348,9.797490,54.899933,9.782585
1390095624,3,0,0.0,0,0,4,0,150,-50,-0.0292,0.2922,6.8213,0.4212,54.900860,9.782585,108.3,5.845,1.85,335.95,54.895348,9.797490,54.899933,9.782585
1390095624,3,0,0.0,0,0,0,0,150,200,-0.0292,0.2922,6.8213,0.4212,54.900848,9.782585,108.3,5.845,1.85,335.95,54.895348,9.797490,54.899933,9.782585
1390095624,3,0,0.0,0,0,4,0,150,-50,-0.0292,0.2922,6.8213,0.4212,54.900867,9.782585,108.3,5.845,1.85,335.95,54.895348,9.797490,54.899933,9.782585
1390095625,3,0,0.0,0,0,0,0,150,200,-0.0292,0.2922,6.8213,0.4212,54.900856,9.782585,108.3,5.845,1.85,335.95,54.895348,9.797490,54.899933,9.782585
1390095625,3,0,0.0,0,0,4,0,150,-50,-0.0292,0.2922,6.8213,0.4212,54.900871,9.782585,108.3,5.845,1.85,335.95,54.895348,9.797490,54.899933,9.782585
1390095625,3,0,0.0,0,0,0,0,150,200,-0.0292,0.2922,6.8213,0.4212,54.900864,9.782585,108.3,5.845,1.85,335.95,54.895348,9.797490,54.899933,9.782585
1390095625,3,0,0.0,0,0,4,0,150,-50,-0.0292,0.2922,6.8213,0.4212,54.900883,9.782585,108.3,5.845,1.85,335.95,54.895348,9.797490,54.899933,9.782585
1390095626,3,0,0.0,0,0,0,0,150,200,-0.0292,0.2922,6.8213,0.4212,54.900871,9.782585,108.3,5.845,1.85,335.95,54.895348,9.797490,54.899933,9.782585
1390095626,3,0,0.0,0,0,4,0,150,-50,-0.0292,0.2922,6.8213,0.4212,54.900890,9.782585,108.3,5.845,1.85,335.95,54.895348,9.797490,54.899933,9.782585
1390095626,3,0,0.0,0,0,0,0,150,200,-0.0292,0.2922,6.8213,0.4212,54.900879,9.782585,108.3,5.845,1.85,335.95,54.895348,9.797490,54.899933,9.782585
1390095627,3,0,0.0,0,0,4,0,150,-50,-0.0292,0.2922,6.8213,0.4212,54.900894,9.782585,108.3,5.845,1.85,335.95,54.895348,9.797490,54.899933,9.782585
1390095627,3,0,0.0,0,0,0,0,150,200,-0.0292,0.2922,6.8213,0.4212,54.900883,9.782585,108.3,5.845,1.85,335.95,54.895348,9.797490,54.899933,9.782585
1390095627,3,0,0.0,0,0,4,0,150,-50,-0.0292,0.2922,6.8213,0.4212,54.900902,9.782585,108.3,5.845,1.85,335.95,54.895348,9.797490,54.899933,9.782585
1390095627,3,0,0.0,0,0,0,0,150,200,-0.0292,0.2922,6.8213,0.4212,54.900890,9.782585,108.3,5.845,1.85,335.95,54.895348,9.797490,54.899933,9.782585
1390095628,3,0,0.0,0,0,4,0,150,-50,-0.0292,0.2922,6.8213,0.4212,54.900909,9.782585,108.3,5.845,1.85,335.95,54.895348,9.797490,54.899933,9.782585
1390095628,3,0,0.0,0,0,0,0,160,200,-0.0292,0.2922,6.8213,0.4212,54.900898,9.782585,108.3,5.845,1.85,335.95,54.895348,9.797490,54.899933,9.782585
1390095628,3,0,0.0,0,0,4,0,160,-50,-0.0292,0.2922,6.8213,0.4212,54.900913,9.782585,108.3,5.845,1.85,335.95,54.895348,9.797490,54.899933,9.782585
1390095628,3,0,0.0,0,0,0,0,160,200,-0.0292,0.2922,6.8213,0.4212,54.900902,9.782585,108.3,5.845,1.85,335.95,54.895348,9.797490,54.899933,9.782585
1390095629,3,0,0.0,0,0,4,0,160,-50,-0.0292,0.2922,6.8213,0.4212,54.900917,9.782585,108.3,5.845,1.85,335.95,54.895348,9.797490,54.899933,9.782585
1390095629,3,0,0.0,0,0,0,0,160,200,-0.0292,0.2922,6.8213,0.4212,54.900906,9.782585,108.3,5.845,1.85,335.95,54.895348,9.797490,54.899933,9.782585
1390095629,3,0,0.0,0,0,4,0,160,-50,-0.0292,0.2922,6.8213,0.4212,54.900921,9.782585,108.3,5.845,1.85,335.95,54.895348,9.797490,54.899933,9.782585
1390095629,3,0,0.0,0,0,0,0,160,200,-0.0292,0.2922,6.8213,0.4212,54.900913,9.782585,108.3,5.845,1.85,335.95,54.895348,9.797490,54.899933,9.782585
1390095630,3,0,0.0,0,0,4,0,160,-50,-0.0292,0.2922,6.8213,0.4212,54.900932,9.782585,108.3,5.845,1.85,335.95,54.895348,9.797490,54.899933,9.782585
1390095630,3,0,0.0,0,0,0,0,160,200,-0.0292,0.2922,6.8213,0.4212,54.900921,9.782585,108.3,5.845,1.85,335.95,54.895348,9.797490,54.899933,9.782585
1390095630,3,0,0.0,0,0,4,0,160,-50,-0.0292,0.2922,6.8213,0.4212,54.900940,9.782585,108.3,5.845,1.85,335.95,54.895348,9.797490,54.899933,9.782585
1390095630,3,0,0.0,0,0,0,0,160,200,-0.0292,0.2922,6.8213,0.4212,54.900928,9.782585,108.3,5.845,1.85,335.95,54.895348,9.797490,54.899933,9.782585
1390095631,3,0,0.0,0,0,4,0,160,-50,-0.0292,0.2922,6.8213,0.4212,54.900944,9.782585,108.3,5.845,1.85,335.95,54.895348,9.797490,54.899933,9.782585
1390095631,3,0,0.0,0,0,0,0,160,200,-0.0292,0.2922,6.8213,0.4212,54.900932,9.782585,108.3,5.845,1.85,335.95,54.895348,9.797490,54.899933,9.782585
1390095631,3,0,0.0,0,0,4,0,160,-50,-0.0292,0.2922,6.8213,0.4212,54.900951,9.782585,108.3,5.845,1.85,335.95,54.895348,9.797490,54.899933,9.782585
1390095631,3,0,0.0,0,0,0,0,160,200,-0.0292,0.2922,6.8213,0.4212,54.900940,9.782585,108.3,5.845,1.85,335.95,54.895348,9.797490,54.899933,9.782585
1390095632,3,0,0.0,0,0,4,0,160,-50,-0.0292,0.2922,6.8213,0.4212,54.900959,9.782585,108.3,5.845,1.85,335.95,54.895348,9.797490,54.899933,9.782585
1390095632,3,0,0.0,0,0,0,0,160,200,-0.0292,0.2922,6.8213,0.4212,54.900948,9.782585,108.3,5.845,1.85,335.95,54.895348,9.797490,54.899933,9.782585
1390095632,3,0,0.0,0,0,4,0,160,-50,-0.0292,0.2922,6.8213,0.4212,54.900963,9.782585,108.3,5.845,1.85,335.95,54.895348,9.797490,54.899933,9.782585
1390095632,3,0,0.0,0,0,0,0,160,200,-0.0292,0.2922,6.8213,0.4212,54.900951,9.782585,108.3,5.845,1.85,335.95,54.895348,9.797490,54.899933,9.782585
1390095633,3,0,0.0,0,0,4,0,160,-50,-0.0292,0.2922,6.8213,0.4212,54.900967,9.782585,108.3,5.845,1.85,335.95,54.895348,9.797490,54.899933,9.782585
1390095633,3,0,0.0,0,0,0,0,170,200,-0.0292,0.2922,6.8213,0.4212,54.900955,9.782585,108.3,5.845,1.85,335.95,54.895348,9.797490,54.899933,9.782585
1390095633,3,0,0.0,0,0,4,0,170,-50,-0.0292,0.2922,6.8213,0.4212,54.900970,9.782585,108.3,5.845,1.85,335.95,54.895348,9.797490,54.899933,9.782585
1390095633,3,0,0.0,0,0,0,0,170,200,-0.0292,0.2922,6.8213,0.4212,54.900963,9.782585,108.3,5.845,1.85,335.95,54.895348,9.797490,54.899933,9.782585
1390095634,3,0,0.0,0,0,4,0,170,-50,-0.0292,0.2922,6.8213,0.4212,54.900982,9.782585,108.3,5.845,1.85,335.95,54.895348,9.797490,54.899933,9.782585
1390095634,3,0,0.0,0,0,0,0,170,200,-0.0292,0.2922,6.8213,0.4212,54.900970,9.782585,108.3,5.845,1.85,335.95,54.895348,9.797490,54.899933,9.782585
1390095634,3,0,0.0,0,0,4,0,170,-50,-0.0292,0.2922,6.8213,0.4212,54.900990,9.782585,108.3,5.845,1.85,335.95,54.895348,9.797490,54.899933,9.782585
1390095634,3,0,0.0,0,0,0,0,170,200,-0.0292,0.2922,6.8213,0.4212,54.900978,9.782585,108.3,5.845,1.85,335.95,54.895348,9.797490,54.899933,9.782585
1390095635,3,0,0.0,0,0,4,0,170,-50,-0.0292,0.2922,6.8213,0.4212,54.900993,9.782585,108.3,5.845,1.85,335.95,54.895348,9.797490,54.899933,9.782585
1390095635,3,0,0.0,0,0,0,0,170,200,-0.0292,0.2922,6.8213,0.4212,54.900982,9.782585,108.3,5.845,1.85,335.95,54.895348,9.797490,54.899933,9.782585
1390095635,3,0,0.0,0,0,4,0,170,-50,-0.0292,0.2922,6.8213,0.4212,54.901001,9.782585,108.3,5.845,1.85,335.95,54.895348,9.797490,54.899933,9.782585
1390095635,3,0,0.0,0,0,0,0,170,200,-0.0292,0.2922,6.8213,0.4212,54.900990,9.782585,108.3,5.845,1.85,335.95,54.895348,9.797490,54.899933,9.782585
1390095636,3,0,0.0,0,0,4,0,170,-50,-0.0292,0.2922,6.8213,0.4212,54.901009,9.782585,108.3,5.845,1.85,335.95,54.895348,9.797490,54.899933,9.782585
1390095636,3,0,0.0,0,0,0,0,170,200,-0.0292,0.2922,6.8213,0.4212,54.900997,9.782585,108.3,5.845,1.85,335.95,54.895348,9.797490,54.899933,9.782585
1390095636,3,0,0.0,0,0,4,0,170,-50,-0.0292,0.2922,6.8213,0.4212,54.901012,9.782585,108.3,5.845,1.85,335.95,54.895348,9.797490,54.899933,9.782585
1390095636,3,0,0.0,0,0,0,0,170,200,-0.0292,0.2922,6.8213,0.4212,54.901001,9.782585,108.3,5.845,1.85,335.95,54.895348,9.797490,54.899933,9.782585
1390095637,3,0,0.0,0,0,4,0,170,-50,-0.0292,0.2922,6.8213,0.4212,54.901016,9.782585,108.3,5.845,1.85,335.95,54.895348,9.797490,54.899933,9.782585
1390095637,3,0,0.0,0,0,0,0,170,200,-0.0292,0.2922,6.8213,0.4212,54.901005,9.782585,108.3,5.845,1.85,335.95,54.895348,9.797490,54.899933,9.782585
1390095637,3,0,0.0,0,0,4,0,170,-50,-0.0292,0.2922,6.8213,0.4212,54.901024,9.782585,108.3,5.845,1.85,335.95,54.895348,9.797490,54.899933,9.782585
1390095637,3,0,0.0,0,0,0,0,170,200,-0.0292,0.2922,6.8213,0.4212,54.901012,9.782585,108.3,5.845,1.85,335.95,54.895348,9.797490,54.899933,9.782585
1390095638,3,0,0.0,0,0,4,0,170,-50,-0.0292,0.2922,6.8213,0.4212,54.901031,9.782585,108.3,5.845,1.85,335.95,54.895348,9.797490,54.899933,9.782585
1390095638,3,0,0.0,0,0,0,0,180,200,-0.0292,0.2922,6.8213,0.4212,54.901020,9.782585,108.3,5.845,1.85,335.95,54.895348,9.797490,54.899933,9.782585
1390095638,3,0,0.0,0,0,4,0,180,-50,-0.0292,0.2922,6.8213,0.4212,54.901039,9.782585,108.3,5.845,1.85,335.95,54.895348,9.797490,54.899933,9.782585
1390095638,3,0,0.0,0,0,0,0,180,200,-0.0292,0.2922,6.8213,0.4212,54.901028,9.782585,108.3,5.845,1.85,335.95,54.895348,9.797490,54.899933,9.782585
1390095639,3,0,0.0,0,0,4,0,180,-50,-0.0292,0.2922,6.8213,0.4212,54.901043,9.782585,108.3,5.845,1.85,335.95,54.895348,9.797490,54.899933,9.782585
1390095639,3,0,0.0,0,0,0,0,180,200,-0.0292,0.2922,6.8213,0.4212,54.901035,9.782585,108.3,5.845,1.85,335.95,54.895348,9.797490,54.899933,9.782585
1390095639,3,0,0.0,0,0,4,0,180,-50,-0.0292,0.2922,6.8213,0.4212,54.901054,9.782585,108.3,5.845,1.85,335.95,54.895348,9.797490,54.899933,9.782585
1390095639,3,0,0.0,0,0,0,0,180,200,-0.0292,0.2922,6.8213,0.4212,54.901043,9.782585,108.3,5.845,1.85,335.95,54.895348,9.797490,54.899933,9.782585
1390095640,3,0,0.0,0,0,4,0,180,-50,-0.0292,0.2922,6.8213,0.4212,54.901062,9.782585,108.3,5.845,1.85,335.95,54.895348,9.797490,54.899933,9.782585
1390095640,3,0,0.0,0,0,0,0,180,200,-0.0292,0.2922,6.8213,0.4212,54.901051,9.782585,108.3,5.845,1.85,335.95,54.895348,9.797490,54.899933,9.782585
1390095640,3,0,0.0,0,0,4,0,180,-50,-0.0292,0.2922,6.8213,0.4212,54.901066,9.782585,108.3,5.845,1.85,335.95,54.895348,9.797490,54.899933,9.782585
1390095640,3,0,0.0,0,0,0,0,180,200,-0.0292,0.2922,6.8213,0.4212,54.901054,9.782585,108.3,5.845,1.85,335.95,54.895348,9.797490,54.899933,9.782585
1390095641,3,0,0.0,0,0,4,0,180,-50,-0.0292,0.2922,6.8213,0.4212,54.901073,9.782585,108.3,5.845,1.85,335.95,54.895348,9.797490,54.899933,9.782585
1390095641,3,0,0.0,0,0,0,0,180,200,-0.0292,0.2922,6.8213,0.4212,54.901062,9.782585,108.3,5.845,1.85,335.95,54.895348,9.797490,54.899933,9.782585
1390095641,3,0,0.0,0,0,4,0,180,-50,-0.0292,0.2922,6.8213,0.4212,54.901081,9.782585,108.3,5.845,1.85,335.95,54.895348,9.797490,54.899933,9.782585
1390095641,3,0,0.0,0,0,0,0,180,200,-0.0292,0.2922,6.8213,0.4212,54.901070,9.782585,108.3,5.845,1.85,335.95,54.895348,9.797490,54.899933,9.782585
1390095642,3,0,0.0,0,0,4,0,180,-50,-0.0292,0.2922,6.8213,0.4212,54.901089,9.782585,108.3,5.845,1.85,335.95,54.895348,9.797490,54.899933,9.782585
1390095642,3,0,0.0,0,0,0,0,180,200,-0.0292,0.2922,6.8213,0.4212,54.901077,9.782585,108.3,5.845,1.85,335.95,54.895348,9.797490,54.899933,9.782585
1390095642,3,0,0.0,0,0,4,0,180,-50,-0.0292,0.2922,6.8213,0.4212,54.901093,9.782585,108.3,5.845,1.85,335.95,54.895348,9.797490,54.899933,9.782585
1390095642,3,0,0.0,0,0,0,0,180,200,-0.0292,0.2922,6.8213,0.4212,54.901085,9.782585,108.3,5.845,1.85,335.95,54.895348,9.797490,54.899933,9.782585
1390095643,3,0,0.0,0,0,4,0,180,-50,-0.0292,0.2922,6.8213,0.4212,54.901104,9.782585,108.3,5.845,1.85,335.95,54.895348,9.797490,54.899933,9.782585
1390095643,3,0,0.0,0,0,0,0,190,200,-0.0292,0.2922,6.8213,0.4212,54.901093,9.782585,108.3,5.845,1.85,335.95,54.895348,9.797490,54.899933,9.782585
1390095643,3,0,0.0,0,0,4,0,190,-50,-0.0292,0.2922,6.8213,0.4212,54.901112,9.782585,108.3,5.845,1.85,335.95,54.895348,9.797490,54.899933,9.782585
1390095643,3,0,0.0,0,0,0,0,190,200,-0.0292,0.2922,6.8213,0.4212,54.901100,9.782585,108.3,5.845,1.85,335.95,54.895348,9.797490,54.899933,9.782585
1390095644,3,0,0.0,0,0,4,0,190,-50,-0.0292,0.2922,6.8213,0.4212,54.901115,9.782585,108.3,5.845,1.85,335.95,54.895348,9.797490,54.899933,9.782585
1390095644,3,0,0.0,0,0,0,0,190,200,-0.0292,0.2922,6.8213,0.4212,54.901104,9.782585,108.3,5.845,1.85,335.95,54.895348,9.797490,54.899933,9.782585
1390095644,3,0,0.0,0,0,4,0,190,-50,-0.0292,0.2922,6.8213,0.4212,54.901123,9.782585,108.3,5.845,1.85,335.95,54.895348,9.797490,54.899933,9.782585
1390095644,3,0,0.0,0,0,0,0,190,200,-0.0292,0.2922,6.8213,0.4212,54.901112,9.782585,108.3,5.845,1.85,335.95,54.895348,9.797490,54.899933,9.782585
1390095645,3,0,0.0,0,0,4,0,190,-50,-0.0292,0.2922,6.8213,0.4212,54.901131,9.782585,108.3,5.845,1.85,335.95,54.895348,9.797490,54.899933,9.782585
1390095645,3,0,0.0,0,0,0,0,190,200,-0.0292,0.2922,6.8213,0.4212,54.901119,9.782585,108.3,5.845,1.85,335.95,54.895348,9.797490,54.899933,9.782585
1390095645,3,0,0.0,0,0,4,0,190,-50,-0.0292,0.2922,6.8213,0.4212,54.901134,9.782585,108.3,5.845,1.85,335.95,54.895348,9.797490,54.899933,9.782585
1390095645,3,0,0.0,0,0,0,0,190,200,-0.0292,0.2922,6.8213,0.4212,54.901123,9.782585,108.3,5.845,1.85,335.95,54.895348,9.797490,54.899933,9.782585
1390095646,3,0,0.0,0,0,4,0,190,-50,-0.0292,0.2922,6.8213,0.4212,54.901138,9.782585,108.3,5.845,1.85,335.95,54.895348,9.797490,54.899933,9.782585
