MCU_timestamp,Navigation_System,Manual_Control,Guidance_Heading,Manual_Ctrl_Rudder,Rudder_Desired_Angle,Rudder_Feedback,Manual_Ctrl_Sail,Sail_Desired_Pos,Sail_Feedback,Rate,Heading,Pitch,Roll,Latitude,Longitude,COG,SOG,Wind_Speed,Wind_Angle,Point_Start_Lat,Point_Start_Lon,Point_End_Lat,Point_End_Lon
1386775941,0,0,0.0,0,0,-32,0,0,0,-0.0292,241.4912,6.8213,0.4212,54.890289,9.805303,108.3,5.845,1.85,335.95,0.000000,0.000000,0.000000,0.000000
1386775942,0,0,0.0,0,0,-32,0,0,0,-0.0292,241.4912,6.8213,0.4212,54.890289,9.805303,108.3,5.845,1.85,335.95,0.000000,0.000000,0.000000,0.000000
1386775942,0,0,0.0,0,0,-32,0,0,0,-0.0292,241.4912,6.8213,0.4212,54.890289,9.805303,108.3,5.845,1.85,335.95,0.000000,0.000000,0.000000,0.000000
1386775942,0,0,0.0,0,0,-32,0,0,0,-0.0292,241.4912,6.8213,0.4212,54.890289,9.805303,108.3,5.845,1.85,335.95,0.000000,0.000000,0.000000,0.000000
1386775942,0,0,0.0,0,0,-32,0,0,0,-0.0292,241.4912,6.8213,0.4212,54.890289,9.805303,108.3,5.845,1.85,335.95,0.000000,0.000000,0.000000,0.000000
1386775943,0,0,0.0,0,0,-32,0,0,0,-0.0292,241.4912,6.8213,0.4212,54.890289,9.805303,108.3,5.845,1.85,335.95,0.000000,0.000000,0.000000,0.000000
1386775943,0,0,0.0,0,0,-32,0,0,0,-0.0292,241.4912,6.8213,0.4212,54.890289,9.805303,108.3,5.845,1.85,335.95,0.000000,0.000000,0.000000,0.000000
1386775943,0,0,0.0,0,0,-32,0,0,0,-0.0292,241.4912,6.8213,0.4212,54.890289,9.805303,108.3,5.845,1.85,335.95,0.000000,0.000000,0.000000,0.000000
1386775943,0,0,0.0,0,0,-32,0,0,0,-0.0292,241.4912,6.8213,0.4212,54.890289,9.805303,108.3,5.845,1.85,335.95,0.000000,0.000000,0.000000,0.000000
1386775944,0,0,0.0,0,0,-32,0,0,0,-0.0292,241.4912,6.8213,0.4212,54.890289,9.805303,108.3,5.845,1.85,335.95,0.000000,0.000000,0.000000,0.000000
1386775944,0,0,0.0,0,0,-32,0,0,0,-0.0292,241.4912,6.8213,0.4212,54.890289,9.805303,108.3,5.845,1.85,335.95,0.000000,0.000000,0.000000,0.000000
1386775944,0,0,0.0,0,0,-32,0,0,0,-0.0292,241.4912,6.8213,0.4212,54.890289,9.805303,108.3,5.845,1.85,335.95,0.000000,0.000000,0.000000,0.000000
1386775944,0,0,0.0,0,0,-32,0,0,0,-0.0292,241.4912,6.8213,0.4212,54.890289,9.805303,108.3,5.845,1.85,335.95,0.000000,0.000000,0.000000,0.000000
1386775945,0,0,0.0,0,0,-32,0,0,0,-0.0292,241.4912,6.8213,0.4212,54.890289,9.805303,108.3,5.845,1.85,335.95,0.000000,0.000000,0.000000,0.000000
1386775945,0,0,0.0,0,0,-32,0,0,0,-0.0292,241.4912,6.8213,0.4212,54.890289,9.805303,108.3,5.845,1.85,335.95,0.000000,0.000000,0.000000,0.000000
1386775945,0,0,0.0,0,0,-32,0,0,0,-0.0292,241.4912,6.8213,0.4212,54.895905,9.792930,108.3,5.845,1.85,335.95,0.000000,0.000000,0.000000,0.000000
1386775945,0,0,0.0,0,0,-32,0,0,0,-0.0292,241.4912,6.8213,0.4212,54.895905,9.792930,108.3,5.845,1.85,335.95,0.000000,0.000000,0.000000,0.000000
1386775946,0,0,0.0,0,0,-32,0,0,0,-0.0292,241.4912,6.8213,0.4212,54.895905,9.792930,108.3,5.845,1.85,335.95,0.000000,0.000000,0.000000,0.000000
1386775946,0,0,0.0,0,0,-32,0,0,0,-0.0292,241.4912,6.8213,0.4212,54.895905,9.792930,108.3,5.845,1.85,335.95,0.000000,0.000000,0.000000,0.000000
1386775946,0,0,0.0,0,0,-32,0,0,0,-0.0292,241.4912,6.8213,0.4212,54.895905,9.792930,108.3,5.845,1.85,335.95,0.000000,0.000000,0.000000,0.000000
1386775946,0,0,0.0,0,0,-32,0,0,0,-0.0292,241.4912,6.8213,0.4212,54.895905,9.792930,108.3,5.845,1.85,335.95,0.000000,0.000000,0.000000,0.000000
1386775947,0,0,0.0,0,0,-32,0,0,0,-0.0292,241.4912,6.8213,0.4212,54.895905,9.792930,108.3,5.845,1.85,335.95,0.000000,0.000000,0.000000,0.000000
1386775947,0,0,0.0,0,0,-32,0,0,0,-0.0292,241.4912,6.8213,0.4212,54.895905,9.792930,108.3,5.845,1.85,335.95,0.000000,0.000000,0.000000,0.000000
1386775947,4,0,0.0,0,0,-32,0,0,0,-0.0292,241.4912,6.8213,0.4212,54.895905,9.792930,108.3,5.845,1.85,335.95,0.000000,0.000000,0.000000,0.000000
1386775947,1,0,485.9,0,35,-28,0,397,400,-0.0292,232.1579,6.8213,0.4212,54.895897,9.792906,108.3,5.845,1.85,335.95,54.895905,9.792930,54.895069,9.793790
1386775948,1,0,485.9,0,35,-24,0,429,425,-0.0292,222.8246,6.8213,0.4212,54.895885,9.792885,108.3,5.845,1.85,335.95,54.895905,9.792930,54.895069,9.793790
1386775948,1,0,485.9,0,35,-20,0,458,450,-0.0292,213.4913,6.8213,0.4212,54.895870,9.792868,108.3,5.845,1.85,335.95,54.895905,9.792930,54.895069,9.793790
1386775948,1,0,485.9,0,35,-16,0,482,475,-0.0292,204.1579,6.8213,0.4212,54.895855,9.792855,108.3,5.845,1.85,335.95,54.895905,9.792930,54.895069,9.793790
1386775948,1,0,485.9,0,35,-12,0,495,500,-0.0292,194.8246,6.8213,0.4212,54.895840,9.792847,108.3,5.845,1.85,335.95,54.895905,9.792930,54.895069,9.793790
1386775949,1,0,485.9,0,35,-8,0,291,475,-0.0292,185.4913,6.8213,0.4212,54.895821,9.792843,108.3,5.845,1.85,335.95,54.895905,9.792930,54.895069,9.793790
1386775949,1,0,485.9,0,35,-4,0,291,450,-0.0292,176.1579,6.8213,0.4212,54.895802,9.792846,108.3,5.845,1.85,335.95,54.895905,9.792930,54.895069,9.793790
1386775949,1,0,485.9,0,35,0,0,291,425,-0.0292,166.8246,6.8213,0.4212,54.895786,9.792852,108.3,5.845,1.85,335.95,54.895905,9.792930,54.895069,9.793790
1386775949,1,0,485.9,0,35,4,0,291,400,-0.0292,157.4913,6.8213,0.4212,54.895767,9.792864,108.3,5.845,1.85,335.95,54.895905,9.792930,54.895069,9.793790
1386775950,1,0,485.9,0,32,8,0,496,425,-0.0292,148.9579,6.8213,0.4212,54.895752,9.792880,108.3,5.845,1.85,335.95,54.895905,9.792930,54.895069,9.793790
1386775950,1,0,485.9,0,23,12,0,496,450,-0.0292,142.8246,6.8213,0.4212,54.895741,9.792899,108.3,5.845,1.85,335.95,54.895905,9.792930,54.895069,9.793790
1386775950,1,0,485.9,0,17,16,0,291,425,-0.0292,138.2913,6.8213,0.4212,54.895725,9.792920,108.3,5.845,1.85,335.95,54.895905,9.792930,54.895069,9.793790
1386775950,1,0,485.9,0,12,12,0,291,400,-0.0292,135.0913,6.8213,0.4212,54.895714,9.792942,108.3,5.845,1.85,335.95,54.895905,9.792930,54.895069,9.793790
1386775951,1,0,485.9,0,9,8,0,291,375,-0.0292,132.6913,6.8213,0.4212,54.895699,9.792965,108.3,5.845,1.85,335.95,54.895905,9.792930,54.895069,9.793790
1386775951,1,0,485.9,0,7,4,0,291,350,-0.0292,130.8246,6.8213,0.4212,54.895687,9.792989,108.3,5.845,1.85,335.95,54.895905,9.792930,54.895069,9.793790
1386775951,1,0,485.9,0,5,8,0,291,325,-0.0292,129.4913,6.8213,0.4212,54.895676,9.793013,108.3,5.845,1.85,335.95,54.895905,9.792930,54.895069,9.793790
1386775951,1,0,485.9,0,4,4,0,291,300,-0.0292,128.4246,6.8213,0.4212,54.895664,9.793037,108.3,5.845,1.85,335.95,54.895905,9.792930,54.895069,9.793790
1386775952,1,0,485.9,0,2,0,0,291,275,-0.0292,127.8913,6.8213,0.4212,54.895653,9.793062,108.3,5.845,1.85,335.95,54.895905,9.792930,54.895069,9.793790
1386775952,1,0,485.9,0,2,4,0,291,300,-0.0292,127.3580,6.8213,0.4212,54.895641,9.793087,108.3,5.845,1.85,335.95,54.895905,9.792930,54.895069,9.793790
1386775952,1,0,485.9,0,1,0,0,291,275,-0.0292,127.0913,6.8213,0.4212,54.895630,9.793112,108.3,5.845,1.85,335.95,54.895905,9.792930,54.895069,9.793790
1386775952,1,0,485.9,0,1,4,0,291,300,-0.0292,126.8246,6.8213,0.4212,54.895622,9.793137,108.3,5.845,1.85,335.95,54.895905,9.792930,54.895069,9.793790
1386775953,1,0,485.9,0,1,0,0,291,275,-0.0292,126.5579,6.8213,0.4212,54.895611,9.793162,108.3,5.845,1.85,335.95,54.895905,9.792930,54.895069,9.793790
1386775953,1,0,485.9,0,1,4,0,291,300,-0.0292,126.2913,6.8213,0.4212,54.895599,9.793187,108.3,5.845,1.85,335.95,54.895905,9.792930,54.895069,9.793790
1386775953,1,0,485.9,0,0,0,0,291,275,-0.0292,126.2913,6.8213,0.4212,54.895588,9.793213,108.3,5.845,1.85,335.95,54.895905,9.792930,54.895069,9.793790
1386775953,1,0,485.9,0,0,4,0,291,300,-0.0292,126.2913,6.8213,0.4212,54.895576,9.793238,108.3,5.845,1.85,335.95,54.895905,9.792930,54.895069,9.793790
1386775954,1,0,485.9,0,0,0,0,291,275,-0.0292,126.2913,6.8213,0.4212,54.895565,9.793262,108.3,5.845,1.85,335.95,54.895905,9.792930,54.895069,9.793790
1386775954,1,0,485.9,0,0,4,0,291,300,-0.0292,126.2913,6.8213,0.4212,54.895554,9.793288,108.3,5.845,1.85,335.95,54.895905,9.792930,54.895069,9.793790
1386775954,1,0,485.9,0,0,0,0,291,275,-0.0292,126.2913,6.8213,0.4212,54.895542,9.793313,108.3,5.845,1.85,335.95,54.895905,9.792930,54.895069,9.793790
1386775954,1,0,485.9,0,0,4,0,291,300,-0.0292,126.2913,6.8213,0.4212,54.895531,9.793339,108.3,5.845,1.85,335.95,54.895905,9.792930,54.895069,9.793790
1386775955,1,0,485.9,0,0,0,0,291,275,-0.0292,126.2913,6.8213,0.4212,54.895523,9.793364,108.3,5.845,1.85,335.95,54.895905,9.792930,54.895069,9.793790
1386775955,1,0,485.9,0,0,4,0,291,300,-0.0292,126.2913,6.8213,0.4212,54.895512,9.793388,108.3,5.845,1.85,335.95,54.895905,9.792930,54.895069,9.793790
1386775955,1,0,485.9,0,0,0,0,291,275,-0.0292,126.2913,6.8213,0.4212,54.895500,9.793414,108.3,5.845,1.85,335.95,54.895905,9.792930,54.895069,9.793790
1386775955,1,0,485.9,0,0,4,0,291,300,-0.0292,126.2913,6.8213,0.4212,54.895489,9.793439,108.3,5.845,1.85,335.95,54.895905,9.792930,54.895069,9.793790
1386775956,1,0,485.9,0,0,0,0,291,275,-0.0292,126.2913,6.8213,0.4212,54.895477,9.793465,108.3,5.845,1.85,335.95,54.895905,9.792930,54.895069,9.793790
1386775956,1,0,485.9,0,0,4,0,291,300,-0.0292,126.2913,6.8213,0.4212,54.895466,9.793489,108.3,5.845,1.85,335.95,54.895905,9.792930,54.895069,9.793790
1386775956,1,0,485.9,0,0,0,0,291,275,-0.0292,126.2913,6.8213,0.4212,54.895454,9.793514,108.3,5.845,1.85,335.95,54.895905,9.792930,54.895069,9.793790
1386775956,1,0,485.9,0,0,4,0,291,300,-0.0292,126.2913,6.8213,0.4212,54.895443,9.793539,108.3,5.845,1.85,335.95,54.895905,9.792930,54.895069,9.793790
1386775957,1,0,485.9,0,0,0,0,291,275,-0.0292,126.2913,6.8213,0.4212,54.895432,9.793564,108.3,5.845,1.85,335.95,54.895905,9.792930,54.895069,9.793790
1386775957,1,0,485.9,0,0,4,0,291,300,-0.0292,126.2913,6.8213,0.4212,54.895420,9.793590,108.3,5.845,1.85,335.95,54.895905,9.792930,54.895069,9.793790
1386775957,1,0,485.9,0,0,0,0,291,275,-0.0292,126.2913,6.8213,0.4212,54.895409,9.793614,108.3,5.845,1.85,335.95,54.895905,9.792930,54.895069,9.793790
1386775957,1,0,485.9,0,0,4,0,291,300,-0.0292,126.2913,6.8213,0.4212,54.895401,9.793640,108.3,5.845,1.85,335.95,54.895905,9.792930,54.895069,9.793790
1386775958,1,0,485.9,0,0,0,0,291,275,-0.0292,126.2913,6.8213,0.4212,54.895390,9.793665,108.3,5.845,1.85,335.95,54.895905,9.792930,54.895069,9.793790
1386775958,1,0,485.9,0,0,4,0,291,300,-0.0292,126.2913,6.8213,0.4212,54.895378,9.793690,108.3,5.845,1.85,335.95,54.895905,9.792930,54.895069,9.793790
1386775958,1,0,485.9,0,0,0,0,291,275,-0.0292,126.2913,6.8213,0.4212,54.895367,9.793715,108.3,5.845,1.85,335.95,54.895905,9.792930,54.895069,9.793790
1386775958,1,0,485.9,0,0,4,0,291,300,-0.0292,126.2913,6.8213,0.4212,54.895355,9.793740,108.3,5.845,1.85,335.95,54.895905,9.792930,54.895069,9.793790
1386775959,1,0,485.9,0,0,0,0,291,275,-0.0292,126.2913,6.8213,0.4212,54.895344,9.793766,108.3,5.845,1.85,335.95,54.895905,9.792930,54.895069,9.793790
1386775959,1,0,485.9,0,0,4,0,291,300,-0.0292,126.2913,6.8213,0.4212,54.895332,9.793791,108.3,5.845,1.85,335.95,54.895905,9.792930,54.895069,9.793790
1386775959,1,0,485.9,0,0,0,0,291,275,-0.0292,126.2913,6.8213,0.4212,54.895321,9.793816,108.3,5.845,1.85,335.95,54.895905,9.792930,54.895069,9.793790
1386775959,1,0,485.9,0,0,4,0,291,300,-0.0292,126.2913,6.8213,0.4212,54.895309,9.793841,108.3,5.845,1.85,335.95,54.895905,9.792930,54.895069,9.793790
1386775960,1,0,485.9,0,0,0,0,291,275,-0.0292,126.2913,6.8213,0.4212,54.895302,9.793866,108.3,5.845,1.85,335.95,54.895905,9.792930,54.895069,9.793790
1386775960,1,0,485.9,0,0,4,0,291,300,-0.0292,126.2913,6.8213,0.4212,54.895290,9.793892,108.3,5.845,1.85,335.95,54.895905,9.792930,54.895069,9.793790
1386775960,1,0,485.9,0,0,0,0,291,275,-0.0292,126.2913,6.8213,0.4212,54.895279,9.793917,108.3,5.845,1.85,335.95,54.895905,9.792930,54.895069,9.793790
1386775960,1,0,485.9,0,0,4,0,291,300,-0.0292,126.2913,6.8213,0.4212,54.895267,9.793942,108.3,5.845,1.85,335.95,54.895905,9.792930,54.895069,9.793790
1386775961,1,0,485.9,0,0,0,0,291,275,-0.0292,126.2913,6.8213,0.4212,54.895256,9.793967,108.3,5.845,1.85,335.95,54.895905,9.792930,54.895069,9.793790
1386775961,1,0,485.9,0,0,4,0,291,300,-0.0292,126.2913,6.8213,0.4212,54.895245,9.793992,108.3,5.845,1.85,335.95,54.895905,9.792930,54.895069,9.793790
1386775961,1,0,485.9,0,0,0,0,291,275,-0.0292,126.2913,6.8213,0.4212,54.895233,9.794018,108.3,5.845,1.85,335.95,54.895905,9.792930,54.895069,9.793790
1386775961,1,0,485.9,0,0,4,0,291,300,-0.0292,126.2913,6.8213,0.4212,54.895222,9.794043,108.3,5.845,1.85,335.95,54.895905,9.792930,54.895069,9.793790
1386775962,1,0,485.9,0,0,0,0,291,275,-0.0292,126.2913,6.8213,0.4212,54.895210,9.794068,108.3,5.845,1.85,335.95,54.895905,9.792930,54.895069,9.793790
1386775962,1,0,485.9,0,0,4,0,291,300,-0.0292,126.2913,6.8213,0.4212,54.895199,9.794093,108.3,5.845,1.85,335.95,54.895905,9.792930,54.895069,9.793790
1386775962,1,0,485.9,0,0,0,0,291,275,-0.0292,126.2913,6.8213,0.4212,54.895187,9.794118,108.3,5.845,1.85,335.95,54.895905,9.792930,54.895069,9.793790
1386775962,1,0,485.9,0,0,4,0,291,300,-0.0292,126.2913,6.8213,0.4212,54.895180,9.794144,108.3,5.845,1.85,335.95,54.895905,9.792930,54.895069,9.793790
1386775963,1,0,485.9,0,0,0,0,291,275,-0.0292,126.2913,6.8213,0.4212,54.895168,9.794168,108.3,5.845,1.85,335.95,54.895905,9.792930,54.895069,9.793790
1386775963,1,0,485.9,0,0,4,0,291,300,-0.0292,126.2913,6.8213,0.4212,54.895157,9.794194,108.3,5.845,1.85,335.95,54.895905,9.792930,54.895069,9.793790
1386775963,1,0,485.9,0,0,0,0,291,275,-0.0292,126.2913,6.8213,0.4212,54.895145,9.794219,108.3,5.845,1.85,335.95,54.895905,9.792930,54.895069,9.793790
1386775963,1,0,485.9,0,0,4,0,291,300,-0.0292,126.2913,6.8213,0.4212,54.895134,9.794244,108.3,5.845,1.85,335.95,54.895905,9.792930,54.895069,9.793790
1386775964,1,0,485.9,0,0,0,0,291,275,-0.0292,126.2913,6.8213,0.4212,54.895123,9.794270,108.3,5.845,1.85,335.95,54.895905,9.792930,54.895069,9.793790
1386775964,1,0,485.9,0,0,4,0,291,300,-0.0292,126.2913,6.8213,0.4212,54.895111,9.794294,108.3,5.845,1.85,335.95,54.895905,9.792930,54.895069,9.793790
1386775964,1,0,485.9,0,0,0,0,291,275,-0.0292,126.2913,6.8213,0.4212,54.895100,9.794320,108.3,5.845,1.85,335.95,54.895905,9.792930,54.895069,9.793790
1386775964,1,0,485.9,0,0,4,0,291,300,-0.0292,126.2913,6.8213,0.4212,54.895088,9.794345,108.3,5.845,1.85,335.95,54.895905,9.792930,54.895069,9.793790
1386775965,1,0,485.9,0,0,0,0,291,275,-0.0292,126.2913,6.8213,0.4212,54.895081,9.794371,108.3,5.845,1.85,335.95,54.895905,9.792930,54.895069,9.793790
1386775965,1,0,485.9,0,0,4,0,291,300,-0.0292,126.2913,6.8213,0.4212,54.895069,9.794395,108.3,5.845,1.85,335.95,54.895905,9.792930,54.895069,9.793790
1386775965,1,0,485.9,0,0,0,0,291,275,-0.0292,126.2913,6.8213,0.4212,54.895058,9.794420,108.3,5.845,1.85,335.95,54.895905,9.792930,54.895069,9.793790
1386775965,1,0,485.9,0,0,4,0,291,300,-0.0292,126.2913,6.8213,0.4212,54.895046,9.794446,108.3,5.845,1.85,335.95,54.895905,9.792930,54.895069,9.793790
1386775966,1,0,485.9,0,0,0,0,291,275,-0.0292,126.2913,6.8213,0.4212,54.895035,9.794471,108.3,5.845,1.85,335.95,54.895905,9.792930,54.895069,9.793790
1386775966,1,0,485.9,0,0,4,0,291,300,-0.0292,126.2913,6.8213,0.4212,54.895023,9.794497,108.3,5.845,1.85,335.95,54.895905,9.792930,54.895069,9.793790
1386775966,1,0,485.9,0,0,0,0,291,275,-0.0292,126.2913,6.8213,0.4212,54.895012,9.794521,108.3,5.845,1.85,335.95,54.895905,9.792930,54.895069,9.793790
1386775966,1,0,485.9,0,0,4,0,291,300,-0.0292,126.2913,6.8213,0.4212,54.895000,9.794546,108.3,5.845,1.85,335.95,54.895905,9.792930,54.895069,9.793790
1386775967,1,0,485.9,0,0,0,0,291,275,-0.0292,126.2913,6.8213,0.4212,54.894989,9.794572,108.3,5.845,1.85,335.95,54.895905,9.792930,54.895069,9.793790
1386775967,1,0,485.9,0,0,4,0,291,300,-0.0292,126.2913,6.8213,0.4212,54.894978,9.794597,108.3,5.845,1.85,335.95,54.895905,9.792930,54.895069,9.793790
1386775967,1,0,485.9,0,0,0,0,291,275,-0.0292,126.2913,6.8213,0.4212,54.894966,9.794622,108.3,5.845,1.85,335.95,54.895905,9.792930,54.895069,9.793790
1386775968,1,0,485.9,0,0,4,0,291,300,-0.0292,126.2913,6.8213,0.4212,54.894958,9.794647,108.3,5.845,1.85,335.95,54.895905,9.792930,54.895069,9.793790
1386775968,1,0,485.9,0,0,0,0,291,275,-0.0292,126.2913,6.8213,0.4212,54.894947,9.794672,108.3,5.845,1.85,335.95,54.895905,9.792930,54.895069,9.793790
1386775968,1,0,485.9,0,0,4,0,291,300,-0.0292,126.2913,6.8213,0.4212,54.894936,9.794697,108.3,5.845,1.85,335.95,54.895905,9.792930,54.895069,9.793790
1386775968,1,0,485.9,0,0,0,0,291,275,-0.0292,126.2913,6.8213,0.4212,54.894924,9.794722,108.3,5.845,1.85,335.95,54.895905,9.792930,54.895069,9.793790
1386775969,1,0,485.9,0,0,4,0,291,300,-0.0292,126.2913,6.8213,0.4212,54.894913,9.794747,108.3,5.845,1.85,335.95,54.895905,9.792930,54.895069,9.793790
1386775969,0,0,485.9,0,0,4,0,291,300,-0.0292,126.2913,6.8213,0.4212,54.894913,9.794747,108.3,5.845,1.85,335.95,54.895905,9.792930,54.895069,9.793790
1386775969,0,0,485.9,0,0,4,0,291,300,-0.0292,126.2913,6.8213,0.4212,54.894913,9.794747,108.3,5.845,1.85,335.95,54.895905,9.792930,54.895069,9.793790
1386775969,0,0,485.9,0,0,4,0,291,300,-0.0292,126.2913,6.8213,0.4212,54.894913,9.794747,108.3,5.845,1.85,335.95,54.895905,9.792930,54.895069,9.793790
1386775970,0,0,485.9,0,0,4,0,291,300,-0.0292,126.2913,6.8213,0.4212,54.894913,9.794747,108.3,5.845,1.85,335.95,54.895905,9.792930,54.895069,9.793790
1386775970,0,0,485.9,0,0,4,0,291,300,-0.0292,126.2913,6.8213,0.4212,54.894913,9.794747,108.3,5.845,1.85,335.95,54.895905,9.792930,54.895069,9.793790
1386775970,0,0,485.9,0,0,4,0,291,300,-0.0292,126.2913,6.8213,0.4212,54.894913,9.794747,108.3,5.845,1.85,335.95,54.895905,9.792930,54.895069,9.793790
1386775970,0,0,485.9,0,0,4,0,291,300,-0.0292,126.2913,6.8213,0.4212,54.894913,9.794747,108.3,5.845,1.85,335.95,54.895905,9.792930,54.895069,9.793790
1386775971,0,0,485.9,0,0,4,0,291,300,-0.0292,126.2913,6.8213,0.4212,54.894913,9.794747,108.3,5.845,1.85,335.95,54.895905,9.792930,54.895069,9.793790
1386775971,0,0,485.9,0,0,4,0,291,300,-0.0292,126.2913,6.8213,0.4212,54.894913,9.794747,108.3,5.845,1.85,335.95,54.895905,9.792930,54.895069,9.793790
